~VERSION INFORMATION
VERS.           2.0   :CWLS Log ASCII Standard - VERSION 2.0
WRAP.           NO    :One Line per depth step
PROD.  Schlumberger   :LAS Producer
PROG.  DLIS to ASCII 19C2-270                          :LAS Program name and version
CREA.        2018/08/03 10:59                          :LAS Creation date {YYYY/MM/DD hh:mm}
DLIS_CREA.  2018-Aug-03 08:37                          :DLIS Creation date and time {YYYY-MMM-DD hh:mm}
SOURCE.     PERFO_Perfo_060PTP.DLIS                    :DLIS File Name
FILE-ID.     PERFO_Perfo_060PTP                        :File Identification Number
#--------------------------------------------------
~WELL INFORMATION
#MNEM.UNIT      DATA             DESCRIPTION
#---- ------ --------------   -----------------------------
STRT .S            0.0       :START TIME      
STOP .S         1390.0       :STOP TIME      
STEP .S            1.0       :STEP     
NULL .          -999.25      :NULL VALUE
COMP .        SHELL INTERNATIONAL EP                   :COMPANY
WELL .        WPP TEST 4                               :WELL
FLD  .        WILDCAT                                  :FIELD
LOC  .        NA                                       :LOCATION
CNTY .        HARRIS                                   :COUNTY
STAT .        TEXAS                                    :STATE
CTRY .                                                 :COUNTRY
API  .        NA                                       :API NUMBER
UWI  .                                                 :UNIQUE WELL ID
DATE .        02-Aug-2018                              :LOG DATE {DD-MMM-YYYY}
SRVC .        Schlumberger                             :SERVICE COMPANY
LATI .DEG                                              :LATITUDE
LONG .DEG                                              :LONGITUDE
GDAT .                                                 :GeoDetic Datum
SECT .        NA                                       :Section
RANG .        NA                                       :Range
TOWN .        NA                                       :Township
#-----------------------------------------------------------------------------
~PARAMETER INFORMATION
#MNEM.UNIT    VALUE                      DESCRIPTION
#---- -----   --------------------       ------------------------
U-PHASE_B_COMP_PER_YT.                 0 :Phase B Comparator Period Yt
U-PHASE_A_COMP_PER_XT.                 0 :Phase A Comparator Period Xt
U-MAX_EXC_CUR_LIMIT.MA       265.00000   :Requested CM Current Limit
U-REQ_EXC_FQ.HZ              50          :Requested CM Frequency
U-TILT_Y_OFFSET.          -2.06578       :WPTET Tilt Y Offset
U-TILT_Y_GAIN.           1.02173         :WPTET Tilt Y Gain
U-TILT_X_OFFSET.           2.30841       :WPTET Tilt X Offset
U-TILT_X_GAIN.           1.00000         :WPTET Tilt X Gain
U-TILT_OFFSET_TOL.           0.00100     :WPTET Tilt Offset Calibration Tolerance
U-MOT_CUR_LIMIT_REQ.MA        70.00000   :Requested Motor Current Limit
U-MOT_SPD_REQ_WPMS.RPM        1.00000    :Requested Motor Speed
U-STD_TOL_TILT.           0.01000        :Tilt Standard Deviation Tolerance
CWEI .LB/F      29.00000                 :Casing Weight
CSIZ .IN         7.00000                 :Current Casing Size
LCC  .               440                 :Logging Company Code
LUN  .              2134                 :Logging Unit Number
HIDE .                                   :Header Identifier
HID1 .                                   :Header Identifier Line 1
R1   .                                   :Remark Line 1
WITN .        MR. KELLEY McCOY           :Witness's Name
ENGI .        MORRIS MOORE               :Engineer's Name
LUL  .        IOWA COLONY                :Logging Unit Location
DATE .        02-Aug-2018                :Date as Month-Day-Year
STAT .        TEXAS                      :State or Province
COUN .        HARRIS                     :County or Rig Name
FN   .        WILDCAT                    :Field Name
WN   .        WPP TEST 4                 :Well Name
CN   .        SHELL INTERNATIONAL EP     :Company Name
CLAB .        County                     :County/Rig Label
SLAB .        State                      :State/Province Label
RUN  .          1                        :RUN NUMBER
PDAT .        GROUND LEVEL               :Permanent Datum
EPD  .                                   :Elevation of Permanent Datum above Mean Sea Level
LMF  .          NA                       :Logging Measured From (Name of Logging Elevation Reference)
APD  .                                   :Elevation of Depth Reference (LMF) above Permanent Datum
#-----------------------------------------------------------------------------
~CURVE INFORMATION
#MNEM.UNIT   API CODE                                  DESCRIPTION
#---- -----  --------                                  -----------------------
TIME .S                                                :TIME {F10.1}
FREQ_EMF_SL.HZ                                         :Electromagnetic Field Frequency {F13.4}
PH_SH_WPPCM_SL.DEG                                     :WPPCM Phase Shift {F13.4}
RB_SL.DEG                                              :Relative Bearing {F13.4}
SDEV_SL.DEG                                            :Sonde Deviation {F13.4}
RTIX_SL.DEG                                            :Raw X-axis Tilt {F13.4}
RTIY_SL.DEG                                            :Raw Y-axis Tilt {F13.4}
TILX_SL.DEG                                            :X-axis Tilt {F13.4}
TILY_SL.DEG                                            :Y-axis Tilt {F13.4}
ROTA_SL.DEG                                            :Motor Rotation Angle {F13.4}
TOD7 .S                                                :Time of Day {I11}
TOJ  .S                                                :Time of Job {F13.4}
#-----------------------------------------------------------------------------
# 
#     TIME    FREQ_EMF_SL  PH_SH_WPPCM_    RB_SL       SDEV_SL      RTIX_SL      RTIY_SL      TILX_SL      TILY_SL      ROTA_SL        TOD7            TOJ
#                          SL
~A  
# ...
     901.0    1414.7384       0.0000      33.3343    -999.2500      38.1583     -76.9192      40.4667     -80.6562     176.1160 1533223027 9999999.9999
     902.0    1411.8976       0.0000      37.6353    -999.2500      44.7858     -68.2432      47.0942     -71.7917     182.2179 1533223028 9999999.9999
     903.0    1406.2500       0.0000      43.1404    -999.2500      48.0795     -52.0962      50.3879     -55.2939     188.3198 1533223029 9999999.9999
     904.0    1406.2500       0.0000      52.4814    -999.2500      73.2238     -44.9867      75.5322     -48.0299     194.4217 1533223030 9999999.9999
     905.0    1409.0682       0.0000      56.3586    -999.2500      81.5383     -38.5198      83.8467     -41.4225     200.5236 1533223031 9999999.9999
     906.0    1400.6475       0.0000      60.6302    -999.2500      88.8085     -31.4907      91.1169     -34.2407     206.6255 1533223032 9999999.9999
     907.0    1400.6475       0.0000      65.3135    -999.2500      94.0703     -24.5820      96.3787     -27.1819     212.7435 1533223033 9999999.9999
     908.0    1400.6475       0.0000      70.8022    -999.2500      97.2435     -17.6332      99.5519     -20.0821     218.8423 1533223034 9999999.9999
     909.0    1400.6475       0.0000      77.4911      86.9062      98.8502     -10.2827     101.1586     -12.5719     224.9442 1533223035 9999999.9999
     910.0    1392.3268       0.0000      86.1391      78.9674      99.3723      -1.6870     101.6807      -3.7894     231.0369 1533223036 9999999.9999
     911.0    1395.0892       0.0000      95.1669      79.1969      99.6535       6.9890     101.9619       5.0751     237.1357 1533223037 9999999.9999
     912.0    1400.6475       0.0000     102.6687      88.7274      98.6493      14.5002     100.9577      12.7494     243.6588 1533223038 9999999.9999
     913.0    1395.0892       0.0000     109.4286    -999.2500      95.2753      22.0515      97.5837      20.4648     249.7607 1533223039 9999999.9999
     914.0    1389.5751       0.0000     115.2681    -999.2500      90.0537      29.5627      92.3621      28.1392     255.8626 1533223040 9999999.9999
     915.0    1389.5751       0.0000     120.2226    -999.2500      83.6270      36.7927      85.9354      35.5263     261.9644 1533223041 9999999.9999
     916.0    1392.3268       0.0000     124.8897    -999.2500      75.8347      44.1432      78.1431      43.0365     268.0540 1533223042 9999999.9999
     917.0    1392.3268       0.0000     129.5148    -999.2500      66.3152      51.1322      68.6236      50.1773     274.1558 1533223043 9999999.9999
     918.0    1386.8344       0.0000     138.6271    -999.2500      52.0560      67.9218      54.3644      67.3318     280.2576 1533223044 9999999.9999
     919.0    1392.3268       0.0000     142.7185    -999.2500      45.5892      77.4413      47.8976      77.0581     286.3594 1533223045 9999999.9999
     920.0    1386.8344       0.0000     146.5528    -999.2500      38.8412      85.1935      41.1496      84.9787     292.4612 1533223046 9999999.9999
     921.0    1386.8344       0.0000     150.8192    -999.2500      31.6112      92.2628      33.9196      92.2017     298.5630 1533223047 9999999.9999
     922.0    1384.1044       0.0000     155.8311    -999.2500      24.0598      98.1673      26.3682      98.2345     304.6556 1533223048 9999999.9999
     923.0    1392.3268       0.0000     161.9259    -999.2500      16.2675     102.3848      18.5759     102.5436     310.7582 1533223049 9999999.9999
     924.0    1386.8344       0.0000     169.3071      80.4368       8.2342     104.1120      10.5426     104.3083     317.2680 1533223050 9999999.9999
     925.0    1381.3850       0.0000     177.4487      75.4160       0.1607     104.5940       2.4691     104.8008     323.3698 1533223051 9999999.9999
     926.0    1384.1044       0.0000    -173.9492      76.6026      -8.1940     104.4735      -5.8856     104.6776     329.4685 1533223052 9999999.9999
     927.0    1384.1044       0.0000    -166.3217      90.9571     -16.0667     102.1037     -13.7583     102.2563     335.5703 1533223053 9999999.9999
     928.0    1389.5751       0.0000    -159.4222    -999.2500     -24.1803      97.0828     -21.8719      97.1264     341.6721 1533223054 9999999.9999
     929.0    1384.1044       0.0000    -153.5824    -999.2500     -32.0932      90.8570     -29.7848      90.7653     347.7740 1533223055 9999999.9999
     930.0    1386.8344       0.0000    -148.3464    -999.2500     -40.0361      83.2655     -37.7277      83.0088     353.8888 1533223056 9999999.9999
     931.0    1386.8344       0.0000    -143.6016    -999.2500     -47.5573      74.8707     -45.2489      74.4316     359.9906 1533223057 9999999.9999
     932.0    1384.1044       0.0000    -138.6947    -999.2500     -54.7070      65.0298     -52.3986      64.3770       6.0925 1533223058 9999999.9999
     933.0    1384.1044       0.0000    -130.4324    -999.2500     -69.6892      52.7790     -67.3808      51.8600      12.1951 1533223059 9999999.9999
     934.0    1389.5751       0.0000    -126.1047    -999.2500     -78.6463      46.1917     -76.3379      45.1295      18.3101 1533223060 9999999.9999
     935.0    1386.8344       0.0000    -121.7781    -999.2500     -86.2780      39.2428     -83.9696      38.0297      24.4149 1533223061 9999999.9999
     936.0    1386.8344       0.0000    -116.8699    -999.2500     -93.2670      31.8120     -90.9586      30.4374      30.5167 1533223062 9999999.9999
     937.0    1389.5751       0.0000    -111.1193    -999.2500     -99.0108      24.1000     -96.7024      22.5578      37.0112 1533223063 9999999.9999
     938.0    1392.3268       0.0000    -104.3761    -999.2500    -102.8267      16.3077    -100.5182      14.5962      43.1131 1533223064 9999999.9999
     939.0    1392.3268       0.0000     -96.6093      80.1500    -104.1522       8.3948    -101.8438       6.5114      49.2279 1533223065 9999999.9999
     940.0    1392.3268       0.0000     -87.9750      78.4098    -104.0718       0.0803    -101.7634      -1.9837      55.3298 1533223066 9999999.9999
     941.0    1389.5751       0.0000     -79.5246      85.1737    -103.8308      -8.1940    -101.5224     -10.4378      61.4346 1533223067 9999999.9999
     942.0    1395.0892       0.0000     -72.1274    -999.2500    -101.4610     -16.1470     -99.1526     -18.5636      67.5334 1533223068 9999999.9999
     943.0    1392.3268       0.0000     -65.8631    -999.2500     -97.0025     -23.9393     -94.6941     -26.5252      73.6229 1533223069 9999999.9999
     944.0    1397.8628       0.0000     -60.5779    -999.2500     -91.0980     -31.5710     -88.7896     -34.3227      79.7247 1533223070 9999999.9999
     945.0    1406.2500       0.0000     -56.2502    -999.2500     -84.2697     -38.5198     -81.9613     -41.4225      85.8396 1533223071 9999999.9999
     946.0    1403.4431       0.0000     -52.1451    -999.2500     -76.2363     -45.2678     -73.9279     -48.3172      91.9422 1533223072 9999999.9999
     947.0    1400.6475       0.0000     -47.6393    -999.2500     -66.3152     -51.8552     -64.0068     -55.0476      98.0471 1533223073 9999999.9999
     948.0    1403.4431       0.0000     -38.4505    -999.2500     -51.5740     -69.0465     -49.2656     -72.6125     104.1458 1533223074 9999999.9999
     949.0    1409.0682       0.0000     -34.2828    -999.2500     -44.7858     -78.3652     -42.4774     -82.1336     110.6687 1533223075 9999999.9999
     950.0    1411.8976       0.0000     -30.1368    -999.2500     -37.7968     -85.9968     -35.4884     -89.9311     116.7736 1533223076 9999999.9999
     951.0    1411.8976       0.0000     -25.5970    -999.2500     -30.7677     -91.8210     -28.4593     -95.8818     122.8723 1533223077 9999999.9999
     952.0    1409.0682       0.0000     -20.4256    -999.2500     -23.8188     -95.9180     -21.5104    -100.0678     128.9741 1533223078 9999999.9999
     953.0    1409.0682       0.0000     -14.1349    -999.2500     -16.5487     -98.1673     -14.2403    -102.3660     135.0637 1533223079 9999999.9999
