~VERSION INFORMATION
VERS.           2.0   :CWLS Log ASCII Standard - VERSION 2.0
WRAP.           NO    :One Line per depth step
PROD.  Schlumberger   :LAS Producer
PROG.  DLIS to ASCII 19C2-270                          :LAS Program name and version
CREA.        2018/08/03 10:59                          :LAS Creation date {YYYY/MM/DD hh:mm}
DLIS_CREA.  2018-Aug-03 08:37                          :DLIS Creation date and time {YYYY-MMM-DD hh:mm}
SOURCE.     PERFO_Perfo_060PTP.DLIS                    :DLIS File Name
FILE-ID.     PERFO_Perfo_060PTP                        :File Identification Number
#--------------------------------------------------
~WELL INFORMATION
#MNEM.UNIT      DATA             DESCRIPTION
#---- ------ --------------   -----------------------------
STRT .S            0.0       :START TIME      
STOP .S         1390.0       :STOP TIME      
STEP .S            1.0       :STEP     
NULL .          -999.25      :NULL VALUE
COMP .        SHELL INTERNATIONAL EP                   :COMPANY
WELL .        WPP TEST 4                               :WELL
FLD  .        WILDCAT                                  :FIELD
LOC  .        NA                                       :LOCATION
CNTY .        HARRIS                                   :COUNTY
STAT .        TEXAS                                    :STATE
CTRY .                                                 :COUNTRY
API  .        NA                                       :API NUMBER
UWI  .                                                 :UNIQUE WELL ID
DATE .        02-Aug-2018                              :LOG DATE {DD-MMM-YYYY}
SRVC .        Schlumberger                             :SERVICE COMPANY
LATI .DEG                                              :LATITUDE
LONG .DEG                                              :LONGITUDE
GDAT .                                                 :GeoDetic Datum
SECT .        NA                                       :Section
RANG .        NA                                       :Range
TOWN .        NA                                       :Township
#-----------------------------------------------------------------------------
~PARAMETER INFORMATION
#MNEM.UNIT    VALUE                      DESCRIPTION
#---- -----   --------------------       ------------------------
U-PHASE_B_COMP_PER_YT.                 0 :Phase B Comparator Period Yt
U-PHASE_A_COMP_PER_XT.                 0 :Phase A Comparator Period Xt
U-MAX_EXC_CUR_LIMIT.MA       265.00000   :Requested CM Current Limit
U-REQ_EXC_FQ.HZ              50          :Requested CM Frequency
U-TILT_Y_OFFSET.          -2.06578       :WPTET Tilt Y Offset
U-TILT_Y_GAIN.           1.02173         :WPTET Tilt Y Gain
U-TILT_X_OFFSET.           2.30841       :WPTET Tilt X Offset
U-TILT_X_GAIN.           1.00000         :WPTET Tilt X Gain
U-TILT_OFFSET_TOL.           0.00100     :WPTET Tilt Offset Calibration Tolerance
U-MOT_CUR_LIMIT_REQ.MA        70.00000   :Requested Motor Current Limit
U-MOT_SPD_REQ_WPMS.RPM        1.00000    :Requested Motor Speed
U-STD_TOL_TILT.           0.01000        :Tilt Standard Deviation Tolerance
CWEI .LB/F      29.00000                 :Casing Weight
CSIZ .IN         7.00000                 :Current Casing Size
LCC  .               440                 :Logging Company Code
LUN  .              2134                 :Logging Unit Number
HIDE .                                   :Header Identifier
HID1 .                                   :Header Identifier Line 1
R1   .                                   :Remark Line 1
WITN .        MR. KELLEY McCOY           :Witness's Name
ENGI .        MORRIS MOORE               :Engineer's Name
LUL  .        IOWA COLONY                :Logging Unit Location
DATE .        02-Aug-2018                :Date as Month-Day-Year
STAT .        TEXAS                      :State or Province
COUN .        HARRIS                     :County or Rig Name
FN   .        WILDCAT                    :Field Name
WN   .        WPP TEST 4                 :Well Name
CN   .        SHELL INTERNATIONAL EP     :Company Name
CLAB .        County                     :County/Rig Label
SLAB .        State                      :State/Province Label
RUN  .          1                        :RUN NUMBER
PDAT .        GROUND LEVEL               :Permanent Datum
EPD  .                                   :Elevation of Permanent Datum above Mean Sea Level
LMF  .          NA                       :Logging Measured From (Name of Logging Elevation Reference)
APD  .                                   :Elevation of Depth Reference (LMF) above Permanent Datum
#-----------------------------------------------------------------------------
~CURVE INFORMATION
#MNEM.UNIT   API CODE                                  DESCRIPTION
#---- -----  --------                                  -----------------------
TIME .S                                                :TIME {F10.1}
FREQ_EMF_SL.HZ                                         :Electromagnetic Field Frequency {F13.4}
PH_SH_WPPCM_SL.DEG                                     :WPPCM Phase Shift {F13.4}
RB_SL.DEG                                              :Relative Bearing {F13.4}
SDEV_SL.DEG                                            :Sonde Deviation {F13.4}
RTIX_SL.DEG                                            :Raw X-axis Tilt {F13.4}
RTIY_SL.DEG                                            :Raw Y-axis Tilt {F13.4}
TILX_SL.DEG                                            :X-axis Tilt {F13.4}
TILY_SL.DEG                                            :Y-axis Tilt {F13.4}
ROTA_SL.DEG                                            :Motor Rotation Angle {F13.4}
TOD7 .S                                                :Time of Day {I11}
TOJ  .S                                                :Time of Job {F13.4}
#-----------------------------------------------------------------------------
# 
#     TIME    FREQ_EMF_SL  PH_SH_WPPCM_    RB_SL       SDEV_SL      RTIX_SL      RTIY_SL      TILX_SL      TILY_SL      ROTA_SL        TOD7            TOJ
#                          SL
~A  
# ...
    1060.0    1389.5751       0.0000     -77.1449      87.6966    -103.3890     -10.6442    -101.0806     -12.9412      71.6745 1533223186 9999999.9999
    1061.0    1397.8628       0.0000     -70.1472    -999.2500    -100.4167     -18.4767     -98.1083     -20.9439      77.7763 1533223187 9999999.9999
    1062.0    1397.8628       0.0000     -64.4591    -999.2500     -95.5565     -25.8673     -93.2481     -28.4951      83.8657 1533223188 9999999.9999
    1063.0    1401.3453       0.0000     -59.2841    -999.2500     -89.1097     -33.5894     -86.8013     -36.3850      89.9675 1533223189 9999999.9999
    1064.0    1406.2500       0.0000     -54.9577    -999.2500     -81.8195     -40.6487     -79.5111     -43.5976      96.0569 1533223190 9999999.9999
    1065.0    1403.4431       0.0000     -50.8083    -999.2500     -73.3443     -47.3565     -71.0359     -50.4512     102.1464 1533223191 9999999.9999
    1066.0    1397.8628       0.0000     -45.8859    -999.2500     -62.2583     -53.8233     -59.9499     -57.0585     108.2482 1533223192 9999999.9999
    1067.0    1397.8628       0.0000     -37.0757    -999.2500     -49.4452     -72.3000     -47.1368     -75.9367     114.3499 1533223193 9999999.9999
    1068.0    1406.2500       0.0000     -32.9834    -999.2500     -42.5767     -81.0162     -40.2683     -84.8422     120.4548 1533223194 9999999.9999
    1069.0    1406.2500       0.0000     -28.8188    -999.2500     -35.6680     -87.8847     -33.3596     -91.8599     126.9492 1533223195 9999999.9999
    1070.0    1411.8976       0.0000     -24.1601    -999.2500     -28.7192     -93.3473     -26.4108     -97.4413     133.0510 1533223196 9999999.9999
    1071.0    1406.2500       0.0000     -18.5432    -999.2500     -21.5293     -96.8820     -19.2209    -101.0527     139.1407 1533223197 9999999.9999
    1072.0    1409.0682       0.0000     -11.9818      85.9028     -14.2592     -98.4485     -11.9508    -102.6533     145.2426 1533223198 9999999.9999
    1073.0    1417.5908       0.0000      -3.7233      77.5979      -5.9447     -98.7297      -3.6363    -102.9406     151.3453 1533223199 9999999.9999
    1074.0    1411.8976       0.0000       4.9819      78.3540       2.5707     -98.4485       4.8791    -102.6533     157.4472 1533223200 9999999.9999
    1075.0    1411.8976       0.0000      12.8779      88.8207      10.6341     -97.3941      12.9425    -101.5760     163.5491 1533223201 9999999.9999
    1076.0    1414.7384       0.0000      19.2731    -999.2500      17.9143     -94.5523      20.2227     -98.6725     169.6510 1533223202 9999999.9999
    1077.0    1411.8976       0.0000      24.5650    -999.2500      24.8230     -89.8930      27.1314     -93.9119     175.7529 1533223203 9999999.9999
    1078.0    1409.0682       0.0000      28.9978    -999.2500      31.3300     -84.1893      33.6384     -88.0843     181.8587 1533223204 9999999.9999
    1079.0    1411.8976       0.0000      33.1680    -999.2500      37.9173     -77.4012      40.2257     -81.1487     187.9767 1533223205 9999999.9999
    1080.0    1411.8976       0.0000      37.4075    -999.2500      44.4243     -68.6448      46.7327     -72.2021     194.0601 1533223206 9999999.9999
    1081.0    1409.0682       0.0000      42.7342    -999.2500      49.5657     -55.1087      51.8741     -58.3718     200.1650 1533223207 9999999.9999
    1082.0    1403.4431       0.0000      52.4028    -999.2500      73.0230     -45.1072      75.3314     -48.1530     206.6719 1533223208 9999999.9999
    1083.0    1409.0682       0.0000      56.1926    -999.2500      81.2170     -38.8010      83.5254     -41.7098     212.7615 1533223209 9999999.9999
    1084.0    1411.8976       0.0000      60.1743    -999.2500      88.1658     -32.2137      90.4742     -34.9794     218.8634 1533223210 9999999.9999
    1085.0    1409.0682       0.0000      64.7322    -999.2500      93.5883     -25.3853      95.8967     -28.0027     224.9529 1533223211 9999999.9999
    1086.0    1397.8628       0.0000      70.1549    -999.2500      97.0427     -18.3963      99.3511     -20.8618     231.0688 1533223212 9999999.9999
    1087.0    1403.4431       0.0000      77.1846      87.9556      98.7497     -10.6040     101.0582     -12.9002     237.1707 1533223213 9999999.9999
    1088.0    1400.6475       0.0000      85.9287      78.8711      99.5330      -1.8878     101.8414      -3.9946     243.2864 1533223214 9999999.9999
    1089.0    1395.0892       0.0000      94.8780      78.9766      99.7338       6.7078     102.0422       4.7878     249.3883 1533223215 9999999.9999
    1090.0    1397.8628       0.0000     102.4728      91.9486      98.6092      14.2993     100.9176      12.5442     255.4902 1533223216 9999999.9999
    1091.0    1403.4431       0.0000     109.2921    -999.2500      95.3155      21.8908      97.6239      20.3007     261.5920 1533223217 9999999.9999
    1092.0    1395.0892       0.0000     115.0336    -999.2500      90.2545      29.2413      92.5629      27.8109     267.7100 1533223218 9999999.9999
    1093.0    1389.5751       0.0000     119.7347    -999.2500      83.9082      36.0295      86.2166      34.7465     273.7995 1533223219 9999999.9999
    1094.0    1386.8344       0.0000     124.6644    -999.2500      76.2363      43.7817      78.5447      42.6671     280.3069 1533223220 9999999.9999
    1095.0    1392.3268       0.0000     129.3618    -999.2500      66.6767      50.9313      68.9851      49.9721     286.4094 1533223221 9999999.9999
    1096.0    1392.3268       0.0000     137.8988    -999.2500      53.1807      66.3955      55.4891      65.7723     292.4989 1533223222 9999999.9999
    1097.0    1386.8344       0.0000     142.2614    -999.2500      46.3523      76.3568      48.6607      75.9501     298.6007 1533223223 9999999.9999
    1098.0    1389.5751       0.0000     146.0778    -999.2500      39.6847      84.3902      41.9931      84.1579     304.7032 1533223224 9999999.9999
    1099.0    1389.5751       0.0000     150.2511    -999.2500      32.5350      91.5398      34.8434      91.4630     310.8051 1533223225 9999999.9999
    1100.0    1384.1044       0.0000     155.6309    -999.2500      24.3410      97.9665      26.6494      98.0293     316.9069 1533223226 9999999.9999
    1101.0    1384.1044       0.0000     161.6204    -999.2500      16.6290     102.2242      18.9374     102.3794     323.0087 1533223227 9999999.9999
    1102.0    1386.8344       0.0000     168.9536      80.8487       8.5957     104.1120      10.9041     104.3083     329.1105 1533223228 9999999.9999
    1103.0    1386.8344       0.0000     177.2825      75.4036       0.3213     104.6342       2.6297     104.8418     335.2123 1533223229 9999999.9999
    1104.0    1381.3850       0.0000    -174.2762      76.4618      -7.8727     104.4735      -5.5643     104.6776     341.3271 1533223230 9999999.9999
    1105.0    1386.8344       0.0000    -166.5482      88.1957     -15.8257     102.1037     -13.5173     102.2563     347.4290 1533223231 9999999.9999
    1106.0    1389.5751       0.0000    -159.7058    -999.2500     -23.8188      97.4042     -21.5104      97.4547     353.9142 1533223232 9999999.9999
    1107.0    1386.8344       0.0000    -153.7766    -999.2500     -31.8120      91.1783     -29.5036      91.0936       0.0168 1533223233 9999999.9999
    1108.0    1384.1044       0.0000    -148.6782    -999.2500     -39.5240      83.9082     -37.2156      83.6655       6.1318 1533223234 9999999.9999
    1109.0    1384.1044       0.0000    -143.9798    -999.2500     -46.9548      75.5535     -44.6464      75.1293      12.2214 1533223235 9999999.9999
    1110.0    1389.5751       0.0000    -139.1403    -999.2500     -54.1447      65.9938     -51.8363      65.3619      18.3241 1533223236 9999999.9999
    1111.0       0.0000       0.0000    -130.8529    -999.2500     -68.8858      53.4217     -66.5774      52.5166      24.5081 1533223237 9999999.9999
    1112.0       0.0000       0.0000    -126.2105    -999.2500     -78.4053      46.3523     -76.0969      45.2937      30.6100 1533223238 9999999.9999
