~VERSION INFORMATION
VERS.           2.0   :CWLS Log ASCII Standard - VERSION 2.0
WRAP.           NO    :One Line per depth step
PROD.  Schlumberger   :LAS Producer
PROG.  DLIS to ASCII 19C2-270                          :LAS Program name and version
CREA.        2018/08/03 10:59                          :LAS Creation date {YYYY/MM/DD hh:mm}
DLIS_CREA.  2018-Aug-03 09:50                          :DLIS Creation date and time {YYYY-MMM-DD hh:mm}
SOURCE.     PERFO_Perfo_088PTP.DLIS                    :DLIS File Name
FILE-ID.     PERFO_Perfo_088PTP                        :File Identification Number
#--------------------------------------------------
~WELL INFORMATION
#MNEM.UNIT      DATA             DESCRIPTION
#---- ------ --------------   -----------------------------
STRT .S            0.0       :START TIME      
STOP .S          526.0       :STOP TIME      
STEP .S            1.0       :STEP     
NULL .          -999.25      :NULL VALUE
COMP .        SHELL INTERNATIONAL EP                   :COMPANY
WELL .        WPP TEST 4                               :WELL
FLD  .        WILDCAT                                  :FIELD
LOC  .        NA                                       :LOCATION
CNTY .        HARRIS                                   :COUNTY
STAT .        TEXAS                                    :STATE
CTRY .                                                 :COUNTRY
API  .        NA                                       :API NUMBER
UWI  .                                                 :UNIQUE WELL ID
DATE .        02-Aug-2018                              :LOG DATE {DD-MMM-YYYY}
SRVC .        Schlumberger                             :SERVICE COMPANY
LATI .DEG                                              :LATITUDE
LONG .DEG                                              :LONGITUDE
GDAT .                                                 :GeoDetic Datum
SECT .        NA                                       :Section
RANG .        NA                                       :Range
TOWN .        NA                                       :Township
#-----------------------------------------------------------------------------
~PARAMETER INFORMATION
#MNEM.UNIT    VALUE                      DESCRIPTION
#---- -----   --------------------       ------------------------
U-PHASE_B_COMP_PER_YT.                 0 :Phase B Comparator Period Yt
U-PHASE_A_COMP_PER_XT.                 0 :Phase A Comparator Period Xt
U-MAX_EXC_CUR_LIMIT.MA       265.00000   :Requested CM Current Limit
U-REQ_EXC_FQ.HZ              50          :Requested CM Frequency
U-TILT_Y_OFFSET.          -2.06578       :WPTET Tilt Y Offset
U-TILT_Y_GAIN.           1.02173         :WPTET Tilt Y Gain
U-TILT_X_OFFSET.           2.30841       :WPTET Tilt X Offset
U-TILT_X_GAIN.           1.00000         :WPTET Tilt X Gain
U-TILT_OFFSET_TOL.           0.00100     :WPTET Tilt Offset Calibration Tolerance
U-MOT_CUR_LIMIT_REQ.MA        70.00000   :Requested Motor Current Limit
U-MOT_SPD_REQ_WPMS.RPM        1.00000    :Requested Motor Speed
U-STD_TOL_TILT.           0.01000        :Tilt Standard Deviation Tolerance
CWEI .LB/F      29.00000                 :Casing Weight
CSIZ .IN         7.00000                 :Current Casing Size
LCC  .               440                 :Logging Company Code
LUN  .              2134                 :Logging Unit Number
HIDE .                                   :Header Identifier
HID1 .                                   :Header Identifier Line 1
R1   .                                   :Remark Line 1
WITN .        MR. KELLY McCOY            :Witness's Name
ENGI .        MORRIS MOORE               :Engineer's Name
LUL  .        IOWA COLONY                :Logging Unit Location
DATE .        02-Aug-2018                :Date as Month-Day-Year
STAT .        TEXAS                      :State or Province
COUN .        HARRIS                     :County or Rig Name
FN   .        WILDCAT                    :Field Name
WN   .        WPP TEST 4                 :Well Name
CN   .        SHELL INTERNATIONAL EP     :Company Name
CLAB .        County                     :County/Rig Label
SLAB .        State                      :State/Province Label
RUN  .          1                        :RUN NUMBER
PDAT .        GROUND LEVEL               :Permanent Datum
EPD  .                                   :Elevation of Permanent Datum above Mean Sea Level
LMF  .          NA                       :Logging Measured From (Name of Logging Elevation Reference)
APD  .                                   :Elevation of Depth Reference (LMF) above Permanent Datum
#-----------------------------------------------------------------------------
~CURVE INFORMATION
#MNEM.UNIT   API CODE                                  DESCRIPTION
#---- -----  --------                                  -----------------------
TIME .S                                                :TIME {F10.1}
FREQ_EMF_SL.HZ                                         :Electromagnetic Field Frequency {F13.4}
PH_SH_WPPCM_SL.DEG                                     :WPPCM Phase Shift {F13.4}
RB_SL.DEG                                              :Relative Bearing {F13.4}
SDEV_SL.DEG                                            :Sonde Deviation {F13.4}
RTIX_SL.DEG                                            :Raw X-axis Tilt {F13.4}
RTIY_SL.DEG                                            :Raw Y-axis Tilt {F13.4}
TILX_SL.DEG                                            :X-axis Tilt {F13.4}
TILY_SL.DEG                                            :Y-axis Tilt {F13.4}
ROTA_SL.DEG                                            :Motor Rotation Angle {F13.4}
TOD7 .S                                                :Time of Day {I11}
TOJ  .S                                                :Time of Job {F13.4}
#-----------------------------------------------------------------------------
# 
#     TIME    FREQ_EMF_SL  PH_SH_WPPCM_    RB_SL       SDEV_SL      RTIX_SL      RTIY_SL      TILX_SL      TILY_SL      ROTA_SL        TOD7            TOJ
#                          SL
~A  
# ...
     424.0       0.0000       0.0000    -166.5666      85.8038     -15.7052     103.8710     -13.3968     104.0620     297.0588 1533250688 9999999.9999
     425.0       0.0000       0.0000    -159.2231    -999.2500     -24.3410      98.5288     -22.0326      98.6038     303.1574 1533250689 9999999.9999
     426.0       0.0000       0.0000    -153.3162    -999.2500     -32.4547      92.3030     -30.1463      92.2427     309.2755 1533250690 9999999.9999
     427.0       0.0000       0.0000    -148.3573    -999.2500     -40.1667      85.0328     -37.8583      84.8146     315.3810 1533250691 9999999.9999
     428.0       0.0000       0.0000    -143.9647    -999.2500     -47.3565      76.9995     -45.0481      76.6067     321.4804 1533250692 9999999.9999
     429.0       0.0000       0.0000    -139.4380    -999.2500     -54.3455      67.6808     -52.0371      67.0856     327.9972 1533250693 9999999.9999
     430.0       0.0000       0.0000    -131.6224    -999.2500     -68.2030      55.0685     -65.8946      54.1992     334.0895 1533250694 9999999.9999
     431.0       0.0000       0.0000    -127.3128    -999.2500     -77.5217      48.4812     -75.2132      47.4687     340.2073 1533250695 9999999.9999
     432.0       0.0000       0.0000    -123.2743    -999.2500     -85.4345      41.8135     -83.1261      40.6562     346.3059 1533250696 9999999.9999
     433.0       0.0000       0.0000    -118.4306    -999.2500     -92.8252      34.1015     -90.5168      32.7766     351.9995 1533250697 9999999.9999
     434.0       0.0000       0.0000    -113.0349    -999.2500     -99.0108      26.4698     -96.7024      24.9792     358.1043 1533250698 9999999.9999
     435.0       0.0000       0.0000    -105.8266    -999.2500    -104.0317      17.7938    -101.7233      16.1147       4.2030 1533250699 9999999.9999
     436.0       0.0000       0.0000     -98.2664      78.9465    -106.0802       9.9613    -103.7718       8.1120      10.3017 1533250700 9999999.9999
     437.0       0.0000       0.0000     -89.4359      75.9984    -106.3212       1.4862    -104.0127      -0.5473      16.4197 1533250701 9999999.9999
     438.0       0.0000       0.0000     -81.3380      79.2523    -106.0802      -6.3062    -103.7718      -8.5090      22.5252 1533250702 9999999.9999
     439.0       0.0000       0.0000     -73.3960      92.8562    -104.2325     -14.5805    -101.9241     -16.9631      28.6239 1533250703 9999999.9999
     440.0       0.0000       0.0000     -66.7731    -999.2500     -99.9748     -22.6138     -97.6664     -25.1709      34.7359 1533250704 9999999.9999
     441.0    1251.1122       0.0000     -61.3539    -999.2500     -94.1507     -30.3660     -91.8423     -33.0915      41.1749 1533250705 9999999.9999
     442.0    1384.1044       0.0000     -56.7555    -999.2500     -87.2822     -37.8772     -84.9738     -40.7659      47.2674 1533250706 9999999.9999
     443.0    1417.5908       0.0000     -52.6921    -999.2500     -79.6505     -44.9867     -77.3421     -48.0299      53.3661 1533250707 9999999.9999
     444.0    1467.9019       0.0000     -48.4511    -999.2500     -70.0908     -51.9355     -67.7824     -55.1297      59.4840 1533250708 9999999.9999
     445.0    1502.4038       0.0000     -39.7317    -999.2500     -54.3455     -68.0022     -52.0371     -71.5454      65.6020 1533250709 9999999.9999
     446.0    1505.6210       0.0000     -35.6838    -999.2500     -47.5975     -77.9635     -45.2891     -81.7232      71.7137 1533250710 9999999.9999
     447.0    1531.8628       0.0000     -31.4239    -999.2500     -39.9658     -86.6797     -37.6574     -90.6288      77.8186 1533250711 9999999.9999
     448.0    1541.9408       0.0000     -27.0130    -999.2500     -32.6957     -93.0662     -30.3873     -97.1540      83.9173 1533250712 9999999.9999
     449.0    1559.0355       0.0000     -21.6798    -999.2500     -25.1845     -97.8862     -22.8761    -102.0787      90.0352 1533250713 9999999.9999
     450.0    1569.4755       0.0000     -15.4509      84.2021     -17.7938    -100.7380     -15.4854    -104.9925      96.1339 1533250714 9999999.9999
     451.0    1594.3877       0.0000      -7.7584      76.1782      -9.8408    -101.5413      -7.5324    -105.8133     102.2327 1533250715 9999999.9999
     452.0    1601.6515       0.0000       1.2288      74.4391      -1.1247    -101.3405       1.1837    -105.6081     108.3375 1533250716 9999999.9999
     453.0    1631.3805       0.0000       9.8593      78.4851       7.3505    -100.8585       9.6589    -105.1157     114.8604 1533250717 9999999.9999
     454.0    1642.8153       0.0000      16.9730      92.8302      14.9822     -98.9305      17.2906    -103.1458     120.9468 1533250718 9999999.9999
     455.0    1654.4117       0.0000      22.9754    -999.2500      22.4532     -94.7933      24.7616     -98.9187     127.0578 1533250719 9999999.9999
     456.0    1670.1307       0.0000      27.8767    -999.2500      29.5627     -89.4110      31.8711     -93.4194     133.1697 1533250720 9999999.9999
     457.0    1670.1307       0.0000      31.6953    -999.2500      35.7483     -82.7835      38.0567     -86.6479     139.2562 1533250721 9999999.9999
     458.0    1674.1072       0.0000      36.2071    -999.2500      43.5005     -74.6698      45.8089     -78.3580     145.3551 1533250722 9999999.9999
     459.0    1682.1173       0.0000      40.9680    -999.2500      50.7707     -63.5838      53.0791     -67.0311     151.4600 1533250723 9999999.9999
     460.0    1678.1025       0.0000      50.3640    -999.2500      71.0950     -49.4050      73.4034     -52.5442     157.5650 1533250724 9999999.9999
     461.0    1670.1307       0.0000      54.2103    -999.2500      80.3735     -42.6570      82.6819     -45.6496     163.6638 1533250725 9999999.9999
     462.0    1674.1072       0.0000      57.9078    -999.2500      87.6437     -35.9893      89.9521     -38.8371     169.7626 1533250726 9999999.9999
     463.0    1670.1307       0.0000      62.2176    -999.2500      94.0703     -28.8798      96.3787     -31.5731     175.8807 1533250727 9999999.9999
     464.0    1662.2340       0.0000      67.3460    -999.2500      98.6895     -21.6498     100.9979     -24.1860     181.9734 1533250728 9999999.9999
     465.0    1642.8153       0.0000      73.6193    -999.2500     100.8183     -14.2592     103.1267     -16.6348     188.4647 1533250729 9999999.9999
     466.0    1646.6628       0.0000      81.3610      78.6221     101.9430      -6.2660     104.2514      -8.4679     194.5696 1533250730 9999999.9999
     467.0    1642.8153       0.0000      90.4946      75.4355     102.2643       2.4903     104.5727       0.4787     200.6746 1533250731 9999999.9999
     468.0    1631.3805       0.0000      99.1002      79.0382     101.9028      10.7647     104.2112       8.9328     206.7734 1533250732 9999999.9999
     469.0    1605.3082       0.0000     106.8249      93.9382      99.4125      18.8783     101.7209      17.2227     212.8723 1533250733 9999999.9999
     470.0    1590.7806       0.0000     113.1457    -999.2500      94.7532      26.5903      97.0616      25.1023     218.9650 1533250734 9999999.9999
     471.0    1576.5134       0.0000     118.8541    -999.2500      88.1658      34.7442      90.4742      33.4333     225.0699 1533250735 9999999.9999
     472.0    1576.5134       0.0000     123.5323    -999.2500      80.4940      42.2553      82.8024      41.1076     231.1687 1533250736 9999999.9999
     473.0    1548.7335       0.0000     127.9158    -999.2500      71.8582      49.5255      74.1666      48.5358     237.2553 1533250737 9999999.9999
     474.0    1538.5668       0.0000     133.0453    -999.2500      59.0048      55.8718      61.3132      55.0200     243.3480 1533250738 9999999.9999
     475.0    1515.3556       0.0000     140.3686    -999.2500      50.1280      73.6255      52.4364      73.1594     249.4660 1533250739 9999999.9999
     476.0    1461.7983       0.0000     144.2598    -999.2500      43.1792      82.5425      45.4876      82.2701     255.5648 1533250740 9999999.9999
