~VERSION INFORMATION
VERS.           2.0   :CWLS Log ASCII Standard - VERSION 2.0
WRAP.           NO    :One Line per depth step
PROD.  Schlumberger   :LAS Producer
PROG.  DLIS to ASCII 19C2-270                          :LAS Program name and version
CREA.        2018/08/03 10:59                          :LAS Creation date {YYYY/MM/DD hh:mm}
DLIS_CREA.  2018-Aug-03 09:28                          :DLIS Creation date and time {YYYY-MMM-DD hh:mm}
SOURCE.     PERFO_Perfo_076PTP.DLIS                    :DLIS File Name
FILE-ID.     PERFO_Perfo_076PTP                        :File Identification Number
#--------------------------------------------------
~WELL INFORMATION
#MNEM.UNIT      DATA             DESCRIPTION
#---- ------ --------------   -----------------------------
STRT .S            0.0       :START TIME      
STOP .S         1744.0       :STOP TIME      
STEP .S            1.0       :STEP     
NULL .          -999.25      :NULL VALUE
COMP .        SHELL INTERNATIONAL EP                   :COMPANY
WELL .        WPP TEST 4                               :WELL
FLD  .        WILDCAT                                  :FIELD
LOC  .        NA                                       :LOCATION
CNTY .        HARRIS                                   :COUNTY
STAT .        TEXAS                                    :STATE
CTRY .                                                 :COUNTRY
API  .        NA                                       :API NUMBER
UWI  .                                                 :UNIQUE WELL ID
DATE .        02-Aug-2018                              :LOG DATE {DD-MMM-YYYY}
SRVC .        Schlumberger                             :SERVICE COMPANY
LATI .DEG                                              :LATITUDE
LONG .DEG                                              :LONGITUDE
GDAT .                                                 :GeoDetic Datum
SECT .        NA                                       :Section
RANG .        NA                                       :Range
TOWN .        NA                                       :Township
#-----------------------------------------------------------------------------
~PARAMETER INFORMATION
#MNEM.UNIT    VALUE                      DESCRIPTION
#---- -----   --------------------       ------------------------
U-PHASE_B_COMP_PER_YT.                 0 :Phase B Comparator Period Yt
U-PHASE_A_COMP_PER_XT.                 0 :Phase A Comparator Period Xt
U-MAX_EXC_CUR_LIMIT.MA       265.00000   :Requested CM Current Limit
U-REQ_EXC_FQ.HZ              50          :Requested CM Frequency
U-TILT_Y_OFFSET.          -2.06578       :WPTET Tilt Y Offset
U-TILT_Y_GAIN.           1.02173         :WPTET Tilt Y Gain
U-TILT_X_OFFSET.           2.30841       :WPTET Tilt X Offset
U-TILT_X_GAIN.           1.00000         :WPTET Tilt X Gain
U-TILT_OFFSET_TOL.           0.00100     :WPTET Tilt Offset Calibration Tolerance
U-MOT_CUR_LIMIT_REQ.MA        70.00000   :Requested Motor Current Limit
U-MOT_SPD_REQ_WPMS.RPM        1.00000    :Requested Motor Speed
U-STD_TOL_TILT.           0.01000        :Tilt Standard Deviation Tolerance
CWEI .LB/F      29.00000                 :Casing Weight
CSIZ .IN         7.00000                 :Current Casing Size
LCC  .               440                 :Logging Company Code
LUN  .              2134                 :Logging Unit Number
HIDE .                                   :Header Identifier
HID1 .                                   :Header Identifier Line 1
R1   .                                   :Remark Line 1
WITN .        MR. KELLY McCOY            :Witness's Name
ENGI .        MORRIS MOORE               :Engineer's Name
LUL  .        IOWA COLONY                :Logging Unit Location
DATE .        02-Aug-2018                :Date as Month-Day-Year
STAT .        TEXAS                      :State or Province
COUN .        HARRIS                     :County or Rig Name
FN   .        WILDCAT                    :Field Name
WN   .        WPP TEST 4                 :Well Name
CN   .        SHELL INTERNATIONAL EP     :Company Name
CLAB .        County                     :County/Rig Label
SLAB .        State                      :State/Province Label
RUN  .          1                        :RUN NUMBER
PDAT .        GROUND LEVEL               :Permanent Datum
EPD  .                                   :Elevation of Permanent Datum above Mean Sea Level
LMF  .          NA                       :Logging Measured From (Name of Logging Elevation Reference)
APD  .                                   :Elevation of Depth Reference (LMF) above Permanent Datum
#-----------------------------------------------------------------------------
~CURVE INFORMATION
#MNEM.UNIT   API CODE                                  DESCRIPTION
#---- -----  --------                                  -----------------------
TIME .S                                                :TIME {F10.1}
FREQ_EMF_SL.HZ                                         :Electromagnetic Field Frequency {F13.4}
PH_SH_WPPCM_SL.DEG                                     :WPPCM Phase Shift {F13.4}
RB_SL.DEG                                              :Relative Bearing {F13.4}
SDEV_SL.DEG                                            :Sonde Deviation {F13.4}
RTIX_SL.DEG                                            :Raw X-axis Tilt {F13.4}
RTIY_SL.DEG                                            :Raw Y-axis Tilt {F13.4}
TILX_SL.DEG                                            :X-axis Tilt {F13.4}
TILY_SL.DEG                                            :Y-axis Tilt {F13.4}
ROTA_SL.DEG                                            :Motor Rotation Angle {F13.4}
TOD7 .S                                                :Time of Day {I11}
TOJ  .S                                                :Time of Job {F13.4}
#-----------------------------------------------------------------------------
# 
#     TIME    FREQ_EMF_SL  PH_SH_WPPCM_    RB_SL       SDEV_SL      RTIX_SL      RTIY_SL      TILX_SL      TILY_SL      ROTA_SL        TOD7            TOJ
#                          SL
~A  
# ...
     318.0    1678.1025       0.0000     127.6526    -999.2500      72.0992      49.0033      74.4076      48.0023      79.0581 1533242340 9999999.9999
     319.0    1682.1173       0.0000     132.5394    -999.2500      60.6517      55.6710      62.9601      54.8148      85.1608 1533242341 9999999.9999
     320.0    1678.1025       0.0000     140.1763    -999.2500      50.2887      72.7820      52.5971      72.2976      91.2626 1533242342 9999999.9999
     321.0    1678.1025       0.0000     144.0393    -999.2500      43.5407      81.7793      45.8491      81.4904      97.3644 1533242343 9999999.9999
     322.0    1686.1511       0.0000     147.9594    -999.2500      36.4312      89.2503      38.7396      89.1237     103.4661 1533242344 9999999.9999
     323.0    1682.1173       0.0000     152.8541    -999.2500      28.3175      96.4803      30.6259      96.5108     109.5679 1533242345 9999999.9999
     324.0    1690.2042       0.0000     158.5266    -999.2500      20.3243     101.8225      22.6327     101.9690     115.6697 1533242346 9999999.9999
     325.0    1690.2042       0.0000     165.2367      85.6566      12.4115     105.1563      14.7199     105.3753     121.7715 1533242347 9999999.9999
     326.0    1682.1173       0.0000     173.4117      75.0815       4.0568     106.0400       6.3652     106.2782     127.8733 1533242348 9999999.9999
     327.0    1686.1511       0.0000    -178.0111      73.7165      -4.2175     106.1605      -1.9091     106.4013     133.5672 1533242349 9999999.9999
     328.0    1690.2042       0.0000    -169.8934      78.5170     -12.2107     105.0358      -9.9023     105.2522     139.6698 1533242350 9999999.9999
     329.0    1698.3695       0.0000    -162.1951     100.7353     -20.6858     100.8585     -18.3774     100.9841     146.1797 1533242351 9999999.9999
     330.0    1702.4818       0.0000    -155.7931    -999.2500     -28.9200      94.8737     -26.6116      94.8692     152.2816 1533242352 9999999.9999
     331.0    1710.7665       0.0000    -150.3886    -999.2500     -36.9132      87.9248     -34.6048      87.7694     158.3835 1533242353 9999999.9999
     332.0    1714.9390       0.0000    -145.6578    -999.2500     -44.5448      80.0120     -42.2364      79.6847     164.4854 1533242354 9999999.9999
     333.0    1710.7665       0.0000    -141.1036    -999.2500     -51.8150      71.0147     -49.5066      70.4918     170.5873 1533242355 9999999.9999
     334.0    1727.5798       0.0000    -133.5953    -999.2500     -63.1018      57.0367     -60.7934      56.2101     176.6892 1533242356 9999999.9999
     335.0    1731.8351       0.0000    -128.2569    -999.2500     -75.3125      49.9272     -73.0041      48.9462     182.7789 1533242357 9999999.9999
     336.0    1723.3456       0.0000    -124.0057    -999.2500     -83.7475      42.9783     -81.4391      41.8464     188.8808 1533242358 9999999.9999
     337.0    1727.5798       0.0000    -119.3790    -999.2500     -91.0980      35.5475     -88.7896      34.2541     194.9827 1533242359 9999999.9999
     338.0    1740.4083       0.0000    -114.0156    -999.2500     -97.6853      27.7953     -95.3769      26.3335     201.0977 1533242360 9999999.9999
     339.0    1736.1111       0.0000    -107.4500    -999.2500    -102.8267      19.6415    -100.5182      18.0025     207.1996 1533242361 9999999.9999
     340.0    1749.0671       0.0000     -99.9489      81.3895    -105.4375      11.6483    -103.1291       9.8356     213.3154 1533242362 9999999.9999
     341.0    1749.0671       0.0000     -91.3364      76.4938    -105.8793       3.2937    -103.5709       1.2994     219.8384 1533242363 9999999.9999
     342.0    1749.0671       0.0000     -82.7448      78.6915    -105.7187      -4.9405    -103.4103      -7.1136     225.9403 1533242364 9999999.9999
     343.0    1762.2180       0.0000     -74.7386      92.2262    -104.1923     -13.1345    -101.8839     -15.4857     232.0422 1533242365 9999999.9999
     344.0    1762.2180       0.0000     -68.0261    -999.2500    -100.6577     -21.0072     -98.3493     -23.5294     238.1572 1533242366 9999999.9999
     345.0    1771.0958       0.0000     -62.3924    -999.2500     -95.0343     -28.7995     -92.7259     -31.4910     244.2591 1533242367 9999999.9999
     346.0    1775.5682       0.0000     -57.6171    -999.2500     -88.3265     -36.3910     -86.0181     -39.2475     250.3740 1533242368 9999999.9999
     347.0    1780.0632       0.0000     -53.2708    -999.2500     -80.3333     -43.8620     -78.0249     -46.8808     256.4635 1533242369 9999999.9999
     348.0    1784.5813       0.0000     -49.1152    -999.2500     -71.2557     -50.7305     -68.9473     -53.8985     262.5653 1533242370 9999999.9999
     349.0    1784.5813       0.0000     -41.5965    -999.2500     -55.9923     -61.7763     -53.6839     -65.1843     268.6671 1533242371 9999999.9999
     350.0    1780.0632       0.0000     -36.2975    -999.2500     -48.6017     -76.0757     -46.2933     -79.7943     274.7690 1533242372 9999999.9999
     351.0    1780.0632       0.0000     -32.2728    -999.2500     -41.4520     -84.5107     -39.1436     -88.4126     280.8708 1533242373 9999999.9999
     352.0    1775.5682       0.0000     -28.0461    -999.2500     -34.3425     -91.2988     -32.0341     -95.3483     286.9726 1533242374 9999999.9999
     353.0    1780.0632       0.0000     -23.0843    -999.2500     -27.0723     -96.4803     -24.7639    -100.6424     293.4824 1533242375 9999999.9999
     354.0    1775.5682       0.0000     -16.9972    -999.2500     -19.5612     -99.7740     -17.2528    -104.0076     299.5842 1533242376 9999999.9999
     355.0    1775.5682       0.0000      -9.9810      78.5901     -12.0902    -100.8585      -9.7818    -105.1157     305.6860 1533242377 9999999.9999
     356.0    1766.6456       0.0000      -1.1865      74.9711      -3.4543    -100.8183      -1.1459    -105.0746     311.7755 1533242378 9999999.9999
     357.0    1771.0958       0.0000       7.4799      77.0645       4.9807    -100.6577       7.2891    -104.9105     317.8905 1533242379 9999999.9999
     358.0    1762.2180       0.0000      14.8624      92.1419      12.6525     -99.1715      14.9609    -103.3920     323.9923 1533242380 9999999.9999
     359.0    1766.6456       0.0000      21.3608    -999.2500      20.3645     -95.5967      22.6729     -99.7395     330.0949 1533242381 9999999.9999
     360.0    1753.4288       0.0000      26.4880    -999.2500      27.4740     -90.5758      29.7824     -94.6096     336.1844 1533242382 9999999.9999
     361.0    1753.4288       0.0000      30.8950    -999.2500      34.4228     -84.2697      36.7312     -88.1664     342.2863 1533242383 9999999.9999
     362.0    1753.4288       0.0000      34.9423    -999.2500      41.2512     -76.7585      43.5596     -80.4920     348.3887 1533242384 9999999.9999
     363.0    1736.1111       0.0000      39.1142    -999.2500      47.9590     -67.5202      50.2674     -71.0530     354.4905 1533242385 9999999.9999
     364.0    1744.7272       0.0000      49.5628    -999.2500      67.6808     -50.0477      69.9892     -53.2008       0.5923 1533242386 9999999.9999
     365.0    1736.1111       0.0000      53.0522    -999.2500      77.0397     -44.6252      79.3481     -47.6605       7.1021 1533242387 9999999.9999
     366.0    1736.1111       0.0000      56.8527    -999.2500      85.1533     -37.8370      87.4617     -40.7249      13.2039 1533242388 9999999.9999
     367.0    1727.5798       0.0000      60.9088    -999.2500      91.8210     -30.9685      94.1294     -33.7071      19.3058 1533242389 9999999.9999
     368.0    1719.1321       0.0000      65.6938    -999.2500      96.8017     -23.8992      99.1101     -26.4842      25.4207 1533242390 9999999.9999
     369.0    1719.1321       0.0000      71.5286    -999.2500      99.8945     -16.6290     102.2029     -19.0561      31.5226 1533242391 9999999.9999
     370.0    1714.9390       0.0000      78.6455      82.5964     101.2200      -8.9973     103.5284     -11.2586      37.6375 1533242392 9999999.9999
