~VERSION INFORMATION
VERS.           2.0   :CWLS Log ASCII Standard - VERSION 2.0
WRAP.           NO    :One Line per depth step
PROD.  Schlumberger   :LAS Producer
PROG.  DLIS to ASCII 19C2-270                          :LAS Program name and version
CREA.        2018/08/03 10:59                          :LAS Creation date {YYYY/MM/DD hh:mm}
DLIS_CREA.  2018-Aug-03 09:28                          :DLIS Creation date and time {YYYY-MMM-DD hh:mm}
SOURCE.     PERFO_Perfo_076PTP.DLIS                    :DLIS File Name
FILE-ID.     PERFO_Perfo_076PTP                        :File Identification Number
#--------------------------------------------------
~WELL INFORMATION
#MNEM.UNIT      DATA             DESCRIPTION
#---- ------ --------------   -----------------------------
STRT .S            0.0       :START TIME      
STOP .S         1744.0       :STOP TIME      
STEP .S            1.0       :STEP     
NULL .          -999.25      :NULL VALUE
COMP .        SHELL INTERNATIONAL EP                   :COMPANY
WELL .        WPP TEST 4                               :WELL
FLD  .        WILDCAT                                  :FIELD
LOC  .        NA                                       :LOCATION
CNTY .        HARRIS                                   :COUNTY
STAT .        TEXAS                                    :STATE
CTRY .                                                 :COUNTRY
API  .        NA                                       :API NUMBER
UWI  .                                                 :UNIQUE WELL ID
DATE .        02-Aug-2018                              :LOG DATE {DD-MMM-YYYY}
SRVC .        Schlumberger                             :SERVICE COMPANY
LATI .DEG                                              :LATITUDE
LONG .DEG                                              :LONGITUDE
GDAT .                                                 :GeoDetic Datum
SECT .        NA                                       :Section
RANG .        NA                                       :Range
TOWN .        NA                                       :Township
#-----------------------------------------------------------------------------
~PARAMETER INFORMATION
#MNEM.UNIT    VALUE                      DESCRIPTION
#---- -----   --------------------       ------------------------
U-PHASE_B_COMP_PER_YT.                 0 :Phase B Comparator Period Yt
U-PHASE_A_COMP_PER_XT.                 0 :Phase A Comparator Period Xt
U-MAX_EXC_CUR_LIMIT.MA       265.00000   :Requested CM Current Limit
U-REQ_EXC_FQ.HZ              50          :Requested CM Frequency
U-TILT_Y_OFFSET.          -2.06578       :WPTET Tilt Y Offset
U-TILT_Y_GAIN.           1.02173         :WPTET Tilt Y Gain
U-TILT_X_OFFSET.           2.30841       :WPTET Tilt X Offset
U-TILT_X_GAIN.           1.00000         :WPTET Tilt X Gain
U-TILT_OFFSET_TOL.           0.00100     :WPTET Tilt Offset Calibration Tolerance
U-MOT_CUR_LIMIT_REQ.MA        70.00000   :Requested Motor Current Limit
U-MOT_SPD_REQ_WPMS.RPM        1.00000    :Requested Motor Speed
U-STD_TOL_TILT.           0.01000        :Tilt Standard Deviation Tolerance
CWEI .LB/F      29.00000                 :Casing Weight
CSIZ .IN         7.00000                 :Current Casing Size
LCC  .               440                 :Logging Company Code
LUN  .              2134                 :Logging Unit Number
HIDE .                                   :Header Identifier
HID1 .                                   :Header Identifier Line 1
R1   .                                   :Remark Line 1
WITN .        MR. KELLY McCOY            :Witness's Name
ENGI .        MORRIS MOORE               :Engineer's Name
LUL  .        IOWA COLONY                :Logging Unit Location
DATE .        02-Aug-2018                :Date as Month-Day-Year
STAT .        TEXAS                      :State or Province
COUN .        HARRIS                     :County or Rig Name
FN   .        WILDCAT                    :Field Name
WN   .        WPP TEST 4                 :Well Name
CN   .        SHELL INTERNATIONAL EP     :Company Name
CLAB .        County                     :County/Rig Label
SLAB .        State                      :State/Province Label
RUN  .          1                        :RUN NUMBER
PDAT .        GROUND LEVEL               :Permanent Datum
EPD  .                                   :Elevation of Permanent Datum above Mean Sea Level
LMF  .          NA                       :Logging Measured From (Name of Logging Elevation Reference)
APD  .                                   :Elevation of Depth Reference (LMF) above Permanent Datum
#-----------------------------------------------------------------------------
~CURVE INFORMATION
#MNEM.UNIT   API CODE                                  DESCRIPTION
#---- -----  --------                                  -----------------------
TIME .S                                                :TIME {F10.1}
FREQ_EMF_SL.HZ                                         :Electromagnetic Field Frequency {F13.4}
PH_SH_WPPCM_SL.DEG                                     :WPPCM Phase Shift {F13.4}
RB_SL.DEG                                              :Relative Bearing {F13.4}
SDEV_SL.DEG                                            :Sonde Deviation {F13.4}
RTIX_SL.DEG                                            :Raw X-axis Tilt {F13.4}
RTIY_SL.DEG                                            :Raw Y-axis Tilt {F13.4}
TILX_SL.DEG                                            :X-axis Tilt {F13.4}
TILY_SL.DEG                                            :Y-axis Tilt {F13.4}
ROTA_SL.DEG                                            :Motor Rotation Angle {F13.4}
TOD7 .S                                                :Time of Day {I11}
TOJ  .S                                                :Time of Job {F13.4}
#-----------------------------------------------------------------------------
# 
#     TIME    FREQ_EMF_SL  PH_SH_WPPCM_    RB_SL       SDEV_SL      RTIX_SL      RTIY_SL      TILX_SL      TILY_SL      ROTA_SL        TOD7            TOJ
#                          SL
~A  
# ...
     477.0    1714.9390       0.0000     -24.6509    -999.2500     -29.2413     -95.1147     -26.9329     -99.2470     334.3021 1533242499 9999999.9999
     478.0    1714.9390       0.0000     -18.9726    -999.2500     -21.8507     -99.1313     -19.5423    -103.3510     340.4040 1533242500 9999999.9999
     479.0    1723.3456       0.0000     -12.0993      81.0797     -14.2592    -100.7380     -11.9508    -104.9925     346.5058 1533242501 9999999.9999
     480.0    1714.9390       0.0000      -3.1818      75.0474      -5.3823    -101.0192      -3.0739    -105.2798     352.6076 1533242502 9999999.9999
     481.0    1719.1321       0.0000       5.8537      76.1286       3.3740    -100.7782       5.6824    -105.0336     358.7094 1533242503 9999999.9999
     482.0    1706.6141       0.0000      13.3160      85.4817      10.9655     -99.8142      13.2739    -104.0486       4.7988 1533242504 9999999.9999
     483.0    1719.1321       0.0000      19.9072    -999.2500      18.5168     -96.8017      20.8252    -100.9707      10.9006 1533242505 9999999.9999
     484.0    1714.9390       0.0000      25.2038    -999.2500      25.5862     -92.1825      27.8946     -96.2511      17.0025 1533242506 9999999.9999
     485.0    1714.9390       0.0000      29.8401    -999.2500      32.6957     -85.9968      35.0041     -89.9311      23.1043 1533242507 9999999.9999
     486.0    1723.3456       0.0000      33.9373    -999.2500      39.5642     -78.9275      41.8726     -82.7082      29.6141 1533242508 9999999.9999
     487.0    1714.9390       0.0000      38.0144    -999.2500      46.3122     -70.1310      48.6206     -73.7205      35.7036 1533242509 9999999.9999
     488.0    1727.5798       0.0000      43.2053    -999.2500      51.1322     -55.5103      53.4406     -58.7822      41.8184 1533242510 9999999.9999
     489.0    1723.3456       0.0000      51.9749    -999.2500      74.6698     -46.5532      76.9782     -49.6304      47.9203 1533242511 9999999.9999
     490.0    1723.3456       0.0000      55.7293    -999.2500      83.0245     -39.8453      85.3329     -42.7768      54.0251 1533242512 9999999.9999
     491.0    1723.3456       0.0000      59.6536    -999.2500      90.0135     -33.0170      92.3219     -35.8001      60.1239 1533242513 9999999.9999
     492.0    1723.3456       0.0000      64.5013    -999.2500      95.9180     -25.5460      98.2264     -28.1668      66.2288 1533242514 9999999.9999
     493.0    1731.8351       0.0000      70.0376    -999.2500      99.5732     -18.3562     101.8816     -20.8208      72.3275 1533242515 9999999.9999
     494.0    1736.1111       0.0000      76.7663      88.4067     101.0192     -10.9253     103.3276     -13.2285      78.4293 1533242516 9999999.9999
     495.0    1731.8351       0.0000      85.2266      77.0266     101.5012      -2.5305     103.8096      -4.6513      84.5188 1533242517 9999999.9999
     496.0    1740.4083       0.0000      94.4172      76.5215     101.8627       6.2258     104.1711       4.2953      90.6206 1533242518 9999999.9999
     497.0    1731.8351       0.0000     102.2977      85.3730     100.8183      14.0182     103.1267      12.2570      96.7224 1533242519 9999999.9999
     498.0    1736.1111       0.0000     109.4633    -999.2500      97.4443      21.9712      99.7527      20.3828     103.2321 1533242520 9999999.9999
     499.0    1736.1111       0.0000     115.4912    -999.2500      92.0620      29.8037      94.3704      28.3854     109.3470 1533242521 9999999.9999
     500.0    1740.4083       0.0000     120.5293    -999.2500      85.2738      37.3550      87.5822      36.1008     115.4618 1533242522 9999999.9999
     501.0    1736.1111       0.0000     125.0250    -999.2500      77.4815      44.7055      79.7899      43.6110     121.5636 1533242523 9999999.9999
     502.0    1731.8351       0.0000     129.4819    -999.2500      68.1227      51.8552      70.4311      50.9161     127.6530 1533242524 9999999.9999
     503.0    1753.4288       0.0000     137.5180    -999.2500      54.3455      66.4357      56.6539      65.8133     133.7549 1533242525 9999999.9999
     504.0    1740.4083       0.0000     142.0342    -999.2500      47.1557      77.2807      49.4641      76.8940     139.8700 1533242526 9999999.9999
     505.0    1744.7272       0.0000     145.8353    -999.2500      40.2470      85.3943      42.5554      85.1839     145.9850 1533242527 9999999.9999
     506.0    1744.7272       0.0000     150.0831    -999.2500      32.7760      92.7448      35.0844      92.6941     152.0869 1533242528 9999999.9999
     507.0    1731.8351       0.0000     155.0989    -999.2500      24.9837      98.8903      27.2921      98.9732     158.1888 1533242529 9999999.9999
     508.0    1736.1111       0.0000     161.1786    -999.2500      17.0307     103.5095      19.3391     103.6927     164.2907 1533242530 9999999.9999
     509.0    1740.4083       0.0000     168.4734      78.8405       8.9973     105.7588      11.3057     105.9909     170.3803 1533242531 9999999.9999
     510.0    1740.4083       0.0000     176.8447      73.8969       0.7230     106.1605       3.0314     106.4013     176.8911 1533242532 9999999.9999
     511.0    1731.8351       0.0000    -174.5186      74.5617      -7.5915     106.1203      -5.2831     106.3603     182.9930 1533242533 9999999.9999
     512.0    1740.4083       0.0000    -166.6588      86.5396     -15.6248     103.5898     -13.3164     103.7748     189.0979 1533242534 9999999.9999
     513.0    1740.4083       0.0000    -159.3818    -999.2500     -24.1402      98.6493     -21.8318      98.7269     195.1967 1533242535 9999999.9999
     514.0    1727.5798       0.0000    -153.4559    -999.2500     -32.2538      92.2628     -29.9454      92.2017     201.2986 1533242536 9999999.9999
     515.0    1731.8351       0.0000    -148.3667    -999.2500     -40.1265      84.7115     -37.8181      84.4863     207.3882 1533242537 9999999.9999
     516.0    1723.3456       0.0000    -143.4459    -999.2500     -48.1598      75.8347     -45.8514      75.4166     213.4901 1533242538 9999999.9999
     517.0    1723.3456       0.0000    -138.7599    -999.2500     -55.1890      66.0742     -52.8806      65.4440     219.5920 1533242539 9999999.9999
     518.0    1714.9390       0.0000    -131.0443    -999.2500     -69.2875      54.1447     -66.9791      53.2553     225.6939 1533242540 9999999.9999
     519.0    1731.8351       0.0000    -126.6260    -999.2500     -78.6062      47.2762     -76.2978      46.2376     231.7965 1533242541 9999999.9999
     520.0    1723.3456       0.0000    -122.3637    -999.2500     -86.6395      40.2872     -84.3311      39.0967     237.9116 1533242542 9999999.9999
     521.0    1719.1321       0.0000    -117.3498    -999.2500     -93.8293      32.4948     -91.5209      31.1351     244.0135 1533242543 9999999.9999
     522.0    1727.5798       0.0000    -111.4915    -999.2500     -99.9748      24.5017     -97.6664      22.9682     250.5234 1533242544 9999999.9999
     523.0    1723.3456       0.0000    -104.6355    -999.2500    -104.2727      16.5085    -101.9642      14.8014     256.6253 1533242545 9999999.9999
     524.0    1719.1321       0.0000     -96.7769      78.2612    -105.8392       8.5153    -103.5308       6.6346     262.7271 1533242546 9999999.9999
     525.0    1719.1321       0.0000     -88.0449      76.5680    -105.8793       0.1607    -103.5709      -1.9016     268.8166 1533242547 9999999.9999
     526.0    1719.1321       0.0000     -79.5402      81.9537    -105.4777      -8.1137    -103.1693     -10.3557     274.9183 1533242548 9999999.9999
     527.0    1719.1321       0.0000     -72.1726      85.2434    -103.3488     -15.9863    -101.0404     -18.3995     281.0201 1533242549 9999999.9999
     528.0    1714.9390       0.0000     -65.4178    -999.2500     -98.3682     -24.4615     -96.0598     -27.0588     287.1219 1533242550 9999999.9999
     529.0    1727.5798       0.0000     -60.2004    -999.2500     -92.1825     -32.1735     -89.8741     -34.9383     293.2369 1533242551 9999999.9999
