~VERSION INFORMATION
VERS.           2.0   :CWLS Log ASCII Standard - VERSION 2.0
WRAP.           NO    :One Line per depth step
PROD.  Schlumberger   :LAS Producer
PROG.  DLIS to ASCII 19C2-270                          :LAS Program name and version
CREA.        2018/08/03 10:59                          :LAS Creation date {YYYY/MM/DD hh:mm}
DLIS_CREA.  2018-Aug-03 09:50                          :DLIS Creation date and time {YYYY-MMM-DD hh:mm}
SOURCE.     PERFO_Perfo_088PTP.DLIS                    :DLIS File Name
FILE-ID.     PERFO_Perfo_088PTP                        :File Identification Number
#--------------------------------------------------
~WELL INFORMATION
#MNEM.UNIT      DATA             DESCRIPTION
#---- ------ --------------   -----------------------------
STRT .S            0.0       :START TIME      
STOP .S          526.0       :STOP TIME      
STEP .S            1.0       :STEP     
NULL .          -999.25      :NULL VALUE
COMP .        SHELL INTERNATIONAL EP                   :COMPANY
WELL .        WPP TEST 4                               :WELL
FLD  .        WILDCAT                                  :FIELD
LOC  .        NA                                       :LOCATION
CNTY .        HARRIS                                   :COUNTY
STAT .        TEXAS                                    :STATE
CTRY .                                                 :COUNTRY
API  .        NA                                       :API NUMBER
UWI  .                                                 :UNIQUE WELL ID
DATE .        02-Aug-2018                              :LOG DATE {DD-MMM-YYYY}
SRVC .        Schlumberger                             :SERVICE COMPANY
LATI .DEG                                              :LATITUDE
LONG .DEG                                              :LONGITUDE
GDAT .                                                 :GeoDetic Datum
SECT .        NA                                       :Section
RANG .        NA                                       :Range
TOWN .        NA                                       :Township
#-----------------------------------------------------------------------------
~PARAMETER INFORMATION
#MNEM.UNIT    VALUE                      DESCRIPTION
#---- -----   --------------------       ------------------------
U-PHASE_B_COMP_PER_YT.                 0 :Phase B Comparator Period Yt
U-PHASE_A_COMP_PER_XT.                 0 :Phase A Comparator Period Xt
U-MAX_EXC_CUR_LIMIT.MA       265.00000   :Requested CM Current Limit
U-REQ_EXC_FQ.HZ              50          :Requested CM Frequency
U-TILT_Y_OFFSET.          -2.06578       :WPTET Tilt Y Offset
U-TILT_Y_GAIN.           1.02173         :WPTET Tilt Y Gain
U-TILT_X_OFFSET.           2.30841       :WPTET Tilt X Offset
U-TILT_X_GAIN.           1.00000         :WPTET Tilt X Gain
U-TILT_OFFSET_TOL.           0.00100     :WPTET Tilt Offset Calibration Tolerance
U-MOT_CUR_LIMIT_REQ.MA        70.00000   :Requested Motor Current Limit
U-MOT_SPD_REQ_WPMS.RPM        1.00000    :Requested Motor Speed
U-STD_TOL_TILT.           0.01000        :Tilt Standard Deviation Tolerance
CWEI .LB/F      29.00000                 :Casing Weight
CSIZ .IN         7.00000                 :Current Casing Size
LCC  .               440                 :Logging Company Code
LUN  .              2134                 :Logging Unit Number
HIDE .                                   :Header Identifier
HID1 .                                   :Header Identifier Line 1
R1   .                                   :Remark Line 1
WITN .        MR. KELLY McCOY            :Witness's Name
ENGI .        MORRIS MOORE               :Engineer's Name
LUL  .        IOWA COLONY                :Logging Unit Location
DATE .        02-Aug-2018                :Date as Month-Day-Year
STAT .        TEXAS                      :State or Province
COUN .        HARRIS                     :County or Rig Name
FN   .        WILDCAT                    :Field Name
WN   .        WPP TEST 4                 :Well Name
CN   .        SHELL INTERNATIONAL EP     :Company Name
CLAB .        County                     :County/Rig Label
SLAB .        State                      :State/Province Label
RUN  .          1                        :RUN NUMBER
PDAT .        GROUND LEVEL               :Permanent Datum
EPD  .                                   :Elevation of Permanent Datum above Mean Sea Level
LMF  .          NA                       :Logging Measured From (Name of Logging Elevation Reference)
APD  .                                   :Elevation of Depth Reference (LMF) above Permanent Datum
#-----------------------------------------------------------------------------
~CURVE INFORMATION
#MNEM.UNIT   API CODE                                  DESCRIPTION
#---- -----  --------                                  -----------------------
TIME .S                                                :TIME {F10.1}
FREQ_EMF_SL.HZ                                         :Electromagnetic Field Frequency {F13.4}
PH_SH_WPPCM_SL.DEG                                     :WPPCM Phase Shift {F13.4}
RB_SL.DEG                                              :Relative Bearing {F13.4}
SDEV_SL.DEG                                            :Sonde Deviation {F13.4}
RTIX_SL.DEG                                            :Raw X-axis Tilt {F13.4}
RTIY_SL.DEG                                            :Raw Y-axis Tilt {F13.4}
TILX_SL.DEG                                            :X-axis Tilt {F13.4}
TILY_SL.DEG                                            :Y-axis Tilt {F13.4}
ROTA_SL.DEG                                            :Motor Rotation Angle {F13.4}
TOD7 .S                                                :Time of Day {I11}
TOJ  .S                                                :Time of Job {F13.4}
#-----------------------------------------------------------------------------
# 
#     TIME    FREQ_EMF_SL  PH_SH_WPPCM_    RB_SL       SDEV_SL      RTIX_SL      RTIY_SL      TILX_SL      TILY_SL      ROTA_SL        TOD7            TOJ
#                          SL
~A  
       0.0    1331.6761       0.0000    -154.8337    -999.2500     -30.2455      94.3515     -27.9371      94.3357     216.9192 1533250265 9999999.9999
       1.0    1334.2030       0.0000    -151.3480    -999.2500     -35.4270      89.6118     -33.1186      89.4931     221.3982 1533250265 9999999.9999
       2.0    1341.8416       0.0000    -146.5424    -999.2500     -43.1390      81.9400     -40.8306      81.6545     227.4970 1533250266 9999999.9999
       3.0    1321.6636       0.0000    -142.1335    -999.2500     -50.3288      73.4247     -48.0204      72.9542     233.6020 1533250267 9999999.9999
       4.0    1329.1588       0.0000    -137.0755    -999.2500     -57.4785      62.6600     -55.1701      61.9556     239.7016 1533250268 9999999.9999
       5.0    1334.2030       0.0000    -129.6954    -999.2500     -72.5410      52.2970     -70.2326      51.3675     245.8198 1533250269 9999999.9999
       6.0    1331.6761       0.0000    -125.4763    -999.2500     -81.2973      45.4687     -78.9889      44.3908     252.3236 1533250270 9999999.9999
       7.0    1324.1526       0.0000    -121.0613    -999.2500     -88.9692      38.1985     -86.6608      36.9627     258.4285 1533250271 9999999.9999
       8.0    1329.1588       0.0000    -116.0232    -999.2500     -95.7975      30.5668     -93.4891      29.1652     264.5332 1533250272 9999999.9999
       9.0    1339.2858       0.0000    -109.7855    -999.2500    -101.6217      22.3728     -99.3133      20.7932     270.6328 1533250273 9999999.9999
      10.0    1341.8416       0.0000    -102.7231      87.2670    -105.3170      14.4600    -103.0086      12.7084     276.7322 1533250274 9999999.9999
      11.0    1344.4073       0.0000     -94.3311      76.6183    -106.3613       6.1455    -104.0529       4.2132     282.8500 1533250275 9999999.9999
      12.0    1362.6454       0.0000     -84.9740      77.0321    -106.2007      -2.7715    -103.8923      -4.8975     288.9680 1533250276 9999999.9999
      13.0    1362.6454       0.0000     -76.5847      85.5651    -105.3973     -11.1262    -103.0889     -13.4337     295.0666 1533250277 9999999.9999
      14.0    1367.9475       0.0000     -69.5108    -999.2500    -102.1840     -19.1193     -99.8756     -21.6005     301.1844 1533250278 9999999.9999
      15.0    1378.6765       0.0000     -63.5471    -999.2500     -97.0427     -27.0723     -94.7343     -29.7263     307.2892 1533250279 9999999.9999
      16.0    1414.7384       0.0000     -58.6872    -999.2500     -90.3348     -34.6237     -88.0264     -37.4417     313.3885 1533250280 9999999.9999
      17.0    1409.0682       0.0000     -54.4138    -999.2500     -83.1852     -41.9742     -80.8768     -44.9519     319.4749 1533250281 9999999.9999
      18.0    1429.1158       0.0000     -50.3557    -999.2500     -74.6297     -49.0033     -72.3213     -52.1338     325.9976 1533250282 9999999.9999
      19.0    1458.7655       0.0000     -45.7285    -999.2500     -63.6642     -55.5505     -61.3558     -58.8232     332.0901 1533250283 9999999.9999
      20.0    1486.5221       0.0000     -37.7146    -999.2500     -51.2125     -73.3845     -48.9041     -77.0447     338.2018 1533250284 9999999.9999
      21.0    1492.8344       0.0000     -33.6510    -999.2500     -43.9423     -82.5425     -41.6339     -86.4017     344.3134 1533250285 9999999.9999
      22.0    1499.2004       0.0000     -29.4529    -999.2500     -36.5918     -90.0135     -34.2834     -94.0350     350.4059 1533250286 9999999.9999
      23.0    1525.2169       0.0000     -24.4959    -999.2500     -28.9602     -95.9582     -26.6518    -100.1088     356.5237 1533250287 9999999.9999
      24.0    1528.5327       0.0000     -18.2738    -999.2500     -20.9670    -100.0953     -18.6586    -104.3359       2.6223 1533250288 9999999.9999
      25.0    1545.3296       0.0000     -11.2524      78.5830     -13.3353    -101.7020     -11.0269    -105.9775       8.7272 1533250289 9999999.9999
      26.0    1569.4755       0.0000      -2.4849      74.2120      -4.6995    -101.7020      -2.3911    -105.9775      14.8321 1533250290 9999999.9999
      27.0    1580.0563       0.0000       6.5730      75.5857       4.0568    -101.5413       6.3652    -105.8133      20.9309 1533250291 9999999.9999
      28.0    1612.6721       0.0000      14.2136      87.3196      11.8893    -100.2158      14.1977    -104.4590      27.0488 1533250292 9999999.9999
      29.0    1605.3082       0.0000      20.6532    -999.2500      19.4005     -96.9222      21.7089    -101.0938      33.1353 1533250293 9999999.9999
      30.0    1605.3082       0.0000      26.2013    -999.2500      26.9920     -91.9415      29.3004     -96.0049      39.6451 1533250294 9999999.9999
      31.0    1616.3793       0.0000      30.6205    -999.2500      33.9810     -85.6353      36.2894     -89.5617      45.7438 1533250295 9999999.9999
      32.0    1627.6041       0.0000      34.6508    -999.2500      40.8897     -78.2848      43.1981     -82.0515      51.8556 1533250296 9999999.9999
      33.0    1620.1036       0.0000      38.7735    -999.2500      47.7983     -69.2072      50.1067     -72.7766      57.9666 1533250297 9999999.9999
      34.0    1635.1744       0.0000      46.7115    -999.2500      57.7597     -51.5338      60.0681     -54.7193      64.0654 1533250298 9999999.9999
      35.0    1642.8153       0.0000      52.3731    -999.2500      76.3568     -46.0310      78.6652     -49.0969      70.1904 1533250299 9999999.9999
      36.0    1631.3805       0.0000      56.3308    -999.2500      84.9123     -38.8010      87.2207     -41.7098      76.2953 1533250300 9999999.9999
      37.0    1646.6628       0.0000      60.3668    -999.2500      91.7808     -31.8120      94.0892     -34.5690      82.4265 1533250301 9999999.9999
      38.0    1646.6628       0.0000      65.2336    -999.2500      97.2837     -24.4615      99.5921     -27.0588      88.5252 1533250302 9999999.9999
      39.0    1635.1744       0.0000      71.0991    -999.2500     100.4568     -17.0708     102.7652     -19.5075      94.6239 1533250303 9999999.9999
      40.0    1616.3793       0.0000      78.0977      82.2527     101.8627      -9.5195     104.1711     -11.7921     100.7287 1533250304 9999999.9999
      41.0    1616.3793       0.0000      86.8936      75.6729     102.3447      -0.9238     104.6531      -3.0097     106.8336 1533250305 9999999.9999
      42.0    1608.9817       0.0000      95.9793      76.5098     102.4250       7.7120     104.7334       5.8138     113.3503 1533250306 9999999.9999
      43.0    1601.6515       0.0000     103.9390      87.1007     100.9388      15.7052     103.2472      13.9806     119.4368 1533250307 9999999.9999
      44.0    1583.6149       0.0000     110.7038    -999.2500      96.9623      23.4573      99.2707      21.9012     125.5416 1533250308 9999999.9999
      45.0    1587.1896       0.0000     116.5418    -999.2500      91.2185      31.2898      93.5269      29.9039     131.6465 1533250309 9999999.9999
      46.0    1552.1523       0.0000     121.4675    -999.2500      84.3500      38.8813      86.6584      37.6603     137.7584 1533250310 9999999.9999
      47.0    1505.6210       0.0000     125.9486    -999.2500      76.0355      46.3122      78.3439      45.2526     143.8764 1533250311 9999999.9999
      48.0    1515.3556       0.0000     130.9212    -999.2500      65.1905      54.1045      67.4989      53.2143     149.9814 1533250312 9999999.9999
      49.0    1512.0968       0.0000     138.7883    -999.2500      52.6585      69.7695      54.9669      69.2196     156.0802 1533250313 9999999.9999
      50.0    1489.6716       0.0000     142.7939    -999.2500      45.8703      79.3292      48.1787      78.9870     162.1921 1533250314 9999999.9999
      51.0    1467.9019       0.0000     146.5975    -999.2500      38.8813      87.2018      41.1897      87.0307     168.2971 1533250315 9999999.9999
      52.0    1432.0265       0.0000     150.8680    -999.2500      31.4505      94.3917      33.7589      94.3767     174.3775 1533250316 9999999.9999
