~VERSION INFORMATION
VERS.           2.0   :CWLS Log ASCII Standard - VERSION 2.0
WRAP.           NO    :One Line per depth step
PROD.  Schlumberger   :LAS Producer
PROG.  DLIS to ASCII 19C2-270                          :LAS Program name and version
CREA.        2018/08/03 10:59                          :LAS Creation date {YYYY/MM/DD hh:mm}
DLIS_CREA.  2018-Aug-03 09:50                          :DLIS Creation date and time {YYYY-MMM-DD hh:mm}
SOURCE.     PERFO_Perfo_088PTP.DLIS                    :DLIS File Name
FILE-ID.     PERFO_Perfo_088PTP                        :File Identification Number
#--------------------------------------------------
~WELL INFORMATION
#MNEM.UNIT      DATA             DESCRIPTION
#---- ------ --------------   -----------------------------
STRT .S            0.0       :START TIME      
STOP .S          526.0       :STOP TIME      
STEP .S            1.0       :STEP     
NULL .          -999.25      :NULL VALUE
COMP .        SHELL INTERNATIONAL EP                   :COMPANY
WELL .        WPP TEST 4                               :WELL
FLD  .        WILDCAT                                  :FIELD
LOC  .        NA                                       :LOCATION
CNTY .        HARRIS                                   :COUNTY
STAT .        TEXAS                                    :STATE
CTRY .                                                 :COUNTRY
API  .        NA                                       :API NUMBER
UWI  .                                                 :UNIQUE WELL ID
DATE .        02-Aug-2018                              :LOG DATE {DD-MMM-YYYY}
SRVC .        Schlumberger                             :SERVICE COMPANY
LATI .DEG                                              :LATITUDE
LONG .DEG                                              :LONGITUDE
GDAT .                                                 :GeoDetic Datum
SECT .        NA                                       :Section
RANG .        NA                                       :Range
TOWN .        NA                                       :Township
#-----------------------------------------------------------------------------
~PARAMETER INFORMATION
#MNEM.UNIT    VALUE                      DESCRIPTION
#---- -----   --------------------       ------------------------
U-PHASE_B_COMP_PER_YT.                 0 :Phase B Comparator Period Yt
U-PHASE_A_COMP_PER_XT.                 0 :Phase A Comparator Period Xt
U-MAX_EXC_CUR_LIMIT.MA       265.00000   :Requested CM Current Limit
U-REQ_EXC_FQ.HZ              50          :Requested CM Frequency
U-TILT_Y_OFFSET.          -2.06578       :WPTET Tilt Y Offset
U-TILT_Y_GAIN.           1.02173         :WPTET Tilt Y Gain
U-TILT_X_OFFSET.           2.30841       :WPTET Tilt X Offset
U-TILT_X_GAIN.           1.00000         :WPTET Tilt X Gain
U-TILT_OFFSET_TOL.           0.00100     :WPTET Tilt Offset Calibration Tolerance
U-MOT_CUR_LIMIT_REQ.MA        70.00000   :Requested Motor Current Limit
U-MOT_SPD_REQ_WPMS.RPM        1.00000    :Requested Motor Speed
U-STD_TOL_TILT.           0.01000        :Tilt Standard Deviation Tolerance
CWEI .LB/F      29.00000                 :Casing Weight
CSIZ .IN         7.00000                 :Current Casing Size
LCC  .               440                 :Logging Company Code
LUN  .              2134                 :Logging Unit Number
HIDE .                                   :Header Identifier
HID1 .                                   :Header Identifier Line 1
R1   .                                   :Remark Line 1
WITN .        MR. KELLY McCOY            :Witness's Name
ENGI .        MORRIS MOORE               :Engineer's Name
LUL  .        IOWA COLONY                :Logging Unit Location
DATE .        02-Aug-2018                :Date as Month-Day-Year
STAT .        TEXAS                      :State or Province
COUN .        HARRIS                     :County or Rig Name
FN   .        WILDCAT                    :Field Name
WN   .        WPP TEST 4                 :Well Name
CN   .        SHELL INTERNATIONAL EP     :Company Name
CLAB .        County                     :County/Rig Label
SLAB .        State                      :State/Province Label
RUN  .          1                        :RUN NUMBER
PDAT .        GROUND LEVEL               :Permanent Datum
EPD  .                                   :Elevation of Permanent Datum above Mean Sea Level
LMF  .          NA                       :Logging Measured From (Name of Logging Elevation Reference)
APD  .                                   :Elevation of Depth Reference (LMF) above Permanent Datum
#-----------------------------------------------------------------------------
~CURVE INFORMATION
#MNEM.UNIT   API CODE                                  DESCRIPTION
#---- -----  --------                                  -----------------------
TIME .S                                                :TIME {F10.1}
FREQ_EMF_SL.HZ                                         :Electromagnetic Field Frequency {F13.4}
PH_SH_WPPCM_SL.DEG                                     :WPPCM Phase Shift {F13.4}
RB_SL.DEG                                              :Relative Bearing {F13.4}
SDEV_SL.DEG                                            :Sonde Deviation {F13.4}
RTIX_SL.DEG                                            :Raw X-axis Tilt {F13.4}
RTIY_SL.DEG                                            :Raw Y-axis Tilt {F13.4}
TILX_SL.DEG                                            :X-axis Tilt {F13.4}
TILY_SL.DEG                                            :Y-axis Tilt {F13.4}
ROTA_SL.DEG                                            :Motor Rotation Angle {F13.4}
TOD7 .S                                                :Time of Day {I11}
TOJ  .S                                                :Time of Job {F13.4}
#-----------------------------------------------------------------------------
# 
#     TIME    FREQ_EMF_SL  PH_SH_WPPCM_    RB_SL       SDEV_SL      RTIX_SL      RTIY_SL      TILX_SL      TILY_SL      ROTA_SL        TOD7            TOJ
#                          SL
~A  
# ...
     477.0    1409.0682       0.0000     148.2115    -999.2500      35.9893      90.0537      38.2977      89.9445     262.0745 1533250741 9999999.9999
     478.0    1397.8628       0.0000     152.7774    -999.2500      28.3978      96.9222      30.7062      96.9622     268.1793 1533250742 9999999.9999
     479.0    1378.6765       0.0000     158.5025    -999.2500      20.3243     102.1438      22.6327     102.2974     274.2779 1533250743 9999999.9999
     480.0    1360.0098       0.0000     165.1850      85.1213      12.4517     105.3572      14.7601     105.5805     280.3765 1533250744 9999999.9999
     481.0    1352.1635       0.0000     173.0736      74.9151       4.3782     106.3212       6.6866     106.5654     286.4812 1533250745 9999999.9999
     482.0    1339.2858       0.0000    -178.1744      73.2849      -4.0568     106.5622      -1.7484     106.8117     292.5859 1533250746 9999999.9999
     483.0    1327.9037       0.0000    -169.6213      78.3705     -12.4718     105.3170     -10.1633     105.5395     298.6723 1533250747 9999999.9999
     484.0    1319.1838       0.0000    -161.8140     106.4536     -21.1277     100.7782     -18.8193     100.9020     304.7709 1533250748 9999999.9999
     485.0    1319.1838       0.0000    -155.4041    -999.2500     -29.4422      94.9138     -27.1338      94.9103     310.8756 1533250749 9999999.9999
     486.0    1309.3575       0.0000    -150.1900    -999.2500     -37.2345      87.9650     -34.9261      87.8104     316.9803 1533250750 9999999.9999
     487.0    1302.0834       0.0000    -145.6304    -999.2500     -44.6252      80.1727     -42.3168      79.8488     323.0667 1533250751 9999999.9999
     488.0    1299.6765       0.0000    -141.1876    -999.2500     -51.8150      71.4967     -49.5066      70.9843     329.1653 1533250752 9999999.9999
     489.0    1299.6765       0.0000    -134.2894    -999.2500     -62.2583      58.4023     -59.9499      57.6055     335.2700 1533250753 9999999.9999
     490.0    1302.0834       0.0000    -128.8685    -999.2500     -74.2280      50.9715     -71.9196      50.0132     341.7797 1533250754 9999999.9999
     491.0    1299.6765       0.0000    -124.7372    -999.2500     -82.6228      44.2235     -80.3144      43.1186     347.8914 1533250755 9999999.9999
     492.0    1294.8895       0.0000    -120.2520    -999.2500     -90.1742      36.9132     -87.8658      35.6494     353.9961 1533250756 9999999.9999
     493.0    1302.0834       0.0000    -115.0817    -999.2500     -96.8820      29.2413     -94.5736      27.8109       0.1141 1533250757 9999999.9999
     494.0    1306.9238       0.0000    -108.7774    -999.2500    -102.3045      21.1678     -99.9961      19.5620       6.2136 1533250758 9999999.9999
     495.0    1314.8667       0.0000    -101.4639      83.3120    -105.5580      13.1646    -103.2496      11.3849      12.3124 1533250759 9999999.9999
     496.0    1321.6636       0.0000     -92.9002      76.3259    -106.2810       4.7798    -103.9726       2.8179      18.4303 1533250760 9999999.9999
     497.0    1341.8416       0.0000     -84.1001      77.4894    -106.1203      -3.6150    -103.8119      -5.7593      24.5352 1533250761 9999999.9999
     498.0    1344.4073       0.0000     -76.0246      88.8946    -105.0358     -11.7287    -102.7274     -14.0493      30.6472 1533250762 9999999.9999
     499.0    1357.3842       0.0000     -69.0939    -999.2500    -101.7823     -19.6415     -99.4739     -22.1340      36.7460 1533250763 9999999.9999
     500.0    1367.9475       0.0000     -63.2226    -999.2500     -96.4803     -27.5543     -94.1719     -30.2188      42.8639 1533250764 9999999.9999
     501.0    1397.8628       0.0000     -58.2281    -999.2500     -89.6922     -35.3868     -87.3838     -38.2215      48.9688 1533250765 9999999.9999
     502.0    1420.4546       0.0000     -54.1697    -999.2500     -82.5425     -42.3758     -80.2341     -45.3623      55.4725 1533250766 9999999.9999
     503.0    1440.8298       0.0000     -49.9913    -999.2500     -73.6255     -49.5255     -71.3171     -52.6673      61.5773 1533250767 9999999.9999
     504.0    1461.7983       0.0000     -45.1279    -999.2500     -62.0173     -55.9923     -59.7089     -59.2747      67.6822 1533250768 9999999.9999
     505.0    1496.0106       0.0000     -37.1234    -999.2500     -50.1280     -74.5493     -47.8196     -78.2349      73.7809 1533250769 9999999.9999
     506.0    1512.0968       0.0000     -33.5069    -999.2500     -43.6612     -82.4622     -41.3528     -86.3196      79.8796 1533250770 9999999.9999
     507.0    1528.5327       0.0000     -28.9563    -999.2500     -35.7885     -90.4152     -33.4801     -94.4454      85.9845 1533250771 9999999.9999
     508.0    1552.1523       0.0000     -23.6022    -999.2500     -27.6748     -97.1632     -25.3664    -101.3400      92.0893 1533250772 9999999.9999
     509.0    1569.4755       0.0000     -17.3724    -999.2500     -19.9628     -99.9748     -17.6544    -104.2128      98.1880 1533250773 9999999.9999
     510.0    1576.5134       0.0000     -10.6462      78.3510     -12.7328    -101.4610     -10.4244    -105.7312     104.2868 1533250774 9999999.9999
     511.0    1605.3082       0.0000      -1.7728      74.4904      -4.0167    -101.3405      -1.7083    -105.6081     110.3916 1533250775 9999999.9999
     512.0    1627.6041       0.0000       6.8880      76.1435       4.3782    -101.1798       6.6866    -105.4440     116.4965 1533250776 9999999.9999
     513.0    1631.3805       0.0000      14.9268      88.0580      12.6927     -99.6133      15.0011    -103.8434     122.5827 1533250777 9999999.9999
     514.0    1646.6628       0.0000      21.1036    -999.2500      19.9628     -96.7213      22.2712    -100.8886     129.0925 1533250778 9999999.9999
     515.0    1658.3137       0.0000      26.3230    -999.2500      27.1928     -91.4595      29.5012     -95.5124     135.2106 1533250779 9999999.9999
     516.0    1674.1072       0.0000      30.6455    -999.2500      34.0212     -85.3943      36.3296     -89.3155     141.2977 1533250780 9999999.9999
     517.0    1674.1072       0.0000      34.7924    -999.2500      41.0905     -77.6823      43.3989     -81.4359     147.3965 1533250781 9999999.9999
     518.0    1674.1072       0.0000      38.8301    -999.2500      47.7983     -68.8457      50.1067     -72.4073     153.5146 1533250782 9999999.9999
     519.0    1674.1072       0.0000      44.9648    -999.2500      51.4937     -50.7305      53.8021     -53.8985     159.6195 1533250783 9999999.9999
     520.0    1678.1025       0.0000      52.8029    -999.2500      77.0397     -45.1875      79.3481     -48.2351     165.7061 1533250784 9999999.9999
     521.0    1674.1072       0.0000      56.6173    -999.2500      85.3140     -38.2788      87.6224     -41.1763     171.8049 1533250785 9999999.9999
     522.0    1674.1072       0.0000      60.6915    -999.2500      92.1022     -31.2898      94.4106     -34.0354     177.9099 1533250786 9999999.9999
     523.0    1670.1307       0.0000      65.4481    -999.2500      97.2837     -24.1803      99.5921     -26.7715     183.9903 1533250787 9999999.9999
     524.0    1662.2340       0.0000      71.1757    -999.2500     100.3765     -16.9905     102.6849     -19.4254     190.0891 1533250788 9999999.9999
     525.0    1654.4117       0.0000      79.3448      80.9121     101.6618      -8.2743     103.9702     -10.5199     196.1879 1533250789 9999999.9999
     526.0    1638.9860       0.0000      87.4877      75.7632     102.1438      -0.3615     104.4522      -2.4351     202.7040 1533250790 9999999.9999
