~VERSION INFORMATION
VERS.           2.0   :CWLS Log ASCII Standard - VERSION 2.0
WRAP.           NO    :One Line per depth step
PROD.  Schlumberger   :LAS Producer
PROG.  DLIS to ASCII 19C2-270                          :LAS Program name and version
CREA.        2018/08/03 10:59                          :LAS Creation date {YYYY/MM/DD hh:mm}
DLIS_CREA.  2018-Aug-03 09:28                          :DLIS Creation date and time {YYYY-MMM-DD hh:mm}
SOURCE.     PERFO_Perfo_076PTP.DLIS                    :DLIS File Name
FILE-ID.     PERFO_Perfo_076PTP                        :File Identification Number
#--------------------------------------------------
~WELL INFORMATION
#MNEM.UNIT      DATA             DESCRIPTION
#---- ------ --------------   -----------------------------
STRT .S            0.0       :START TIME      
STOP .S         1744.0       :STOP TIME      
STEP .S            1.0       :STEP     
NULL .          -999.25      :NULL VALUE
COMP .        SHELL INTERNATIONAL EP                   :COMPANY
WELL .        WPP TEST 4                               :WELL
FLD  .        WILDCAT                                  :FIELD
LOC  .        NA                                       :LOCATION
CNTY .        HARRIS                                   :COUNTY
STAT .        TEXAS                                    :STATE
CTRY .                                                 :COUNTRY
API  .        NA                                       :API NUMBER
UWI  .                                                 :UNIQUE WELL ID
DATE .        02-Aug-2018                              :LOG DATE {DD-MMM-YYYY}
SRVC .        Schlumberger                             :SERVICE COMPANY
LATI .DEG                                              :LATITUDE
LONG .DEG                                              :LONGITUDE
GDAT .                                                 :GeoDetic Datum
SECT .        NA                                       :Section
RANG .        NA                                       :Range
TOWN .        NA                                       :Township
#-----------------------------------------------------------------------------
~PARAMETER INFORMATION
#MNEM.UNIT    VALUE                      DESCRIPTION
#---- -----   --------------------       ------------------------
U-PHASE_B_COMP_PER_YT.                 0 :Phase B Comparator Period Yt
U-PHASE_A_COMP_PER_XT.                 0 :Phase A Comparator Period Xt
U-MAX_EXC_CUR_LIMIT.MA       265.00000   :Requested CM Current Limit
U-REQ_EXC_FQ.HZ              50          :Requested CM Frequency
U-TILT_Y_OFFSET.          -2.06578       :WPTET Tilt Y Offset
U-TILT_Y_GAIN.           1.02173         :WPTET Tilt Y Gain
U-TILT_X_OFFSET.           2.30841       :WPTET Tilt X Offset
U-TILT_X_GAIN.           1.00000         :WPTET Tilt X Gain
U-TILT_OFFSET_TOL.           0.00100     :WPTET Tilt Offset Calibration Tolerance
U-MOT_CUR_LIMIT_REQ.MA        70.00000   :Requested Motor Current Limit
U-MOT_SPD_REQ_WPMS.RPM        1.00000    :Requested Motor Speed
U-STD_TOL_TILT.           0.01000        :Tilt Standard Deviation Tolerance
CWEI .LB/F      29.00000                 :Casing Weight
CSIZ .IN         7.00000                 :Current Casing Size
LCC  .               440                 :Logging Company Code
LUN  .              2134                 :Logging Unit Number
HIDE .                                   :Header Identifier
HID1 .                                   :Header Identifier Line 1
R1   .                                   :Remark Line 1
WITN .        MR. KELLY McCOY            :Witness's Name
ENGI .        MORRIS MOORE               :Engineer's Name
LUL  .        IOWA COLONY                :Logging Unit Location
DATE .        02-Aug-2018                :Date as Month-Day-Year
STAT .        TEXAS                      :State or Province
COUN .        HARRIS                     :County or Rig Name
FN   .        WILDCAT                    :Field Name
WN   .        WPP TEST 4                 :Well Name
CN   .        SHELL INTERNATIONAL EP     :Company Name
CLAB .        County                     :County/Rig Label
SLAB .        State                      :State/Province Label
RUN  .          1                        :RUN NUMBER
PDAT .        GROUND LEVEL               :Permanent Datum
EPD  .                                   :Elevation of Permanent Datum above Mean Sea Level
LMF  .          NA                       :Logging Measured From (Name of Logging Elevation Reference)
APD  .                                   :Elevation of Depth Reference (LMF) above Permanent Datum
#-----------------------------------------------------------------------------
~CURVE INFORMATION
#MNEM.UNIT   API CODE                                  DESCRIPTION
#---- -----  --------                                  -----------------------
TIME .S                                                :TIME {F10.1}
FREQ_EMF_SL.HZ                                         :Electromagnetic Field Frequency {F13.4}
PH_SH_WPPCM_SL.DEG                                     :WPPCM Phase Shift {F13.4}
RB_SL.DEG                                              :Relative Bearing {F13.4}
SDEV_SL.DEG                                            :Sonde Deviation {F13.4}
RTIX_SL.DEG                                            :Raw X-axis Tilt {F13.4}
RTIY_SL.DEG                                            :Raw Y-axis Tilt {F13.4}
TILX_SL.DEG                                            :X-axis Tilt {F13.4}
TILY_SL.DEG                                            :Y-axis Tilt {F13.4}
ROTA_SL.DEG                                            :Motor Rotation Angle {F13.4}
TOD7 .S                                                :Time of Day {I11}
TOJ  .S                                                :Time of Job {F13.4}
#-----------------------------------------------------------------------------
# 
#     TIME    FREQ_EMF_SL  PH_SH_WPPCM_    RB_SL       SDEV_SL      RTIX_SL      RTIY_SL      TILX_SL      TILY_SL      ROTA_SL        TOD7            TOJ
#                          SL
~A  
# ...
     689.0       0.0000       0.0000     168.1201      79.2181       9.3588     105.7588      11.6672     105.9909     194.5391 1533242711 9999999.9999
     690.0       0.0000       0.0000     176.3857      73.9491       1.1648     106.2007       3.4732     106.4423     200.6410 1533242712 9999999.9999
     691.0       0.0000       0.0000    -175.0106      74.2268      -7.1095     106.2810      -4.8011     106.5244     206.7429 1533242713 9999999.9999
     692.0       0.0000       0.0000    -167.1425      84.3602     -15.1027     103.8308     -12.7943     104.0210     213.2528 1533242714 9999999.9999
     693.0       0.0000       0.0000    -159.9867    -999.2500     -23.3770      99.1715     -21.0686      99.2604     219.3547 1533242715 9999999.9999
     694.0       0.0000       0.0000    -154.0069    -999.2500     -31.4505      92.9055     -29.1421      92.8583     225.4566 1533242716 9999999.9999
     695.0       0.0000       0.0000    -148.8160    -999.2500     -39.4035      85.4345     -37.0951      85.2250     231.5585 1533242717 9999999.9999
     696.0       0.0000       0.0000    -144.2751    -999.2500     -46.7942      77.3610     -44.4858      76.9761     237.6604 1533242718 9999999.9999
     697.0       0.0000       0.0000    -139.6220    -999.2500     -54.0242      67.9620     -51.7158      67.3728     243.7623 1533242719 9999999.9999
     698.0       0.0000       0.0000    -131.5634    -999.2500     -68.2030      54.9078     -65.8946      54.0350     249.8642 1533242720 9999999.9999
     699.0       0.0000       0.0000    -127.0865    -999.2500     -77.7225      48.0393     -75.4141      47.0173     255.9661 1533242721 9999999.9999
     700.0       0.0000       0.0000    -122.8383    -999.2500     -85.7157      41.0503     -83.4072      39.8765     262.0679 1533242722 9999999.9999
     701.0       0.0000       0.0000    -117.9741    -999.2500     -93.0260      33.4187     -90.7176      32.0790     268.1697 1533242723 9999999.9999
     702.0       0.0000       0.0000    -112.4056    -999.2500     -99.2518      25.6665     -96.9434      24.1584     274.2715 1533242724 9999999.9999
     703.0       0.0000       0.0000    -105.5235    -999.2500    -103.9513      17.4725    -101.6429      15.7863     280.3733 1533242725 9999999.9999
     704.0       0.0000       0.0000     -97.7635      78.9824    -105.7588       9.4793    -103.4504       7.6195     286.8831 1533242726 9999999.9999
     705.0       0.0000       0.0000     -89.1833      76.3325    -105.9998       1.2452    -103.6914      -0.7936     292.9850 1533242727 9999999.9999
     706.0       0.0000       0.0000     -80.5396      80.5089    -105.6785      -7.1095    -103.3701      -9.3297     299.0898 1533242728 9999999.9999
     707.0       0.0000       0.0000     -72.9149     102.2948    -103.6702     -15.1428    -101.3618     -17.5376     305.1886 1533242729 9999999.9999
     708.0       0.0000       0.0000     -66.4532    -999.2500     -99.4125     -23.0557     -97.1041     -25.6224     311.2904 1533242730 9999999.9999
     709.0       0.0000       0.0000     -61.0196    -999.2500     -93.4277     -30.8882     -91.1193     -33.6251     317.3930 1533242731 9999999.9999
     710.0       0.0000       0.0000     -56.2264    -999.2500     -86.0772     -38.7608     -83.7688     -41.6688     323.4948 1533242732 9999999.9999
     711.0       0.0000       0.0000     -52.2139    -999.2500     -78.2447     -45.7097     -75.9362     -48.7686     329.5966 1533242733 9999999.9999
     712.0       0.0000       0.0000     -48.0250    -999.2500     -68.9260     -52.4577     -66.6176     -55.6632     335.6984 1533242734 9999999.9999
     713.0       0.0000       0.0000     -39.6166    -999.2500     -54.0643     -68.0423     -51.7559     -71.5865     341.8171 1533242735 9999999.9999
     714.0       0.0000       0.0000     -35.2479    -999.2500     -46.7540     -78.4857     -44.4456     -82.2567     347.9036 1533242736 9999999.9999
     715.0       0.0000       0.0000     -31.2604    -999.2500     -39.6847     -86.4788     -37.3763     -90.4236     354.0054 1533242737 9999999.9999
     716.0       0.0000       0.0000     -26.7782    -999.2500     -32.3743     -92.8252     -30.0659     -96.9078       0.5160 1533242738 9999999.9999
     717.0       0.0000       0.0000     -21.4984    -999.2500     -24.9837     -97.6452     -22.6753    -101.8325       6.6179 1533242739 9999999.9999
     718.0       0.0000       0.0000     -15.5113      83.7189     -17.8742    -100.5372     -15.5658    -104.7873      12.7228 1533242740 9999999.9999
     719.0       0.0000       0.0000      -7.5852      76.4130      -9.6802    -101.2602      -7.3718    -105.5260      18.8215 1533242741 9999999.9999
     720.0       0.0000       0.0000       1.2682      74.8128      -1.0845    -100.9790       1.2239    -105.2388      24.9233 1533242742 9999999.9999
     721.0       0.0000       0.0000       9.8409      79.0185       7.3505    -100.4568       9.6589    -104.7053      31.0251 1533242743 9999999.9999
     722.0       0.0000       0.0000      17.2872      95.5060      15.3838     -98.2477      17.6922    -102.4481      37.1146 1533242744 9999999.9999
     723.0    1559.0355       0.0000      23.0777    -999.2500      22.6138     -94.3917      24.9222     -98.5083      43.1328 1533242745 9999999.9999
     724.0    1723.3456       0.0000      27.9702    -999.2500      29.7233     -88.8487      32.0317     -92.8449      49.2346 1533242746 9999999.9999
     725.0    1757.8126       0.0000      32.2632    -999.2500      36.7123     -81.9802      39.0207     -85.8271      55.3364 1533242747 9999999.9999
     726.0    1753.4288       0.0000      36.3478    -999.2500      43.6612     -74.0272      45.9696     -77.7013      61.4382 1533242748 9999999.9999
     727.0    1757.8126       0.0000      40.8457    -999.2500      50.3288     -63.3830      52.6372     -66.8259      67.5400 1533242749 9999999.9999
     728.0    1744.7272       0.0000      50.3689    -999.2500      70.8138     -49.2845      73.1222     -52.4211      74.0498 1533242750 9999999.9999
     729.0    1749.0671       0.0000      54.2206    -999.2500      79.9317     -42.5767      82.2401     -45.5675      80.1516 1533242751 9999999.9999
     730.0    1744.7272       0.0000      58.0690    -999.2500      87.5633     -35.7082      89.8717     -38.5498      86.2534 1533242752 9999999.9999
     731.0    1740.4083       0.0000      62.1907    -999.2500      93.4277     -28.9602      95.7361     -31.6552      92.3552 1533242753 9999999.9999
     732.0    1740.4083       0.0000      67.3435    -999.2500      98.2477     -21.6900     100.5561     -24.2270      98.4570 1533242754 9999999.9999
     733.0    1731.8351       0.0000      73.4885    -999.2500     100.5372     -14.4198     102.8456     -16.7989     104.5588 1533242755 9999999.9999
     734.0    1731.8351       0.0000      81.7853      78.8109     101.5413      -5.8643     103.8497      -8.0575     110.6605 1533242756 9999999.9999
     735.0    1731.8351       0.0000      90.7899      75.8505     101.8627       2.7715     104.1711       0.7659     116.7755 1533242757 9999999.9999
     736.0    1723.3456       0.0000      99.4925      79.8684     101.5413      11.1663     103.8497       9.3432     122.8904 1533242758 9999999.9999
     737.0    1723.3456       0.0000     106.6967      94.5773      99.0912      18.7578     101.3996      17.0996     128.9922 1533242759 9999999.9999
     738.0    1719.1321       0.0000     113.1632    -999.2500      94.4318      26.6305      96.7402      25.1433     135.0941 1533242760 9999999.9999
     739.0    1710.7665       0.0000     118.4311    -999.2500      88.3265      34.1015      90.6349      32.7766     141.1837 1533242761 9999999.9999
     740.0    1702.4818       0.0000     123.1735    -999.2500      81.0563      41.6528      83.3647      40.4921     147.6937 1533242762 9999999.9999
     741.0    1698.3695       0.0000     127.5899    -999.2500      72.3000      48.9230      74.6084      47.9202     153.8086 1533242763 9999999.9999
