~VERSION INFORMATION
VERS.           2.0   :CWLS Log ASCII Standard - VERSION 2.0
WRAP.           NO    :One Line per depth step
PROD.  Schlumberger   :LAS Producer
PROG.  DLIS to ASCII 19C2-270                          :LAS Program name and version
CREA.        2018/08/03 10:59                          :LAS Creation date {YYYY/MM/DD hh:mm}
DLIS_CREA.  2018-Aug-03 09:28                          :DLIS Creation date and time {YYYY-MMM-DD hh:mm}
SOURCE.     PERFO_Perfo_076PTP.DLIS                    :DLIS File Name
FILE-ID.     PERFO_Perfo_076PTP                        :File Identification Number
#--------------------------------------------------
~WELL INFORMATION
#MNEM.UNIT      DATA             DESCRIPTION
#---- ------ --------------   -----------------------------
STRT .S            0.0       :START TIME      
STOP .S         1744.0       :STOP TIME      
STEP .S            1.0       :STEP     
NULL .          -999.25      :NULL VALUE
COMP .        SHELL INTERNATIONAL EP                   :COMPANY
WELL .        WPP TEST 4                               :WELL
FLD  .        WILDCAT                                  :FIELD
LOC  .        NA                                       :LOCATION
CNTY .        HARRIS                                   :COUNTY
STAT .        TEXAS                                    :STATE
CTRY .                                                 :COUNTRY
API  .        NA                                       :API NUMBER
UWI  .                                                 :UNIQUE WELL ID
DATE .        02-Aug-2018                              :LOG DATE {DD-MMM-YYYY}
SRVC .        Schlumberger                             :SERVICE COMPANY
LATI .DEG                                              :LATITUDE
LONG .DEG                                              :LONGITUDE
GDAT .                                                 :GeoDetic Datum
SECT .        NA                                       :Section
RANG .        NA                                       :Range
TOWN .        NA                                       :Township
#-----------------------------------------------------------------------------
~PARAMETER INFORMATION
#MNEM.UNIT    VALUE                      DESCRIPTION
#---- -----   --------------------       ------------------------
U-PHASE_B_COMP_PER_YT.                 0 :Phase B Comparator Period Yt
U-PHASE_A_COMP_PER_XT.                 0 :Phase A Comparator Period Xt
U-MAX_EXC_CUR_LIMIT.MA       265.00000   :Requested CM Current Limit
U-REQ_EXC_FQ.HZ              50          :Requested CM Frequency
U-TILT_Y_OFFSET.          -2.06578       :WPTET Tilt Y Offset
U-TILT_Y_GAIN.           1.02173         :WPTET Tilt Y Gain
U-TILT_X_OFFSET.           2.30841       :WPTET Tilt X Offset
U-TILT_X_GAIN.           1.00000         :WPTET Tilt X Gain
U-TILT_OFFSET_TOL.           0.00100     :WPTET Tilt Offset Calibration Tolerance
U-MOT_CUR_LIMIT_REQ.MA        70.00000   :Requested Motor Current Limit
U-MOT_SPD_REQ_WPMS.RPM        1.00000    :Requested Motor Speed
U-STD_TOL_TILT.           0.01000        :Tilt Standard Deviation Tolerance
CWEI .LB/F      29.00000                 :Casing Weight
CSIZ .IN         7.00000                 :Current Casing Size
LCC  .               440                 :Logging Company Code
LUN  .              2134                 :Logging Unit Number
HIDE .                                   :Header Identifier
HID1 .                                   :Header Identifier Line 1
R1   .                                   :Remark Line 1
WITN .        MR. KELLY McCOY            :Witness's Name
ENGI .        MORRIS MOORE               :Engineer's Name
LUL  .        IOWA COLONY                :Logging Unit Location
DATE .        02-Aug-2018                :Date as Month-Day-Year
STAT .        TEXAS                      :State or Province
COUN .        HARRIS                     :County or Rig Name
FN   .        WILDCAT                    :Field Name
WN   .        WPP TEST 4                 :Well Name
CN   .        SHELL INTERNATIONAL EP     :Company Name
CLAB .        County                     :County/Rig Label
SLAB .        State                      :State/Province Label
RUN  .          1                        :RUN NUMBER
PDAT .        GROUND LEVEL               :Permanent Datum
EPD  .                                   :Elevation of Permanent Datum above Mean Sea Level
LMF  .          NA                       :Logging Measured From (Name of Logging Elevation Reference)
APD  .                                   :Elevation of Depth Reference (LMF) above Permanent Datum
#-----------------------------------------------------------------------------
~CURVE INFORMATION
#MNEM.UNIT   API CODE                                  DESCRIPTION
#---- -----  --------                                  -----------------------
TIME .S                                                :TIME {F10.1}
FREQ_EMF_SL.HZ                                         :Electromagnetic Field Frequency {F13.4}
PH_SH_WPPCM_SL.DEG                                     :WPPCM Phase Shift {F13.4}
RB_SL.DEG                                              :Relative Bearing {F13.4}
SDEV_SL.DEG                                            :Sonde Deviation {F13.4}
RTIX_SL.DEG                                            :Raw X-axis Tilt {F13.4}
RTIY_SL.DEG                                            :Raw Y-axis Tilt {F13.4}
TILX_SL.DEG                                            :X-axis Tilt {F13.4}
TILY_SL.DEG                                            :Y-axis Tilt {F13.4}
ROTA_SL.DEG                                            :Motor Rotation Angle {F13.4}
TOD7 .S                                                :Time of Day {I11}
TOJ  .S                                                :Time of Job {F13.4}
#-----------------------------------------------------------------------------
# 
#     TIME    FREQ_EMF_SL  PH_SH_WPPCM_    RB_SL       SDEV_SL      RTIX_SL      RTIY_SL      TILX_SL      TILY_SL      ROTA_SL        TOD7            TOJ
#                          SL
~A  
# ...
     583.0    1723.3456       0.0000     -99.7504      81.0448    -105.5178      11.4475    -103.2094       9.6304     264.3229 1533242605 9999999.9999
     584.0    1723.3456       0.0000     -90.9994      76.3444    -105.9998       2.9723    -103.6914       0.9711     270.4379 1533242606 9999999.9999
     585.0    1719.1321       0.0000     -82.6588      78.6026    -105.8392      -5.0208    -103.5308      -7.1957     276.5397 1533242607 9999999.9999
     586.0    1723.3456       0.0000     -74.7299      94.2450    -104.3530     -13.1345    -102.0446     -15.4857     282.6415 1533242608 9999999.9999
     587.0    1719.1321       0.0000     -68.0589    -999.2500    -100.6577     -20.9670     -98.3493     -23.4883     288.7433 1533242609 9999999.9999
     588.0    1723.3456       0.0000     -62.3382    -999.2500     -94.9942     -28.8798     -92.6858     -31.5731     294.8451 1533242610 9999999.9999
     589.0    1723.3456       0.0000     -57.3524    -999.2500     -87.8445     -36.8328     -85.5361     -39.6989     300.9478 1533242611 9999999.9999
     590.0    1727.5798       0.0000     -53.2340    -999.2500     -80.3333     -43.9423     -78.0249     -46.9629     307.0496 1533242612 9999999.9999
     591.0    1723.3456       0.0000     -49.1904    -999.2500     -71.4967     -50.6502     -69.1883     -53.8164     313.1390 1533242613 9999999.9999
     592.0    1727.5798       0.0000     -41.6790    -999.2500     -56.1932     -61.7362     -53.8848     -65.1433     319.2540 1533242614 9999999.9999
     593.0    1714.9390       0.0000     -36.2400    -999.2500     -48.5213     -76.3167     -46.2129     -80.0406     325.3689 1533242615 9999999.9999
     594.0    1714.9390       0.0000     -32.2950    -999.2500     -41.4922     -84.5107     -39.1838     -88.4126     331.4737 1533242616 9999999.9999
     595.0    1714.9390       0.0000     -27.9944    -999.2500     -34.2622     -91.3390     -31.9538     -95.3893     337.9805 1533242617 9999999.9999
     596.0       0.0000       0.0000     -22.9093    -999.2500     -26.8313     -96.6812     -24.5229    -100.8475     344.1787 1533242618 9999999.9999
     597.0       0.0000       0.0000     -16.9334    -999.2500     -19.4808     -99.8945     -17.1724    -104.1307     350.2936 1533242619 9999999.9999
     598.0       0.0000       0.0000      -9.7894      78.2102     -11.8893    -101.0192      -9.5809    -105.2798     356.3954 1533242620 9999999.9999
     599.0       0.0000       0.0000      -1.0212      74.7536      -3.2937    -101.0192      -0.9853    -105.2798       2.4850 1533242621 9999999.9999
     600.0       0.0000       0.0000       7.7229      77.2065       5.2217    -100.6577       7.5301    -104.9105       8.5999 1533242622 9999999.9999
     601.0       0.0000       0.0000      15.5249      89.9619      13.3755     -99.0912      15.6839    -103.3099      14.7017 1533242623 9999999.9999
     602.0       0.0000       0.0000      21.6510    -999.2500      20.7260     -95.5565      23.0344     -99.6984      20.8066 1533242624 9999999.9999
     603.0       0.0000       0.0000      26.6530    -999.2500      27.7150     -90.4955      30.0234     -94.5275      26.9053 1533242625 9999999.9999
     604.0       0.0000       0.0000      31.0635    -999.2500      34.7040     -84.0688      37.0124     -87.9612      32.9979 1533242626 9999999.9999
     605.0       0.0000       0.0000      35.0772    -999.2500      41.4922     -76.5577      43.8006     -80.2868      39.0967 1533242627 9999999.9999
     606.0       0.0000       0.0000      39.3232    -999.2500      48.3205     -67.1587      50.6289     -70.6836      45.2016 1533242628 9999999.9999
     607.0       0.0000       0.0000      49.3454    -999.2500      67.6407     -50.6100      69.9491     -53.7754      51.7114 1533242629 9999999.9999
     608.0       0.0000       0.0000      53.0666    -999.2500      77.2003     -44.6252      79.5087     -47.6605      57.7863 1533242630 9999999.9999
     609.0       0.0000       0.0000      56.8107    -999.2500      85.2337     -37.9173      87.5421     -40.8069      63.8881 1533242631 9999999.9999
     610.0       0.0000       0.0000      60.8826    -999.2500      91.8210     -31.0087      94.1294     -33.7482      69.9899 1533242632 9999999.9999
     611.0       0.0000       0.0000      65.7125    -999.2500      97.0025     -23.8590      99.3109     -26.4432      76.0917 1533242633 9999999.9999
     612.0       0.0000       0.0000      71.5181    -999.2500     100.0552     -16.6290     102.3636     -19.0561      82.1935 1533242634 9999999.9999
     613.0       0.0000       0.0000      79.0406      81.8823     101.3003      -8.5957     103.6087     -10.8482      88.2860 1533242635 9999999.9999
     614.0       0.0000       0.0000      87.7027      76.0940     101.7823      -0.1607     104.0907      -2.2299      94.4008 1533242636 9999999.9999
     615.0       0.0000       0.0000      96.9468      78.1755     101.3807       8.6760     103.6891       6.7987     100.5127 1533242637 9999999.9999
     616.0       0.0000       0.0000     104.4028      86.7164     100.2962      16.2273     102.6046      14.5141     106.6206 1533242638 9999999.9999
     617.0       0.0000       0.0000     111.2297    -999.2500      96.1188      24.1402      98.4272      22.5989     112.7193 1533242639 9999999.9999
     618.0       0.0000       0.0000     116.7798    -999.2500      90.4152      31.6513      92.7236      30.2732     118.8211 1533242640 9999999.9999
     619.0       0.0000       0.0000     121.7552    -999.2500      83.3860      39.3232      85.6944      38.1118     125.3278 1533242641 9999999.9999
     620.0       0.0000       0.0000     126.2968    -999.2500      75.0715      46.8343      77.3799      45.7861     131.4297 1533242642 9999999.9999
     621.0       0.0000       0.0000     130.8096    -999.2500      64.9897      53.7028      67.2981      52.8039     137.5316 1533242643 9999999.9999
     622.0       0.0000       0.0000     138.8570    -999.2500      52.4175      69.6892      54.7259      69.1375     143.6335 1533242644 9999999.9999
     623.0       0.0000       0.0000     142.7853    -999.2500      45.7900      78.8873      48.0984      78.5356     149.7485 1533242645 9999999.9999
     624.0       0.0000       0.0000     146.6516    -999.2500      38.7608      86.8403      41.0692      86.6613     155.8797 1533242646 9999999.9999
     625.0       0.0000       0.0000     151.4238    -999.2500      30.5668      94.7532      32.8752      94.7461     161.9816 1533242647 9999999.9999
     626.0       0.0000       0.0000     156.6406    -999.2500      22.8147     100.4568      25.1231     100.5737     168.0866 1533242648 9999999.9999
     627.0       0.0000       0.0000     163.1051    -999.2500      14.7813     104.4333      17.0897     104.6366     174.1854 1533242649 9999999.9999
     628.0       0.0000       0.0000     170.7353      76.7575       6.7078     105.8793       9.0162     106.1140     180.2873 1533242650 9999999.9999
     629.0       0.0000       0.0000     179.1843      73.4952      -1.5263     106.2810       0.7821     106.5244     186.3892 1533242651 9999999.9999
     630.0       0.0000       0.0000    -172.2317      75.8854      -9.8408     105.8392      -7.5324     106.0730     192.4911 1533242652 9999999.9999
     631.0       0.0000       0.0000    -164.6288      88.4857     -17.8742     102.3848     -15.5658     102.5436     198.9980 1533242653 9999999.9999
     632.0       0.0000       0.0000    -157.8038    -999.2500     -26.1887      97.1230     -23.8803      97.1674     205.0999 1533242654 9999999.9999
     633.0       0.0000       0.0000    -152.2434    -999.2500     -34.0613      90.5357     -31.7529      90.4370     211.1925 1533242655 9999999.9999
     634.0       0.0000       0.0000    -147.2807    -999.2500     -41.8938      82.9442     -39.5854      82.6805     217.2791 1533242656 9999999.9999
     635.0       0.0000       0.0000    -142.8745    -999.2500     -49.0435      74.5895     -46.7351      74.1443     223.3686 1533242657 9999999.9999
