~VERSION INFORMATION
VERS.           2.0   :CWLS Log ASCII Standard - VERSION 2.0
WRAP.           NO    :One Line per depth step
PROD.  Schlumberger   :LAS Producer
PROG.  DLIS to ASCII 19C2-270                          :LAS Program name and version
CREA.        2018/08/03 10:59                          :LAS Creation date {YYYY/MM/DD hh:mm}
DLIS_CREA.  2018-Aug-03 08:37                          :DLIS Creation date and time {YYYY-MMM-DD hh:mm}
SOURCE.     PERFO_Perfo_060PTP.DLIS                    :DLIS File Name
FILE-ID.     PERFO_Perfo_060PTP                        :File Identification Number
#--------------------------------------------------
~WELL INFORMATION
#MNEM.UNIT      DATA             DESCRIPTION
#---- ------ --------------   -----------------------------
STRT .S            0.0       :START TIME      
STOP .S         1390.0       :STOP TIME      
STEP .S            1.0       :STEP     
NULL .          -999.25      :NULL VALUE
COMP .        SHELL INTERNATIONAL EP                   :COMPANY
WELL .        WPP TEST 4                               :WELL
FLD  .        WILDCAT                                  :FIELD
LOC  .        NA                                       :LOCATION
CNTY .        HARRIS                                   :COUNTY
STAT .        TEXAS                                    :STATE
CTRY .                                                 :COUNTRY
API  .        NA                                       :API NUMBER
UWI  .                                                 :UNIQUE WELL ID
DATE .        02-Aug-2018                              :LOG DATE {DD-MMM-YYYY}
SRVC .        Schlumberger                             :SERVICE COMPANY
LATI .DEG                                              :LATITUDE
LONG .DEG                                              :LONGITUDE
GDAT .                                                 :GeoDetic Datum
SECT .        NA                                       :Section
RANG .        NA                                       :Range
TOWN .        NA                                       :Township
#-----------------------------------------------------------------------------
~PARAMETER INFORMATION
#MNEM.UNIT    VALUE                      DESCRIPTION
#---- -----   --------------------       ------------------------
U-PHASE_B_COMP_PER_YT.                 0 :Phase B Comparator Period Yt
U-PHASE_A_COMP_PER_XT.                 0 :Phase A Comparator Period Xt
U-MAX_EXC_CUR_LIMIT.MA       265.00000   :Requested CM Current Limit
U-REQ_EXC_FQ.HZ              50          :Requested CM Frequency
U-TILT_Y_OFFSET.          -2.06578       :WPTET Tilt Y Offset
U-TILT_Y_GAIN.           1.02173         :WPTET Tilt Y Gain
U-TILT_X_OFFSET.           2.30841       :WPTET Tilt X Offset
U-TILT_X_GAIN.           1.00000         :WPTET Tilt X Gain
U-TILT_OFFSET_TOL.           0.00100     :WPTET Tilt Offset Calibration Tolerance
U-MOT_CUR_LIMIT_REQ.MA        70.00000   :Requested Motor Current Limit
U-MOT_SPD_REQ_WPMS.RPM        1.00000    :Requested Motor Speed
U-STD_TOL_TILT.           0.01000        :Tilt Standard Deviation Tolerance
CWEI .LB/F      29.00000                 :Casing Weight
CSIZ .IN         7.00000                 :Current Casing Size
LCC  .               440                 :Logging Company Code
LUN  .              2134                 :Logging Unit Number
HIDE .                                   :Header Identifier
HID1 .                                   :Header Identifier Line 1
R1   .                                   :Remark Line 1
WITN .        MR. KELLEY McCOY           :Witness's Name
ENGI .        MORRIS MOORE               :Engineer's Name
LUL  .        IOWA COLONY                :Logging Unit Location
DATE .        02-Aug-2018                :Date as Month-Day-Year
STAT .        TEXAS                      :State or Province
COUN .        HARRIS                     :County or Rig Name
FN   .        WILDCAT                    :Field Name
WN   .        WPP TEST 4                 :Well Name
CN   .        SHELL INTERNATIONAL EP     :Company Name
CLAB .        County                     :County/Rig Label
SLAB .        State                      :State/Province Label
RUN  .          1                        :RUN NUMBER
PDAT .        GROUND LEVEL               :Permanent Datum
EPD  .                                   :Elevation of Permanent Datum above Mean Sea Level
LMF  .          NA                       :Logging Measured From (Name of Logging Elevation Reference)
APD  .                                   :Elevation of Depth Reference (LMF) above Permanent Datum
#-----------------------------------------------------------------------------
~CURVE INFORMATION
#MNEM.UNIT   API CODE                                  DESCRIPTION
#---- -----  --------                                  -----------------------
TIME .S                                                :TIME {F10.1}
FREQ_EMF_SL.HZ                                         :Electromagnetic Field Frequency {F13.4}
PH_SH_WPPCM_SL.DEG                                     :WPPCM Phase Shift {F13.4}
RB_SL.DEG                                              :Relative Bearing {F13.4}
SDEV_SL.DEG                                            :Sonde Deviation {F13.4}
RTIX_SL.DEG                                            :Raw X-axis Tilt {F13.4}
RTIY_SL.DEG                                            :Raw Y-axis Tilt {F13.4}
TILX_SL.DEG                                            :X-axis Tilt {F13.4}
TILY_SL.DEG                                            :Y-axis Tilt {F13.4}
ROTA_SL.DEG                                            :Motor Rotation Angle {F13.4}
TOD7 .S                                                :Time of Day {I11}
TOJ  .S                                                :Time of Job {F13.4}
#-----------------------------------------------------------------------------
# 
#     TIME    FREQ_EMF_SL  PH_SH_WPPCM_    RB_SL       SDEV_SL      RTIX_SL      RTIY_SL      TILX_SL      TILY_SL      ROTA_SL        TOD7            TOJ
#                          SL
~A  
# ...
    1219.0       0.0000       0.0000      61.7649    -999.2500      90.4955     -29.7233      92.8039     -32.4349      36.3200 1533223345 9999999.9999
    1220.0       0.0000       0.0000      61.8182    -999.2500      90.5256     -29.6430      92.8340     -32.3528      36.3200 1533223346 9999999.9999
    1221.0       0.0000       0.0000      61.7902    -999.2500      90.5758     -29.6832      92.8842     -32.3939      36.3200 1533223347 9999999.9999
    1222.0       0.0000       0.0000      61.7649    -999.2500      90.4955     -29.7233      92.8039     -32.4349      36.3200 1533223348 9999999.9999
    1223.0       0.0000       0.0000      61.8171    -999.2500      90.5758     -29.6430      92.8842     -32.3528      36.3200 1533223349 9999999.9999
    1224.0       0.0000       0.0000      61.9506    -999.2500      90.6562     -29.4422      92.9646     -32.1476      36.3200 1533223350 9999999.9999
    1225.0       0.0000       0.0000      61.7902    -999.2500      90.5758     -29.6832      92.8842     -32.3939      36.3200 1533223351 9999999.9999
    1226.0       0.0000       0.0000      61.8433    -999.2500      90.6160     -29.6028      92.9244     -32.3118      36.3200 1533223352 9999999.9999
    1227.0       0.0000       0.0000      61.8180    -999.2500      90.5357     -29.6430      92.8441     -32.3528      36.3200 1533223353 9999999.9999
    1228.0       0.0000       0.0000      61.8450    -999.2500      90.5357     -29.6028      92.8441     -32.3118      36.3200 1533223354 9999999.9999
    1229.0       0.0000       0.0000      61.8424    -999.2500      90.6562     -29.6028      92.9646     -32.3118      36.3200 1533223355 9999999.9999
    1230.0       0.0000       0.0000      61.7910    -999.2500      90.5357     -29.6832      92.8441     -32.3939      36.3200 1533223356 9999999.9999
    1231.0       0.0000       0.0000      61.8180    -999.2500      90.5357     -29.6430      92.8441     -32.3528      36.3200 1533223357 9999999.9999
    1232.0       0.0000       0.0000      61.7902    -999.2500      90.5758     -29.6832      92.8842     -32.3939      36.3200 1533223358 9999999.9999
    1233.0       0.0000       0.0000      61.7893    -999.2500      90.6160     -29.6832      92.9244     -32.3939      36.3200 1533223359 9999999.9999
    1234.0       0.0000       0.0000      61.7910    -999.2500      90.5357     -29.6832      92.8441     -32.3939      36.3200 1533223360 9999999.9999
    1235.0       0.0000       0.0000      61.7615    -999.2500      90.6562     -29.7233      92.9646     -32.4349      36.3200 1533223361 9999999.9999
    1236.0       0.0000       0.0000      61.8171    -999.2500      90.5758     -29.6430      92.8842     -32.3528      36.3200 1533223362 9999999.9999
    1237.0       0.0000       0.0000      61.8450    -999.2500      90.5357     -29.6028      92.8441     -32.3118      36.3200 1533223363 9999999.9999
    1238.0    1304.4990       0.0000      61.8171    -999.2500      90.5758     -29.6430      92.8842     -32.3528      36.3200 1533223364 9999999.9999
    1239.0    1389.5751       0.0000      61.7902    -999.2500      90.5758     -29.6832      92.8842     -32.3939      36.3200 1533223365 9999999.9999
    1240.0    1409.0682       0.0000      61.7893    -999.2500      90.6160     -29.6832      92.9244     -32.3939      36.3200 1533223366 9999999.9999
    1241.0    1409.0682       0.0000      63.8736    -999.2500      92.9858     -26.5903      95.2942     -29.2338      41.2608 1533223367 9999999.9999
    1242.0    1403.4431       0.0000      67.1845    -999.2500      96.0385     -22.0515      98.3469     -24.5964      46.9557 1533223368 9999999.9999
    1243.0    1400.6475       0.0000      73.4253    -999.2500      98.4083     -14.6207     100.7167     -17.0041      53.0606 1533223369 9999999.9999
    1244.0    1411.8976       0.0000      80.8030      82.8334      99.3322      -6.9087     101.6406      -9.1246      59.1593 1533223370 9999999.9999
    1245.0    1406.2500       0.0000      90.1539      77.7177      99.9748       2.1690     102.2832       0.1503      65.2611 1533223371 9999999.9999
    1246.0    1406.2500       0.0000      98.4935      81.4887      99.6937      10.2425     102.0021       8.3993      71.3629 1533223372 9999999.9999
    1247.0    1409.0682       0.0000     105.6656     107.4237      97.6853      17.7135      99.9937      16.0326      77.4524 1533223373 9999999.9999
    1248.0    1403.4431       0.0000     112.0352    -999.2500      93.4277      25.2648      95.7361      23.7480      83.5542 1533223374 9999999.9999
    1249.0    1406.2500       0.0000     117.5350    -999.2500      87.5232      32.7760      89.8316      31.4224      89.6591 1533223375 9999999.9999
    1250.0    1406.2500       0.0000     122.2557    -999.2500      80.5342      39.9658      82.8426      38.7684      95.7578 1533223376 9999999.9999
    1251.0    1414.7384       0.0000     126.8711    -999.2500      71.8983      47.2360      74.2067      46.1965     102.2676 1533223377 9999999.9999
    1252.0    1411.8976       0.0000     131.7894    -999.2500      61.2140      54.0242      63.5224      53.1322     108.3694 1533223378 9999999.9999
    1253.0    1406.2500       0.0000     140.0250    -999.2500      50.0477      71.3360      52.3561      70.8202     114.4711 1533223379 9999999.9999
    1254.0    1406.2500       0.0000     143.9261    -999.2500      43.5005      80.1325      45.8089      79.8078     120.5729 1533223380 9999999.9999
    1255.0    1414.7384       0.0000     147.9399    -999.2500      36.4312      87.7642      38.7396      87.6052     126.6756 1533223381 9999999.9999
    1256.0    1411.8976       0.0000     152.4108    -999.2500      29.0807      94.6327      31.3891      94.6230     132.7775 1533223382 9999999.9999
    1257.0    1406.2500       0.0000     158.3032    -999.2500      20.7260     100.3363      23.0344     100.4506     138.8794 1533223383 9999999.9999
    1258.0    1414.7384       0.0000     164.8540      86.8299      12.9337     103.5898      15.2421     103.7748     144.9813 1533223384 9999999.9999
    1259.0    1409.0682       0.0000     172.6846      77.0509       4.8200     104.6342       7.1284     104.8418     151.0832 1533223385 9999999.9999
    1260.0    1406.2500       0.0000    -178.7305      75.0054      -3.5347     104.8350      -1.2263     105.0470     157.1851 1533223386 9999999.9999
    1261.0    1403.4431       0.0000    -170.6214      79.4750     -11.5278     103.8710      -9.2194     104.0620     163.2870 1533223387 9999999.9999
    1262.0    1409.0682       0.0000    -163.1541     100.9380     -19.6415     100.1757     -17.3331     100.2864     169.3919 1533223388 9999999.9999
    1263.0    1409.0682       0.0000    -156.6815    -999.2500     -27.7552      94.5925     -25.4468      94.5819     175.8988 1533223389 9999999.9999
    1264.0    1409.0682       0.0000    -151.2531    -999.2500     -35.5475      87.9248     -33.2391      87.7694     182.0007 1533223390 9999999.9999
    1265.0    1409.0682       0.0000    -146.3540    -999.2500     -43.2193      80.0522     -40.9109      79.7257     188.1026 1533223391 9999999.9999
    1266.0    1411.8976       0.0000    -141.8292    -999.2500     -50.3288      71.5368     -48.0204      71.0254     194.2175 1533223392 9999999.9999
    1267.0    1414.7384       0.0000    -134.6008    -999.2500     -60.1697      57.4383     -57.8613      56.6205     200.3194 1533223393 9999999.9999
    1268.0    1411.8976       0.0000    -128.6452    -999.2500     -73.5050      50.1682     -71.1966      49.1924     206.3966 1533223394 9999999.9999
    1269.0    1406.2500       0.0000    -124.1824    -999.2500     -82.2613      43.0988     -79.9529      41.9695     212.5116 1533223395 9999999.9999
    1270.0    1409.0682       0.0000    -119.6045    -999.2500     -89.6922      35.8688     -87.3838      34.5824     218.6135 1533223396 9999999.9999
    1271.0    1403.4431       0.0000    -114.2744    -999.2500     -96.0787      28.1970     -93.7703      26.7439     224.7154 1533223397 9999999.9999
