~VERSION INFORMATION
VERS.           2.0   :CWLS Log ASCII Standard - VERSION 2.0
WRAP.           NO    :One Line per depth step
PROD.  Schlumberger   :LAS Producer
PROG.  DLIS to ASCII 19C2-270                          :LAS Program name and version
CREA.        2018/08/03 10:59                          :LAS Creation date {YYYY/MM/DD hh:mm}
DLIS_CREA.  2018-Aug-03 09:28                          :DLIS Creation date and time {YYYY-MMM-DD hh:mm}
SOURCE.     PERFO_Perfo_076PTP.DLIS                    :DLIS File Name
FILE-ID.     PERFO_Perfo_076PTP                        :File Identification Number
#--------------------------------------------------
~WELL INFORMATION
#MNEM.UNIT      DATA             DESCRIPTION
#---- ------ --------------   -----------------------------
STRT .S            0.0       :START TIME      
STOP .S         1744.0       :STOP TIME      
STEP .S            1.0       :STEP     
NULL .          -999.25      :NULL VALUE
COMP .        SHELL INTERNATIONAL EP                   :COMPANY
WELL .        WPP TEST 4                               :WELL
FLD  .        WILDCAT                                  :FIELD
LOC  .        NA                                       :LOCATION
CNTY .        HARRIS                                   :COUNTY
STAT .        TEXAS                                    :STATE
CTRY .                                                 :COUNTRY
API  .        NA                                       :API NUMBER
UWI  .                                                 :UNIQUE WELL ID
DATE .        02-Aug-2018                              :LOG DATE {DD-MMM-YYYY}
SRVC .        Schlumberger                             :SERVICE COMPANY
LATI .DEG                                              :LATITUDE
LONG .DEG                                              :LONGITUDE
GDAT .                                                 :GeoDetic Datum
SECT .        NA                                       :Section
RANG .        NA                                       :Range
TOWN .        NA                                       :Township
#-----------------------------------------------------------------------------
~PARAMETER INFORMATION
#MNEM.UNIT    VALUE                      DESCRIPTION
#---- -----   --------------------       ------------------------
U-PHASE_B_COMP_PER_YT.                 0 :Phase B Comparator Period Yt
U-PHASE_A_COMP_PER_XT.                 0 :Phase A Comparator Period Xt
U-MAX_EXC_CUR_LIMIT.MA       265.00000   :Requested CM Current Limit
U-REQ_EXC_FQ.HZ              50          :Requested CM Frequency
U-TILT_Y_OFFSET.          -2.06578       :WPTET Tilt Y Offset
U-TILT_Y_GAIN.           1.02173         :WPTET Tilt Y Gain
U-TILT_X_OFFSET.           2.30841       :WPTET Tilt X Offset
U-TILT_X_GAIN.           1.00000         :WPTET Tilt X Gain
U-TILT_OFFSET_TOL.           0.00100     :WPTET Tilt Offset Calibration Tolerance
U-MOT_CUR_LIMIT_REQ.MA        70.00000   :Requested Motor Current Limit
U-MOT_SPD_REQ_WPMS.RPM        1.00000    :Requested Motor Speed
U-STD_TOL_TILT.           0.01000        :Tilt Standard Deviation Tolerance
CWEI .LB/F      29.00000                 :Casing Weight
CSIZ .IN         7.00000                 :Current Casing Size
LCC  .               440                 :Logging Company Code
LUN  .              2134                 :Logging Unit Number
HIDE .                                   :Header Identifier
HID1 .                                   :Header Identifier Line 1
R1   .                                   :Remark Line 1
WITN .        MR. KELLY McCOY            :Witness's Name
ENGI .        MORRIS MOORE               :Engineer's Name
LUL  .        IOWA COLONY                :Logging Unit Location
DATE .        02-Aug-2018                :Date as Month-Day-Year
STAT .        TEXAS                      :State or Province
COUN .        HARRIS                     :County or Rig Name
FN   .        WILDCAT                    :Field Name
WN   .        WPP TEST 4                 :Well Name
CN   .        SHELL INTERNATIONAL EP     :Company Name
CLAB .        County                     :County/Rig Label
SLAB .        State                      :State/Province Label
RUN  .          1                        :RUN NUMBER
PDAT .        GROUND LEVEL               :Permanent Datum
EPD  .                                   :Elevation of Permanent Datum above Mean Sea Level
LMF  .          NA                       :Logging Measured From (Name of Logging Elevation Reference)
APD  .                                   :Elevation of Depth Reference (LMF) above Permanent Datum
#-----------------------------------------------------------------------------
~CURVE INFORMATION
#MNEM.UNIT   API CODE                                  DESCRIPTION
#---- -----  --------                                  -----------------------
TIME .S                                                :TIME {F10.1}
FREQ_EMF_SL.HZ                                         :Electromagnetic Field Frequency {F13.4}
PH_SH_WPPCM_SL.DEG                                     :WPPCM Phase Shift {F13.4}
RB_SL.DEG                                              :Relative Bearing {F13.4}
SDEV_SL.DEG                                            :Sonde Deviation {F13.4}
RTIX_SL.DEG                                            :Raw X-axis Tilt {F13.4}
RTIY_SL.DEG                                            :Raw Y-axis Tilt {F13.4}
TILX_SL.DEG                                            :X-axis Tilt {F13.4}
TILY_SL.DEG                                            :Y-axis Tilt {F13.4}
ROTA_SL.DEG                                            :Motor Rotation Angle {F13.4}
TOD7 .S                                                :Time of Day {I11}
TOJ  .S                                                :Time of Job {F13.4}
#-----------------------------------------------------------------------------
# 
#     TIME    FREQ_EMF_SL  PH_SH_WPPCM_    RB_SL       SDEV_SL      RTIX_SL      RTIY_SL      TILX_SL      TILY_SL      ROTA_SL        TOD7            TOJ
#                          SL
~A  
# ...
     795.0    1727.5798       0.0000      96.5477      77.3594     101.9028       8.2743     104.2112       6.3883     124.9855 1533242817 9999999.9999
     796.0    1727.5798       0.0000     104.2456      91.6808     100.2158      16.0667     102.5242      14.3500     131.0904 1533242818 9999999.9999
     797.0    1727.5798       0.0000     111.0042    -999.2500      96.2795      23.8590      98.5879      22.3116     137.1923 1533242819 9999999.9999
     798.0    1714.9390       0.0000     116.6429    -999.2500      90.6562      31.4505      92.9646      30.0681     143.2942 1533242820 9999999.9999
     799.0    1710.7665       0.0000     121.5555    -999.2500      83.7475      39.0018      86.0559      37.7835     149.4122 1533242821 9999999.9999
     800.0    1702.4818       0.0000     125.9734    -999.2500      75.5937      46.2720      77.9021      45.2116     155.5110 1533242822 9999999.9999
     801.0    1706.6141       0.0000     130.6101    -999.2500      65.5118      53.4618      67.8202      52.5576     162.0179 1533242823 9999999.9999
     802.0    1702.4818       0.0000     138.4871    -999.2500      52.9798      68.8055      55.2882      68.2347     168.1198 1533242824 9999999.9999
     803.0    1702.4818       0.0000     142.5376    -999.2500      46.2720      78.4857      48.5804      78.1252     174.2217 1533242825 9999999.9999
     804.0    1694.2772       0.0000     146.4294    -999.2500      39.1625      86.4387      41.4709      86.2510     180.3236 1533242826 9999999.9999
     805.0    1682.1173       0.0000     150.6611    -999.2500      31.8120      93.6687      34.1204      93.6380     186.4286 1533242827 9999999.9999
     806.0    1694.2772       0.0000     155.7993    -999.2500      23.9795      99.6937      26.2879      99.7940     192.5305 1533242828 9999999.9999
     807.0    1678.1025       0.0000     162.4700    -999.2500      15.5043     104.2325      17.8127     104.4314     198.6324 1533242829 9999999.9999
     808.0    1694.2772       0.0000     170.0475      77.1053       7.3907     105.9998       9.6991     106.2371     204.7343 1533242830 9999999.9999
     809.0    1682.1173       0.0000     178.5559      73.4959      -0.9238     106.3212       1.3846     106.5654     210.8362 1533242831 9999999.9999
     810.0    1678.1025       0.0000    -173.0038      75.4019      -9.0777     105.9195      -6.7693     106.1551     216.9380 1533242832 9999999.9999
     811.0    1686.1511       0.0000    -165.2726      91.0373     -17.1512     102.7865     -14.8428     102.9540     223.0399 1533242833 9999999.9999
     812.0    1682.1173       0.0000    -158.2020    -999.2500     -25.6665      97.4845     -23.3581      97.5368     229.1296 1533242834 9999999.9999
     813.0    1686.1511       0.0000    -152.5109    -999.2500     -33.6597      90.8168     -31.3513      90.7243     235.6495 1533242835 9999999.9999
     814.0    1682.1173       0.0000    -147.5774    -999.2500     -41.4118      83.4663     -39.1034      83.2140     241.7575 1533242836 9999999.9999
     815.0    1686.1511       0.0000    -143.0631    -999.2500     -48.7623      75.0313     -46.4539      74.5958     247.8563 1533242837 9999999.9999
     816.0    1686.1511       0.0000    -138.2635    -999.2500     -55.9120      65.1102     -53.6036      64.4590     253.9582 1533242838 9999999.9999
     817.0    1682.1173       0.0000    -130.6178    -999.2500     -70.0908      53.4618     -67.7824      52.5576     260.0601 1533242839 9999999.9999
     818.0    1698.3695       0.0000    -126.2844    -999.2500     -79.4497      46.7540     -77.1413      45.7041     266.1619 1533242840 9999999.9999
     819.0    1698.3695       0.0000    -121.5782    -999.2500     -87.6838      39.0018     -85.3754      37.7835     272.2637 1533242841 9999999.9999
     820.0    1702.4818       0.0000    -116.6068    -999.2500     -94.8737      31.4103     -92.5653      30.0270     278.3655 1533242842 9999999.9999
     821.0    1702.4818       0.0000    -110.6922    -999.2500    -100.6978      23.4975     -98.3894      21.9423     284.4673 1533242843 9999999.9999
     822.0    1710.7665       0.0000    -103.5051      85.6221    -104.6342      15.3035    -102.3258      13.5702     290.5691 1533242844 9999999.9999
     823.0    1719.1321       0.0000     -95.6599      77.5570    -105.9597       7.4308    -103.6513       5.5265     296.6587 1533242845 9999999.9999
     824.0    1727.5798       0.0000     -86.7806      76.6854    -105.9998      -1.0443    -103.6914      -3.1328     302.7735 1533242846 9999999.9999
     825.0    1731.8351       0.0000     -78.2672      84.0662    -105.4375      -9.3990    -103.1291     -11.6690     309.2803 1533242847 9999999.9999
     826.0    1740.4083       0.0000     -71.1746    -999.2500    -102.7463     -17.1512    -100.4379     -19.5896     315.3852 1533242848 9999999.9999
     827.0    1744.7272       0.0000     -65.0360    -999.2500     -98.0870     -24.9837     -95.7786     -27.5923     321.4745 1533242849 9999999.9999
     828.0    1749.0671       0.0000     -59.7966    -999.2500     -91.6202     -32.8162     -89.3118     -35.5949     327.5895 1533242850 9999999.9999
     829.0    1749.0671       0.0000     -55.5282    -999.2500     -84.8320     -39.9658     -82.5236     -42.9000     333.6913 1533242851 9999999.9999
     830.0    1753.4288       0.0000     -51.4825    -999.2500     -76.6782     -46.9548     -74.3698     -50.0408     339.7931 1533242852 9999999.9999
     831.0    1757.8126       0.0000     -46.7105    -999.2500     -65.7127     -54.1447     -63.4043     -57.3869     345.8949 1533242853 9999999.9999
     832.0    1766.6456       0.0000     -38.3796    -999.2500     -52.1363     -71.1352     -49.8279     -74.7465     351.9975 1533242854 9999999.9999
     833.0    1753.4288       0.0000     -34.3287    -999.2500     -45.1072     -80.4137     -42.7988     -84.2266     358.0993 1533242855 9999999.9999
     834.0    1766.6456       0.0000     -29.7230    -999.2500     -37.0738     -88.8487     -34.7654     -92.8449       4.2042 1533242856 9999999.9999
     835.0    1762.2180       0.0000     -25.5842    -999.2500     -30.5267     -94.9138     -28.2183     -99.0418      10.3169 1533242857 9999999.9999
     836.0    1762.2180       0.0000     -20.2961    -999.2500     -23.4573     -98.4887     -21.1489    -102.6943      16.4187 1533242858 9999999.9999
     837.0    1780.0632       0.0000     -13.3781      82.9881     -15.5847    -100.8183     -13.2763    -105.0746      22.9162 1533242859 9999999.9999
     838.0    1766.6456       0.0000      -4.6649      75.6926      -6.8283    -100.7782      -4.5199    -105.0336      29.0057 1533242860 9999999.9999
     839.0    1771.0958       0.0000       3.2547      75.5675       0.8435    -100.5372       3.1519    -104.7873      35.1083 1533242861 9999999.9999
     840.0    1744.7272       0.0000      12.0167      82.3538       9.5998     -99.9748      11.9082    -104.2128      41.2101 1533242862 9999999.9999
     841.0    1731.8351       0.0000      18.3318      84.7590      16.6290     -97.4443      18.9374    -101.6273      47.3120 1533242863 9999999.9999
     842.0    1749.0671       0.0000      23.7136    -999.2500      23.4573     -94.1507      25.7657     -98.2621      53.4275 1533242864 9999999.9999
     843.0    1736.1111       0.0000      29.3347    -999.2500      31.8522     -88.3265      34.1606     -92.3114      59.5048 1533242865 9999999.9999
     844.0    1719.1321       0.0000      33.3785    -999.2500      38.6002     -79.8915      40.9086     -83.6931      65.6074 1533242866 9999999.9999
     845.0    1714.9390       0.0000      37.0096    -999.2500      44.6252     -72.0992      46.9336     -75.7315      71.6969 1533242867 9999999.9999
     846.0    1780.0632       0.0000      42.0296    -999.2500      48.2402     -55.6710      50.5486     -58.9464      77.7986 1533242868 9999999.9999
     847.0    1753.4288       0.0000      51.5029    -999.2500      73.1033     -47.2360      75.4117     -50.3281      83.9004 1533242869 9999999.9999
