~VERSION INFORMATION
VERS.           2.0   :CWLS Log ASCII Standard - VERSION 2.0
WRAP.           NO    :One Line per depth step
PROD.  Schlumberger   :LAS Producer
PROG.  DLIS to ASCII 19C2-270                          :LAS Program name and version
CREA.        2018/08/03 10:59                          :LAS Creation date {YYYY/MM/DD hh:mm}
DLIS_CREA.  2018-Aug-03 08:37                          :DLIS Creation date and time {YYYY-MMM-DD hh:mm}
SOURCE.     PERFO_Perfo_060PTP.DLIS                    :DLIS File Name
FILE-ID.     PERFO_Perfo_060PTP                        :File Identification Number
#--------------------------------------------------
~WELL INFORMATION
#MNEM.UNIT      DATA             DESCRIPTION
#---- ------ --------------   -----------------------------
STRT .S            0.0       :START TIME      
STOP .S         1390.0       :STOP TIME      
STEP .S            1.0       :STEP     
NULL .          -999.25      :NULL VALUE
COMP .        SHELL INTERNATIONAL EP                   :COMPANY
WELL .        WPP TEST 4                               :WELL
FLD  .        WILDCAT                                  :FIELD
LOC  .        NA                                       :LOCATION
CNTY .        HARRIS                                   :COUNTY
STAT .        TEXAS                                    :STATE
CTRY .                                                 :COUNTRY
API  .        NA                                       :API NUMBER
UWI  .                                                 :UNIQUE WELL ID
DATE .        02-Aug-2018                              :LOG DATE {DD-MMM-YYYY}
SRVC .        Schlumberger                             :SERVICE COMPANY
LATI .DEG                                              :LATITUDE
LONG .DEG                                              :LONGITUDE
GDAT .                                                 :GeoDetic Datum
SECT .        NA                                       :Section
RANG .        NA                                       :Range
TOWN .        NA                                       :Township
#-----------------------------------------------------------------------------
~PARAMETER INFORMATION
#MNEM.UNIT    VALUE                      DESCRIPTION
#---- -----   --------------------       ------------------------
U-PHASE_B_COMP_PER_YT.                 0 :Phase B Comparator Period Yt
U-PHASE_A_COMP_PER_XT.                 0 :Phase A Comparator Period Xt
U-MAX_EXC_CUR_LIMIT.MA       265.00000   :Requested CM Current Limit
U-REQ_EXC_FQ.HZ              50          :Requested CM Frequency
U-TILT_Y_OFFSET.          -2.06578       :WPTET Tilt Y Offset
U-TILT_Y_GAIN.           1.02173         :WPTET Tilt Y Gain
U-TILT_X_OFFSET.           2.30841       :WPTET Tilt X Offset
U-TILT_X_GAIN.           1.00000         :WPTET Tilt X Gain
U-TILT_OFFSET_TOL.           0.00100     :WPTET Tilt Offset Calibration Tolerance
U-MOT_CUR_LIMIT_REQ.MA        70.00000   :Requested Motor Current Limit
U-MOT_SPD_REQ_WPMS.RPM        1.00000    :Requested Motor Speed
U-STD_TOL_TILT.           0.01000        :Tilt Standard Deviation Tolerance
CWEI .LB/F      29.00000                 :Casing Weight
CSIZ .IN         7.00000                 :Current Casing Size
LCC  .               440                 :Logging Company Code
LUN  .              2134                 :Logging Unit Number
HIDE .                                   :Header Identifier
HID1 .                                   :Header Identifier Line 1
R1   .                                   :Remark Line 1
WITN .        MR. KELLEY McCOY           :Witness's Name
ENGI .        MORRIS MOORE               :Engineer's Name
LUL  .        IOWA COLONY                :Logging Unit Location
DATE .        02-Aug-2018                :Date as Month-Day-Year
STAT .        TEXAS                      :State or Province
COUN .        HARRIS                     :County or Rig Name
FN   .        WILDCAT                    :Field Name
WN   .        WPP TEST 4                 :Well Name
CN   .        SHELL INTERNATIONAL EP     :Company Name
CLAB .        County                     :County/Rig Label
SLAB .        State                      :State/Province Label
RUN  .          1                        :RUN NUMBER
PDAT .        GROUND LEVEL               :Permanent Datum
EPD  .                                   :Elevation of Permanent Datum above Mean Sea Level
LMF  .          NA                       :Logging Measured From (Name of Logging Elevation Reference)
APD  .                                   :Elevation of Depth Reference (LMF) above Permanent Datum
#-----------------------------------------------------------------------------
~CURVE INFORMATION
#MNEM.UNIT   API CODE                                  DESCRIPTION
#---- -----  --------                                  -----------------------
TIME .S                                                :TIME {F10.1}
FREQ_EMF_SL.HZ                                         :Electromagnetic Field Frequency {F13.4}
PH_SH_WPPCM_SL.DEG                                     :WPPCM Phase Shift {F13.4}
RB_SL.DEG                                              :Relative Bearing {F13.4}
SDEV_SL.DEG                                            :Sonde Deviation {F13.4}
RTIX_SL.DEG                                            :Raw X-axis Tilt {F13.4}
RTIY_SL.DEG                                            :Raw Y-axis Tilt {F13.4}
TILX_SL.DEG                                            :X-axis Tilt {F13.4}
TILY_SL.DEG                                            :Y-axis Tilt {F13.4}
ROTA_SL.DEG                                            :Motor Rotation Angle {F13.4}
TOD7 .S                                                :Time of Day {I11}
TOJ  .S                                                :Time of Job {F13.4}
#-----------------------------------------------------------------------------
# 
#     TIME    FREQ_EMF_SL  PH_SH_WPPCM_    RB_SL       SDEV_SL      RTIX_SL      RTIY_SL      TILX_SL      TILY_SL      ROTA_SL        TOD7            TOJ
#                          SL
~A  
# ...
     424.0    1395.0892       0.0000      35.1209    -999.2500      41.0503     -73.7862      43.3587     -77.4551      74.0016 1533222550 9999999.9999
     425.0    1400.6475       0.0000      39.6456    -999.2500      47.5975     -63.9453      49.9059     -67.4005      80.1034 1533222551 9999999.9999
     426.0    1403.4431       0.0000      50.1223    -999.2500      67.6808     -48.6017      69.9892     -51.7234      86.2052 1533222552 9999999.9999
     427.0    1400.6475       0.0000      54.0783    -999.2500      77.0798     -42.4160      79.3882     -45.4034      92.3069 1533222553 9999999.9999
     428.0    1395.0892       0.0000      57.9871    -999.2500      84.6713     -35.7885      86.9797     -38.6319      98.4096 1533222554 9999999.9999
     429.0    1397.8628       0.0000      62.2157    -999.2500      90.9775     -29.0405      93.2859     -31.7372     104.9295 1533222555 9999999.9999
     430.0    1397.8628       0.0000      67.0233    -999.2500      95.4360     -22.2925      97.7444     -24.8426     111.0313 1533222556 9999999.9999
     431.0    1392.3268       0.0000      73.0357    -999.2500      98.1673     -15.0625     100.4757     -17.4555     117.1207 1533222557 9999999.9999
     432.0    1389.5751       0.0000      80.3216      83.5741      99.2920      -7.3907     101.6004      -9.6170     123.2256 1533222558 9999999.9999
     433.0    1395.0892       0.0000      89.1050      78.0711      99.6535       1.1648     101.9619      -0.8756     129.3274 1533222559 9999999.9999
     434.0    1389.5751       0.0000      97.7209      80.7305      99.7338       9.4793     102.0422       7.6195     135.4293 1533222560 9999999.9999
     435.0    1392.3268       0.0000     105.5504     104.0262      97.6050      17.5930      99.9134      15.9095     141.5443 1533222561 9999999.9999
     436.0    1392.3268       0.0000     111.9350    -999.2500      93.3473      25.1443      95.6557      23.6249     147.6462 1533222562 9999999.9999
     437.0    1392.3268       0.0000     117.4522    -999.2500      87.6035      32.6555      89.9119      31.2992     153.7481 1533222563 9999999.9999
     438.0    1386.8344       0.0000     122.2810    -999.2500      80.4940      40.0060      82.8024      38.8094     159.8631 1533222564 9999999.9999
     439.0    1384.1044       0.0000     126.8305    -999.2500      72.0590      47.1958      74.3674      46.1555     165.9650 1533222565 9999999.9999
     440.0    1386.8344       0.0000     131.6940    -999.2500      61.4148      53.9037      63.7232      53.0091     172.0669 1533222566 9999999.9999
     441.0    1378.6765       0.0000     139.9510    -999.2500      50.1682      71.1753      52.4766      70.6560     178.5614 1533222567 9999999.9999
     442.0    1373.2910       0.0000     143.8934    -999.2500      43.5407      79.9718      45.8491      79.6436     184.6633 1533222568 9999999.9999
     443.0    1370.6140       0.0000     147.8244    -999.2500      36.6320      87.6035      38.9404      87.4411     190.7652 1533222569 9999999.9999
     444.0    1370.6140       0.0000     152.3686    -999.2500      29.1610      94.2712      31.4694      94.2536     196.8701 1533222570 9999999.9999
     445.0    1362.6454       0.0000     157.7541    -999.2500      21.4490      99.8543      23.7574      99.9581     202.9720 1533222571 9999999.9999
     446.0    1365.2913       0.0000     163.9913    -999.2500      13.8977     103.2283      16.2061     103.4054     209.0739 1533222572 9999999.9999
     447.0    1365.2913       0.0000     172.4428      77.2368       5.0610     104.5940       7.3694     104.8008     215.1634 1533222573 9999999.9999
     448.0    1367.9475       0.0000    -179.1464      75.0178      -3.1330     104.7948      -0.8246     105.0060     221.2653 1533222574 9999999.9999
     449.0    1360.0098       0.0000    -171.1319      78.7786     -11.0057     104.0718      -8.6973     104.2672     227.3680 1533222575 9999999.9999
     450.0    1362.6454       0.0000    -163.4659      95.3761     -19.2800     100.3765     -16.9716     100.4916     233.4699 1533222576 9999999.9999
     451.0    1362.6454       0.0000    -157.0727    -999.2500     -27.2330      94.9138     -24.9246      94.9103     239.5718 1533222577 9999999.9999
     452.0    1354.7688       0.0000    -151.5693    -999.2500     -35.0655      88.2060     -32.7571      88.0567     245.6737 1533222578 9999999.9999
     453.0    1357.3842       0.0000    -146.7270    -999.2500     -42.6168      80.6547     -40.3084      80.3413     252.1806 1533222579 9999999.9999
     454.0    1354.7688       0.0000    -142.1647    -999.2500     -49.7665      72.0590     -47.4581      71.5589     258.2863 1533222580 9999999.9999
     455.0    1346.9828       0.0000    -136.8419    -999.2500     -56.5948      60.7320     -54.2864      59.9858     264.4019 1533222581 9999999.9999
     456.0    1344.4073       0.0000    -129.0768    -999.2500     -72.5812      50.8108     -70.2728      49.8490     270.5038 1533222582 9999999.9999
     457.0    1341.8416       0.0000    -124.8055    -999.2500     -80.8957      44.0628     -78.5872      42.9544     276.6186 1533222583 9999999.9999
     458.0    1346.9828       0.0000    -120.4392    -999.2500     -88.4872      37.1542     -86.1787      35.8956     282.7204 1533222584 9999999.9999
     459.0    1346.9828       0.0000    -114.9231    -999.2500     -95.3557      29.0807     -93.0472      27.6467     288.8222 1533222585 9999999.9999
     460.0    1346.9828       0.0000    -108.7315    -999.2500    -100.6577      21.2080     -98.3493      19.6030     294.9371 1533222586 9999999.9999
     461.0    1352.1635       0.0000    -101.5876      84.2360    -103.5898      13.3755    -101.2814      11.6003     301.0367 1533222587 9999999.9999
     462.0    1349.5681       0.0000     -93.4198      78.5281    -104.2727       5.3020    -101.9642       3.3514     307.1547 1533222588 9999999.9999
     463.0    1352.1635       0.0000     -84.8044      79.1633    -104.3128      -2.9723    -102.0044      -5.1027     313.2565 1533222589 9999999.9999
     464.0    1357.3842       0.0000     -76.7585      89.4658    -103.3890     -11.0458    -101.0806     -13.3516     319.3583 1533222590 9999999.9999
     465.0    1354.7688       0.0000     -69.7811    -999.2500    -100.2158     -18.9185     -97.9074     -21.3953     325.8650 1533222591 9999999.9999
     466.0    1354.7688       0.0000     -63.9721    -999.2500     -95.1147     -26.5502     -92.8063     -29.1928     331.9699 1533222592 9999999.9999
     467.0    1357.3842       0.0000     -58.9562    -999.2500     -88.4470     -34.1015     -86.1386     -36.9082     338.0686 1533222593 9999999.9999
     468.0    1360.0098       0.0000     -54.7751    -999.2500     -81.5785     -40.9700     -79.2701     -43.9259     344.1866 1533222594 9999999.9999
     469.0    1357.3842       0.0000     -50.7081    -999.2500     -73.1435     -47.5172     -70.8351     -50.6154     350.2884 1533222595 9999999.9999
     470.0    1357.3842       0.0000     -45.6803    -999.2500     -61.7362     -53.9840     -59.4278     -57.2227     356.3902 1533222596 9999999.9999
     471.0    1362.6454       0.0000     -36.6584    -999.2500     -48.8025     -73.3845     -46.4941     -77.0447       2.4929 1533222597 9999999.9999
     472.0    1365.2913       0.0000     -32.6058    -999.2500     -41.9340     -81.7392     -39.6256     -85.5809       8.5824 1533222598 9999999.9999
     473.0    1370.6140       0.0000     -28.3884    -999.2500     -34.9852     -88.5675     -32.6768     -92.5576      14.6842 1533222599 9999999.9999
     474.0    1373.2910       0.0000     -23.6654    -999.2500     -28.0363     -93.7892     -25.7279     -97.8927      20.7992 1533222600 9999999.9999
     475.0    1378.6765       0.0000     -18.1065    -999.2500     -21.0072     -97.1632     -18.6988    -101.3400      26.9010 1533222601 9999999.9999
     476.0    1378.6765       0.0000     -11.3387      83.6371     -13.5763     -98.7698     -11.2679    -102.9816      33.0036 1533222602 9999999.9999
