~VERSION INFORMATION
VERS.           2.0   :CWLS Log ASCII Standard - VERSION 2.0
WRAP.           NO    :One Line per depth step
PROD.  Schlumberger   :LAS Producer
PROG.  DLIS to ASCII 19C2-270                          :LAS Program name and version
CREA.        2018/08/03 10:59                          :LAS Creation date {YYYY/MM/DD hh:mm}
DLIS_CREA.  2018-Aug-03 08:37                          :DLIS Creation date and time {YYYY-MMM-DD hh:mm}
SOURCE.     PERFO_Perfo_060PTP.DLIS                    :DLIS File Name
FILE-ID.     PERFO_Perfo_060PTP                        :File Identification Number
#--------------------------------------------------
~WELL INFORMATION
#MNEM.UNIT      DATA             DESCRIPTION
#---- ------ --------------   -----------------------------
STRT .S            0.0       :START TIME      
STOP .S         1390.0       :STOP TIME      
STEP .S            1.0       :STEP     
NULL .          -999.25      :NULL VALUE
COMP .        SHELL INTERNATIONAL EP                   :COMPANY
WELL .        WPP TEST 4                               :WELL
FLD  .        WILDCAT                                  :FIELD
LOC  .        NA                                       :LOCATION
CNTY .        HARRIS                                   :COUNTY
STAT .        TEXAS                                    :STATE
CTRY .                                                 :COUNTRY
API  .        NA                                       :API NUMBER
UWI  .                                                 :UNIQUE WELL ID
DATE .        02-Aug-2018                              :LOG DATE {DD-MMM-YYYY}
SRVC .        Schlumberger                             :SERVICE COMPANY
LATI .DEG                                              :LATITUDE
LONG .DEG                                              :LONGITUDE
GDAT .                                                 :GeoDetic Datum
SECT .        NA                                       :Section
RANG .        NA                                       :Range
TOWN .        NA                                       :Township
#-----------------------------------------------------------------------------
~PARAMETER INFORMATION
#MNEM.UNIT    VALUE                      DESCRIPTION
#---- -----   --------------------       ------------------------
U-PHASE_B_COMP_PER_YT.                 0 :Phase B Comparator Period Yt
U-PHASE_A_COMP_PER_XT.                 0 :Phase A Comparator Period Xt
U-MAX_EXC_CUR_LIMIT.MA       265.00000   :Requested CM Current Limit
U-REQ_EXC_FQ.HZ              50          :Requested CM Frequency
U-TILT_Y_OFFSET.          -2.06578       :WPTET Tilt Y Offset
U-TILT_Y_GAIN.           1.02173         :WPTET Tilt Y Gain
U-TILT_X_OFFSET.           2.30841       :WPTET Tilt X Offset
U-TILT_X_GAIN.           1.00000         :WPTET Tilt X Gain
U-TILT_OFFSET_TOL.           0.00100     :WPTET Tilt Offset Calibration Tolerance
U-MOT_CUR_LIMIT_REQ.MA        70.00000   :Requested Motor Current Limit
U-MOT_SPD_REQ_WPMS.RPM        1.00000    :Requested Motor Speed
U-STD_TOL_TILT.           0.01000        :Tilt Standard Deviation Tolerance
CWEI .LB/F      29.00000                 :Casing Weight
CSIZ .IN         7.00000                 :Current Casing Size
LCC  .               440                 :Logging Company Code
LUN  .              2134                 :Logging Unit Number
HIDE .                                   :Header Identifier
HID1 .                                   :Header Identifier Line 1
R1   .                                   :Remark Line 1
WITN .        MR. KELLEY McCOY           :Witness's Name
ENGI .        MORRIS MOORE               :Engineer's Name
LUL  .        IOWA COLONY                :Logging Unit Location
DATE .        02-Aug-2018                :Date as Month-Day-Year
STAT .        TEXAS                      :State or Province
COUN .        HARRIS                     :County or Rig Name
FN   .        WILDCAT                    :Field Name
WN   .        WPP TEST 4                 :Well Name
CN   .        SHELL INTERNATIONAL EP     :Company Name
CLAB .        County                     :County/Rig Label
SLAB .        State                      :State/Province Label
RUN  .          1                        :RUN NUMBER
PDAT .        GROUND LEVEL               :Permanent Datum
EPD  .                                   :Elevation of Permanent Datum above Mean Sea Level
LMF  .          NA                       :Logging Measured From (Name of Logging Elevation Reference)
APD  .                                   :Elevation of Depth Reference (LMF) above Permanent Datum
#-----------------------------------------------------------------------------
~CURVE INFORMATION
#MNEM.UNIT   API CODE                                  DESCRIPTION
#---- -----  --------                                  -----------------------
TIME .S                                                :TIME {F10.1}
FREQ_EMF_SL.HZ                                         :Electromagnetic Field Frequency {F13.4}
PH_SH_WPPCM_SL.DEG                                     :WPPCM Phase Shift {F13.4}
RB_SL.DEG                                              :Relative Bearing {F13.4}
SDEV_SL.DEG                                            :Sonde Deviation {F13.4}
RTIX_SL.DEG                                            :Raw X-axis Tilt {F13.4}
RTIY_SL.DEG                                            :Raw Y-axis Tilt {F13.4}
TILX_SL.DEG                                            :X-axis Tilt {F13.4}
TILY_SL.DEG                                            :Y-axis Tilt {F13.4}
ROTA_SL.DEG                                            :Motor Rotation Angle {F13.4}
TOD7 .S                                                :Time of Day {I11}
TOJ  .S                                                :Time of Job {F13.4}
#-----------------------------------------------------------------------------
# 
#     TIME    FREQ_EMF_SL  PH_SH_WPPCM_    RB_SL       SDEV_SL      RTIX_SL      RTIY_SL      TILX_SL      TILY_SL      ROTA_SL        TOD7            TOJ
#                          SL
~A  
# ...
     530.0    1373.2910       0.0000     -38.5407    -999.2500     -51.7748     -69.0063     -49.4664     -72.5714       4.5479 1533222656 9999999.9999
     531.0    1368.6132       0.0000     -34.3325    -999.2500     -44.8862     -78.3852     -42.5778     -82.1541      10.6528 1533222657 9999999.9999
     532.0    1365.2913       0.0000     -30.0143    -999.2500     -37.5960     -86.1575     -35.2876     -90.0952      16.7547 1533222658 9999999.9999
     533.0    1373.2910       0.0000     -25.5204    -999.2500     -30.6472     -92.0620     -28.3388     -96.1280      22.8696 1533222659 9999999.9999
     534.0    1373.2910       0.0000     -20.2779    -999.2500     -23.6180     -96.2393     -21.3096    -100.3961      28.9714 1533222660 9999999.9999
     535.0    1373.2910       0.0000     -14.1082      88.6945     -16.5085     -98.3682     -14.2001    -102.5712      35.0610 1533222661 9999999.9999
     536.0    1381.3850       0.0000      -6.4975      78.5476      -8.6760     -98.9305      -6.3676    -103.1458      41.1628 1533222662 9999999.9999
     537.0    1384.1044       0.0000       2.5318      77.2217       0.1607     -98.8100       2.4691    -103.0226      47.6696 1533222663 9999999.9999
     538.0    1389.5751       0.0000      10.5279      83.6348       8.1538     -98.0870      10.4622    -102.2839      53.7714 1533222664 9999999.9999
     539.0    1392.3268       0.0000      17.2221    -999.2500      15.4642     -95.8778      17.7726    -100.0268      59.8793 1533222665 9999999.9999
     540.0    1397.8628       0.0000      22.7405    -999.2500      22.3327     -91.8210      24.6411     -95.8818      65.9750 1533222666 9999999.9999
     541.0    1395.0892       0.0000      27.4593    -999.2500      29.0003     -86.4788      31.3087     -90.4236      72.0768 1533222667 9999999.9999
     542.0    1397.8628       0.0000      31.7549    -999.2500      35.6680     -80.0120      37.9764     -83.8162      78.1662 1533222668 9999999.9999
     543.0    1399.2538       0.0000      36.0770    -999.2500      42.5064     -71.6975      44.8148     -75.3211      84.2711 1533222669 9999999.9999
     544.0    1397.8628       0.0000      40.9741    -999.2500      49.0033     -60.6115      51.3117     -63.9942      90.3605 1533222670 9999999.9999
     545.0    1395.0892       0.0000      51.1779    -999.2500      70.4122     -47.1155      72.7206     -50.2050      96.4623 1533222671 9999999.9999
     546.0    1397.8628       0.0000      55.0921    -999.2500      79.1685     -40.6888      81.4769     -43.6387     102.5641 1533222672 9999999.9999
     547.0    1400.6475       0.0000      58.9839    -999.2500      86.4788     -34.1417      88.7872     -36.9492     108.6658 1533222673 9999999.9999
     548.0    1395.0892       0.0000      63.3498    -999.2500      92.3432     -27.3535      94.6516     -30.0136     114.7808 1533222674 9999999.9999
     549.0    1397.8628       0.0000      68.4991    -999.2500      96.4402     -20.4047      98.7486     -22.9138     120.8826 1533222675 9999999.9999
     550.0    1400.6475       0.0000      74.8236    -999.2500      98.6493     -13.0943     100.9577     -15.4446     127.3893 1533222676 9999999.9999
     551.0    1400.6475       0.0000      82.7509      80.7649      99.4125      -4.9807     101.7209      -7.1547     133.4912 1533222677 9999999.9999
     552.0    1395.0892       0.0000      91.6225      77.9444      99.8543       3.5748     102.1627       1.5867     139.5931 1533222678 9999999.9999
     553.0    1395.0892       0.0000     100.0507      84.2589      99.2518      11.8090     101.5602       9.9998     145.7081 1533222679 9999999.9999
     554.0    1400.6475       0.0000     107.0266      89.7181      96.9623      19.2398      99.2707      17.5921     151.7854 1533222680 9999999.9999
     555.0    1395.0892       0.0000     113.2419    -999.2500      92.2227      26.8313      94.5311      25.3485     157.8904 1533222681 9999999.9999
     556.0    1389.5751       0.0000     118.8419    -999.2500      85.6755      34.7040      87.9839      33.3922     164.0054 1533222682 9999999.9999
     557.0    1389.5751       0.0000     123.5691    -999.2500      78.3250      42.0545      80.6334      40.9024     170.0950 1533222683 9999999.9999
     558.0    1381.3850       0.0000     128.0548    -999.2500      69.4883      49.0435      71.7967      48.0433     176.1969 1533222684 9999999.9999
     559.0    1378.6765       0.0000     135.3964    -999.2500      54.5463      58.8843      56.8547      58.0979     182.2864 1533222685 9999999.9999
     560.0    1378.6765       0.0000     141.0745    -999.2500      48.3607      73.7460      50.6691      73.2825     188.4015 1533222686 9999999.9999
     561.0    1373.2910       0.0000     144.9436    -999.2500      41.6930      82.1810      44.0014      81.9008     194.5034 1533222687 9999999.9999
     562.0    1373.2910       0.0000     149.0458    -999.2500      34.5433      89.5717      36.8517      89.4520     201.0102 1533222688 9999999.9999
     563.0       0.0000       0.0000     153.7363    -999.2500      27.0723      96.1188      29.3807      96.1414     207.1936 1533222689 9999999.9999
     564.0       0.0000       0.0000     159.5074    -999.2500      19.1997     101.0593      21.5081     101.1893     213.2986 1533222690 9999999.9999
     565.0       0.0000       0.0000     166.2716      87.5630      11.4073     103.7505      13.7157     103.9389     219.4005 1533222691 9999999.9999
     566.0       0.0000       0.0000     174.1935      76.3623       3.3338     104.5940       5.6422     104.8008     225.4993 1533222692 9999999.9999
     567.0       0.0000       0.0000    -177.2769      75.1541      -4.9405     104.8752      -2.6321     105.0880     231.6021 1533222693 9999999.9999
     568.0       0.0000       0.0000    -168.7980      82.5890     -13.4157     103.2283     -11.1073     103.4054     237.7070 1533222694 9999999.9999
     569.0       0.0000       0.0000    -161.6671    -999.2500     -21.4088      98.9707     -19.1004      99.0552     243.8120 1533222695 9999999.9999
     570.0       0.0000       0.0000    -155.3074    -999.2500     -29.6430      92.9858     -27.3346      92.9404     249.9108 1533222696 9999999.9999
     571.0       0.0000       0.0000    -150.0945    -999.2500     -37.3148      86.0772     -35.0064      85.8816     256.0127 1533222697 9999999.9999
     572.0       0.0000       0.0000    -145.3919    -999.2500     -44.7457      78.2848     -42.4373      77.9200     262.1022 1533222698 9999999.9999
     573.0       0.0000       0.0000    -140.8318    -999.2500     -51.7347      69.3678     -49.4263      68.8092     268.2040 1533222699 9999999.9999
     574.0       0.0000       0.0000    -132.4981    -999.2500     -65.4315      55.6710     -63.1231      54.8148     274.6984 1533222700 9999999.9999
     575.0       0.0000       0.0000    -127.8692    -999.2500     -75.0715      48.9632     -72.7631      47.9612     280.8002 1533222701 9999999.9999
     576.0       0.0000       0.0000    -123.6813    -999.2500     -83.1852      42.2955     -80.8768      41.1487     286.9020 1533222702 9999999.9999
     577.0       0.0000       0.0000    -119.0487    -999.2500     -90.4955      35.0253     -88.1871      33.7206     292.9946 1533222703 9999999.9999
     578.0       0.0000       0.0000    -113.7034    -999.2500     -96.6008      27.4338     -94.2924      25.9641     299.0940 1533222704 9999999.9999
     579.0       0.0000       0.0000    -107.4184    -999.2500    -101.4610      19.6817     -99.1526      18.0435     305.1989 1533222705 9999999.9999
     580.0       0.0000       0.0000     -99.6182      83.1254    -104.1120      11.3672    -101.8036       9.5484     311.2976 1533222706 9999999.9999
     581.0       0.0000       0.0000     -91.7475      78.0810    -104.3530       3.6953    -102.0446       1.7098     317.4025 1533222707 9999999.9999
     582.0       0.0000       0.0000     -82.4227      80.9757    -104.0718      -5.3020    -101.7634      -7.4830     323.5043 1533222708 9999999.9999
