~VERSION INFORMATION
VERS.           2.0   :CWLS Log ASCII Standard - VERSION 2.0
WRAP.           NO    :One Line per depth step
PROD.  Schlumberger   :LAS Producer
PROG.  DLIS to ASCII 19C2-270                          :LAS Program name and version
CREA.        2018/08/03 10:59                          :LAS Creation date {YYYY/MM/DD hh:mm}
DLIS_CREA.  2018-Aug-03 08:37                          :DLIS Creation date and time {YYYY-MMM-DD hh:mm}
SOURCE.     PERFO_Perfo_060PTP.DLIS                    :DLIS File Name
FILE-ID.     PERFO_Perfo_060PTP                        :File Identification Number
#--------------------------------------------------
~WELL INFORMATION
#MNEM.UNIT      DATA             DESCRIPTION
#---- ------ --------------   -----------------------------
STRT .S            0.0       :START TIME      
STOP .S         1390.0       :STOP TIME      
STEP .S            1.0       :STEP     
NULL .          -999.25      :NULL VALUE
COMP .        SHELL INTERNATIONAL EP                   :COMPANY
WELL .        WPP TEST 4                               :WELL
FLD  .        WILDCAT                                  :FIELD
LOC  .        NA                                       :LOCATION
CNTY .        HARRIS                                   :COUNTY
STAT .        TEXAS                                    :STATE
CTRY .                                                 :COUNTRY
API  .        NA                                       :API NUMBER
UWI  .                                                 :UNIQUE WELL ID
DATE .        02-Aug-2018                              :LOG DATE {DD-MMM-YYYY}
SRVC .        Schlumberger                             :SERVICE COMPANY
LATI .DEG                                              :LATITUDE
LONG .DEG                                              :LONGITUDE
GDAT .                                                 :GeoDetic Datum
SECT .        NA                                       :Section
RANG .        NA                                       :Range
TOWN .        NA                                       :Township
#-----------------------------------------------------------------------------
~PARAMETER INFORMATION
#MNEM.UNIT    VALUE                      DESCRIPTION
#---- -----   --------------------       ------------------------
U-PHASE_B_COMP_PER_YT.                 0 :Phase B Comparator Period Yt
U-PHASE_A_COMP_PER_XT.                 0 :Phase A Comparator Period Xt
U-MAX_EXC_CUR_LIMIT.MA       265.00000   :Requested CM Current Limit
U-REQ_EXC_FQ.HZ              50          :Requested CM Frequency
U-TILT_Y_OFFSET.          -2.06578       :WPTET Tilt Y Offset
U-TILT_Y_GAIN.           1.02173         :WPTET Tilt Y Gain
U-TILT_X_OFFSET.           2.30841       :WPTET Tilt X Offset
U-TILT_X_GAIN.           1.00000         :WPTET Tilt X Gain
U-TILT_OFFSET_TOL.           0.00100     :WPTET Tilt Offset Calibration Tolerance
U-MOT_CUR_LIMIT_REQ.MA        70.00000   :Requested Motor Current Limit
U-MOT_SPD_REQ_WPMS.RPM        1.00000    :Requested Motor Speed
U-STD_TOL_TILT.           0.01000        :Tilt Standard Deviation Tolerance
CWEI .LB/F      29.00000                 :Casing Weight
CSIZ .IN         7.00000                 :Current Casing Size
LCC  .               440                 :Logging Company Code
LUN  .              2134                 :Logging Unit Number
HIDE .                                   :Header Identifier
HID1 .                                   :Header Identifier Line 1
R1   .                                   :Remark Line 1
WITN .        MR. KELLEY McCOY           :Witness's Name
ENGI .        MORRIS MOORE               :Engineer's Name
LUL  .        IOWA COLONY                :Logging Unit Location
DATE .        02-Aug-2018                :Date as Month-Day-Year
STAT .        TEXAS                      :State or Province
COUN .        HARRIS                     :County or Rig Name
FN   .        WILDCAT                    :Field Name
WN   .        WPP TEST 4                 :Well Name
CN   .        SHELL INTERNATIONAL EP     :Company Name
CLAB .        County                     :County/Rig Label
SLAB .        State                      :State/Province Label
RUN  .          1                        :RUN NUMBER
PDAT .        GROUND LEVEL               :Permanent Datum
EPD  .                                   :Elevation of Permanent Datum above Mean Sea Level
LMF  .          NA                       :Logging Measured From (Name of Logging Elevation Reference)
APD  .                                   :Elevation of Depth Reference (LMF) above Permanent Datum
#-----------------------------------------------------------------------------
~CURVE INFORMATION
#MNEM.UNIT   API CODE                                  DESCRIPTION
#---- -----  --------                                  -----------------------
TIME .S                                                :TIME {F10.1}
FREQ_EMF_SL.HZ                                         :Electromagnetic Field Frequency {F13.4}
PH_SH_WPPCM_SL.DEG                                     :WPPCM Phase Shift {F13.4}
RB_SL.DEG                                              :Relative Bearing {F13.4}
SDEV_SL.DEG                                            :Sonde Deviation {F13.4}
RTIX_SL.DEG                                            :Raw X-axis Tilt {F13.4}
RTIY_SL.DEG                                            :Raw Y-axis Tilt {F13.4}
TILX_SL.DEG                                            :X-axis Tilt {F13.4}
TILY_SL.DEG                                            :Y-axis Tilt {F13.4}
ROTA_SL.DEG                                            :Motor Rotation Angle {F13.4}
TOD7 .S                                                :Time of Day {I11}
TOJ  .S                                                :Time of Job {F13.4}
#-----------------------------------------------------------------------------
# 
#     TIME    FREQ_EMF_SL  PH_SH_WPPCM_    RB_SL       SDEV_SL      RTIX_SL      RTIY_SL      TILX_SL      TILY_SL      ROTA_SL        TOD7            TOJ
#                          SL
~A  
# ...
     689.0       0.0000       0.0000     -62.3586    -999.2500     -93.5482     -28.8798     -91.2398     -31.5731     341.8229 1533222815 9999999.9999
     690.0       0.0000       0.0000     -62.3051    -999.2500     -93.3875     -28.9602     -91.0791     -31.6552     341.8229 1533222816 9999999.9999
     691.0       0.0000       0.0000     -62.3328    -999.2500     -93.3473     -28.9200     -91.0389     -31.6141     341.8229 1533222817 9999999.9999
     692.0       0.0000       0.0000     -62.3867    -999.2500     -93.4678     -28.8397     -91.1594     -31.5321     341.8229 1533222818 9999999.9999
     693.0       0.0000       0.0000     -62.3328    -999.2500     -93.3473     -28.9200     -91.0389     -31.6141     341.8229 1533222819 9999999.9999
     694.0       0.0000       0.0000     -62.3596    -999.2500     -93.4277     -28.8798     -91.1193     -31.5731     341.8229 1533222820 9999999.9999
     695.0       0.0000       0.0000     -62.4420    -999.2500     -93.4277     -28.7593     -91.1193     -31.4500     341.8229 1533222821 9999999.9999
     696.0       0.0000       0.0000     -62.3596    -999.2500     -93.4277     -28.8798     -91.1193     -31.5731     341.8229 1533222822 9999999.9999
     697.0       0.0000       0.0000     -62.2774    -999.2500     -93.4277     -29.0003     -91.1193     -31.6962     341.8229 1533222823 9999999.9999
     698.0       0.0000       0.0000     -62.3874    -999.2500     -93.3875     -28.8397     -91.0791     -31.5321     341.8229 1533222824 9999999.9999
     699.0       0.0000       0.0000     -62.3599    -999.2500     -93.3875     -28.8798     -91.0791     -31.5731     341.8229 1533222825 9999999.9999
     700.0       0.0000       0.0000     -62.3325    -999.2500     -93.3875     -28.9200     -91.0791     -31.6141     341.8229 1533222826 9999999.9999
     701.0       0.0000       0.0000     -62.3051    -999.2500     -93.3875     -28.9602     -91.0791     -31.6552     341.8229 1533222827 9999999.9999
     702.0       0.0000       0.0000     -62.2503    -999.2500     -93.3875     -29.0405     -91.0791     -31.7372     341.8229 1533222828 9999999.9999
     703.0       0.0000       0.0000     -62.3051    -999.2500     -93.3875     -28.9602     -91.0791     -31.6552     341.8229 1533222829 9999999.9999
     704.0       0.0000       0.0000     -61.1812    -999.2500     -91.9415     -30.6472     -89.6331     -33.3788     341.8229 1533222830 9999999.9999
     705.0       0.0000       0.0000     -62.4430    -999.2500     -93.3072     -28.7593     -90.9987     -31.4500     341.8229 1533222831 9999999.9999
     706.0       0.0000       0.0000     -62.2236    -999.2500     -93.3072     -29.0807     -90.9987     -31.7783     341.8229 1533222832 9999999.9999
     707.0       0.0000       0.0000     -62.2788    -999.2500     -93.2268     -29.0003     -90.9184     -31.6962     341.8229 1533222833 9999999.9999
     708.0       0.0000       0.0000     -62.3060    -999.2500     -93.2670     -28.9602     -90.9586     -31.6552     341.8229 1533222834 9999999.9999
     709.0       0.0000       0.0000     -62.1684    -999.2500     -93.3875     -29.1610     -91.0791     -31.8604     341.8229 1533222835 9999999.9999
     710.0       0.0000       0.0000     -62.2509    -999.2500     -93.3072     -29.0405     -90.9987     -31.7372     341.8229 1533222836 9999999.9999
     711.0       0.0000       0.0000     -62.1966    -999.2500     -93.2670     -29.1208     -90.9586     -31.8193     341.8229 1533222837 9999999.9999
     712.0       0.0000       0.0000     -62.1969    -999.2500     -93.2268     -29.1208     -90.9184     -31.8193     341.8229 1533222838 9999999.9999
     713.0       0.0000       0.0000     -62.2503    -999.2500     -93.3875     -29.0405     -91.0791     -31.7372     341.8229 1533222839 9999999.9999
     714.0       0.0000       0.0000     -62.1969    -999.2500     -93.2268     -29.1208     -90.9184     -31.8193     341.8229 1533222840 9999999.9999
     715.0       0.0000       0.0000     -62.3047    -999.2500     -93.4277     -28.9602     -91.1193     -31.6552     341.8229 1533222841 9999999.9999
     716.0       0.0000       0.0000     -62.2512    -999.2500     -93.2670     -29.0405     -90.9586     -31.7372     341.8229 1533222842 9999999.9999
     717.0       0.0000       0.0000     -62.2512    -999.2500     -93.2670     -29.0405     -90.9586     -31.7372     341.8229 1533222843 9999999.9999
     718.0       0.0000       0.0000     -62.2509    -999.2500     -93.3072     -29.0405     -90.9987     -31.7372     341.8229 1533222844 9999999.9999
     719.0       0.0000       0.0000     -62.2780    -999.2500     -93.3473     -29.0003     -91.0389     -31.6962     341.8229 1533222845 9999999.9999
     720.0       0.0000       0.0000     -62.2788    -999.2500     -93.2268     -29.0003     -90.9184     -31.6962     341.8229 1533222846 9999999.9999
     721.0       0.0000       0.0000     -62.2509    -999.2500     -93.3072     -29.0405     -90.9987     -31.7372     341.8229 1533222847 9999999.9999
     722.0       0.0000       0.0000     -62.2512    -999.2500     -93.2670     -29.0405     -90.9586     -31.7372     341.8229 1533222848 9999999.9999
     723.0       0.0000       0.0000     -62.2791    -999.2500     -93.1867     -29.0003     -90.8783     -31.6962     341.8229 1533222849 9999999.9999
     724.0       0.0000       0.0000     -62.3062    -999.2500     -93.2268     -28.9602     -90.9184     -31.6552     341.8229 1533222850 9999999.9999
     725.0       0.0000       0.0000     -62.2239    -999.2500     -93.2670     -29.0807     -90.9586     -31.7783     341.8229 1533222851 9999999.9999
     726.0       0.0000       0.0000     -62.3057    -999.2500     -93.3072     -28.9602     -90.9987     -31.6552     341.8229 1533222852 9999999.9999
     727.0       0.0000       0.0000     -62.2233    -999.2500     -93.3473     -29.0807     -91.0389     -31.7783     341.8229 1533222853 9999999.9999
     728.0       0.0000       0.0000     -62.1696    -999.2500     -93.2268     -29.1610     -90.9184     -31.8604     341.8229 1533222854 9999999.9999
     729.0       0.0000       0.0000     -62.2804    -999.2500     -92.9457     -29.0003     -90.6373     -31.6962     341.8229 1533222855 9999999.9999
     730.0       0.0000       0.0000     -62.2791    -999.2500     -93.1867     -29.0003     -90.8783     -31.6962     341.8229 1533222856 9999999.9999
     731.0       0.0000       0.0000     -62.2780    -999.2500     -93.3473     -29.0003     -91.0389     -31.6962     341.8229 1533222857 9999999.9999
     732.0       0.0000       0.0000     -62.2512    -999.2500     -93.2670     -29.0405     -90.9586     -31.7372     341.8229 1533222858 9999999.9999
     733.0       0.0000       0.0000     -62.2512    -999.2500     -93.2670     -29.0405     -90.9586     -31.7372     341.8229 1533222859 9999999.9999
     734.0       0.0000       0.0000     -62.2522    -999.2500     -93.1063     -29.0405     -90.7979     -31.7372     341.8229 1533222860 9999999.9999
     735.0       0.0000       0.0000     -62.3339    -999.2500     -93.1867     -28.9200     -90.8783     -31.6141     341.8229 1533222861 9999999.9999
     736.0       0.0000       0.0000     -62.1173    -999.2500     -92.7850     -29.2413     -90.4766     -31.9424     341.8229 1533222862 9999999.9999
     737.0       0.0000       0.0000     -68.8470      78.6782     -99.2920     -20.0833     -96.9836     -22.5855     341.8229 1533222863 9999999.9999
     738.0       0.0000       0.0000     -95.0403      79.2684    -104.1522       6.8685    -101.8438       4.9520     341.8229 1533222864 9999999.9999
     739.0       0.0000       0.0000    -128.1323     102.5015     -74.0673      49.2042     -71.7589      48.2075     341.8229 1533222865 9999999.9999
     740.0       0.0000       0.0000    -128.7954    -999.2500     -73.0230      50.3288     -70.7146      49.3566     341.8229 1533222866 9999999.9999
     741.0       0.0000       0.0000    -139.6002    -999.2500     -53.4618      66.8373     -51.1534      66.2237     341.8229 1533222867 9999999.9999
