~VERSION INFORMATION
VERS.           2.0   :CWLS Log ASCII Standard - VERSION 2.0
WRAP.           NO    :One Line per depth step
PROD.  Schlumberger   :LAS Producer
PROG.  DLIS to ASCII 19C2-270                          :LAS Program name and version
CREA.        2018/08/03 10:59                          :LAS Creation date {YYYY/MM/DD hh:mm}
DLIS_CREA.  2018-Aug-03 09:28                          :DLIS Creation date and time {YYYY-MMM-DD hh:mm}
SOURCE.     PERFO_Perfo_076PTP.DLIS                    :DLIS File Name
FILE-ID.     PERFO_Perfo_076PTP                        :File Identification Number
#--------------------------------------------------
~WELL INFORMATION
#MNEM.UNIT      DATA             DESCRIPTION
#---- ------ --------------   -----------------------------
STRT .S            0.0       :START TIME      
STOP .S         1744.0       :STOP TIME      
STEP .S            1.0       :STEP     
NULL .          -999.25      :NULL VALUE
COMP .        SHELL INTERNATIONAL EP                   :COMPANY
WELL .        WPP TEST 4                               :WELL
FLD  .        WILDCAT                                  :FIELD
LOC  .        NA                                       :LOCATION
CNTY .        HARRIS                                   :COUNTY
STAT .        TEXAS                                    :STATE
CTRY .                                                 :COUNTRY
API  .        NA                                       :API NUMBER
UWI  .                                                 :UNIQUE WELL ID
DATE .        02-Aug-2018                              :LOG DATE {DD-MMM-YYYY}
SRVC .        Schlumberger                             :SERVICE COMPANY
LATI .DEG                                              :LATITUDE
LONG .DEG                                              :LONGITUDE
GDAT .                                                 :GeoDetic Datum
SECT .        NA                                       :Section
RANG .        NA                                       :Range
TOWN .        NA                                       :Township
#-----------------------------------------------------------------------------
~PARAMETER INFORMATION
#MNEM.UNIT    VALUE                      DESCRIPTION
#---- -----   --------------------       ------------------------
U-PHASE_B_COMP_PER_YT.                 0 :Phase B Comparator Period Yt
U-PHASE_A_COMP_PER_XT.                 0 :Phase A Comparator Period Xt
U-MAX_EXC_CUR_LIMIT.MA       265.00000   :Requested CM Current Limit
U-REQ_EXC_FQ.HZ              50          :Requested CM Frequency
U-TILT_Y_OFFSET.          -2.06578       :WPTET Tilt Y Offset
U-TILT_Y_GAIN.           1.02173         :WPTET Tilt Y Gain
U-TILT_X_OFFSET.           2.30841       :WPTET Tilt X Offset
U-TILT_X_GAIN.           1.00000         :WPTET Tilt X Gain
U-TILT_OFFSET_TOL.           0.00100     :WPTET Tilt Offset Calibration Tolerance
U-MOT_CUR_LIMIT_REQ.MA        70.00000   :Requested Motor Current Limit
U-MOT_SPD_REQ_WPMS.RPM        1.00000    :Requested Motor Speed
U-STD_TOL_TILT.           0.01000        :Tilt Standard Deviation Tolerance
CWEI .LB/F      29.00000                 :Casing Weight
CSIZ .IN         7.00000                 :Current Casing Size
LCC  .               440                 :Logging Company Code
LUN  .              2134                 :Logging Unit Number
HIDE .                                   :Header Identifier
HID1 .                                   :Header Identifier Line 1
R1   .                                   :Remark Line 1
WITN .        MR. KELLY McCOY            :Witness's Name
ENGI .        MORRIS MOORE               :Engineer's Name
LUL  .        IOWA COLONY                :Logging Unit Location
DATE .        02-Aug-2018                :Date as Month-Day-Year
STAT .        TEXAS                      :State or Province
COUN .        HARRIS                     :County or Rig Name
FN   .        WILDCAT                    :Field Name
WN   .        WPP TEST 4                 :Well Name
CN   .        SHELL INTERNATIONAL EP     :Company Name
CLAB .        County                     :County/Rig Label
SLAB .        State                      :State/Province Label
RUN  .          1                        :RUN NUMBER
PDAT .        GROUND LEVEL               :Permanent Datum
EPD  .                                   :Elevation of Permanent Datum above Mean Sea Level
LMF  .          NA                       :Logging Measured From (Name of Logging Elevation Reference)
APD  .                                   :Elevation of Depth Reference (LMF) above Permanent Datum
#-----------------------------------------------------------------------------
~CURVE INFORMATION
#MNEM.UNIT   API CODE                                  DESCRIPTION
#---- -----  --------                                  -----------------------
TIME .S                                                :TIME {F10.1}
FREQ_EMF_SL.HZ                                         :Electromagnetic Field Frequency {F13.4}
PH_SH_WPPCM_SL.DEG                                     :WPPCM Phase Shift {F13.4}
RB_SL.DEG                                              :Relative Bearing {F13.4}
SDEV_SL.DEG                                            :Sonde Deviation {F13.4}
RTIX_SL.DEG                                            :Raw X-axis Tilt {F13.4}
RTIY_SL.DEG                                            :Raw Y-axis Tilt {F13.4}
TILX_SL.DEG                                            :X-axis Tilt {F13.4}
TILY_SL.DEG                                            :Y-axis Tilt {F13.4}
ROTA_SL.DEG                                            :Motor Rotation Angle {F13.4}
TOD7 .S                                                :Time of Day {I11}
TOJ  .S                                                :Time of Job {F13.4}
#-----------------------------------------------------------------------------
# 
#     TIME    FREQ_EMF_SL  PH_SH_WPPCM_    RB_SL       SDEV_SL      RTIX_SL      RTIY_SL      TILX_SL      TILY_SL      ROTA_SL        TOD7            TOJ
#                          SL
~A  
# ...
    1696.0    1698.3695       0.0000     172.5114      75.5051       4.9405     106.0400       7.2489     106.2782     253.4238 1533243718 9999999.9999
    1697.0    1698.3695       0.0000    -178.9304      73.4682      -3.3338     106.3212      -1.0254     106.5654     259.5286 1533243719 9999999.9999
    1698.0    1698.3695       0.0000    -170.6349      77.4406     -11.4475     105.3973      -9.1391     105.6215     265.6334 1533243720 9999999.9999
    1699.0    1690.2042       0.0000    -162.9808      92.1400     -19.7620     101.3807     -17.4536     101.5176     271.7320 1533243721 9999999.9999
    1700.0    1694.2772       0.0000    -156.4584    -999.2500     -27.9962      95.7573     -25.6878      95.7721     277.8183 1533243722 9999999.9999
    1701.0    1698.3695       0.0000    -150.8534    -999.2500     -36.1902      88.6880     -33.8818      88.5492     283.9230 1533243723 9999999.9999
    1702.0    1694.2772       0.0000    -145.7884    -999.2500     -44.3440      80.3333     -42.0356      80.0130     290.0278 1533243724 9999999.9999
    1703.0    1702.4818       0.0000    -141.2747    -999.2500     -51.5740      71.4163     -49.2656      70.9022     296.1141 1533243725 9999999.9999
    1704.0    1698.3695       0.0000    -134.2635    -999.2500     -61.8968      58.0007     -59.5884      57.1951     302.2127 1533243726 9999999.9999
    1705.0    1698.3695       0.0000    -128.7268    -999.2500     -74.2682      50.6502     -71.9598      49.6849     308.3174 1533243727 9999999.9999
    1706.0    1702.4818       0.0000    -124.5118    -999.2500     -82.8638      43.8218     -80.5554      42.7082     314.4099 1533243728 9999999.9999
    1707.0    1698.3695       0.0000    -119.9230    -999.2500     -90.3750      36.3910     -88.0666      35.1159     320.5085 1533243729 9999999.9999
    1708.0    1706.6141       0.0000    -114.7817    -999.2500     -96.8820      28.8397     -94.5736      27.4005     327.0182 1533243730 9999999.9999
    1709.0    1698.3695       0.0000    -108.3178    -999.2500    -102.3045      20.6457     -99.9961      19.0285     333.1229 1533243731 9999999.9999
    1710.0    1710.7665       0.0000    -100.9858      82.9900    -105.3170      12.6927    -103.0086      10.9027     339.2346 1533243732 9999999.9999
    1711.0    1706.6141       0.0000     -92.6432      76.6433    -105.9195       4.5388    -103.6111       2.5717     345.3332 1533243733 9999999.9999
    1712.0    1706.6141       0.0000     -83.8175      77.9861    -105.7990      -3.8962    -103.4906      -6.0466     351.4379 1533243734 9999999.9999
    1713.0    1719.1321       0.0000     -75.7753      92.7698    -104.6743     -12.0098    -102.3659     -14.3366     357.5557 1533243735 9999999.9999
    1714.0    1719.1321       0.0000     -68.5694    -999.2500    -100.9790     -20.3243     -98.6706     -22.8317       3.6544 1533243736 9999999.9999
    1715.0    1731.8351       0.0000     -62.8490    -999.2500     -95.7172     -28.1167     -93.4088     -30.7933       9.7532 1533243737 9999999.9999
    1716.0    1736.1111       0.0000     -58.0516    -999.2500     -89.0897     -35.6680     -86.7813     -38.5087      15.8580 1533243738 9999999.9999
    1717.0    1736.1111       0.0000     -53.9290    -999.2500     -81.7392     -42.7373     -79.4308     -45.7317      21.9637 1533243739 9999999.9999
    1718.0    1744.7272       0.0000     -49.8585    -999.2500     -73.0230     -49.6058     -70.7146     -52.7494      28.0625 1533243740 9999999.9999
    1719.0    1749.0671       0.0000     -44.8042    -999.2500     -60.8927     -55.9522     -58.5843     -59.2336      34.1804 1533243741 9999999.9999
    1720.0    1749.0671       0.0000     -36.9785    -999.2500     -49.8067     -74.5895     -47.4983     -78.2759      40.6902 1533243742 9999999.9999
    1721.0    1753.4288       0.0000     -33.0392    -999.2500     -42.8177     -83.2655     -40.5093     -87.1404      46.7890 1533243743 9999999.9999
    1722.0    1753.4288       0.0000     -28.8505    -999.2500     -35.6278     -90.3348     -33.3194     -94.3633      52.8632 1533243744 9999999.9999
    1723.0    1757.8126       0.0000     -23.9429    -999.2500     -28.2372     -95.8778     -25.9288    -100.0268      58.9680 1533243745 9999999.9999
    1724.0    1762.2180       0.0000     -18.2634    -999.2500     -21.0072     -99.4928     -18.6988    -103.7203      65.0729 1533243746 9999999.9999
    1725.0    1762.2180       0.0000     -11.3680      79.8462     -13.4960    -100.9388     -11.1876    -105.1977      71.1716 1533243747 9999999.9999
    1726.0    1762.2180       0.0000      -2.2692      74.8441      -4.4987    -101.0593      -2.1903    -105.3208      77.2703 1533243748 9999999.9999
    1727.0    1757.8126       0.0000       6.7104      76.5622       4.2175    -100.7380       6.5259    -104.9925      83.3629 1533243749 9999999.9999
    1728.0    1762.2180       0.0000      14.2849      87.1530      12.0098     -99.5330      14.3182    -103.7614      89.4808 1533243750 9999999.9999
    1729.0    1766.6456       0.0000      20.3937    -999.2500      19.1193     -96.5205      21.4277    -100.6834      95.5671 1533243751 9999999.9999
    1730.0    1766.6456       0.0000      25.7632    -999.2500      26.3895     -91.7005      28.6979     -95.7587     101.6658 1533243752 9999999.9999
    1731.0    1762.2180       0.0000      30.2590    -999.2500      33.3785     -85.4345      35.6869     -89.3565     107.7768 1533243753 9999999.9999
    1732.0    1757.8126       0.0000      34.2896    -999.2500      40.1667     -78.2447      42.4751     -82.0105     114.2813 1533243754 9999999.9999
    1733.0    1757.8126       0.0000      38.4352    -999.2500      46.9950     -69.2473      49.3034     -72.8177     120.3800 1533243755 9999999.9999
    1734.0    1762.2180       0.0000      45.8012    -999.2500      55.9923     -52.6183      58.3007     -55.8274     126.4979 1533243756 9999999.9999
    1735.0    1749.0671       0.0000      52.3869    -999.2500      75.6338     -45.8302      77.9422     -48.8917     132.6028 1533243757 9999999.9999
    1736.0    1757.8126       0.0000      56.1114    -999.2500      83.8278     -39.1625      86.1362     -42.0792     138.6892 1533243758 9999999.9999
    1737.0    1757.8126       0.0000      60.1149    -999.2500      90.7365     -32.2538      93.0449     -35.0204     144.7880 1533243759 9999999.9999
    1738.0    1753.4288       0.0000      65.1820    -999.2500      96.6410     -24.5820      98.9494     -27.1819     150.8930 1533243760 9999999.9999
    1739.0    1757.8126       0.0000      70.7814    -999.2500      99.9347     -17.4725     102.2431     -19.9179     156.9979 1533243761 9999999.9999
    1740.0    1744.7272       0.0000      77.7368      84.3399     101.1798      -9.9212     103.4882     -12.2025     163.1100 1533243762 9999999.9999
    1741.0    1744.7272       0.0000      86.4828      76.5128     101.6217      -1.3255     103.9301      -3.4201     169.2150 1533243763 9999999.9999
    1742.0    1749.0671       0.0000      95.5085      76.7922     101.9832       7.2702     104.2916       5.3623     175.3138 1533243764 9999999.9999
    1743.0    1736.1111       0.0000     103.4541      87.3490     100.5372      15.2232     102.8456      13.4881     181.4188 1533243765 9999999.9999
    1744.0    1749.0671       0.0000     110.3586    -999.2500      96.8418      23.0557      99.1502      21.4908     187.9356 1533243766 9999999.9999
