~VERSION INFORMATION
VERS.           2.0   :CWLS Log ASCII Standard - VERSION 2.0
WRAP.           NO    :One Line per depth step
PROD.  Schlumberger   :LAS Producer
PROG.  DLIS to ASCII 19C2-270                          :LAS Program name and version
CREA.        2018/08/03 10:59                          :LAS Creation date {YYYY/MM/DD hh:mm}
DLIS_CREA.  2018-Aug-03 08:37                          :DLIS Creation date and time {YYYY-MMM-DD hh:mm}
SOURCE.     PERFO_Perfo_060PTP.DLIS                    :DLIS File Name
FILE-ID.     PERFO_Perfo_060PTP                        :File Identification Number
#--------------------------------------------------
~WELL INFORMATION
#MNEM.UNIT      DATA             DESCRIPTION
#---- ------ --------------   -----------------------------
STRT .S            0.0       :START TIME      
STOP .S         1390.0       :STOP TIME      
STEP .S            1.0       :STEP     
NULL .          -999.25      :NULL VALUE
COMP .        SHELL INTERNATIONAL EP                   :COMPANY
WELL .        WPP TEST 4                               :WELL
FLD  .        WILDCAT                                  :FIELD
LOC  .        NA                                       :LOCATION
CNTY .        HARRIS                                   :COUNTY
STAT .        TEXAS                                    :STATE
CTRY .                                                 :COUNTRY
API  .        NA                                       :API NUMBER
UWI  .                                                 :UNIQUE WELL ID
DATE .        02-Aug-2018                              :LOG DATE {DD-MMM-YYYY}
SRVC .        Schlumberger                             :SERVICE COMPANY
LATI .DEG                                              :LATITUDE
LONG .DEG                                              :LONGITUDE
GDAT .                                                 :GeoDetic Datum
SECT .        NA                                       :Section
RANG .        NA                                       :Range
TOWN .        NA                                       :Township
#-----------------------------------------------------------------------------
~PARAMETER INFORMATION
#MNEM.UNIT    VALUE                      DESCRIPTION
#---- -----   --------------------       ------------------------
U-PHASE_B_COMP_PER_YT.                 0 :Phase B Comparator Period Yt
U-PHASE_A_COMP_PER_XT.                 0 :Phase A Comparator Period Xt
U-MAX_EXC_CUR_LIMIT.MA       265.00000   :Requested CM Current Limit
U-REQ_EXC_FQ.HZ              50          :Requested CM Frequency
U-TILT_Y_OFFSET.          -2.06578       :WPTET Tilt Y Offset
U-TILT_Y_GAIN.           1.02173         :WPTET Tilt Y Gain
U-TILT_X_OFFSET.           2.30841       :WPTET Tilt X Offset
U-TILT_X_GAIN.           1.00000         :WPTET Tilt X Gain
U-TILT_OFFSET_TOL.           0.00100     :WPTET Tilt Offset Calibration Tolerance
U-MOT_CUR_LIMIT_REQ.MA        70.00000   :Requested Motor Current Limit
U-MOT_SPD_REQ_WPMS.RPM        1.00000    :Requested Motor Speed
U-STD_TOL_TILT.           0.01000        :Tilt Standard Deviation Tolerance
CWEI .LB/F      29.00000                 :Casing Weight
CSIZ .IN         7.00000                 :Current Casing Size
LCC  .               440                 :Logging Company Code
LUN  .              2134                 :Logging Unit Number
HIDE .                                   :Header Identifier
HID1 .                                   :Header Identifier Line 1
R1   .                                   :Remark Line 1
WITN .        MR. KELLEY McCOY           :Witness's Name
ENGI .        MORRIS MOORE               :Engineer's Name
LUL  .        IOWA COLONY                :Logging Unit Location
DATE .        02-Aug-2018                :Date as Month-Day-Year
STAT .        TEXAS                      :State or Province
COUN .        HARRIS                     :County or Rig Name
FN   .        WILDCAT                    :Field Name
WN   .        WPP TEST 4                 :Well Name
CN   .        SHELL INTERNATIONAL EP     :Company Name
CLAB .        County                     :County/Rig Label
SLAB .        State                      :State/Province Label
RUN  .          1                        :RUN NUMBER
PDAT .        GROUND LEVEL               :Permanent Datum
EPD  .                                   :Elevation of Permanent Datum above Mean Sea Level
LMF  .          NA                       :Logging Measured From (Name of Logging Elevation Reference)
APD  .                                   :Elevation of Depth Reference (LMF) above Permanent Datum
#-----------------------------------------------------------------------------
~CURVE INFORMATION
#MNEM.UNIT   API CODE                                  DESCRIPTION
#---- -----  --------                                  -----------------------
TIME .S                                                :TIME {F10.1}
FREQ_EMF_SL.HZ                                         :Electromagnetic Field Frequency {F13.4}
PH_SH_WPPCM_SL.DEG                                     :WPPCM Phase Shift {F13.4}
RB_SL.DEG                                              :Relative Bearing {F13.4}
SDEV_SL.DEG                                            :Sonde Deviation {F13.4}
RTIX_SL.DEG                                            :Raw X-axis Tilt {F13.4}
RTIY_SL.DEG                                            :Raw Y-axis Tilt {F13.4}
TILX_SL.DEG                                            :X-axis Tilt {F13.4}
TILY_SL.DEG                                            :Y-axis Tilt {F13.4}
ROTA_SL.DEG                                            :Motor Rotation Angle {F13.4}
TOD7 .S                                                :Time of Day {I11}
TOJ  .S                                                :Time of Job {F13.4}
#-----------------------------------------------------------------------------
# 
#     TIME    FREQ_EMF_SL  PH_SH_WPPCM_    RB_SL       SDEV_SL      RTIX_SL      RTIY_SL      TILX_SL      TILY_SL      ROTA_SL        TOD7            TOJ
#                          SL
~A  
# ...
    1166.0       0.0000       0.0000    -122.2292    -999.2500     -85.6353      39.9658     -83.3269      38.7684      36.3200 1533223292 9999999.9999
    1167.0       0.0000       0.0000    -122.1788    -999.2500     -85.7157      39.8855     -83.4072      38.6863      36.3200 1533223293 9999999.9999
    1168.0       0.0000       0.0000    -122.1830    -999.2500     -85.6353      39.8855     -83.3269      38.6863      36.3200 1533223294 9999999.9999
    1169.0       0.0000       0.0000    -122.2271    -999.2500     -85.6755      39.9658     -83.3671      38.7684      36.3200 1533223295 9999999.9999
    1170.0       0.0000       0.0000    -122.2313    -999.2500     -85.5952      39.9658     -83.2868      38.7684      36.3200 1533223296 9999999.9999
    1171.0       0.0000       0.0000    -122.2522    -999.2500     -85.6353      40.0060     -83.3269      38.8094      36.3200 1533223297 9999999.9999
    1172.0       0.0000       0.0000    -122.2459    -999.2500     -85.7558      40.0060     -83.4474      38.8094      36.3200 1533223298 9999999.9999
    1173.0       0.0000       0.0000    -122.1851    -999.2500     -85.5952      39.8855     -83.2868      38.6863      36.3200 1533223299 9999999.9999
    1174.0       0.0000       0.0000    -122.2271    -999.2500     -85.6755      39.9658     -83.3671      38.7684      36.3200 1533223300 9999999.9999
    1175.0       0.0000       0.0000    -122.2630    -999.2500     -85.4345      40.0060     -83.1261      38.8094      36.3200 1533223301 9999999.9999
    1176.0       0.0000       0.0000    -122.2795    -999.2500     -85.5550      40.0462     -83.2466      38.8505      36.3200 1533223302 9999999.9999
    1177.0       0.0000       0.0000    -122.2608    -999.2500     -85.4747      40.0060     -83.1663      38.8094      36.3200 1533223303 9999999.9999
    1178.0       0.0000       0.0000    -122.2543    -999.2500     -85.5952      40.0060     -83.2868      38.8094      36.3200 1533223304 9999999.9999
    1179.0       0.0000       0.0000    -122.2334    -999.2500     -85.5550      39.9658     -83.2466      38.7684      36.3200 1533223305 9999999.9999
    1180.0       0.0000       0.0000    -122.2774    -999.2500     -85.5952      40.0462     -83.2868      38.8505      36.3200 1533223306 9999999.9999
    1181.0       0.0000       0.0000    -122.2565    -999.2500     -85.5550      40.0060     -83.2466      38.8094      36.3200 1533223307 9999999.9999
    1182.0       0.0000       0.0000    -122.1977    -999.2500     -85.7960      39.9257     -83.4876      38.7274      36.3200 1533223308 9999999.9999
    1183.0       0.0000       0.0000    -122.2208    -999.2500     -85.7960      39.9658     -83.4876      38.7684      36.3200 1533223309 9999999.9999
    1184.0       0.0000       0.0000    -122.1326    -999.2500     -85.7157      39.8052     -83.4072      38.6042      36.3200 1533223310 9999999.9999
    1185.0       0.0000       0.0000    -126.1335    -999.2500     -78.5660      46.2318     -76.2576      45.1705      36.3200 1533223311 9999999.9999
    1186.0       0.0000       0.0000    -143.0956    -999.2500     -48.3607      73.9468     -46.0523      73.4877      36.3200 1533223312 9999999.9999
    1187.0       0.0000       0.0000    -169.6184      81.4069     -12.5722     103.2685     -10.2638     103.4465      36.3200 1533223313 9999999.9999
    1188.0       0.0000       0.0000     178.4038      75.4901      -0.7632     104.3932       1.5452     104.5956      36.3200 1533223314 9999999.9999
    1189.0       0.0000       0.0000     162.3610      92.6033      15.7855     102.2242      18.0939     102.3794      36.3200 1533223315 9999999.9999
    1190.0       0.0000       0.0000     143.3078    -999.2500      44.5850      78.8070      46.8934      78.4535      36.3200 1533223316 9999999.9999
    1191.0       0.0000       0.0000     142.4937    -999.2500      45.9908      76.9995      48.2992      76.6067      36.3200 1533223317 9999999.9999
    1192.0       0.0000       0.0000     138.2960    -999.2500      52.5782      67.2390      54.8866      66.6341      36.3200 1533223318 9999999.9999
    1193.0       0.0000       0.0000     124.9712    -999.2500      75.4330      44.2235      77.7414      43.1186      36.3200 1533223319 9999999.9999
    1194.0       0.0000       0.0000     110.2047    -999.2500      94.1507      23.0155      96.4591      21.4498      36.3200 1533223320 9999999.9999
    1195.0       0.0000       0.0000     108.9534    -999.2500      95.5163      21.4892      97.8247      19.8903      36.3200 1533223321 9999999.9999
    1196.0       0.0000       0.0000      94.1704      78.7465      99.6836       6.0250     101.9920       4.0901      36.3200 1533223322 9999999.9999
    1197.0       0.0000       0.0000      82.1009      81.4773      99.2920      -5.6233     101.6004      -7.8113      36.3200 1533223323 9999999.9999
    1198.0       0.0000       0.0000      68.7101    -999.2500      96.8418     -20.1235      99.1502     -22.6265      36.3200 1533223324 9999999.9999
    1199.0       0.0000       0.0000      68.8022    -999.2500      96.3598     -20.0432      98.6682     -22.5444      36.3200 1533223325 9999999.9999
    1200.0       0.0000       0.0000      64.8734    -999.2500      93.7892     -25.1845      96.0976     -27.7975      36.3200 1533223326 9999999.9999
    1201.0       0.0000       0.0000      63.7431    -999.2500      92.5842     -26.7912      94.8926     -29.4390      36.3200 1533223327 9999999.9999
    1202.0       0.0000       0.0000      63.4260    -999.2500      92.6243     -27.2330      94.9327     -29.8905      36.3200 1533223328 9999999.9999
    1203.0       0.0000       0.0000      62.5902    -999.2500      91.4193     -28.4782      93.7277     -31.1627      36.3200 1533223329 9999999.9999
    1204.0       0.0000       0.0000      62.6158    -999.2500      91.4997     -28.4380      93.8081     -31.1217      36.3200 1533223330 9999999.9999
    1205.0       0.0000       0.0000      62.6414    -999.2500      91.5800     -28.3978      93.8884     -31.0806      36.3200 1533223331 9999999.9999
    1206.0       0.0000       0.0000      62.6136    -999.2500      91.5800     -28.4380      93.8884     -31.1217      36.3200 1533223332 9999999.9999
    1207.0       0.0000       0.0000      62.6703    -999.2500      91.5398     -28.3577      93.8482     -31.0396      36.3200 1533223333 9999999.9999
    1208.0       0.0000       0.0000      62.6553    -999.2500      91.5800     -28.3778      93.8884     -31.0601      36.3200 1533223334 9999999.9999
    1209.0       0.0000       0.0000      62.5892    -999.2500      91.4595     -28.4782      93.7679     -31.1627      36.3200 1533223335 9999999.9999
    1210.0       0.0000       0.0000      62.6692    -999.2500      91.5800     -28.3577      93.8884     -31.0396      36.3200 1533223336 9999999.9999
    1211.0       0.0000       0.0000      62.5592    -999.2500      91.5398     -28.5183      93.8482     -31.2037      36.3200 1533223337 9999999.9999
    1212.0       0.0000       0.0000      62.5592    -999.2500      91.5398     -28.5183      93.8482     -31.2037      36.3200 1533223338 9999999.9999
    1213.0       0.0000       0.0000      61.7372    -999.2500      90.5357     -29.7635      92.8441     -32.4760      36.3200 1533223339 9999999.9999
    1214.0       0.0000       0.0000      62.5337    -999.2500      91.4595     -28.5585      93.7679     -31.2448      36.3200 1533223340 9999999.9999
    1215.0       0.0000       0.0000      62.9441    -999.2500      91.7407     -27.9560      94.0491     -30.6292      36.3200 1533223341 9999999.9999
    1216.0       0.0000       0.0000      61.6338    -999.2500      90.3348     -29.9242      92.6432     -32.6401      36.3200 1533223342 9999999.9999
    1217.0       0.0000       0.0000      61.7910    -999.2500      90.5357     -29.6832      92.8441     -32.3939      36.3200 1533223343 9999999.9999
    1218.0       0.0000       0.0000      61.7119    -999.2500      90.4553     -29.8037      92.7637     -32.5170      36.3200 1533223344 9999999.9999
