~VERSION INFORMATION
VERS.           2.0   :CWLS Log ASCII Standard - VERSION 2.0
WRAP.           NO    :One Line per depth step
PROD.  Schlumberger   :LAS Producer
PROG.  DLIS to ASCII 19C2-270                          :LAS Program name and version
CREA.        2018/08/03 10:59                          :LAS Creation date {YYYY/MM/DD hh:mm}
DLIS_CREA.  2018-Aug-03 09:28                          :DLIS Creation date and time {YYYY-MMM-DD hh:mm}
SOURCE.     PERFO_Perfo_076PTP.DLIS                    :DLIS File Name
FILE-ID.     PERFO_Perfo_076PTP                        :File Identification Number
#--------------------------------------------------
~WELL INFORMATION
#MNEM.UNIT      DATA             DESCRIPTION
#---- ------ --------------   -----------------------------
STRT .S            0.0       :START TIME      
STOP .S         1744.0       :STOP TIME      
STEP .S            1.0       :STEP     
NULL .          -999.25      :NULL VALUE
COMP .        SHELL INTERNATIONAL EP                   :COMPANY
WELL .        WPP TEST 4                               :WELL
FLD  .        WILDCAT                                  :FIELD
LOC  .        NA                                       :LOCATION
CNTY .        HARRIS                                   :COUNTY
STAT .        TEXAS                                    :STATE
CTRY .                                                 :COUNTRY
API  .        NA                                       :API NUMBER
UWI  .                                                 :UNIQUE WELL ID
DATE .        02-Aug-2018                              :LOG DATE {DD-MMM-YYYY}
SRVC .        Schlumberger                             :SERVICE COMPANY
LATI .DEG                                              :LATITUDE
LONG .DEG                                              :LONGITUDE
GDAT .                                                 :GeoDetic Datum
SECT .        NA                                       :Section
RANG .        NA                                       :Range
TOWN .        NA                                       :Township
#-----------------------------------------------------------------------------
~PARAMETER INFORMATION
#MNEM.UNIT    VALUE                      DESCRIPTION
#---- -----   --------------------       ------------------------
U-PHASE_B_COMP_PER_YT.                 0 :Phase B Comparator Period Yt
U-PHASE_A_COMP_PER_XT.                 0 :Phase A Comparator Period Xt
U-MAX_EXC_CUR_LIMIT.MA       265.00000   :Requested CM Current Limit
U-REQ_EXC_FQ.HZ              50          :Requested CM Frequency
U-TILT_Y_OFFSET.          -2.06578       :WPTET Tilt Y Offset
U-TILT_Y_GAIN.           1.02173         :WPTET Tilt Y Gain
U-TILT_X_OFFSET.           2.30841       :WPTET Tilt X Offset
U-TILT_X_GAIN.           1.00000         :WPTET Tilt X Gain
U-TILT_OFFSET_TOL.           0.00100     :WPTET Tilt Offset Calibration Tolerance
U-MOT_CUR_LIMIT_REQ.MA        70.00000   :Requested Motor Current Limit
U-MOT_SPD_REQ_WPMS.RPM        1.00000    :Requested Motor Speed
U-STD_TOL_TILT.           0.01000        :Tilt Standard Deviation Tolerance
CWEI .LB/F      29.00000                 :Casing Weight
CSIZ .IN         7.00000                 :Current Casing Size
LCC  .               440                 :Logging Company Code
LUN  .              2134                 :Logging Unit Number
HIDE .                                   :Header Identifier
HID1 .                                   :Header Identifier Line 1
R1   .                                   :Remark Line 1
WITN .        MR. KELLY McCOY            :Witness's Name
ENGI .        MORRIS MOORE               :Engineer's Name
LUL  .        IOWA COLONY                :Logging Unit Location
DATE .        02-Aug-2018                :Date as Month-Day-Year
STAT .        TEXAS                      :State or Province
COUN .        HARRIS                     :County or Rig Name
FN   .        WILDCAT                    :Field Name
WN   .        WPP TEST 4                 :Well Name
CN   .        SHELL INTERNATIONAL EP     :Company Name
CLAB .        County                     :County/Rig Label
SLAB .        State                      :State/Province Label
RUN  .          1                        :RUN NUMBER
PDAT .        GROUND LEVEL               :Permanent Datum
EPD  .                                   :Elevation of Permanent Datum above Mean Sea Level
LMF  .          NA                       :Logging Measured From (Name of Logging Elevation Reference)
APD  .                                   :Elevation of Depth Reference (LMF) above Permanent Datum
#-----------------------------------------------------------------------------
~CURVE INFORMATION
#MNEM.UNIT   API CODE                                  DESCRIPTION
#---- -----  --------                                  -----------------------
TIME .S                                                :TIME {F10.1}
FREQ_EMF_SL.HZ                                         :Electromagnetic Field Frequency {F13.4}
PH_SH_WPPCM_SL.DEG                                     :WPPCM Phase Shift {F13.4}
RB_SL.DEG                                              :Relative Bearing {F13.4}
SDEV_SL.DEG                                            :Sonde Deviation {F13.4}
RTIX_SL.DEG                                            :Raw X-axis Tilt {F13.4}
RTIY_SL.DEG                                            :Raw Y-axis Tilt {F13.4}
TILX_SL.DEG                                            :X-axis Tilt {F13.4}
TILY_SL.DEG                                            :Y-axis Tilt {F13.4}
ROTA_SL.DEG                                            :Motor Rotation Angle {F13.4}
TOD7 .S                                                :Time of Day {I11}
TOJ  .S                                                :Time of Job {F13.4}
#-----------------------------------------------------------------------------
# 
#     TIME    FREQ_EMF_SL  PH_SH_WPPCM_    RB_SL       SDEV_SL      RTIX_SL      RTIY_SL      TILX_SL      TILY_SL      ROTA_SL        TOD7            TOJ
#                          SL
~A  
# ...
    1113.0       0.0000       0.0000    -137.2377    -999.2500     -57.0768      62.7403     -54.7684      62.0377     276.1903 1533243135 9999999.9999
    1114.0       0.0000       0.0000    -129.7993    -999.2500     -72.1393      52.3773     -69.8309      51.4496     282.2952 1533243136 9999999.9999
    1115.0       0.0000       0.0000    -125.5459    -999.2500     -80.9760      45.5490     -78.6676      44.4729     288.8020 1533243137 9999999.9999
    1116.0       0.0000       0.0000    -121.1193    -999.2500     -88.6077      38.2788     -86.2993      37.0447     294.9068 1533243138 9999999.9999
    1117.0       0.0000       0.0000    -115.9596    -999.2500     -95.5565      30.4865     -93.2481      29.0831     301.0056 1533243139 9999999.9999
    1118.0       0.0000       0.0000    -109.8096    -999.2500    -101.4208      22.4130     -99.1124      20.8342     307.1074 1533243140 9999999.9999
    1119.0       0.0000       0.0000    -102.6254      83.0517    -104.9153      14.3797    -102.6069      12.6263     313.2092 1533243141 9999999.9999
    1120.0       0.0000       0.0000     -94.3229      77.0813    -105.9195       6.1455    -103.6111       4.2132     319.3141 1533243142 9999999.9999
    1121.0       0.0000       0.0000     -85.2322      77.3224    -105.8392      -2.5305    -103.5308      -4.6513     325.4128 1533243143 9999999.9999
    1122.0       0.0000       0.0000     -76.7624      86.8087    -104.9555     -10.9655    -102.6471     -13.2695     331.5146 1533243144 9999999.9999
    1123.0       0.0000       0.0000     -69.8267    -999.2500    -102.0233     -18.7578     -99.7149     -21.2312     337.6195 1533243145 9999999.9999
    1124.0       0.0000       0.0000     -63.8969    -999.2500     -96.9222     -26.5903     -94.6138     -29.2338     343.7213 1533243146 9999999.9999
    1125.0       0.0000       0.0000     -58.8772    -999.2500     -90.2545     -34.3023     -87.9461     -37.1134     349.8362 1533243147 9999999.9999
    1126.0       0.0000       0.0000     -54.7143    -999.2500     -83.2655     -41.3717     -80.9571     -44.3363     355.9388 1533243148 9999999.9999
    1127.0       0.0000       0.0000     -50.6466    -999.2500     -74.8707     -48.3607     -72.5623     -51.4772       2.4456 1533243149 9999999.9999
    1128.0       0.0000       0.0000     -46.0345    -999.2500     -64.1462     -54.9882     -61.8378     -58.2487       8.5474 1533243150 9999999.9999
    1129.0       0.0000       0.0000     -37.7264    -999.2500     -51.0518     -72.7017     -48.7434     -76.3470      14.6554 1533243151 9999999.9999
    1130.0       0.0000       0.0000     -33.7815    -999.2500     -44.1432     -81.7392     -41.8348     -85.5809      20.7388 1533243152 9999999.9999
    1131.0       0.0000       0.0000     -29.5785    -999.2500     -36.8328     -89.0897     -34.5244     -93.0911      26.8406 1533243153 9999999.9999
    1132.0       0.0000       0.0000     -24.8601    -999.2500     -29.5225     -95.1147     -27.2141     -99.2470      32.9424 1533243154 9999999.9999
    1133.0       0.0000       0.0000     -18.7404    -999.2500     -21.5695     -99.2920     -19.2611    -103.5151      39.0473 1533243155 9999999.9999
    1134.0       0.0000       0.0000     -12.1427      80.9990     -14.2993    -100.8183     -11.9909    -105.0746      45.1491 1533243156 9999999.9999
    1135.0       0.0000       0.0000      -3.7202      75.1695      -5.9045    -101.0192      -3.5961    -105.2798      51.2509 1533243157 9999999.9999
    1136.0       0.0000       0.0000       5.2404      75.8019       2.7715    -100.8585       5.0799    -105.1157      57.3405 1533243158 9999999.9999
    1137.0       0.0000       0.0000      13.0936      84.5302      10.7245     -99.9347      13.0329    -104.1717      63.4555 1533243159 9999999.9999
    1138.0       0.0000       0.0000      19.6801    -999.2500      18.2357     -96.9623      20.5441    -101.1348      69.5572 1533243160 9999999.9999
    1139.0       0.0000       0.0000      25.0643    -999.2500      25.3853     -92.3432      27.6937     -96.4153      76.0640 1533243161 9999999.9999
    1140.0       0.0000       0.0000      29.6166    -999.2500      32.3342     -86.3583      34.6426     -90.3004      82.1658 1533243162 9999999.9999
    1141.0       0.0000       0.0000      33.7934    -999.2500      39.3232     -79.2488      41.6316     -83.0365      88.2737 1533243163 9999999.9999
    1142.0       0.0000       0.0000      37.8939    -999.2500      46.1515     -70.4925      48.4599     -74.0899      94.3724 1533243164 9999999.9999
    1143.0       0.0000       0.0000      42.9513    -999.2500      51.9757     -57.3982      54.2841     -60.7110     100.4618 1533243165 9999999.9999
    1144.0       0.0000       0.0000      51.8800    -999.2500      74.4288     -46.7138      76.7372     -49.7946     106.5636 1533243166 9999999.9999
    1145.0       0.0000       0.0000      55.8668    -999.2500      83.3860     -39.6043      85.6944     -42.5306     112.6654 1533243167 9999999.9999
    1146.0       0.0000       0.0000      59.7992    -999.2500      90.2143     -32.7760      92.5227     -35.5539     118.7672 1533243168 9999999.9999
    1147.0       0.0000       0.0000      64.4463    -999.2500      95.8377     -25.6263      98.1461     -28.2489     124.8689 1533243169 9999999.9999
    1148.0       0.0000       0.0000      69.8702    -999.2500      99.4928     -18.5570     101.8012     -21.0260     130.9708 1533243170 9999999.9999
    1149.0       0.0000       0.0000      76.4557      83.6924     101.0192     -11.2467     103.3276     -13.5568     137.0604 1533243171 9999999.9999
    1150.0       0.0000       0.0000      84.9749      77.0774     101.5413      -2.7715     103.8497      -4.8975     143.1623 1533243172 9999999.9999
    1151.0       0.0000       0.0000      93.9966      76.4350     101.8225       5.8242     104.1309       3.8849     149.6823 1533243173 9999999.9999
    1152.0       0.0000       0.0000     101.9508      84.1492     100.9790      13.6567     103.2874      11.8876     155.7873 1533243174 9999999.9999
    1153.0       0.0000       0.0000     109.0274    -999.2500      97.7657      21.4490     100.0741      19.8492     161.8861 1533243175 9999999.9999
    1154.0       0.0000       0.0000     115.1451    -999.2500      92.3833      29.3217      94.6917      27.8930     168.0041 1533243176 9999999.9999
    1155.0       0.0000       0.0000     120.0947    -999.2500      86.0772      36.6722      88.3856      35.4032     174.1060 1533243177 9999999.9999
    1156.0       0.0000       0.0000     124.6867    -999.2500      78.1242      44.1432      80.4326      43.0365     180.2079 1533243178 9999999.9999
    1157.0       0.0000       0.0000     129.3361    -999.2500      68.4440      51.6343      70.7524      50.6903     186.3098 1533243179 9999999.9999
    1158.0       0.0000       0.0000     137.4587    -999.2500      54.3857      66.2348      56.6941      65.6082     192.4117 1533243180 9999999.9999
    1159.0       0.0000       0.0000     141.6531    -999.2500      47.8385      76.4372      50.1469      76.0322     198.5136 1533243181 9999999.9999
    1160.0       0.0000       0.0000     145.5108    -999.2500      40.8495      84.8722      43.1579      84.6504     204.6155 1533243182 9999999.9999
    1161.0       0.0000       0.0000     149.6073    -999.2500      33.5793      91.9817      35.8877      91.9144     210.7174 1533243183 9999999.9999
    1162.0       0.0000       0.0000     154.6168    -999.2500      25.6665      98.5690      27.9749      98.6449     216.8193 1533243184 9999999.9999
    1163.0       0.0000       0.0000     160.7763    -999.2500      17.5127     103.3087      19.8211     103.4875     222.9344 1533243185 9999999.9999
    1164.0       0.0000       0.0000     167.8486      79.5897       9.6400     105.7187      11.9484     105.9499     229.4443 1533243186 9999999.9999
    1165.0       0.0000       0.0000     176.2192      73.9866       1.3255     106.2007       3.6339     106.4423     235.5462 1533243187 9999999.9999
