~VERSION INFORMATION
VERS.           2.0   :CWLS Log ASCII Standard - VERSION 2.0
WRAP.           NO    :One Line per depth step
PROD.  Schlumberger   :LAS Producer
PROG.  DLIS to ASCII 19C2-270                          :LAS Program name and version
CREA.        2018/08/03 10:59                          :LAS Creation date {YYYY/MM/DD hh:mm}
DLIS_CREA.  2018-Aug-03 09:28                          :DLIS Creation date and time {YYYY-MMM-DD hh:mm}
SOURCE.     PERFO_Perfo_076PTP.DLIS                    :DLIS File Name
FILE-ID.     PERFO_Perfo_076PTP                        :File Identification Number
#--------------------------------------------------
~WELL INFORMATION
#MNEM.UNIT      DATA             DESCRIPTION
#---- ------ --------------   -----------------------------
STRT .S            0.0       :START TIME      
STOP .S         1744.0       :STOP TIME      
STEP .S            1.0       :STEP     
NULL .          -999.25      :NULL VALUE
COMP .        SHELL INTERNATIONAL EP                   :COMPANY
WELL .        WPP TEST 4                               :WELL
FLD  .        WILDCAT                                  :FIELD
LOC  .        NA                                       :LOCATION
CNTY .        HARRIS                                   :COUNTY
STAT .        TEXAS                                    :STATE
CTRY .                                                 :COUNTRY
API  .        NA                                       :API NUMBER
UWI  .                                                 :UNIQUE WELL ID
DATE .        02-Aug-2018                              :LOG DATE {DD-MMM-YYYY}
SRVC .        Schlumberger                             :SERVICE COMPANY
LATI .DEG                                              :LATITUDE
LONG .DEG                                              :LONGITUDE
GDAT .                                                 :GeoDetic Datum
SECT .        NA                                       :Section
RANG .        NA                                       :Range
TOWN .        NA                                       :Township
#-----------------------------------------------------------------------------
~PARAMETER INFORMATION
#MNEM.UNIT    VALUE                      DESCRIPTION
#---- -----   --------------------       ------------------------
U-PHASE_B_COMP_PER_YT.                 0 :Phase B Comparator Period Yt
U-PHASE_A_COMP_PER_XT.                 0 :Phase A Comparator Period Xt
U-MAX_EXC_CUR_LIMIT.MA       265.00000   :Requested CM Current Limit
U-REQ_EXC_FQ.HZ              50          :Requested CM Frequency
U-TILT_Y_OFFSET.          -2.06578       :WPTET Tilt Y Offset
U-TILT_Y_GAIN.           1.02173         :WPTET Tilt Y Gain
U-TILT_X_OFFSET.           2.30841       :WPTET Tilt X Offset
U-TILT_X_GAIN.           1.00000         :WPTET Tilt X Gain
U-TILT_OFFSET_TOL.           0.00100     :WPTET Tilt Offset Calibration Tolerance
U-MOT_CUR_LIMIT_REQ.MA        70.00000   :Requested Motor Current Limit
U-MOT_SPD_REQ_WPMS.RPM        1.00000    :Requested Motor Speed
U-STD_TOL_TILT.           0.01000        :Tilt Standard Deviation Tolerance
CWEI .LB/F      29.00000                 :Casing Weight
CSIZ .IN         7.00000                 :Current Casing Size
LCC  .               440                 :Logging Company Code
LUN  .              2134                 :Logging Unit Number
HIDE .                                   :Header Identifier
HID1 .                                   :Header Identifier Line 1
R1   .                                   :Remark Line 1
WITN .        MR. KELLY McCOY            :Witness's Name
ENGI .        MORRIS MOORE               :Engineer's Name
LUL  .        IOWA COLONY                :Logging Unit Location
DATE .        02-Aug-2018                :Date as Month-Day-Year
STAT .        TEXAS                      :State or Province
COUN .        HARRIS                     :County or Rig Name
FN   .        WILDCAT                    :Field Name
WN   .        WPP TEST 4                 :Well Name
CN   .        SHELL INTERNATIONAL EP     :Company Name
CLAB .        County                     :County/Rig Label
SLAB .        State                      :State/Province Label
RUN  .          1                        :RUN NUMBER
PDAT .        GROUND LEVEL               :Permanent Datum
EPD  .                                   :Elevation of Permanent Datum above Mean Sea Level
LMF  .          NA                       :Logging Measured From (Name of Logging Elevation Reference)
APD  .                                   :Elevation of Depth Reference (LMF) above Permanent Datum
#-----------------------------------------------------------------------------
~CURVE INFORMATION
#MNEM.UNIT   API CODE                                  DESCRIPTION
#---- -----  --------                                  -----------------------
TIME .S                                                :TIME {F10.1}
FREQ_EMF_SL.HZ                                         :Electromagnetic Field Frequency {F13.4}
PH_SH_WPPCM_SL.DEG                                     :WPPCM Phase Shift {F13.4}
RB_SL.DEG                                              :Relative Bearing {F13.4}
SDEV_SL.DEG                                            :Sonde Deviation {F13.4}
RTIX_SL.DEG                                            :Raw X-axis Tilt {F13.4}
RTIY_SL.DEG                                            :Raw Y-axis Tilt {F13.4}
TILX_SL.DEG                                            :X-axis Tilt {F13.4}
TILY_SL.DEG                                            :Y-axis Tilt {F13.4}
ROTA_SL.DEG                                            :Motor Rotation Angle {F13.4}
TOD7 .S                                                :Time of Day {I11}
TOJ  .S                                                :Time of Job {F13.4}
#-----------------------------------------------------------------------------
# 
#     TIME    FREQ_EMF_SL  PH_SH_WPPCM_    RB_SL       SDEV_SL      RTIX_SL      RTIY_SL      TILX_SL      TILY_SL      ROTA_SL        TOD7            TOJ
#                          SL
~A  
# ...
    1484.0       0.0000       0.0000     -30.7939    -999.2500     -38.8813     -87.2420     -36.5729     -91.2033      32.4751 1533243506 9999999.9999
    1485.0       0.0000       0.0000     -26.3900    -999.2500     -31.7718     -93.4678     -29.4634     -97.5644      38.5646 1533243507 9999999.9999
    1486.0       0.0000       0.0000     -21.0965    -999.2500     -24.4615     -98.0067     -22.1531    -102.2019      44.6664 1533243508 9999999.9999
    1487.0       0.0000       0.0000     -14.7936      83.4313     -17.1110    -100.4167     -14.8026    -104.6642      50.7683 1533243509 9999999.9999
    1488.0       0.0000       0.0000      -7.0507      76.3170      -9.1580    -101.0995      -6.8496    -105.3619      56.8964 1533243510 9999999.9999
    1489.0       0.0000       0.0000       1.7666      74.9442      -0.6025    -100.8987       1.7059    -105.1567      62.9982 1533243511 9999999.9999
    1490.0       0.0000       0.0000      10.2753      79.4810       7.7923    -100.4167      10.1007    -104.6642      69.5080 1533243512 9999999.9999
    1491.0       0.0000       0.0000      17.2234      96.2067      15.3035     -98.3682      17.6119    -102.5712      75.5975 1533243513 9999999.9999
    1492.0       0.0000       0.0000      22.9841    -999.2500      22.4933     -94.3917      24.8017     -98.5083      81.6871 1533243514 9999999.9999
    1493.0       0.0000       0.0000      27.8689    -999.2500      29.5627     -89.0897      31.8711     -93.0911      87.7888 1533243515 9999999.9999
    1494.0       0.0000       0.0000      32.0932    -999.2500      36.4312     -82.3818      38.7396     -86.2375      93.8906 1533243516 9999999.9999
    1495.0       0.0000       0.0000      36.1048    -999.2500      43.2193     -74.3887      45.5277     -78.0707      99.9924 1533243517 9999999.9999
    1496.0       0.0000       0.0000      40.8870    -999.2500      50.3690     -63.2625      52.6774     -66.7028     106.0942 1533243518 9999999.9999
    1497.0       0.0000       0.0000      50.5391    -999.2500      71.0147     -48.9230      73.3231     -52.0517     112.1837 1533243519 9999999.9999
    1498.0       0.0000       0.0000      54.3175    -999.2500      80.2530     -42.4160      82.5614     -45.4034     118.2855 1533243520 9999999.9999
    1499.0       0.0000       0.0000      58.1385    -999.2500      87.6437     -35.5877      89.9521     -38.4267     124.3873 1533243521 9999999.9999
    1500.0       0.0000       0.0000      62.4773    -999.2500      93.8293     -28.5183      96.1377     -31.2037     130.4891 1533243522 9999999.9999
    1501.0       0.0000       0.0000      67.5984    -999.2500      98.3280     -21.3687     100.6364     -23.8987     136.5910 1533243523 9999999.9999
    1502.0       0.0000       0.0000      73.7806    -999.2500     100.6175     -14.0985     102.9259     -16.4706     143.1009 1533243524 9999999.9999
    1503.0       0.0000       0.0000      81.7895      78.9584     101.4208      -5.8643     103.7292      -8.0575     149.2028 1533243525 9999999.9999
    1504.0       0.0000       0.0000      90.5784      75.8003     101.9028       2.5707     104.2112       0.5607     155.3047 1533243526 9999999.9999
    1505.0       0.0000       0.0000      98.5965      79.1000     101.5413      10.2827     103.8497       8.4403     161.4066 1533243527 9999999.9999
    1506.0       0.0000       0.0000     106.5173      96.3229      99.1715      18.5570     101.4799      16.8944     167.5085 1533243528 9999999.9999
    1507.0       0.0000       0.0000     113.1598    -999.2500      94.3515      26.6305      96.6599      25.1433     173.5980 1533243529 9999999.9999
    1508.0       0.0000       0.0000     118.8272    -999.2500      87.9248      34.7040      90.2332      33.3922     179.6999 1533243530 9999999.9999
    1509.0       0.0000       0.0000     123.4696    -999.2500      80.4538      42.1348      82.7622      40.9845     185.8018 1533243531 9999999.9999
    1510.0       0.0000       0.0000     127.8443    -999.2500      71.7377      49.3247      74.0461      48.3306     191.9068 1533243532 9999999.9999
    1511.0       0.0000       0.0000     132.9511    -999.2500      59.2458      55.7915      61.5542      54.9379     198.0056 1533243533 9999999.9999
    1512.0       0.0000       0.0000     140.3712    -999.2500      50.0075      73.3443      52.3159      72.8721     204.1206 1533243534 9999999.9999
    1513.0       0.0000       0.0000     144.2597    -999.2500      43.1390      82.2613      45.4474      81.9829     210.2225 1533243535 9999999.9999
    1514.0       0.0000       0.0000     148.2342    -999.2500      35.9492      89.9332      38.2576      89.8214     216.7324 1533243536 9999999.9999
    1515.0       0.0000       0.0000     152.7952    -999.2500      28.3978      96.5607      30.7062      96.5929     222.8474 1533243537 9999999.9999
    1516.0       0.0000       0.0000     158.5863    -999.2500      20.2440     101.9028      22.5524     102.0511     228.9493 1533243538 9999999.9999
    1517.0       0.0000       0.0000     165.3471      85.1555      12.2910     105.1965      14.5994     105.4163     235.0512 1533243539 9999999.9999
    1518.0       0.0000       0.0000     173.4514      75.0195       4.0167     106.0802       6.3251     106.3192     241.1661 1533243540 9999999.9999
    1519.0       0.0000       0.0000    -177.8003      73.5772      -4.4183     106.3212      -2.1099     106.5654     247.2680 1533243541 9999999.9999
    1520.0       0.0000       0.0000    -169.1885      79.4124     -12.9337     104.8752     -10.6253     105.0880     253.3699 1533243542 9999999.9999
    1521.0       0.0000       0.0000    -161.6559      82.5234     -21.3285     100.4970     -19.0201     100.6147     259.4718 1533243543 9999999.9999
    1522.0       0.0000       0.0000    -155.4156    -999.2500     -29.4422      94.5523     -27.1338      94.5409     265.5736 1533243544 9999999.9999
    1523.0       0.0000       0.0000    -150.1330    -999.2500     -37.3148      87.5633     -35.0064      87.4001     271.6630 1533243545 9999999.9999
    1524.0       0.0000       0.0000    -145.4544    -999.2500     -44.8662      79.5702     -42.5578      79.2332     277.7648 1533243546 9999999.9999
    1525.0       0.0000       0.0000    -140.9055    -999.2500     -52.1363      70.6532     -49.8279      70.1225     283.8667 1533243547 9999999.9999
    1526.0       0.0000       0.0000    -133.1362    -999.2500     -65.0700      57.2375     -62.7616      56.4153     290.3765 1533243548 9999999.9999
    1527.0       0.0000       0.0000    -128.4030    -999.2500     -75.0313      50.1682     -72.7229      49.1924     296.4783 1533243549 9999999.9999
    1528.0       0.0000       0.0000    -124.1287    -999.2500     -83.5065      43.1792     -81.1981      42.0516     302.5801 1533243550 9999999.9999
    1529.0       0.0000       0.0000    -119.5616    -999.2500     -90.8168      35.8287     -88.5084      34.5413     308.6819 1533243551 9999999.9999
    1530.0       0.0000       0.0000    -114.1959    -999.2500     -97.5648      28.0363     -95.2564      26.5797     314.7837 1533243552 9999999.9999
    1531.0       0.0000       0.0000    -107.9427    -999.2500    -102.6258      20.2038    -100.3174      18.5770     320.8855 1533243553 9999999.9999
    1532.0       0.0000       0.0000    -100.2354      81.5412    -105.5580      11.9295    -103.2496      10.1229     326.9904 1533243554 9999999.9999
    1533.0       0.0000       0.0000     -91.3369      76.4131    -105.9597       3.2937    -103.6513       1.2994     333.0891 1533243555 9999999.9999
    1534.0       0.0000       0.0000     -82.4953      78.7572    -105.7990      -5.1815    -103.4906      -7.3599     339.1909 1533243556 9999999.9999
    1535.0       0.0000       0.0000     -74.8785      96.0709    -104.3932     -12.9738    -102.0848     -15.3215     345.2927 1533243557 9999999.9999
    1536.0       0.0000       0.0000     -67.8976    -999.2500    -100.6175     -21.1678     -98.3091     -23.6935     351.4077 1533243558 9999999.9999
