~VERSION INFORMATION
VERS.           2.0   :CWLS Log ASCII Standard - VERSION 2.0
WRAP.           NO    :One Line per depth step
PROD.  Schlumberger   :LAS Producer
PROG.  DLIS to ASCII 19C2-270                          :LAS Program name and version
CREA.        2018/08/03 10:59                          :LAS Creation date {YYYY/MM/DD hh:mm}
DLIS_CREA.  2018-Aug-03 09:28                          :DLIS Creation date and time {YYYY-MMM-DD hh:mm}
SOURCE.     PERFO_Perfo_076PTP.DLIS                    :DLIS File Name
FILE-ID.     PERFO_Perfo_076PTP                        :File Identification Number
#--------------------------------------------------
~WELL INFORMATION
#MNEM.UNIT      DATA             DESCRIPTION
#---- ------ --------------   -----------------------------
STRT .S            0.0       :START TIME      
STOP .S         1744.0       :STOP TIME      
STEP .S            1.0       :STEP     
NULL .          -999.25      :NULL VALUE
COMP .        SHELL INTERNATIONAL EP                   :COMPANY
WELL .        WPP TEST 4                               :WELL
FLD  .        WILDCAT                                  :FIELD
LOC  .        NA                                       :LOCATION
CNTY .        HARRIS                                   :COUNTY
STAT .        TEXAS                                    :STATE
CTRY .                                                 :COUNTRY
API  .        NA                                       :API NUMBER
UWI  .                                                 :UNIQUE WELL ID
DATE .        02-Aug-2018                              :LOG DATE {DD-MMM-YYYY}
SRVC .        Schlumberger                             :SERVICE COMPANY
LATI .DEG                                              :LATITUDE
LONG .DEG                                              :LONGITUDE
GDAT .                                                 :GeoDetic Datum
SECT .        NA                                       :Section
RANG .        NA                                       :Range
TOWN .        NA                                       :Township
#-----------------------------------------------------------------------------
~PARAMETER INFORMATION
#MNEM.UNIT    VALUE                      DESCRIPTION
#---- -----   --------------------       ------------------------
U-PHASE_B_COMP_PER_YT.                 0 :Phase B Comparator Period Yt
U-PHASE_A_COMP_PER_XT.                 0 :Phase A Comparator Period Xt
U-MAX_EXC_CUR_LIMIT.MA       265.00000   :Requested CM Current Limit
U-REQ_EXC_FQ.HZ              50          :Requested CM Frequency
U-TILT_Y_OFFSET.          -2.06578       :WPTET Tilt Y Offset
U-TILT_Y_GAIN.           1.02173         :WPTET Tilt Y Gain
U-TILT_X_OFFSET.           2.30841       :WPTET Tilt X Offset
U-TILT_X_GAIN.           1.00000         :WPTET Tilt X Gain
U-TILT_OFFSET_TOL.           0.00100     :WPTET Tilt Offset Calibration Tolerance
U-MOT_CUR_LIMIT_REQ.MA        70.00000   :Requested Motor Current Limit
U-MOT_SPD_REQ_WPMS.RPM        1.00000    :Requested Motor Speed
U-STD_TOL_TILT.           0.01000        :Tilt Standard Deviation Tolerance
CWEI .LB/F      29.00000                 :Casing Weight
CSIZ .IN         7.00000                 :Current Casing Size
LCC  .               440                 :Logging Company Code
LUN  .              2134                 :Logging Unit Number
HIDE .                                   :Header Identifier
HID1 .                                   :Header Identifier Line 1
R1   .                                   :Remark Line 1
WITN .        MR. KELLY McCOY            :Witness's Name
ENGI .        MORRIS MOORE               :Engineer's Name
LUL  .        IOWA COLONY                :Logging Unit Location
DATE .        02-Aug-2018                :Date as Month-Day-Year
STAT .        TEXAS                      :State or Province
COUN .        HARRIS                     :County or Rig Name
FN   .        WILDCAT                    :Field Name
WN   .        WPP TEST 4                 :Well Name
CN   .        SHELL INTERNATIONAL EP     :Company Name
CLAB .        County                     :County/Rig Label
SLAB .        State                      :State/Province Label
RUN  .          1                        :RUN NUMBER
PDAT .        GROUND LEVEL               :Permanent Datum
EPD  .                                   :Elevation of Permanent Datum above Mean Sea Level
LMF  .          NA                       :Logging Measured From (Name of Logging Elevation Reference)
APD  .                                   :Elevation of Depth Reference (LMF) above Permanent Datum
#-----------------------------------------------------------------------------
~CURVE INFORMATION
#MNEM.UNIT   API CODE                                  DESCRIPTION
#---- -----  --------                                  -----------------------
TIME .S                                                :TIME {F10.1}
FREQ_EMF_SL.HZ                                         :Electromagnetic Field Frequency {F13.4}
PH_SH_WPPCM_SL.DEG                                     :WPPCM Phase Shift {F13.4}
RB_SL.DEG                                              :Relative Bearing {F13.4}
SDEV_SL.DEG                                            :Sonde Deviation {F13.4}
RTIX_SL.DEG                                            :Raw X-axis Tilt {F13.4}
RTIY_SL.DEG                                            :Raw Y-axis Tilt {F13.4}
TILX_SL.DEG                                            :X-axis Tilt {F13.4}
TILY_SL.DEG                                            :Y-axis Tilt {F13.4}
ROTA_SL.DEG                                            :Motor Rotation Angle {F13.4}
TOD7 .S                                                :Time of Day {I11}
TOJ  .S                                                :Time of Job {F13.4}
#-----------------------------------------------------------------------------
# 
#     TIME    FREQ_EMF_SL  PH_SH_WPPCM_    RB_SL       SDEV_SL      RTIX_SL      RTIY_SL      TILX_SL      TILY_SL      ROTA_SL        TOD7            TOJ
#                          SL
~A  
# ...
     901.0    1766.6456       0.0000      21.9546    -999.2500      21.1277     -95.2352      23.4361     -99.3701      55.3983 1533242923 9999999.9999
     902.0    1762.2180       0.0000      26.9982    -999.2500      28.2372     -90.0135      30.5456     -94.0350      61.5001 1533242924 9999999.9999
     903.0    1755.6179       0.0000      31.4456    -999.2500      35.3366     -83.3258      37.6450     -87.2020      67.6150 1533242925 9999999.9999
     904.0    1757.8126       0.0000      35.6496    -999.2500      42.4562     -75.3527      44.7646     -79.0556      73.7175 1533242926 9999999.9999
     905.0    1744.7272       0.0000      39.9929    -999.2500      49.2042     -65.4315      51.5126     -68.9189      79.8193 1533242927 9999999.9999
     906.0    1757.8126       0.0000      49.6465    -999.2500      68.7653     -50.3288      71.0737     -53.4881      85.9211 1533242928 9999999.9999
     907.0    1753.4288       0.0000      53.5829    -999.2500      78.3652     -43.7013      80.6736     -46.7166      92.0260 1533242929 9999999.9999
     908.0    1740.4083       0.0000      57.4446    -999.2500      86.1575     -36.7927      88.4659     -39.6578      98.1247 1533242930 9999999.9999
     909.0    1744.7272       0.0000      61.5407    -999.2500      92.7047     -29.9643      95.0131     -32.6812     104.6345 1533242931 9999999.9999
     910.0    1740.4083       0.0000      66.4934    -999.2500      97.5247     -22.8147      99.8331     -25.3761     110.7363 1533242932 9999999.9999
     911.0    1740.4083       0.0000      72.4834    -999.2500     100.1757     -15.5445     102.4841     -17.9480     116.8380 1533242933 9999999.9999
     912.0    1727.5798       0.0000      79.9642      80.7611     101.3003      -7.6718     103.6087      -9.9043     122.9406 1533242934 9999999.9999
     913.0    1727.5798       0.0000      88.5476      75.9828     101.7823       0.6427     104.0907      -1.4091     129.0424 1533242935 9999999.9999
     914.0    1723.3456       0.0000      97.6197      78.1120     101.7823       9.3187     104.0907       7.4554     135.1443 1533242936 9999999.9999
     915.0    1723.3456       0.0000     105.2656      90.4168      99.7740      17.1712     102.0824      15.4786     141.2369 1533242937 9999999.9999
     916.0    1719.1321       0.0000     112.2689    -999.2500      95.1950      25.4657      97.5034      23.9532     147.3489 1533242938 9999999.9999
     917.0    1706.6141       0.0000     117.6541    -999.2500      89.2905      32.9367      91.5989      31.5865     153.4508 1533242939 9999999.9999
     918.0    1714.9390       0.0000     122.4950    -999.2500      82.1408      40.5282      84.4492      39.3430     159.5527 1533242940 9999999.9999
     919.0    1706.6141       0.0000     126.8184    -999.2500      73.7862      47.6377      76.0946      46.6069     165.6546 1533242941 9999999.9999
     920.0    1706.6141       0.0000     131.4300    -999.2500      63.5838      54.5463      65.8922      53.6657     171.7565 1533242942 9999999.9999
     921.0    1698.3695       0.0000     139.4104    -999.2500      51.5740      71.0548      53.8824      70.5329     177.8584 1533242943 9999999.9999
     922.0    1698.3695       0.0000     143.2820    -999.2500      44.9063      80.0522      47.2147      79.7257     184.3683 1533242944 9999999.9999
     923.0    1698.3695       0.0000     147.1258    -999.2500      37.9173      87.9248      40.2257      87.7694     190.4702 1533242945 9999999.9999
     924.0    1690.2042       0.0000     151.5780    -999.2500      30.3258      94.8335      32.6342      94.8282     196.5721 1533242946 9999999.9999
     925.0    1694.2772       0.0000     156.5670    -999.2500      22.8950     100.6175      25.2034     100.7379     202.6740 1533242947 9999999.9999
     926.0    1690.2042       0.0000     163.2752    -999.2500      14.5805     104.5940      16.8889     104.8008     208.7759 1533242948 9999999.9999
     927.0    1682.1173       0.0000     171.2504      76.1705       6.1857     106.0802       8.4941     106.3192     214.8778 1533242949 9999999.9999
     928.0    1686.1511       0.0000    -179.7684      73.5182      -2.5305     106.2408      -0.2221     106.4834     220.9797 1533242950 9999999.9999
     929.0    1686.1511       0.0000    -171.3887      76.6214     -10.6843     105.6383      -8.3759     105.8678     227.0816 1533242951 9999999.9999
     930.0    1694.2772       0.0000    -163.8106      94.3831     -18.7980     101.9832     -16.4896     102.1332     233.1835 1533242952 9999999.9999
     931.0    1686.1511       0.0000    -157.1431    -999.2500     -27.0723      96.4000     -24.7639      96.4287     239.2854 1533242953 9999999.9999
     932.0    1694.2772       0.0000    -151.8970    -999.2500     -34.5835      89.4913     -32.2751      89.3699     245.4035 1533242954 9999999.9999
     933.0    1694.2772       0.0000    -146.6412    -999.2500     -42.9382      81.8195     -40.6298      81.5314     251.5023 1533242955 9999999.9999
     934.0    1690.2042       0.0000    -142.1607    -999.2500     -50.1682      73.1435     -47.8598      72.6669     258.0122 1533242956 9999999.9999
     935.0    1694.2772       0.0000    -137.0296    -999.2500     -57.3580      62.3387     -55.0496      61.6273     264.1140 1533242957 9999999.9999
     936.0    1698.3695       0.0000    -129.5260    -999.2500     -72.5812      51.8953     -70.2728      50.9571     270.2167 1533242958 9999999.9999
     937.0    1706.6141       0.0000    -125.3170    -999.2500     -81.2973      45.1473     -78.9889      44.0625     276.3185 1533242959 9999999.9999
     938.0    1698.3695       0.0000    -120.8940    -999.2500     -88.8888      37.9173     -86.5804      36.6754     282.4203 1533242960 9999999.9999
     939.0    1710.7665       0.0000    -115.7904    -999.2500     -95.7975      30.2455     -93.4891      28.8369     288.5222 1533242961 9999999.9999
     940.0    1714.9390       0.0000    -109.1333    -999.2500    -101.7422      21.6097     -99.4338      20.0134     294.6240 1533242962 9999999.9999
     941.0    1710.7665       0.0000    -101.9659      85.5141    -105.0760      13.6968    -102.7676      11.9286     300.7289 1533242963 9999999.9999
     942.0    1727.5798       0.0000     -93.7360      76.9024    -105.9195       5.5832    -103.6111       3.6387     306.8307 1533242964 9999999.9999
     943.0    1723.3456       0.0000     -84.9391      77.3916    -105.8793      -2.8117    -103.5709      -4.9385     312.9355 1533242965 9999999.9999
     944.0    1731.8351       0.0000     -76.3065      87.6322    -104.7948     -11.4475    -102.4864     -13.7620     319.0473 1533242966 9999999.9999
     945.0    1736.1111       0.0000     -69.5310    -999.2500    -101.8225     -19.1193     -99.5141     -21.6005     325.1754 1533242967 9999999.9999
     946.0    1740.4083       0.0000     -63.7610    -999.2500     -96.6410     -26.7912     -94.3326     -29.4390     331.6821 1533242968 9999999.9999
     947.0    1744.7272       0.0000     -58.8286    -999.2500     -90.2143     -34.3827     -87.9059     -37.1955     337.7846 1533242969 9999999.9999
     948.0    1757.8126       0.0000     -54.5744    -999.2500     -82.9843     -41.6127     -80.6759     -44.5826     343.8864 1533242970 9999999.9999
     949.0    1757.8126       0.0000     -50.4660    -999.2500     -74.4288     -48.6418     -72.1204     -51.7645     350.0013 1533242971 9999999.9999
     950.0    1753.4288       0.0000     -45.6816    -999.2500     -63.2223     -55.3095     -60.9139     -58.5770     356.1062 1533242972 9999999.9999
     951.0    1766.6456       0.0000     -37.6199    -999.2500     -50.8912     -73.0230     -48.5828     -76.6754       2.2049 1533242973 9999999.9999
     952.0    1762.2180       0.0000     -33.1991    -999.2500     -43.0988     -82.8638     -40.7904     -86.7300       8.3228 1533242974 9999999.9999
     953.0    1771.0958       0.0000     -29.0424    -999.2500     -35.9492     -89.8930     -33.6408     -93.9119      14.4216 1533242975 9999999.9999
