~VERSION INFORMATION
VERS.           2.0   :CWLS Log ASCII Standard - VERSION 2.0
WRAP.           NO    :One Line per depth step
PROD.  Schlumberger   :LAS Producer
PROG.  DLIS to ASCII 19C2-270                          :LAS Program name and version
CREA.        2018/08/03 10:59                          :LAS Creation date {YYYY/MM/DD hh:mm}
DLIS_CREA.  2018-Aug-03 08:37                          :DLIS Creation date and time {YYYY-MMM-DD hh:mm}
SOURCE.     PERFO_Perfo_060PTP.DLIS                    :DLIS File Name
FILE-ID.     PERFO_Perfo_060PTP                        :File Identification Number
#--------------------------------------------------
~WELL INFORMATION
#MNEM.UNIT      DATA             DESCRIPTION
#---- ------ --------------   -----------------------------
STRT .S            0.0       :START TIME      
STOP .S         1390.0       :STOP TIME      
STEP .S            1.0       :STEP     
NULL .          -999.25      :NULL VALUE
COMP .        SHELL INTERNATIONAL EP                   :COMPANY
WELL .        WPP TEST 4                               :WELL
FLD  .        WILDCAT                                  :FIELD
LOC  .        NA                                       :LOCATION
CNTY .        HARRIS                                   :COUNTY
STAT .        TEXAS                                    :STATE
CTRY .                                                 :COUNTRY
API  .        NA                                       :API NUMBER
UWI  .                                                 :UNIQUE WELL ID
DATE .        02-Aug-2018                              :LOG DATE {DD-MMM-YYYY}
SRVC .        Schlumberger                             :SERVICE COMPANY
LATI .DEG                                              :LATITUDE
LONG .DEG                                              :LONGITUDE
GDAT .                                                 :GeoDetic Datum
SECT .        NA                                       :Section
RANG .        NA                                       :Range
TOWN .        NA                                       :Township
#-----------------------------------------------------------------------------
~PARAMETER INFORMATION
#MNEM.UNIT    VALUE                      DESCRIPTION
#---- -----   --------------------       ------------------------
U-PHASE_B_COMP_PER_YT.                 0 :Phase B Comparator Period Yt
U-PHASE_A_COMP_PER_XT.                 0 :Phase A Comparator Period Xt
U-MAX_EXC_CUR_LIMIT.MA       265.00000   :Requested CM Current Limit
U-REQ_EXC_FQ.HZ              50          :Requested CM Frequency
U-TILT_Y_OFFSET.          -2.06578       :WPTET Tilt Y Offset
U-TILT_Y_GAIN.           1.02173         :WPTET Tilt Y Gain
U-TILT_X_OFFSET.           2.30841       :WPTET Tilt X Offset
U-TILT_X_GAIN.           1.00000         :WPTET Tilt X Gain
U-TILT_OFFSET_TOL.           0.00100     :WPTET Tilt Offset Calibration Tolerance
U-MOT_CUR_LIMIT_REQ.MA        70.00000   :Requested Motor Current Limit
U-MOT_SPD_REQ_WPMS.RPM        1.00000    :Requested Motor Speed
U-STD_TOL_TILT.           0.01000        :Tilt Standard Deviation Tolerance
CWEI .LB/F      29.00000                 :Casing Weight
CSIZ .IN         7.00000                 :Current Casing Size
LCC  .               440                 :Logging Company Code
LUN  .              2134                 :Logging Unit Number
HIDE .                                   :Header Identifier
HID1 .                                   :Header Identifier Line 1
R1   .                                   :Remark Line 1
WITN .        MR. KELLEY McCOY           :Witness's Name
ENGI .        MORRIS MOORE               :Engineer's Name
LUL  .        IOWA COLONY                :Logging Unit Location
DATE .        02-Aug-2018                :Date as Month-Day-Year
STAT .        TEXAS                      :State or Province
COUN .        HARRIS                     :County or Rig Name
FN   .        WILDCAT                    :Field Name
WN   .        WPP TEST 4                 :Well Name
CN   .        SHELL INTERNATIONAL EP     :Company Name
CLAB .        County                     :County/Rig Label
SLAB .        State                      :State/Province Label
RUN  .          1                        :RUN NUMBER
PDAT .        GROUND LEVEL               :Permanent Datum
EPD  .                                   :Elevation of Permanent Datum above Mean Sea Level
LMF  .          NA                       :Logging Measured From (Name of Logging Elevation Reference)
APD  .                                   :Elevation of Depth Reference (LMF) above Permanent Datum
#-----------------------------------------------------------------------------
~CURVE INFORMATION
#MNEM.UNIT   API CODE                                  DESCRIPTION
#---- -----  --------                                  -----------------------
TIME .S                                                :TIME {F10.1}
FREQ_EMF_SL.HZ                                         :Electromagnetic Field Frequency {F13.4}
PH_SH_WPPCM_SL.DEG                                     :WPPCM Phase Shift {F13.4}
RB_SL.DEG                                              :Relative Bearing {F13.4}
SDEV_SL.DEG                                            :Sonde Deviation {F13.4}
RTIX_SL.DEG                                            :Raw X-axis Tilt {F13.4}
RTIY_SL.DEG                                            :Raw Y-axis Tilt {F13.4}
TILX_SL.DEG                                            :X-axis Tilt {F13.4}
TILY_SL.DEG                                            :Y-axis Tilt {F13.4}
ROTA_SL.DEG                                            :Motor Rotation Angle {F13.4}
TOD7 .S                                                :Time of Day {I11}
TOJ  .S                                                :Time of Job {F13.4}
#-----------------------------------------------------------------------------
# 
#     TIME    FREQ_EMF_SL  PH_SH_WPPCM_    RB_SL       SDEV_SL      RTIX_SL      RTIY_SL      TILX_SL      TILY_SL      ROTA_SL        TOD7            TOJ
#                          SL
~A  
# ...
     106.0    1360.0098       0.0000     -92.5013      78.2142    -104.3530       4.4183    -102.0446       2.4486     283.1888 1533222232 9999999.9999
     107.0    1367.9475       0.0000     -83.9395      79.8053    -104.1522      -3.8158    -101.8438      -5.9645     289.2906 1533222233 9999999.9999
     108.0    1362.6454       0.0000     -75.4830      95.4624    -102.8668     -12.4115    -100.5584     -14.7469     295.3924 1533222234 9999999.9999
     109.0    1365.2913       0.0000     -68.7059    -999.2500     -99.4928     -20.2440     -97.1844     -22.7496     301.4942 1533222235 9999999.9999
     110.0    1367.9475       0.0000     -63.0738    -999.2500     -94.1908     -27.8355     -91.8824     -30.5061     307.5960 1533222236 9999999.9999
     111.0    1375.9785       0.0000     -58.2588    -999.2500     -87.5232     -35.2262     -85.2148     -38.0573     313.6978 1533222237 9999999.9999
     112.0    1373.2910       0.0000     -54.0015    -999.2500     -80.0923     -42.2553     -77.7839     -45.2392     319.8127 1533222238 9999999.9999
     113.0    1373.2910       0.0000     -49.7722    -999.2500     -71.1753     -48.9632     -68.8669     -52.0928     325.9145 1533222239 9999999.9999
     114.0    1378.6765       0.0000     -43.7747    -999.2500     -56.1530     -54.1848     -53.8446     -57.4279     332.4243 1533222240 9999999.9999
     115.0    1389.5751       0.0000     -36.2637    -999.2500     -48.1598     -74.3083     -45.8514     -77.9886     338.5261 1533222241 9999999.9999
     116.0    1384.1044       0.0000     -32.2567    -999.2500     -41.3315     -82.2212     -39.0231     -86.0734     344.6279 1533222242 9999999.9999
     117.0    1381.3850       0.0000     -27.7486    -999.2500     -33.9810     -89.5717     -31.6726     -93.5836     350.7297 1533222243 9999999.9999
     118.0    1389.5751       0.0000     -22.9525    -999.2500     -27.0723     -94.3515     -24.7639     -98.4673     356.8315 1533222244 9999999.9999
     119.0    1397.8628       0.0000     -17.2469    -999.2500     -20.0030     -97.5648     -17.6946    -101.7504       2.9240 1533222245 9999999.9999
     120.0    1395.0892       0.0000      -9.9296      81.5956     -12.1303     -98.7698      -9.8219    -102.9816       9.0227 1533222246 9999999.9999
     121.0    1397.8628       0.0000      -1.2583      77.0372      -3.5347     -98.8100      -1.2263    -103.0226      15.1246 1533222247 9999999.9999
     122.0    1406.2500       0.0000       7.4076      79.7637       4.9807     -98.4083       7.2891    -102.6123      21.2264 1533222248 9999999.9999
     123.0    1403.4431       0.0000      14.5169      95.4880      12.4115     -96.9222      14.7199    -101.0938      27.3443 1533222249 9999999.9999
     124.0    1400.6475       0.0000      20.6658    -999.2500      19.6415     -93.5883      21.9499     -97.6875      33.4431 1533222250 9999999.9999
     125.0    1406.2500       0.0000      25.6465    -999.2500      26.3493     -88.7282      28.6577     -92.7218      39.5581 1533222251 9999999.9999
     126.0    1411.8976       0.0000      30.1055    -999.2500      33.0572     -82.7433      35.3656     -86.6069      46.0433 1533222252 9999999.9999
     127.0    1409.0682       0.0000      34.1776    -999.2500      39.5240     -75.4732      41.8324     -79.1788      52.1451 1533222253 9999999.9999
     128.0    1411.8976       0.0000      38.5801    -999.2500      46.1917     -66.3553      48.5001     -69.8628      58.2469 1533222254 9999999.9999
     129.0    1411.8976       0.0000      49.3768    -999.2500      66.4357     -49.9272      68.7441     -53.0777      64.3487 1533222255 9999999.9999
     130.0    1414.7384       0.0000      53.3315    -999.2500      75.2322     -43.6210      77.5406     -46.6345      70.4505 1533222256 9999999.9999
     131.0    1409.0682       0.0000      57.2195    -999.2500      83.2655     -37.0738      85.5739     -39.9451      76.5523 1533222257 9999999.9999
     132.0    1411.8976       0.0000      61.4267    -999.2500      89.9834     -30.2455      92.2918     -32.9684      82.6541 1533222258 9999999.9999
     133.0    1414.7384       0.0000      66.3482    -999.2500      95.0343     -23.1762      97.3427     -25.7455      88.7558 1533222259 9999999.9999
     134.0    1414.7384       0.0000      72.1471    -999.2500      97.8862     -16.0667     100.1946     -18.4815      94.8708 1533222260 9999999.9999
     135.0    1414.7384       0.0000      79.5276      85.3700      99.1313      -8.1940     101.4397     -10.4378     100.9726 1533222261 9999999.9999
     136.0    1409.0682       0.0000      88.2245      78.1281      99.6937       0.3213     102.0021      -1.7375     107.0751 1533222262 9999999.9999
     137.0    1417.5908       0.0000      96.8638      79.9349      99.8543       8.6358     102.1627       6.7577     113.1769 1533222263 9999999.9999
     138.0    1411.8976       0.0000     104.4103      90.8777      98.1272      16.3478     100.4356      14.6372     119.2787 1533222264 9999999.9999
     139.0    1403.4431       0.0000     111.0133    -999.2500      94.2310      23.9795      96.5394      22.4347     125.7916 1533222265 9999999.9999
     140.0    1403.4431       0.0000     116.5024    -999.2500      88.7683      31.2898      91.0767      29.9039     131.8904 1533222266 9999999.9999
     141.0    1406.2500       0.0000     121.4322    -999.2500      81.9802      38.6805      84.2886      37.4551     137.9923 1533222267 9999999.9999
     142.0    1395.0892       0.0000     125.9233    -999.2500      73.9067      45.7900      76.2151      44.7191     144.0942 1533222268 9999999.9999
     143.0    1392.3268       0.0000     130.6229    -999.2500      63.9453      52.6585      66.2537      51.7368     150.1838 1533222269 9999999.9999
     144.0    1395.0892       0.0000     139.2962    -999.2500      51.1221      69.5586      53.4305      69.0042     156.2857 1533222270 9999999.9999
     145.0    1392.3268       0.0000     143.4362    -999.2500      44.3440      79.0078      46.6524      78.6587     162.3876 1533222271 9999999.9999
     146.0    1386.8344       0.0000     147.3364    -999.2500      37.4755      86.6797      39.7839      86.4972     168.4895 1533222272 9999999.9999
     147.0    1384.1044       0.0000     151.7748    -999.2500      30.0848      93.5883      32.3932      93.5560     174.5914 1533222273 9999999.9999
     148.0    1389.5751       0.0000     157.0025    -999.2500      22.4532      99.2117      24.7616      99.3015     180.6963 1533222274 9999999.9999
     149.0    1381.3850       0.0000     163.2479    -999.2500      14.7412     102.9070      17.0496     103.0771     186.7952 1533222275 9999999.9999
     150.0    1381.3850       0.0000     170.7597      78.5992       6.7480     104.4333       9.0564     104.6366     192.8971 1533222276 9999999.9999
     151.0    1378.6765       0.0000     179.1076      75.1022      -1.4460     104.7145       0.8624     104.9239     199.4070 1533222277 9999999.9999
     152.0    1378.6765       0.0000    -172.6931      77.4258      -9.4392     104.3128      -7.1308     104.5135     205.5089 1533222278 9999999.9999
     153.0    1375.9785       0.0000    -165.0919      92.0073     -17.4323     101.3405     -15.1239     101.4766     211.6108 1533222279 9999999.9999
     154.0    1373.2910       0.0000    -158.2641    -999.2500     -25.6665      95.9983     -23.3581      96.0183     217.7127 1533222280 9999999.9999
     155.0    1367.9475       0.0000    -153.0844    -999.2500     -32.8162      89.6520     -30.5078      89.5341     223.8146 1533222281 9999999.9999
     156.0    1370.6140       0.0000    -147.6094    -999.2500     -41.2110      82.1408     -38.9026      81.8597     229.9165 1533222282 9999999.9999
     157.0    1365.2913       0.0000    -142.8090    -999.2500     -48.7623      73.2640     -46.4539      72.7900     236.0184 1533222283 9999999.9999
     158.0    1362.6454       0.0000    -137.6889    -999.2500     -55.9120      62.8608     -53.6036      62.1608     242.1203 1533222284 9999999.9999
