~VERSION INFORMATION
VERS.           2.0   :CWLS Log ASCII Standard - VERSION 2.0
WRAP.           NO    :One Line per depth step
PROD.  Schlumberger   :LAS Producer
PROG.  DLIS to ASCII 19C2-270                          :LAS Program name and version
CREA.        2018/08/03 10:59                          :LAS Creation date {YYYY/MM/DD hh:mm}
DLIS_CREA.  2018-Aug-03 08:37                          :DLIS Creation date and time {YYYY-MMM-DD hh:mm}
SOURCE.     PERFO_Perfo_060PTP.DLIS                    :DLIS File Name
FILE-ID.     PERFO_Perfo_060PTP                        :File Identification Number
#--------------------------------------------------
~WELL INFORMATION
#MNEM.UNIT      DATA             DESCRIPTION
#---- ------ --------------   -----------------------------
STRT .S            0.0       :START TIME      
STOP .S         1390.0       :STOP TIME      
STEP .S            1.0       :STEP     
NULL .          -999.25      :NULL VALUE
COMP .        SHELL INTERNATIONAL EP                   :COMPANY
WELL .        WPP TEST 4                               :WELL
FLD  .        WILDCAT                                  :FIELD
LOC  .        NA                                       :LOCATION
CNTY .        HARRIS                                   :COUNTY
STAT .        TEXAS                                    :STATE
CTRY .                                                 :COUNTRY
API  .        NA                                       :API NUMBER
UWI  .                                                 :UNIQUE WELL ID
DATE .        02-Aug-2018                              :LOG DATE {DD-MMM-YYYY}
SRVC .        Schlumberger                             :SERVICE COMPANY
LATI .DEG                                              :LATITUDE
LONG .DEG                                              :LONGITUDE
GDAT .                                                 :GeoDetic Datum
SECT .        NA                                       :Section
RANG .        NA                                       :Range
TOWN .        NA                                       :Township
#-----------------------------------------------------------------------------
~PARAMETER INFORMATION
#MNEM.UNIT    VALUE                      DESCRIPTION
#---- -----   --------------------       ------------------------
U-PHASE_B_COMP_PER_YT.                 0 :Phase B Comparator Period Yt
U-PHASE_A_COMP_PER_XT.                 0 :Phase A Comparator Period Xt
U-MAX_EXC_CUR_LIMIT.MA       265.00000   :Requested CM Current Limit
U-REQ_EXC_FQ.HZ              50          :Requested CM Frequency
U-TILT_Y_OFFSET.          -2.06578       :WPTET Tilt Y Offset
U-TILT_Y_GAIN.           1.02173         :WPTET Tilt Y Gain
U-TILT_X_OFFSET.           2.30841       :WPTET Tilt X Offset
U-TILT_X_GAIN.           1.00000         :WPTET Tilt X Gain
U-TILT_OFFSET_TOL.           0.00100     :WPTET Tilt Offset Calibration Tolerance
U-MOT_CUR_LIMIT_REQ.MA        70.00000   :Requested Motor Current Limit
U-MOT_SPD_REQ_WPMS.RPM        1.00000    :Requested Motor Speed
U-STD_TOL_TILT.           0.01000        :Tilt Standard Deviation Tolerance
CWEI .LB/F      29.00000                 :Casing Weight
CSIZ .IN         7.00000                 :Current Casing Size
LCC  .               440                 :Logging Company Code
LUN  .              2134                 :Logging Unit Number
HIDE .                                   :Header Identifier
HID1 .                                   :Header Identifier Line 1
R1   .                                   :Remark Line 1
WITN .        MR. KELLEY McCOY           :Witness's Name
ENGI .        MORRIS MOORE               :Engineer's Name
LUL  .        IOWA COLONY                :Logging Unit Location
DATE .        02-Aug-2018                :Date as Month-Day-Year
STAT .        TEXAS                      :State or Province
COUN .        HARRIS                     :County or Rig Name
FN   .        WILDCAT                    :Field Name
WN   .        WPP TEST 4                 :Well Name
CN   .        SHELL INTERNATIONAL EP     :Company Name
CLAB .        County                     :County/Rig Label
SLAB .        State                      :State/Province Label
RUN  .          1                        :RUN NUMBER
PDAT .        GROUND LEVEL               :Permanent Datum
EPD  .                                   :Elevation of Permanent Datum above Mean Sea Level
LMF  .          NA                       :Logging Measured From (Name of Logging Elevation Reference)
APD  .                                   :Elevation of Depth Reference (LMF) above Permanent Datum
#-----------------------------------------------------------------------------
~CURVE INFORMATION
#MNEM.UNIT   API CODE                                  DESCRIPTION
#---- -----  --------                                  -----------------------
TIME .S                                                :TIME {F10.1}
FREQ_EMF_SL.HZ                                         :Electromagnetic Field Frequency {F13.4}
PH_SH_WPPCM_SL.DEG                                     :WPPCM Phase Shift {F13.4}
RB_SL.DEG                                              :Relative Bearing {F13.4}
SDEV_SL.DEG                                            :Sonde Deviation {F13.4}
RTIX_SL.DEG                                            :Raw X-axis Tilt {F13.4}
RTIY_SL.DEG                                            :Raw Y-axis Tilt {F13.4}
TILX_SL.DEG                                            :X-axis Tilt {F13.4}
TILY_SL.DEG                                            :Y-axis Tilt {F13.4}
ROTA_SL.DEG                                            :Motor Rotation Angle {F13.4}
TOD7 .S                                                :Time of Day {I11}
TOJ  .S                                                :Time of Job {F13.4}
#-----------------------------------------------------------------------------
# 
#     TIME    FREQ_EMF_SL  PH_SH_WPPCM_    RB_SL       SDEV_SL      RTIX_SL      RTIY_SL      TILX_SL      TILY_SL      ROTA_SL        TOD7            TOJ
#                          SL
~A  
# ...
     636.0       0.0000       0.0000     -62.3047    -999.2500     -93.4277     -28.9602     -91.1193     -31.6552     341.8229 1533222762 9999999.9999
     637.0       0.0000       0.0000     -62.3328    -999.2500     -93.3473     -28.9200     -91.0389     -31.6141     341.8229 1533222763 9999999.9999
     638.0       0.0000       0.0000     -62.3325    -999.2500     -93.3875     -28.9200     -91.0791     -31.6141     341.8229 1533222764 9999999.9999
     639.0       0.0000       0.0000     -62.3333    -999.2500     -93.2670     -28.9200     -90.9586     -31.6141     341.8229 1533222765 9999999.9999
     640.0       0.0000       0.0000     -62.3893    -999.2500     -93.1063     -28.8397     -90.7979     -31.5321     341.8229 1533222766 9999999.9999
     641.0       0.0000       0.0000     -62.3605    -999.2500     -93.3072     -28.8798     -90.9987     -31.5731     341.8229 1533222767 9999999.9999
     642.0       0.0000       0.0000     -62.3877    -999.2500     -93.3473     -28.8397     -91.0389     -31.5321     341.8229 1533222768 9999999.9999
     643.0       0.0000       0.0000     -62.3328    -999.2500     -93.3473     -28.9200     -91.0389     -31.6141     341.8229 1533222769 9999999.9999
     644.0       0.0000       0.0000     -62.4149    -999.2500     -93.3875     -28.7995     -91.0791     -31.4910     341.8229 1533222770 9999999.9999
     645.0       0.0000       0.0000     -62.3599    -999.2500     -93.3875     -28.8798     -91.0791     -31.5731     341.8229 1533222771 9999999.9999
     646.0       0.0000       0.0000     -62.3599    -999.2500     -93.3875     -28.8798     -91.0791     -31.5731     341.8229 1533222772 9999999.9999
     647.0       0.0000       0.0000     -62.4145    -999.2500     -93.4277     -28.7995     -91.1193     -31.4910     341.8229 1533222773 9999999.9999
     648.0       0.0000       0.0000     -62.3599    -999.2500     -93.3875     -28.8798     -91.0791     -31.5731     341.8229 1533222774 9999999.9999
     649.0       0.0000       0.0000     -62.3328    -999.2500     -93.3473     -28.9200     -91.0389     -31.6141     341.8229 1533222775 9999999.9999
     650.0       0.0000       0.0000     -62.3318    -999.2500     -93.4678     -28.9200     -91.1594     -31.6141     341.8229 1533222776 9999999.9999
     651.0       0.0000       0.0000     -62.3593    -999.2500     -93.4678     -28.8798     -91.1594     -31.5731     341.8229 1533222777 9999999.9999
     652.0       0.0000       0.0000     -62.3874    -999.2500     -93.3875     -28.8397     -91.0791     -31.5321     341.8229 1533222778 9999999.9999
     653.0       0.0000       0.0000     -62.3599    -999.2500     -93.3875     -28.8798     -91.0791     -31.5731     341.8229 1533222779 9999999.9999
     654.0       0.0000       0.0000     -62.3596    -999.2500     -93.4277     -28.8798     -91.1193     -31.5731     341.8229 1533222780 9999999.9999
     655.0       0.0000       0.0000     -62.3325    -999.2500     -93.3875     -28.9200     -91.0791     -31.6141     341.8229 1533222781 9999999.9999
     656.0       0.0000       0.0000     -62.3596    -999.2500     -93.4277     -28.8798     -91.1193     -31.5731     341.8229 1533222782 9999999.9999
     657.0       0.0000       0.0000     -62.4154    -999.2500     -93.3072     -28.7995     -90.9987     -31.4910     341.8229 1533222783 9999999.9999
     658.0       0.0000       0.0000     -62.3322    -999.2500     -93.4277     -28.9200     -91.1193     -31.6141     341.8229 1533222784 9999999.9999
     659.0       0.0000       0.0000     -62.3877    -999.2500     -93.3473     -28.8397     -91.0389     -31.5321     341.8229 1533222785 9999999.9999
     660.0       0.0000       0.0000     -62.3599    -999.2500     -93.3875     -28.8798     -91.0791     -31.5731     341.8229 1533222786 9999999.9999
     661.0       0.0000       0.0000     -62.4152    -999.2500     -93.3473     -28.7995     -91.0389     -31.4910     341.8229 1533222787 9999999.9999
     662.0       0.0000       0.0000     -62.3599    -999.2500     -93.3875     -28.8798     -91.0791     -31.5731     341.8229 1533222788 9999999.9999
     663.0       0.0000       0.0000     -62.3602    -999.2500     -93.3473     -28.8798     -91.0389     -31.5731     341.8229 1533222789 9999999.9999
     664.0       0.0000       0.0000     -62.3533    -999.2500     -93.3574     -28.8899     -91.0490     -31.5834     341.8229 1533222790 9999999.9999
     665.0       0.0000       0.0000     -62.3331    -999.2500     -93.3072     -28.9200     -90.9987     -31.6141     341.8229 1533222791 9999999.9999
     666.0       0.0000       0.0000     -62.3322    -999.2500     -93.4277     -28.9200     -91.1193     -31.6141     341.8229 1533222792 9999999.9999
     667.0       0.0000       0.0000     -62.3054    -999.2500     -93.3473     -28.9602     -91.0389     -31.6552     341.8229 1533222793 9999999.9999
     668.0       0.0000       0.0000     -62.3602    -999.2500     -93.3473     -28.8798     -91.0389     -31.5731     341.8229 1533222794 9999999.9999
     669.0       0.0000       0.0000     -62.3874    -999.2500     -93.3875     -28.8397     -91.0791     -31.5321     341.8229 1533222795 9999999.9999
     670.0       0.0000       0.0000     -62.3874    -999.2500     -93.3875     -28.8397     -91.0791     -31.5321     341.8229 1533222796 9999999.9999
     671.0       0.0000       0.0000     -62.3328    -999.2500     -93.3473     -28.9200     -91.0389     -31.6141     341.8229 1533222797 9999999.9999
     672.0       0.0000       0.0000     -62.3599    -999.2500     -93.3875     -28.8798     -91.0791     -31.5731     341.8229 1533222798 9999999.9999
     673.0       0.0000       0.0000     -62.3331    -999.2500     -93.3072     -28.9200     -90.9987     -31.6141     341.8229 1533222799 9999999.9999
     674.0       0.0000       0.0000     -62.3874    -999.2500     -93.3875     -28.8397     -91.0791     -31.5321     341.8229 1533222800 9999999.9999
     675.0       0.0000       0.0000     -62.3325    -999.2500     -93.3875     -28.9200     -91.0791     -31.6141     341.8229 1533222801 9999999.9999
     676.0       0.0000       0.0000     -62.3117    -999.2500     -93.4176     -28.9501     -91.1092     -31.6449     341.8229 1533222802 9999999.9999
     677.0       0.0000       0.0000     -62.3602    -999.2500     -93.3473     -28.8798     -91.0389     -31.5731     341.8229 1533222803 9999999.9999
     678.0       0.0000       0.0000     -62.3325    -999.2500     -93.3875     -28.9200     -91.0791     -31.6141     341.8229 1533222804 9999999.9999
     679.0       0.0000       0.0000     -62.3602    -999.2500     -93.3473     -28.8798     -91.0389     -31.5731     341.8229 1533222805 9999999.9999
     680.0       0.0000       0.0000     -62.2777    -999.2500     -93.3875     -29.0003     -91.0791     -31.6962     341.8229 1533222806 9999999.9999
     681.0       0.0000       0.0000     -62.3602    -999.2500     -93.3473     -28.8798     -91.0389     -31.5731     341.8229 1533222807 9999999.9999
     682.0       0.0000       0.0000     -62.3054    -999.2500     -93.3473     -28.9602     -91.0389     -31.6552     341.8229 1533222808 9999999.9999
     683.0       0.0000       0.0000     -62.3325    -999.2500     -93.3875     -28.9200     -91.0791     -31.6141     341.8229 1533222809 9999999.9999
     684.0       0.0000       0.0000     -62.2780    -999.2500     -93.3473     -29.0003     -91.0389     -31.6962     341.8229 1533222810 9999999.9999
     685.0       0.0000       0.0000     -62.3325    -999.2500     -93.3875     -28.9200     -91.0791     -31.6141     341.8229 1533222811 9999999.9999
     686.0       0.0000       0.0000     -62.3318    -999.2500     -93.4678     -28.9200     -91.1594     -31.6141     341.8229 1533222812 9999999.9999
     687.0       0.0000       0.0000     -62.2509    -999.2500     -93.3072     -29.0405     -90.9987     -31.7372     341.8229 1533222813 9999999.9999
     688.0       0.0000       0.0000     -62.3599    -999.2500     -93.3875     -28.8798     -91.0791     -31.5731     341.8229 1533222814 9999999.9999
