~VERSION INFORMATION
VERS.           2.0   :CWLS Log ASCII Standard - VERSION 2.0
WRAP.           NO    :One Line per depth step
PROD.  Schlumberger   :LAS Producer
PROG.  DLIS to ASCII 19C2-270                          :LAS Program name and version
CREA.        2018/08/03 10:59                          :LAS Creation date {YYYY/MM/DD hh:mm}
DLIS_CREA.  2018-Aug-03 09:28                          :DLIS Creation date and time {YYYY-MMM-DD hh:mm}
SOURCE.     PERFO_Perfo_076PTP.DLIS                    :DLIS File Name
FILE-ID.     PERFO_Perfo_076PTP                        :File Identification Number
#--------------------------------------------------
~WELL INFORMATION
#MNEM.UNIT      DATA             DESCRIPTION
#---- ------ --------------   -----------------------------
STRT .S            0.0       :START TIME      
STOP .S         1744.0       :STOP TIME      
STEP .S            1.0       :STEP     
NULL .          -999.25      :NULL VALUE
COMP .        SHELL INTERNATIONAL EP                   :COMPANY
WELL .        WPP TEST 4                               :WELL
FLD  .        WILDCAT                                  :FIELD
LOC  .        NA                                       :LOCATION
CNTY .        HARRIS                                   :COUNTY
STAT .        TEXAS                                    :STATE
CTRY .                                                 :COUNTRY
API  .        NA                                       :API NUMBER
UWI  .                                                 :UNIQUE WELL ID
DATE .        02-Aug-2018                              :LOG DATE {DD-MMM-YYYY}
SRVC .        Schlumberger                             :SERVICE COMPANY
LATI .DEG                                              :LATITUDE
LONG .DEG                                              :LONGITUDE
GDAT .                                                 :GeoDetic Datum
SECT .        NA                                       :Section
RANG .        NA                                       :Range
TOWN .        NA                                       :Township
#-----------------------------------------------------------------------------
~PARAMETER INFORMATION
#MNEM.UNIT    VALUE                      DESCRIPTION
#---- -----   --------------------       ------------------------
U-PHASE_B_COMP_PER_YT.                 0 :Phase B Comparator Period Yt
U-PHASE_A_COMP_PER_XT.                 0 :Phase A Comparator Period Xt
U-MAX_EXC_CUR_LIMIT.MA       265.00000   :Requested CM Current Limit
U-REQ_EXC_FQ.HZ              50          :Requested CM Frequency
U-TILT_Y_OFFSET.          -2.06578       :WPTET Tilt Y Offset
U-TILT_Y_GAIN.           1.02173         :WPTET Tilt Y Gain
U-TILT_X_OFFSET.           2.30841       :WPTET Tilt X Offset
U-TILT_X_GAIN.           1.00000         :WPTET Tilt X Gain
U-TILT_OFFSET_TOL.           0.00100     :WPTET Tilt Offset Calibration Tolerance
U-MOT_CUR_LIMIT_REQ.MA        70.00000   :Requested Motor Current Limit
U-MOT_SPD_REQ_WPMS.RPM        1.00000    :Requested Motor Speed
U-STD_TOL_TILT.           0.01000        :Tilt Standard Deviation Tolerance
CWEI .LB/F      29.00000                 :Casing Weight
CSIZ .IN         7.00000                 :Current Casing Size
LCC  .               440                 :Logging Company Code
LUN  .              2134                 :Logging Unit Number
HIDE .                                   :Header Identifier
HID1 .                                   :Header Identifier Line 1
R1   .                                   :Remark Line 1
WITN .        MR. KELLY McCOY            :Witness's Name
ENGI .        MORRIS MOORE               :Engineer's Name
LUL  .        IOWA COLONY                :Logging Unit Location
DATE .        02-Aug-2018                :Date as Month-Day-Year
STAT .        TEXAS                      :State or Province
COUN .        HARRIS                     :County or Rig Name
FN   .        WILDCAT                    :Field Name
WN   .        WPP TEST 4                 :Well Name
CN   .        SHELL INTERNATIONAL EP     :Company Name
CLAB .        County                     :County/Rig Label
SLAB .        State                      :State/Province Label
RUN  .          1                        :RUN NUMBER
PDAT .        GROUND LEVEL               :Permanent Datum
EPD  .                                   :Elevation of Permanent Datum above Mean Sea Level
LMF  .          NA                       :Logging Measured From (Name of Logging Elevation Reference)
APD  .                                   :Elevation of Depth Reference (LMF) above Permanent Datum
#-----------------------------------------------------------------------------
~CURVE INFORMATION
#MNEM.UNIT   API CODE                                  DESCRIPTION
#---- -----  --------                                  -----------------------
TIME .S                                                :TIME {F10.1}
FREQ_EMF_SL.HZ                                         :Electromagnetic Field Frequency {F13.4}
PH_SH_WPPCM_SL.DEG                                     :WPPCM Phase Shift {F13.4}
RB_SL.DEG                                              :Relative Bearing {F13.4}
SDEV_SL.DEG                                            :Sonde Deviation {F13.4}
RTIX_SL.DEG                                            :Raw X-axis Tilt {F13.4}
RTIY_SL.DEG                                            :Raw Y-axis Tilt {F13.4}
TILX_SL.DEG                                            :X-axis Tilt {F13.4}
TILY_SL.DEG                                            :Y-axis Tilt {F13.4}
ROTA_SL.DEG                                            :Motor Rotation Angle {F13.4}
TOD7 .S                                                :Time of Day {I11}
TOJ  .S                                                :Time of Job {F13.4}
#-----------------------------------------------------------------------------
# 
#     TIME    FREQ_EMF_SL  PH_SH_WPPCM_    RB_SL       SDEV_SL      RTIX_SL      RTIY_SL      TILX_SL      TILY_SL      ROTA_SL        TOD7            TOJ
#                          SL
~A  
# ...
     212.0       0.0000       0.0000    -151.9249    -999.2500     -34.5433      90.1340     -32.2349      90.0266     148.5235 1533242234 9999999.9999
     213.0       0.0000       0.0000    -147.0994    -999.2500     -42.1750      82.5023     -39.8666      82.2291     154.6392 1533242235 9999999.9999
     214.0    1262.3429       0.0000    -142.3634    -999.2500     -49.8468      73.5452     -47.5384      73.0773     160.6124 1533242236 9999999.9999
     215.0    1642.8153       0.0000    -137.2883    -999.2500     -57.1170      62.9813     -54.8086      62.2840     166.7151 1533242237 9999999.9999
     216.0    1710.7665       0.0000    -129.7510    -999.2500     -72.1393      52.2568     -69.8309      51.3264     172.8170 1533242238 9999999.9999
     217.0    1723.3456       0.0000    -125.4306    -999.2500     -80.9358      45.3080     -78.6274      44.2266     178.9189 1533242239 9999999.9999
     218.0    1727.5798       0.0000    -121.0711    -999.2500     -88.6077      38.1985     -86.2993      36.9627     185.0470 1533242240 9999999.9999
     219.0    1731.8351       0.0000    -116.0448    -999.2500     -95.4762      30.6070     -93.1678      29.2062     191.1619 1533242241 9999999.9999
     220.0    1740.4083       0.0000    -109.8103    -999.2500    -100.7380      22.4532     -98.4296      20.8752     197.6849 1533242242 9999999.9999
     221.0    1749.0671       0.0000    -102.7796      83.9025    -104.8752      14.5403    -102.5667      12.7905     203.7868 1533242243 9999999.9999
     222.0    1740.4083       0.0000     -94.4044      77.2360    -105.7990       6.2258    -103.4906       4.2953     209.8887 1533242244 9999999.9999
     223.0    1744.7272       0.0000     -85.7349      77.1895    -105.7990      -2.0485    -103.4906      -4.1588     216.0038 1533242245 9999999.9999
     224.0    1749.0671       0.0000     -77.4149      87.3935    -105.1563     -10.2827    -102.8479     -12.5719     222.1057 1533242246 9999999.9999
     225.0    1749.0671       0.0000     -70.2644    -999.2500    -102.1840     -18.2357     -99.8756     -20.6977     228.2083 1533242247 9999999.9999
     226.0    1762.2180       0.0000     -63.8452    -999.2500     -96.7213     -26.6707     -94.4129     -29.3159     234.3102 1533242248 9999999.9999
     227.0    1762.2180       0.0000     -58.8046    -999.2500     -90.2143     -34.4228     -87.9059     -37.2365     240.4252 1533242249 9999999.9999
     228.0    1771.0958       0.0000     -54.6367    -999.2500     -83.0245     -41.4922     -80.7161     -44.4595     246.5271 1533242250 9999999.9999
     229.0    1771.0958       0.0000     -50.6574    -999.2500     -74.6297     -48.2402     -72.3213     -51.3541     252.6290 1533242251 9999999.9999
     230.0    1775.5682       0.0000     -45.9498    -999.2500     -63.7847     -54.9480     -61.4763     -58.2076     258.7308 1533242252 9999999.9999
     231.0    1780.0632       0.0000     -37.6608    -999.2500     -50.9313     -72.8222     -48.6229     -76.4702     264.8326 1533242253 9999999.9999
     232.0    1775.5682       0.0000     -33.7399    -999.2500     -44.0628     -81.7392     -41.7544     -85.5809     271.3425 1533242254 9999999.9999
     233.0    1780.0632       0.0000     -29.5785    -999.2500     -36.8328     -89.0897     -34.5244     -93.0911     277.4443 1533242255 9999999.9999
     234.0    1780.0632       0.0000     -24.8127    -999.2500     -29.4823     -94.8335     -27.1739     -98.9597     283.5470 1533242256 9999999.9999
     235.0    1780.0632       0.0000     -19.2668    -999.2500     -22.2122     -98.8903     -19.9038    -103.1047     289.6426 1533242257 9999999.9999
     236.0    1771.0958       0.0000     -12.5988      81.9601     -14.7813    -100.6577     -12.4729    -104.9105     295.7383 1533242258 9999999.9999
     237.0    1762.2180       0.0000      -4.7088      75.5770      -6.8685    -100.8987      -4.5601    -105.1567     301.8431 1533242259 9999999.9999
     238.0    1766.6456       0.0000       5.1141      75.8878       2.6510    -100.7380       4.9594    -104.9925     307.9550 1533242260 9999999.9999
     239.0    1757.8126       0.0000      12.8613      84.0964      10.4835     -99.8945      12.7919    -104.1307     314.0568 1533242261 9999999.9999
     240.0    1757.8126       0.0000      19.6816    -999.2500      18.2758     -96.4402      20.5842    -100.6013     320.1716 1533242262 9999999.9999
     241.0    1749.0671       0.0000      24.8598    -999.2500      25.1042     -92.3833      27.4126     -96.4563     326.2734 1533242263 9999999.9999
     242.0    1753.4288       0.0000      29.4415    -999.2500      32.0530     -86.4788      34.3614     -90.4236     332.3783 1533242264 9999999.9999
     243.0    1744.7272       0.0000      33.5019    -999.2500      38.8010     -79.5702      41.1094     -83.3648     338.4933 1533242265 9999999.9999
     244.0    1736.1111       0.0000      37.6700    -999.2500      45.7498     -70.8540      48.0582     -74.4592     345.0131 1533242266 9999999.9999
     245.0    1744.7272       0.0000      42.6636    -999.2500      51.8953     -58.3220      54.2037     -61.6550     351.1280 1533242267 9999999.9999
     246.0    1727.5798       0.0000      51.7302    -999.2500      73.8665     -46.9147      76.1749     -49.9998     357.2298 1533242268 9999999.9999
     247.0    1727.5798       0.0000      55.5252    -999.2500      82.5425     -40.2068      84.8509     -43.1462       3.3346 1533242269 9999999.9999
     248.0    1731.8351       0.0000      59.5123    -999.2500      89.5717     -33.2580      91.8801     -36.0464       9.4334 1533242270 9999999.9999
     249.0    1706.6141       0.0000      64.0339    -999.2500      95.2753     -26.2288      97.5837     -28.8645      15.5352 1533242271 9999999.9999
     250.0    1714.9390       0.0000      69.8438    -999.2500      99.3723     -18.5972     101.6807     -21.0670      21.6370 1533242272 9999999.9999
     251.0    1702.4818       0.0000      76.5784      83.8664     100.8987     -11.1262     103.2071     -13.4337      27.7388 1533242273 9999999.9999
     252.0    1706.6141       0.0000      85.0611      77.1739     101.4208      -2.6912     103.7292      -4.8154      33.8407 1533242274 9999999.9999
     253.0    1694.2772       0.0000      94.1219      76.5139     101.7823       5.9447     104.0907       4.0080      39.9554 1533242275 9999999.9999
     254.0    1690.2042       0.0000     102.0596      84.8801     100.7782      13.7772     103.0866      12.0107      46.0573 1533242276 9999999.9999
     255.0    1686.1511       0.0000     108.9275    -999.2500      97.2033      21.3687      99.5117      19.7672      52.1621 1533242277 9999999.9999
     256.0    1678.1025       0.0000     115.0867    -999.2500      92.4235      29.2413      94.7319      27.8109      58.6689 1533242278 9999999.9999
     257.0    1690.2042       0.0000     119.9668    -999.2500      86.2780      36.4713      88.5864      35.1980      64.7707 1533242279 9999999.9999
     258.0    1678.1025       0.0000     124.6757    -999.2500      78.0037      44.1030      80.3121      42.9955      70.8857 1533242280 9999999.9999
     259.0    1678.1025       0.0000     129.1373    -999.2500      68.8858      51.3330      71.1942      50.3825      76.9905 1533242281 9999999.9999
     260.0    1678.1025       0.0000     137.5443    -999.2500      54.2652      66.4357      56.5736      65.8133      83.0892 1533242282 9999999.9999
     261.0    1674.1072       0.0000     141.5376    -999.2500      47.9992      76.0355      50.3076      75.6218      89.1910 1533242283 9999999.9999
     262.0    1682.1173       0.0000     145.5490    -999.2500      40.7692      84.8320      43.0776      84.6094      95.2928 1533242284 9999999.9999
     263.0    1682.1173       0.0000     150.6842    -999.2500      31.7718      93.7490      34.0802      93.7201     101.4115 1533242285 9999999.9999
     264.0    1682.1173       0.0000     154.4897    -999.2500      25.8673      98.2477      28.1757      98.3165     107.5102 1533242286 9999999.9999
