~VERSION INFORMATION
VERS.           2.0   :CWLS Log ASCII Standard - VERSION 2.0
WRAP.           NO    :One Line per depth step
PROD.  Schlumberger   :LAS Producer
PROG.  DLIS to ASCII 19C2-270                          :LAS Program name and version
CREA.        2018/08/03 10:59                          :LAS Creation date {YYYY/MM/DD hh:mm}
DLIS_CREA.  2018-Aug-03 09:28                          :DLIS Creation date and time {YYYY-MMM-DD hh:mm}
SOURCE.     PERFO_Perfo_076PTP.DLIS                    :DLIS File Name
FILE-ID.     PERFO_Perfo_076PTP                        :File Identification Number
#--------------------------------------------------
~WELL INFORMATION
#MNEM.UNIT      DATA             DESCRIPTION
#---- ------ --------------   -----------------------------
STRT .S            0.0       :START TIME      
STOP .S         1744.0       :STOP TIME      
STEP .S            1.0       :STEP     
NULL .          -999.25      :NULL VALUE
COMP .        SHELL INTERNATIONAL EP                   :COMPANY
WELL .        WPP TEST 4                               :WELL
FLD  .        WILDCAT                                  :FIELD
LOC  .        NA                                       :LOCATION
CNTY .        HARRIS                                   :COUNTY
STAT .        TEXAS                                    :STATE
CTRY .                                                 :COUNTRY
API  .        NA                                       :API NUMBER
UWI  .                                                 :UNIQUE WELL ID
DATE .        02-Aug-2018                              :LOG DATE {DD-MMM-YYYY}
SRVC .        Schlumberger                             :SERVICE COMPANY
LATI .DEG                                              :LATITUDE
LONG .DEG                                              :LONGITUDE
GDAT .                                                 :GeoDetic Datum
SECT .        NA                                       :Section
RANG .        NA                                       :Range
TOWN .        NA                                       :Township
#-----------------------------------------------------------------------------
~PARAMETER INFORMATION
#MNEM.UNIT    VALUE                      DESCRIPTION
#---- -----   --------------------       ------------------------
U-PHASE_B_COMP_PER_YT.                 0 :Phase B Comparator Period Yt
U-PHASE_A_COMP_PER_XT.                 0 :Phase A Comparator Period Xt
U-MAX_EXC_CUR_LIMIT.MA       265.00000   :Requested CM Current Limit
U-REQ_EXC_FQ.HZ              50          :Requested CM Frequency
U-TILT_Y_OFFSET.          -2.06578       :WPTET Tilt Y Offset
U-TILT_Y_GAIN.           1.02173         :WPTET Tilt Y Gain
U-TILT_X_OFFSET.           2.30841       :WPTET Tilt X Offset
U-TILT_X_GAIN.           1.00000         :WPTET Tilt X Gain
U-TILT_OFFSET_TOL.           0.00100     :WPTET Tilt Offset Calibration Tolerance
U-MOT_CUR_LIMIT_REQ.MA        70.00000   :Requested Motor Current Limit
U-MOT_SPD_REQ_WPMS.RPM        1.00000    :Requested Motor Speed
U-STD_TOL_TILT.           0.01000        :Tilt Standard Deviation Tolerance
CWEI .LB/F      29.00000                 :Casing Weight
CSIZ .IN         7.00000                 :Current Casing Size
LCC  .               440                 :Logging Company Code
LUN  .              2134                 :Logging Unit Number
HIDE .                                   :Header Identifier
HID1 .                                   :Header Identifier Line 1
R1   .                                   :Remark Line 1
WITN .        MR. KELLY McCOY            :Witness's Name
ENGI .        MORRIS MOORE               :Engineer's Name
LUL  .        IOWA COLONY                :Logging Unit Location
DATE .        02-Aug-2018                :Date as Month-Day-Year
STAT .        TEXAS                      :State or Province
COUN .        HARRIS                     :County or Rig Name
FN   .        WILDCAT                    :Field Name
WN   .        WPP TEST 4                 :Well Name
CN   .        SHELL INTERNATIONAL EP     :Company Name
CLAB .        County                     :County/Rig Label
SLAB .        State                      :State/Province Label
RUN  .          1                        :RUN NUMBER
PDAT .        GROUND LEVEL               :Permanent Datum
EPD  .                                   :Elevation of Permanent Datum above Mean Sea Level
LMF  .          NA                       :Logging Measured From (Name of Logging Elevation Reference)
APD  .                                   :Elevation of Depth Reference (LMF) above Permanent Datum
#-----------------------------------------------------------------------------
~CURVE INFORMATION
#MNEM.UNIT   API CODE                                  DESCRIPTION
#---- -----  --------                                  -----------------------
TIME .S                                                :TIME {F10.1}
FREQ_EMF_SL.HZ                                         :Electromagnetic Field Frequency {F13.4}
PH_SH_WPPCM_SL.DEG                                     :WPPCM Phase Shift {F13.4}
RB_SL.DEG                                              :Relative Bearing {F13.4}
SDEV_SL.DEG                                            :Sonde Deviation {F13.4}
RTIX_SL.DEG                                            :Raw X-axis Tilt {F13.4}
RTIY_SL.DEG                                            :Raw Y-axis Tilt {F13.4}
TILX_SL.DEG                                            :X-axis Tilt {F13.4}
TILY_SL.DEG                                            :Y-axis Tilt {F13.4}
ROTA_SL.DEG                                            :Motor Rotation Angle {F13.4}
TOD7 .S                                                :Time of Day {I11}
TOJ  .S                                                :Time of Job {F13.4}
#-----------------------------------------------------------------------------
# 
#     TIME    FREQ_EMF_SL  PH_SH_WPPCM_    RB_SL       SDEV_SL      RTIX_SL      RTIY_SL      TILX_SL      TILY_SL      ROTA_SL        TOD7            TOJ
#                          SL
~A  
# ...
    1378.0       0.0000       0.0000      49.3973    -999.2500      67.6808     -50.4895      69.9892     -53.6523     101.9402 1533243400 9999999.9999
    1379.0       0.0000       0.0000      53.2675    -999.2500      77.6422     -44.2637      79.9506     -47.2912     108.0420 1533243401 9999999.9999
    1380.0       0.0000       0.0000      57.0129    -999.2500      85.5148     -37.5558      87.8232     -40.4376     114.1438 1533243402 9999999.9999
    1381.0       0.0000       0.0000      61.1664    -999.2500      91.9817     -30.5668      94.2901     -33.2967     120.6668 1533243403 9999999.9999
    1382.0       0.0000       0.0000      66.0158    -999.2500      97.1230     -23.4573      99.4314     -26.0328     126.7817 1533243404 9999999.9999
    1383.0       0.0000       0.0000      71.3317    -999.2500     100.1757     -16.8298     102.4841     -19.2613     132.8844 1533243405 9999999.9999
    1384.0       0.0000       0.0000      78.2523      83.4082     101.1397      -9.3990     103.4481     -11.6690     138.9863 1533243406 9999999.9999
    1385.0       0.0000       0.0000      87.6617      76.2230     101.6618      -0.2008     103.9702      -2.2710     145.0882 1533243407 9999999.9999
    1386.0       0.0000       0.0000      96.8369      77.5576     101.8627       8.5555     104.1711       6.6756     151.2031 1533243408 9999999.9999
    1387.0       0.0000       0.0000     104.9579      89.0176     100.0150      16.8298     102.3234      15.1297     157.3081 1533243409 9999999.9999
    1388.0       0.0000       0.0000     111.6462    -999.2500      95.8377      24.6623      98.1461      23.1324     163.4069 1533243410 9999999.9999
    1389.0       0.0000       0.0000     117.2225    -999.2500      90.0537      32.2940      92.3621      30.9299     169.5088 1533243411 9999999.9999
    1390.0       0.0000       0.0000     122.0531    -999.2500      82.8638      39.8052      85.1722      38.6042     175.6107 1533243412 9999999.9999
    1391.0       0.0000       0.0000     126.4600    -999.2500      74.7903      47.1155      77.0987      46.0734     181.7126 1533243413 9999999.9999
    1392.0       0.0000       0.0000     131.1756    -999.2500      64.2667      54.2652      66.5751      53.3784     187.8154 1533243414 9999999.9999
    1393.0       0.0000       0.0000     139.1137    -999.2500      52.0560      70.3720      54.3644      69.8352     194.3253 1533243415 9999999.9999
    1394.0       0.0000       0.0000     143.1897    -999.2500      45.1072      80.0120      47.4156      79.6847     200.4272 1533243416 9999999.9999
    1395.0       0.0000       0.0000     146.8580    -999.2500      38.3993      87.4428      40.7077      87.2769     206.5291 1533243417 9999999.9999
    1396.0       0.0000       0.0000     151.2992    -999.2500      30.7677      94.5925      33.0761      94.5819     212.6310 1533243418 9999999.9999
    1397.0       0.0000       0.0000     156.4906    -999.2500      23.0155     100.3765      25.3239     100.4916     218.7329 1533243419 9999999.9999
    1398.0       0.0000       0.0000     163.2477    -999.2500      14.6207     104.4735      16.9291     104.6776     224.8479 1533243420 9999999.9999
    1399.0       0.0000       0.0000     170.9594      76.4063       6.4769     106.0400       8.7853     106.2782     230.9498 1533243421 9999999.9999
    1400.0       0.0000       0.0000     179.9383      73.3526      -2.2493     106.4015       0.0591     106.6475     237.0517 1533243422 9999999.9999
    1401.0       0.0000       0.0000    -171.5082      76.4974     -10.5638     105.6785      -8.2554     105.9088     243.1597 1533243423 9999999.9999
    1402.0       0.0000       0.0000    -163.9854      93.0043     -18.5972     102.1037     -16.2888     102.2563     249.2554 1533243424 9999999.9999
    1403.0       0.0000       0.0000    -157.2004    -999.2500     -26.9920      96.5205     -24.6836      96.5518     255.3573 1533243425 9999999.9999
    1404.0       0.0000       0.0000    -151.7661    -999.2500     -34.7843      89.7323     -32.4759      89.6162     261.4592 1533243426 9999999.9999
    1405.0       0.0000       0.0000    -146.7926    -999.2500     -42.6972      82.1408     -40.3888      81.8597     267.9690 1533243427 9999999.9999
    1406.0       0.0000       0.0000    -142.3042    -999.2500     -49.9673      73.5050     -47.6589      73.0363     274.0585 1533243428 9999999.9999
    1407.0       0.0000       0.0000    -137.3878    -999.2500     -56.9563      63.1420     -54.6479      62.4481     280.1603 1533243429 9999999.9999
    1408.0       0.0000       0.0000    -129.7671    -999.2500     -72.1393      52.2970     -69.8309      51.3675     286.2499 1533243430 9999999.9999
    1409.0       0.0000       0.0000    -125.4155    -999.2500     -81.0965      45.3080     -78.7881      44.2266     292.3517 1533243431 9999999.9999
    1410.0       0.0000       0.0000    -120.9657    -999.2500     -88.9290      38.0378     -86.6206      36.7985     298.4535 1533243432 9999999.9999
    1411.0       0.0000       0.0000    -115.8216    -999.2500     -95.8778      30.2857     -93.5694      28.8779     304.5553 1533243433 9999999.9999
    1412.0       0.0000       0.0000    -109.2358    -999.2500    -101.7020      21.7302     -99.3936      20.1365     310.6702 1533243434 9999999.9999
    1413.0       0.0000       0.0000    -102.0089      85.3995    -105.1563      13.7370    -102.8479      11.9697     316.7720 1533243435 9999999.9999
    1414.0       0.0000       0.0000     -93.7786      76.8726    -105.9597       5.6233    -103.6513       3.6797     322.8869 1533243436 9999999.9999
    1415.0       0.0000       0.0000     -85.1069      77.3696    -105.8392      -2.6510    -103.5308      -4.7744     328.9887 1533243437 9999999.9999
    1416.0       0.0000       0.0000     -76.7972      85.5706    -105.0358     -10.9253    -102.7274     -13.2285     335.0936 1533243438 9999999.9999
    1417.0       0.0000       0.0000     -69.8653    -999.2500    -101.9430     -18.7177     -99.6346     -21.1901     341.1923 1533243439 9999999.9999
    1418.0       0.0000       0.0000     -63.9826    -999.2500     -96.9623     -26.4698     -94.6539     -29.1107     347.7021 1533243440 9999999.9999
    1419.0       0.0000       0.0000     -58.9042    -999.2500     -90.4553     -34.2622     -88.1469     -37.0724     353.8047 1533243441 9999999.9999
    1420.0       0.0000       0.0000     -54.6489    -999.2500     -83.1852     -41.4922     -80.8768     -44.4595     359.9197 1533243442 9999999.9999
    1421.0       0.0000       0.0000     -50.5995    -999.2500     -74.6698     -48.4008     -72.3614     -51.5182       6.0093 1533243443 9999999.9999
    1422.0       0.0000       0.0000     -46.1389    -999.2500     -64.3470     -54.8275     -62.0386     -58.0845      12.0987 1533243444 9999999.9999
    1423.0       0.0000       0.0000     -37.7610    -999.2500     -51.1221     -72.6615     -48.8137     -76.3060      18.2005 1533243445 9999999.9999
    1424.0       0.0000       0.0000     -33.8495    -999.2500     -44.2637     -81.5785     -41.9553     -85.4167      24.3023 1533243446 9999999.9999
    1425.0       0.0000       0.0000     -29.4115    -999.2500     -36.5517     -89.4512     -34.2433     -93.4605      30.4072 1533243447 9999999.9999
    1426.0       0.0000       0.0000     -24.7458    -999.2500     -29.3618     -95.1950     -27.0534     -99.3291      36.5060 1533243448 9999999.9999
    1427.0       0.0000       0.0000     -19.0362    -999.2500     -21.9310     -99.0510     -19.6226    -103.2689      42.5954 1533243449 9999999.9999
    1428.0       0.0000       0.0000     -12.7627      81.9102     -14.9420    -100.8183     -12.6336    -105.0746      48.6972 1533243450 9999999.9999
    1429.0       0.0000       0.0000      -3.9699      75.1480      -6.1455    -101.0995      -3.8371    -105.3619      54.8021 1533243451 9999999.9999
    1430.0       0.0000       0.0000       4.8712      75.6300       2.4100    -100.8987       4.7184    -105.1567      61.2965 1533243452 9999999.9999
