~VERSION INFORMATION
VERS.           2.0   :CWLS Log ASCII Standard - VERSION 2.0
WRAP.           NO    :One Line per depth step
PROD.  Schlumberger   :LAS Producer
PROG.  DLIS to ASCII 19C2-270                          :LAS Program name and version
CREA.        2018/08/03 10:59                          :LAS Creation date {YYYY/MM/DD hh:mm}
DLIS_CREA.  2018-Aug-03 08:37                          :DLIS Creation date and time {YYYY-MMM-DD hh:mm}
SOURCE.     PERFO_Perfo_060PTP.DLIS                    :DLIS File Name
FILE-ID.     PERFO_Perfo_060PTP                        :File Identification Number
#--------------------------------------------------
~WELL INFORMATION
#MNEM.UNIT      DATA             DESCRIPTION
#---- ------ --------------   -----------------------------
STRT .S            0.0       :START TIME      
STOP .S         1390.0       :STOP TIME      
STEP .S            1.0       :STEP     
NULL .          -999.25      :NULL VALUE
COMP .        SHELL INTERNATIONAL EP                   :COMPANY
WELL .        WPP TEST 4                               :WELL
FLD  .        WILDCAT                                  :FIELD
LOC  .        NA                                       :LOCATION
CNTY .        HARRIS                                   :COUNTY
STAT .        TEXAS                                    :STATE
CTRY .                                                 :COUNTRY
API  .        NA                                       :API NUMBER
UWI  .                                                 :UNIQUE WELL ID
DATE .        02-Aug-2018                              :LOG DATE {DD-MMM-YYYY}
SRVC .        Schlumberger                             :SERVICE COMPANY
LATI .DEG                                              :LATITUDE
LONG .DEG                                              :LONGITUDE
GDAT .                                                 :GeoDetic Datum
SECT .        NA                                       :Section
RANG .        NA                                       :Range
TOWN .        NA                                       :Township
#-----------------------------------------------------------------------------
~PARAMETER INFORMATION
#MNEM.UNIT    VALUE                      DESCRIPTION
#---- -----   --------------------       ------------------------
U-PHASE_B_COMP_PER_YT.                 0 :Phase B Comparator Period Yt
U-PHASE_A_COMP_PER_XT.                 0 :Phase A Comparator Period Xt
U-MAX_EXC_CUR_LIMIT.MA       265.00000   :Requested CM Current Limit
U-REQ_EXC_FQ.HZ              50          :Requested CM Frequency
U-TILT_Y_OFFSET.          -2.06578       :WPTET Tilt Y Offset
U-TILT_Y_GAIN.           1.02173         :WPTET Tilt Y Gain
U-TILT_X_OFFSET.           2.30841       :WPTET Tilt X Offset
U-TILT_X_GAIN.           1.00000         :WPTET Tilt X Gain
U-TILT_OFFSET_TOL.           0.00100     :WPTET Tilt Offset Calibration Tolerance
U-MOT_CUR_LIMIT_REQ.MA        70.00000   :Requested Motor Current Limit
U-MOT_SPD_REQ_WPMS.RPM        1.00000    :Requested Motor Speed
U-STD_TOL_TILT.           0.01000        :Tilt Standard Deviation Tolerance
CWEI .LB/F      29.00000                 :Casing Weight
CSIZ .IN         7.00000                 :Current Casing Size
LCC  .               440                 :Logging Company Code
LUN  .              2134                 :Logging Unit Number
HIDE .                                   :Header Identifier
HID1 .                                   :Header Identifier Line 1
R1   .                                   :Remark Line 1
WITN .        MR. KELLEY McCOY           :Witness's Name
ENGI .        MORRIS MOORE               :Engineer's Name
LUL  .        IOWA COLONY                :Logging Unit Location
DATE .        02-Aug-2018                :Date as Month-Day-Year
STAT .        TEXAS                      :State or Province
COUN .        HARRIS                     :County or Rig Name
FN   .        WILDCAT                    :Field Name
WN   .        WPP TEST 4                 :Well Name
CN   .        SHELL INTERNATIONAL EP     :Company Name
CLAB .        County                     :County/Rig Label
SLAB .        State                      :State/Province Label
RUN  .          1                        :RUN NUMBER
PDAT .        GROUND LEVEL               :Permanent Datum
EPD  .                                   :Elevation of Permanent Datum above Mean Sea Level
LMF  .          NA                       :Logging Measured From (Name of Logging Elevation Reference)
APD  .                                   :Elevation of Depth Reference (LMF) above Permanent Datum
#-----------------------------------------------------------------------------
~CURVE INFORMATION
#MNEM.UNIT   API CODE                                  DESCRIPTION
#---- -----  --------                                  -----------------------
TIME .S                                                :TIME {F10.1}
FREQ_EMF_SL.HZ                                         :Electromagnetic Field Frequency {F13.4}
PH_SH_WPPCM_SL.DEG                                     :WPPCM Phase Shift {F13.4}
RB_SL.DEG                                              :Relative Bearing {F13.4}
SDEV_SL.DEG                                            :Sonde Deviation {F13.4}
RTIX_SL.DEG                                            :Raw X-axis Tilt {F13.4}
RTIY_SL.DEG                                            :Raw Y-axis Tilt {F13.4}
TILX_SL.DEG                                            :X-axis Tilt {F13.4}
TILY_SL.DEG                                            :Y-axis Tilt {F13.4}
ROTA_SL.DEG                                            :Motor Rotation Angle {F13.4}
TOD7 .S                                                :Time of Day {I11}
TOJ  .S                                                :Time of Job {F13.4}
#-----------------------------------------------------------------------------
# 
#     TIME    FREQ_EMF_SL  PH_SH_WPPCM_    RB_SL       SDEV_SL      RTIX_SL      RTIY_SL      TILX_SL      TILY_SL      ROTA_SL        TOD7            TOJ
#                          SL
~A  
# ...
     265.0    1386.8344       0.0000     148.5085    -999.2500      35.4571      88.8085      37.7655      88.6723     178.5843 1533222391 9999999.9999
     266.0    1384.1044       0.0000     153.3365    -999.2500      27.6748      95.5967      29.9832      95.6079     184.6862 1533222392 9999999.9999
     267.0    1384.1044       0.0000     158.8679    -999.2500      20.0030     100.6978      22.3114     100.8199     190.7881 1533222393 9999999.9999
     268.0    1378.6765       0.0000     165.5639      84.6209      12.1705     103.5898      14.4789     103.7748     196.9032 1533222394 9999999.9999
     269.0    1378.6765       0.0000     173.3782      76.7795       4.1372     104.5538       6.4456     104.7597     202.9927 1533222395 9999999.9999
     270.0    1381.3850       0.0000    -178.1073      75.0698      -4.1372     104.8350      -1.8288     105.0470     209.0946 1533222396 9999999.9999
     271.0    1375.9785       0.0000    -170.1501      80.0881     -12.0098     103.7505      -9.7014     103.9389     215.1965 1533222397 9999999.9999
     272.0    1373.2910       0.0000    -162.8167      82.7091     -20.0432      99.8142     -17.7348      99.9171     221.7064 1533222398 9999999.9999
     273.0    1373.2910       0.0000    -156.3581    -999.2500     -28.1970      94.1507     -25.8886      94.1305     227.8083 1533222399 9999999.9999
     274.0    1367.9475       0.0000    -151.0645    -999.2500     -35.8287      87.4830     -33.5203      87.3180     233.9102 1533222400 9999999.9999
     275.0    1370.6140       0.0000    -146.2869    -999.2500     -43.2997      79.7710     -40.9913      79.4384     240.0121 1533222401 9999999.9999
     276.0    1370.6140       0.0000    -141.6478    -999.2500     -50.5698      71.0950     -48.2614      70.5739     246.1140 1533222402 9999999.9999
     277.0    1367.9475       0.0000    -134.1409    -999.2500     -60.8123      56.6752     -58.5039      55.8408     252.2159 1533222403 9999999.9999
     278.0    1362.6454       0.0000    -128.2725    -999.2500     -74.1878      49.5657     -71.8794      48.5768     258.3054 1533222404 9999999.9999
     279.0    1365.2913       0.0000    -124.0597    -999.2500     -82.4622      42.8980     -80.1538      41.7643     264.4072 1533222405 9999999.9999
     280.0    1365.2913       0.0000    -119.3165    -999.2500     -89.9733      35.4270     -87.6649      34.1309     270.4967 1533222406 9999999.9999
     281.0    1362.6454       0.0000    -114.1561    -999.2500     -96.2393      28.0363     -93.9309      26.5797     276.5985 1533222407 9999999.9999
     282.0    1362.6454       0.0000    -107.8355    -999.2500    -101.1798      20.1637     -98.8714      18.5360     282.7003 1533222408 9999999.9999
     283.0    1365.2913       0.0000    -100.6505      85.3699    -103.9112      12.4115    -101.6028      10.6154     288.8022 1533222409 9999999.9999
     284.0    1365.2913       0.0000     -92.4591      78.2465    -104.3128       4.3782    -102.0044       2.4075     295.3120 1533222410 9999999.9999
     285.0    1365.2913       0.0000     -83.8158      79.8793    -104.1522      -3.9363    -101.8438      -6.0876     301.4138 1533222411 9999999.9999
     286.0    1367.9475       0.0000     -75.6688      99.5283    -102.9472     -12.2107    -100.6388     -14.5417     307.5287 1533222412 9999999.9999
     287.0    1367.9475       0.0000     -68.9998    -999.2500     -99.6133     -19.8825     -97.3049     -22.3803     313.6437 1533222413 9999999.9999
     288.0    1370.6140       0.0000     -63.3524    -999.2500     -94.4720     -27.4338     -92.1636     -30.0957     319.7455 1533222414 9999999.9999
     289.0    1375.9785       0.0000     -58.4657    -999.2500     -88.0453     -34.9048     -85.7369     -37.7290     325.8604 1533222415 9999999.9999
     290.0    1373.2910       0.0000     -53.9973    -999.2500     -80.0522     -42.2553     -77.7438     -45.2392     331.9622 1533222416 9999999.9999
     291.0    1378.6765       0.0000     -49.7650    -999.2500     -71.0548     -48.9230     -68.7464     -52.0517     338.0640 1533222417 9999999.9999
     292.0    1375.9785       0.0000     -43.7872    -999.2500     -56.4743     -54.5062     -54.1659     -57.7562     344.1658 1533222418 9999999.9999
     293.0    1378.6765       0.0000     -36.1767    -999.2500     -47.9992     -74.4288     -45.6908     -78.1117     350.2676 1533222419 9999999.9999
     294.0    1384.1044       0.0000     -32.1089    -999.2500     -41.0905     -82.6630     -38.7821     -86.5248     356.3725 1533222420 9999999.9999
     295.0    1384.1044       0.0000     -27.8268    -999.2500     -34.1015     -89.4913     -31.7931     -93.5015       2.4712 1533222421 9999999.9999
     296.0    1389.5751       0.0000     -22.7733    -999.2500     -26.8313     -94.5122     -24.5229     -98.6314       8.9810 1533222422 9999999.9999
     297.0    1386.8344       0.0000     -17.2137    -999.2500     -19.9628     -97.6050     -17.6544    -101.7915      15.0828 1533222423 9999999.9999
     298.0    1395.0892       0.0000     -10.1674      81.8197     -12.3713     -98.8100     -10.0629    -103.0226      21.1723 1533222424 9999999.9999
     299.0    1392.3268       0.0000      -1.8346      77.1465      -4.0970     -98.7698      -1.7886    -102.9816      27.2772 1533222425 9999999.9999
     300.0    1397.8628       0.0000       6.9687      79.3139       4.5388     -98.5288       6.8472    -102.7354      33.3636 1533222426 9999999.9999
     301.0    1397.8628       0.0000      14.2331      94.6771      12.0902     -97.2033      14.3986    -101.3811      39.4530 1533222427 9999999.9999
     302.0    1406.2500       0.0000      20.5706    -999.2500      19.5210     -93.6687      21.8294     -97.7696      45.5548 1533222428 9999999.9999
     303.0    1409.0682       0.0000      25.7332    -999.2500      26.4698     -88.7683      28.7782     -92.7628      51.6566 1533222429 9999999.9999
     304.0    1403.4431       0.0000      30.0563    -999.2500      32.9768     -82.7433      35.2852     -86.6069      57.7585 1533222430 9999999.9999
     305.0    1409.0682       0.0000      34.2120    -999.2500      39.6043     -75.5535      41.9127     -79.2608      63.8603 1533222431 9999999.9999
     306.0    1409.0682       0.0000      38.5235    -999.2500      46.1113     -66.4758      48.4197     -69.9860      69.9621 1533222432 9999999.9999
     307.0    1411.8976       0.0000      48.1667    -999.2500      62.7002     -51.0518      65.0086     -54.2268      76.0639 1533222433 9999999.9999
     308.0    1409.0682       0.0000      53.2944    -999.2500      75.2322     -43.7013      77.5406     -46.7166      82.5736 1533222434 9999999.9999
     309.0    1414.7384       0.0000      57.0537    -999.2500      82.9843     -37.3550      85.2927     -40.2324      88.6754 1533222435 9999999.9999
     310.0    1411.8976       0.0000      61.1412    -999.2500      89.6520     -30.6873      91.9604     -33.4199      94.7772 1533222436 9999999.9999
     311.0    1414.7384       0.0000      65.8065    -999.2500      94.6728     -23.8992      96.9812     -26.4842     100.8790 1533222437 9999999.9999
     312.0    1414.7384       0.0000      71.5166    -999.2500      97.6853     -16.7897      99.9937     -19.2202     106.9808 1533222438 9999999.9999
     313.0    1417.5908       0.0000      78.6191      83.9610      99.0510      -9.1178     101.3594     -11.3817     113.0956 1533222439 9999999.9999
     314.0    1409.0682       0.0000      87.8898      78.2230      99.6535       0.0000     101.9619      -2.0658     119.1974 1533222440 9999999.9999
     315.0    1409.0682       0.0000      96.5347      79.7195      99.8543       8.3145     102.1627       6.4294     125.2992 1533222441 9999999.9999
     316.0    1409.0682       0.0000     104.1102      96.1588      98.2075      16.0265     100.5159      14.3089     131.4010 1533222442 9999999.9999
     317.0    1409.0682       0.0000     110.7478    -999.2500      94.2712      23.6582      96.5796      22.1064     137.5029 1533222443 9999999.9999
