~VERSION INFORMATION
VERS.           2.0   :CWLS Log ASCII Standard - VERSION 2.0
WRAP.           NO    :One Line per depth step
PROD.  Schlumberger   :LAS Producer
PROG.  DLIS to ASCII 19C2-270                          :LAS Program name and version
CREA.        2018/08/03 10:59                          :LAS Creation date {YYYY/MM/DD hh:mm}
DLIS_CREA.  2018-Aug-03 08:37                          :DLIS Creation date and time {YYYY-MMM-DD hh:mm}
SOURCE.     PERFO_Perfo_060PTP.DLIS                    :DLIS File Name
FILE-ID.     PERFO_Perfo_060PTP                        :File Identification Number
#--------------------------------------------------
~WELL INFORMATION
#MNEM.UNIT      DATA             DESCRIPTION
#---- ------ --------------   -----------------------------
STRT .S            0.0       :START TIME      
STOP .S         1390.0       :STOP TIME      
STEP .S            1.0       :STEP     
NULL .          -999.25      :NULL VALUE
COMP .        SHELL INTERNATIONAL EP                   :COMPANY
WELL .        WPP TEST 4                               :WELL
FLD  .        WILDCAT                                  :FIELD
LOC  .        NA                                       :LOCATION
CNTY .        HARRIS                                   :COUNTY
STAT .        TEXAS                                    :STATE
CTRY .                                                 :COUNTRY
API  .        NA                                       :API NUMBER
UWI  .                                                 :UNIQUE WELL ID
DATE .        02-Aug-2018                              :LOG DATE {DD-MMM-YYYY}
SRVC .        Schlumberger                             :SERVICE COMPANY
LATI .DEG                                              :LATITUDE
LONG .DEG                                              :LONGITUDE
GDAT .                                                 :GeoDetic Datum
SECT .        NA                                       :Section
RANG .        NA                                       :Range
TOWN .        NA                                       :Township
#-----------------------------------------------------------------------------
~PARAMETER INFORMATION
#MNEM.UNIT    VALUE                      DESCRIPTION
#---- -----   --------------------       ------------------------
U-PHASE_B_COMP_PER_YT.                 0 :Phase B Comparator Period Yt
U-PHASE_A_COMP_PER_XT.                 0 :Phase A Comparator Period Xt
U-MAX_EXC_CUR_LIMIT.MA       265.00000   :Requested CM Current Limit
U-REQ_EXC_FQ.HZ              50          :Requested CM Frequency
U-TILT_Y_OFFSET.          -2.06578       :WPTET Tilt Y Offset
U-TILT_Y_GAIN.           1.02173         :WPTET Tilt Y Gain
U-TILT_X_OFFSET.           2.30841       :WPTET Tilt X Offset
U-TILT_X_GAIN.           1.00000         :WPTET Tilt X Gain
U-TILT_OFFSET_TOL.           0.00100     :WPTET Tilt Offset Calibration Tolerance
U-MOT_CUR_LIMIT_REQ.MA        70.00000   :Requested Motor Current Limit
U-MOT_SPD_REQ_WPMS.RPM        1.00000    :Requested Motor Speed
U-STD_TOL_TILT.           0.01000        :Tilt Standard Deviation Tolerance
CWEI .LB/F      29.00000                 :Casing Weight
CSIZ .IN         7.00000                 :Current Casing Size
LCC  .               440                 :Logging Company Code
LUN  .              2134                 :Logging Unit Number
HIDE .                                   :Header Identifier
HID1 .                                   :Header Identifier Line 1
R1   .                                   :Remark Line 1
WITN .        MR. KELLEY McCOY           :Witness's Name
ENGI .        MORRIS MOORE               :Engineer's Name
LUL  .        IOWA COLONY                :Logging Unit Location
DATE .        02-Aug-2018                :Date as Month-Day-Year
STAT .        TEXAS                      :State or Province
COUN .        HARRIS                     :County or Rig Name
FN   .        WILDCAT                    :Field Name
WN   .        WPP TEST 4                 :Well Name
CN   .        SHELL INTERNATIONAL EP     :Company Name
CLAB .        County                     :County/Rig Label
SLAB .        State                      :State/Province Label
RUN  .          1                        :RUN NUMBER
PDAT .        GROUND LEVEL               :Permanent Datum
EPD  .                                   :Elevation of Permanent Datum above Mean Sea Level
LMF  .          NA                       :Logging Measured From (Name of Logging Elevation Reference)
APD  .                                   :Elevation of Depth Reference (LMF) above Permanent Datum
#-----------------------------------------------------------------------------
~CURVE INFORMATION
#MNEM.UNIT   API CODE                                  DESCRIPTION
#---- -----  --------                                  -----------------------
TIME .S                                                :TIME {F10.1}
FREQ_EMF_SL.HZ                                         :Electromagnetic Field Frequency {F13.4}
PH_SH_WPPCM_SL.DEG                                     :WPPCM Phase Shift {F13.4}
RB_SL.DEG                                              :Relative Bearing {F13.4}
SDEV_SL.DEG                                            :Sonde Deviation {F13.4}
RTIX_SL.DEG                                            :Raw X-axis Tilt {F13.4}
RTIY_SL.DEG                                            :Raw Y-axis Tilt {F13.4}
TILX_SL.DEG                                            :X-axis Tilt {F13.4}
TILY_SL.DEG                                            :Y-axis Tilt {F13.4}
ROTA_SL.DEG                                            :Motor Rotation Angle {F13.4}
TOD7 .S                                                :Time of Day {I11}
TOJ  .S                                                :Time of Job {F13.4}
#-----------------------------------------------------------------------------
# 
#     TIME    FREQ_EMF_SL  PH_SH_WPPCM_    RB_SL       SDEV_SL      RTIX_SL      RTIY_SL      TILX_SL      TILY_SL      ROTA_SL        TOD7            TOJ
#                          SL
~A  
# ...
     371.0    1414.7384       0.0000      69.1559    -999.2500      96.6410     -19.6013      98.9494     -22.0930     108.9485 1533222497 9999999.9999
     372.0    1411.8976       0.0000      75.3888    -999.2500      98.6493     -12.4918     100.9577     -14.8290     115.0512 1533222498 9999999.9999
     373.0    1414.7384       0.0000      83.5734      80.2738      99.3322      -4.1773     101.6406      -6.3339     121.1662 1533222499 9999999.9999
     374.0    1411.8976       0.0000      93.2562      78.1915      99.9347       5.1413     102.2431       3.1873     127.2680 1533222500 9999999.9999
     375.0    1409.0682       0.0000     101.1995      87.6526      99.1313      12.9738     101.4397      11.1899     133.3698 1533222501 9999999.9999
     376.0    1406.2500       0.0000     108.2792    -999.2500      96.1590      20.6858      98.4674      19.0695     139.4717 1533222502 9999999.9999
     377.0    1406.2500       0.0000     114.1778    -999.2500      91.2587      28.0765      93.5671      26.6207     145.5867 1533222503 9999999.9999
     378.0    1406.2500       0.0000     119.4016    -999.2500      84.9525      35.5475      87.2609      34.2541     151.6886 1533222504 9999999.9999
     379.0    1403.4431       0.0000     124.0604    -999.2500      77.3208      42.8177      79.6292      41.6822     157.7905 1533222505 9999999.9999
     380.0    1400.6475       0.0000     128.5565    -999.2500      68.4842      49.8067      70.7926      48.8230     164.2973 1533222506 9999999.9999
     381.0    1400.6475       0.0000     137.1329    -999.2500      54.2652      64.7085      56.5736      64.0487     170.3992 1533222507 9999999.9999
     382.0    1397.8628       0.0000     141.5405    -999.2500      47.5975      74.8305      49.9059      74.3906     176.5042 1533222508 9999999.9999
     383.0    1392.3268       0.0000     145.4360    -999.2500      40.8093      83.0647      43.1177      82.8036     182.6061 1533222509 9999999.9999
     384.0       0.0000       0.0000     149.5002    -999.2500      33.7802      90.3348      36.0886      90.2318     188.7352 1533222510 9999999.9999
     385.0       0.0000       0.0000     154.3650    -999.2500      26.1485      96.7615      28.4569      96.7981     194.8633 1533222511 9999999.9999
     386.0       0.0000       0.0000     160.5075    -999.2500      17.9545     101.7823      20.2629     101.9280     200.9652 1533222512 9999999.9999
     387.0       0.0000       0.0000     167.2488      83.6390      10.3630     104.0317      12.6714     104.2262     207.0671 1533222513 9999999.9999
     388.0       0.0000       0.0000     175.5870      75.7293       1.9682     104.7145       4.2766     104.9239     213.1690 1533222514 9999999.9999
     389.0       0.0000       0.0000    -175.9152      75.6765      -6.2660     104.6743      -3.9576     104.8828     219.2841 1533222515 9999999.9999
     390.0       0.0000       0.0000    -168.1124      84.4124     -14.1387     102.9472     -11.8303     103.1181     225.3860 1533222516 9999999.9999
     391.0       0.0000       0.0000    -160.9684    -999.2500     -22.2523      98.4887     -19.9439      98.5628     231.4755 1533222517 9999999.9999
     392.0       0.0000       0.0000    -154.9045    -999.2500     -30.2053      92.5842     -27.8969      92.5300     237.9955 1533222518 9999999.9999
     393.0       0.0000       0.0000    -149.7810    -999.2500     -37.7968      85.5550     -35.4884      85.3481     244.0881 1533222519 9999999.9999
     394.0       0.0000       0.0000    -145.0591    -999.2500     -45.2678      77.6422     -42.9594      77.2633     250.1907 1533222520 9999999.9999
     395.0       0.0000       0.0000    -140.7565    -999.2500     -51.5740      68.6448     -49.2656      68.0705     256.2802 1533222521 9999999.9999
     396.0       0.0000       0.0000    -132.2325    -999.2500     -65.9135      55.2693     -63.6051      54.4044     262.3951 1533222522 9999999.9999
     397.0       0.0000       0.0000    -127.5215    -999.2500     -75.7142      48.4008     -73.4058      47.3867     268.4969 1533222523 9999999.9999
     398.0       0.0000       0.0000    -123.0917    -999.2500     -84.0789      41.3315     -81.7705      40.1637     274.5988 1533222524 9999999.9999
     399.0       0.0000       0.0000    -118.1901    -999.2500     -91.6202      33.7400     -89.3118      32.4073     280.7006 1533222525 9999999.9999
     400.0       0.0000       0.0000    -112.7395    -999.2500     -96.9623      26.1887     -94.6539      24.6919     286.8023 1533222526 9999999.9999
     401.0       0.0000       0.0000    -106.1759    -999.2500    -102.1438      18.2758     -99.8354      16.6071     292.9041 1533222527 9999999.9999
     402.0       0.0000       0.0000     -98.8546      82.0420    -104.1923      10.6040    -101.8839       8.7686     299.0191 1533222528 9999999.9999
     403.0    3429.8779       0.0000     -90.3215      77.9998    -104.3128       2.3297    -102.0044       0.3145     305.1209 1533222529 9999999.9999
     404.0    1311.8003       0.0000     -81.7719      81.6204    -104.0317      -5.9447    -101.7233      -8.1396     311.5667 1533222530 9999999.9999
     405.0    1341.8416       0.0000     -74.1925     105.8875    -102.4250     -13.8173    -100.1166     -16.1833     317.6685 1533222531 9999999.9999
     406.0    1341.8416       0.0000     -67.7588    -999.2500     -98.6493     -21.4490     -96.3409     -23.9808     323.7703 1533222532 9999999.9999
     407.0    1341.8416       0.0000     -62.1971    -999.2500     -93.1867     -29.1208     -90.8783     -31.8193     329.8752 1533222533 9999999.9999
     408.0    1346.9828       0.0000     -57.5035    -999.2500     -86.5592     -36.4713     -84.2508     -39.3295     335.9770 1533222534 9999999.9999
     409.0    1349.5681       0.0000     -53.4172    -999.2500     -78.9275     -43.2193     -76.6191     -46.2241     342.0788 1533222535 9999999.9999
     410.0    1354.7688       0.0000     -49.1345    -999.2500     -69.6088     -49.8067     -67.3004     -52.9546     348.1806 1533222536 9999999.9999
     411.0    1362.6454       0.0000     -39.5110    -999.2500     -53.1003     -66.4758     -50.7919     -69.9860     354.2824 1533222537 9999999.9999
     412.0    1367.9475       0.0000     -35.2909    -999.2500     -46.5130     -76.3568     -44.2046     -80.0816       0.3842 1533222538 9999999.9999
     413.0    1370.6140       0.0000     -31.1541    -999.2500     -39.4838     -84.3902     -37.1754     -88.2895       6.4860 1533222539 9999999.9999
     414.0    1370.6140       0.0000     -26.7990    -999.2500     -32.5350     -90.6562     -30.2266     -94.6917      12.5878 1533222540 9999999.9999
     415.0    1367.9475       0.0000     -21.7057    -999.2500     -25.4255     -95.3557     -23.1171     -99.4932      18.6896 1533222541 9999999.9999
     416.0    1375.9785       0.0000     -15.7535    -999.2500     -18.3160     -97.9665     -16.0076    -102.1608      24.7791 1533222542 9999999.9999
     417.0    1375.9785       0.0000      -8.6658      80.1317     -10.8450     -98.8903      -8.5366    -103.1047      31.2889 1533222543 9999999.9999
     418.0    1370.6140       0.0000       0.0606      77.0596      -2.2493     -98.7297       0.0591    -102.9406      37.3877 1533222544 9999999.9999
     419.0    1375.9785       0.0000       8.5193      81.0035       6.1053     -98.1673       8.4137    -102.3660      43.4895 1533222545 9999999.9999
     420.0    1378.6765       0.0000      15.5357      96.7766      13.5362     -96.6812      15.8446    -100.8475      49.5913 1533222546 9999999.9999
     421.0    1378.6765       0.0000      21.2703    -999.2500      20.4047     -93.2268      22.7131     -97.3182      55.6962 1533222547 9999999.9999
     422.0    1389.5751       0.0000      26.3996    -999.2500      27.4338     -88.0052      29.7422     -91.9830      61.7980 1533222548 9999999.9999
     423.0    1397.8628       0.0000      30.9750    -999.2500      34.4228     -81.2572      36.7312     -85.0884      67.8998 1533222549 9999999.9999
