~VERSION INFORMATION
VERS.           2.0   :CWLS Log ASCII Standard - VERSION 2.0
WRAP.           NO    :One Line per depth step
PROD.  Schlumberger   :LAS Producer
PROG.  DLIS to ASCII 19C2-270                          :LAS Program name and version
CREA.        2018/08/03 10:59                          :LAS Creation date {YYYY/MM/DD hh:mm}
DLIS_CREA.  2018-Aug-03 08:37                          :DLIS Creation date and time {YYYY-MMM-DD hh:mm}
SOURCE.     PERFO_Perfo_060PTP.DLIS                    :DLIS File Name
FILE-ID.     PERFO_Perfo_060PTP                        :File Identification Number
#--------------------------------------------------
~WELL INFORMATION
#MNEM.UNIT      DATA             DESCRIPTION
#---- ------ --------------   -----------------------------
STRT .S            0.0       :START TIME      
STOP .S         1390.0       :STOP TIME      
STEP .S            1.0       :STEP     
NULL .          -999.25      :NULL VALUE
COMP .        SHELL INTERNATIONAL EP                   :COMPANY
WELL .        WPP TEST 4                               :WELL
FLD  .        WILDCAT                                  :FIELD
LOC  .        NA                                       :LOCATION
CNTY .        HARRIS                                   :COUNTY
STAT .        TEXAS                                    :STATE
CTRY .                                                 :COUNTRY
API  .        NA                                       :API NUMBER
UWI  .                                                 :UNIQUE WELL ID
DATE .        02-Aug-2018                              :LOG DATE {DD-MMM-YYYY}
SRVC .        Schlumberger                             :SERVICE COMPANY
LATI .DEG                                              :LATITUDE
LONG .DEG                                              :LONGITUDE
GDAT .                                                 :GeoDetic Datum
SECT .        NA                                       :Section
RANG .        NA                                       :Range
TOWN .        NA                                       :Township
#-----------------------------------------------------------------------------
~PARAMETER INFORMATION
#MNEM.UNIT    VALUE                      DESCRIPTION
#---- -----   --------------------       ------------------------
U-PHASE_B_COMP_PER_YT.                 0 :Phase B Comparator Period Yt
U-PHASE_A_COMP_PER_XT.                 0 :Phase A Comparator Period Xt
U-MAX_EXC_CUR_LIMIT.MA       265.00000   :Requested CM Current Limit
U-REQ_EXC_FQ.HZ              50          :Requested CM Frequency
U-TILT_Y_OFFSET.          -2.06578       :WPTET Tilt Y Offset
U-TILT_Y_GAIN.           1.02173         :WPTET Tilt Y Gain
U-TILT_X_OFFSET.           2.30841       :WPTET Tilt X Offset
U-TILT_X_GAIN.           1.00000         :WPTET Tilt X Gain
U-TILT_OFFSET_TOL.           0.00100     :WPTET Tilt Offset Calibration Tolerance
U-MOT_CUR_LIMIT_REQ.MA        70.00000   :Requested Motor Current Limit
U-MOT_SPD_REQ_WPMS.RPM        1.00000    :Requested Motor Speed
U-STD_TOL_TILT.           0.01000        :Tilt Standard Deviation Tolerance
CWEI .LB/F      29.00000                 :Casing Weight
CSIZ .IN         7.00000                 :Current Casing Size
LCC  .               440                 :Logging Company Code
LUN  .              2134                 :Logging Unit Number
HIDE .                                   :Header Identifier
HID1 .                                   :Header Identifier Line 1
R1   .                                   :Remark Line 1
WITN .        MR. KELLEY McCOY           :Witness's Name
ENGI .        MORRIS MOORE               :Engineer's Name
LUL  .        IOWA COLONY                :Logging Unit Location
DATE .        02-Aug-2018                :Date as Month-Day-Year
STAT .        TEXAS                      :State or Province
COUN .        HARRIS                     :County or Rig Name
FN   .        WILDCAT                    :Field Name
WN   .        WPP TEST 4                 :Well Name
CN   .        SHELL INTERNATIONAL EP     :Company Name
CLAB .        County                     :County/Rig Label
SLAB .        State                      :State/Province Label
RUN  .          1                        :RUN NUMBER
PDAT .        GROUND LEVEL               :Permanent Datum
EPD  .                                   :Elevation of Permanent Datum above Mean Sea Level
LMF  .          NA                       :Logging Measured From (Name of Logging Elevation Reference)
APD  .                                   :Elevation of Depth Reference (LMF) above Permanent Datum
#-----------------------------------------------------------------------------
~CURVE INFORMATION
#MNEM.UNIT   API CODE                                  DESCRIPTION
#---- -----  --------                                  -----------------------
TIME .S                                                :TIME {F10.1}
FREQ_EMF_SL.HZ                                         :Electromagnetic Field Frequency {F13.4}
PH_SH_WPPCM_SL.DEG                                     :WPPCM Phase Shift {F13.4}
RB_SL.DEG                                              :Relative Bearing {F13.4}
SDEV_SL.DEG                                            :Sonde Deviation {F13.4}
RTIX_SL.DEG                                            :Raw X-axis Tilt {F13.4}
RTIY_SL.DEG                                            :Raw Y-axis Tilt {F13.4}
TILX_SL.DEG                                            :X-axis Tilt {F13.4}
TILY_SL.DEG                                            :Y-axis Tilt {F13.4}
ROTA_SL.DEG                                            :Motor Rotation Angle {F13.4}
TOD7 .S                                                :Time of Day {I11}
TOJ  .S                                                :Time of Job {F13.4}
#-----------------------------------------------------------------------------
# 
#     TIME    FREQ_EMF_SL  PH_SH_WPPCM_    RB_SL       SDEV_SL      RTIX_SL      RTIY_SL      TILX_SL      TILY_SL      ROTA_SL        TOD7            TOJ
#                          SL
~A  
# ...
     159.0    1370.6140       0.0000    -129.6062    -999.2500     -71.4163      51.5740     -69.1079      50.6288     248.2222 1533222285 9999999.9999
     160.0    1365.2913       0.0000    -125.3778    -999.2500     -80.0522      45.0268     -77.7438      43.9394     254.3241 1533222286 9999999.9999
     161.0    1362.6454       0.0000    -121.0100    -999.2500     -87.5232      38.0378     -85.2148      36.7985     260.4259 1533222287 9999999.9999
     162.0    1360.0098       0.0000    -115.9946    -999.2500     -94.2712      30.5668     -91.9628      29.1652     266.5277 1533222288 9999999.9999
     163.0    1370.6140       0.0000    -110.1444    -999.2500     -99.8142      22.8950     -97.5058      21.3267     273.0375 1533222289 9999999.9999
     164.0    1365.2913       0.0000    -103.0981    -999.2500    -103.3488      14.9420    -101.0404      13.2009     279.1393 1533222290 9999999.9999
     165.0    1362.6454       0.0000     -95.0018      79.0733    -104.3128       6.8283    -102.0044       4.9109     285.2411 1533222291 9999999.9999
     166.0    1365.2913       0.0000     -86.5109      78.5907    -104.2325      -1.3255    -101.9241      -3.4201     291.3560 1533222292 9999999.9999
     167.0    1373.2910       0.0000     -78.1862      87.1365    -103.6702      -9.5597    -101.3618     -11.8332     297.4710 1533222293 9999999.9999
     168.0    1367.9475       0.0000     -71.1214    -999.2500    -101.0593     -17.3118     -98.7509     -19.7538     303.5728 1533222294 9999999.9999
     169.0    1367.9475       0.0000     -64.7749    -999.2500     -95.9582     -25.4255     -93.6497     -28.0437     309.6746 1533222295 9999999.9999
     170.0    1373.2910       0.0000     -59.6752    -999.2500     -89.8127     -32.9768     -87.5042     -35.7591     315.7772 1533222296 9999999.9999
     171.0    1378.6765       0.0000     -55.4170    -999.2500     -82.6630     -39.8855     -80.3546     -42.8179     321.8790 1533222297 9999999.9999
     172.0    1375.9785       0.0000     -51.2575    -999.2500     -74.3485     -46.6737     -72.0401     -49.7535     327.9808 1533222298 9999999.9999
     173.0    1378.6765       0.0000     -46.5152    -999.2500     -63.7847     -53.2208     -61.4763     -56.4430     334.0826 1533222299 9999999.9999
     174.0    1384.1044       0.0000     -37.6219    -999.2500     -50.3690     -71.2155     -48.0606     -74.8286     340.1844 1533222300 9999999.9999
     175.0    1384.1044       0.0000     -33.4195    -999.2500     -43.3398     -80.3735     -41.0314     -84.1856     346.6943 1533222301 9999999.9999
     176.0    1381.3850       0.0000     -29.1475    -999.2500     -36.1902     -87.5633     -33.8818     -91.5316     352.7961 1533222302 9999999.9999
     177.0    1389.5751       0.0000     -24.5367    -999.2500     -29.2413     -93.0662     -26.9329     -97.1540     358.8979 1533222303 9999999.9999
     178.0    1395.0892       0.0000     -19.1205    -999.2500     -22.2122     -96.7213     -19.9038    -100.8886       4.9997 1533222304 9999999.9999
     179.0    1392.3268       0.0000     -12.5197      88.1514     -14.8215     -98.4485     -12.5131    -102.6533      11.0892 1533222305 9999999.9999
     180.0    1395.0892       0.0000      -4.5457      77.6084      -6.7480     -98.9707      -4.4396    -103.1868      17.1910 1533222306 9999999.9999
     181.0    1403.4431       0.0000       4.7821      78.0499       2.3698     -98.6493       4.6782    -102.8585      23.2928 1533222307 9999999.9999
     182.0    1403.4431       0.0000      12.5162      87.9639      10.2425     -97.6050      12.5509    -101.7915      29.3946 1533222308 9999999.9999
     183.0    1406.2500       0.0000      18.6046    -999.2500      17.1110     -94.8737      19.4194     -99.0008      35.4964 1533222309 9999999.9999
     184.0    1403.4431       0.0000      24.0758    -999.2500      24.1402     -90.5357      26.4486     -94.5685      41.5982 1533222310 9999999.9999
     185.0    1411.8976       0.0000      28.6812    -999.2500      30.8480     -84.8320      33.1564     -88.7409      47.7001 1533222311 9999999.9999
     186.0    1411.8976       0.0000      32.9044    -999.2500      37.5157     -78.0438      39.8241     -81.8053      53.8019 1533222312 9999999.9999
     187.0    1409.0682       0.0000      37.1308    -999.2500      44.0628     -69.3678      46.3712     -72.9408      60.3117 1533222313 9999999.9999
     188.0    1409.0682       0.0000      42.2778    -999.2500      49.8870     -57.0367      52.1954     -60.3417      66.4135 1533222314 9999999.9999
     189.0    1417.5908       0.0000      52.0326    -999.2500      72.3402     -45.7498      74.6486     -48.8096      72.5284 1533222315 9999999.9999
     190.0    1414.7384       0.0000      55.8751    -999.2500      80.8153     -39.3633      83.1237     -42.2844      78.6208 1533222316 9999999.9999
     191.0    1411.8976       0.0000      59.8982    -999.2500      87.8847     -32.6555      90.1931     -35.4308      84.7196 1533222317 9999999.9999
     192.0    1414.7384       0.0000      64.3582    -999.2500      93.3072     -25.9075      95.6156     -28.5362      90.8214 1533222318 9999999.9999
     193.0    1411.8976       0.0000      70.1098    -999.2500      97.2435     -18.4365      99.5519     -20.9029      96.9109 1533222319 9999999.9999
     194.0    1411.8976       0.0000      76.6779    -999.2500      98.8502     -11.1262     101.1586     -13.4337     103.0126 1533222320 9999999.9999
     195.0    1409.0682       0.0000      85.1399      79.2330      99.4928      -2.6510     101.8012      -4.7744     109.1144 1533222321 9999999.9999
     196.0    1411.8976       0.0000      94.0076      78.4220      99.9347       5.8643     102.2431       3.9260     115.2162 1533222322 9999999.9999
     197.0    1411.8976       0.0000     101.9784      88.2670      98.9305      13.7772     101.2389      12.0107     121.3311 1533222323 9999999.9999
     198.0    1411.8976       0.0000     108.8206    -999.2500      95.6770      21.3285      97.9854      19.7261     127.4205 1533222324 9999999.9999
     199.0    1403.4431       0.0000     114.7715    -999.2500      90.6562      28.8798      92.9646      27.4415     133.9304 1533222325 9999999.9999
     200.0    1409.0682       0.0000     119.9036    -999.2500      84.2295      36.3107      86.5379      35.0338     140.0323 1533222326 9999999.9999
     201.0    1403.4431       0.0000     124.4807    -999.2500      76.6380      43.5005      78.9464      42.3799     146.1342 1533222327 9999999.9999
     202.0    1397.8628       0.0000     129.1094    -999.2500      67.3997      50.6502      69.7081      49.6849     152.2237 1533222328 9999999.9999
     203.0    1392.3268       0.0000     137.5232    -999.2500      53.6225      65.4315      55.9309      64.7874     158.3256 1533222329 9999999.9999
     204.0    1395.0892       0.0000     141.9424    -999.2500      46.9147      75.7142      49.2231      75.2934     164.4151 1533222330 9999999.9999
     205.0    1386.8344       0.0000     146.0699    -999.2500      39.6847      84.2295      41.9931      83.9938     170.4925 1533222331 9999999.9999
     206.0    1386.8344       0.0000     150.2283    -999.2500      32.5752      91.3390      34.8836      91.2578     176.5944 1533222332 9999999.9999
     207.0    1384.1044       0.0000     155.1191    -999.2500      25.0640      97.4845      27.3724      97.5368     182.6839 1533222333 9999999.9999
     208.0    1384.1044       0.0000     161.0738    -999.2500      17.2717     102.0635      19.5801     102.2153     188.7858 1533222334 9999999.9999
     209.0    1384.1044       0.0000     168.0970      82.0767       9.4793     104.0718      11.7877     104.2672     194.8754 1533222335 9999999.9999
     210.0    1375.9785       0.0000     176.4138      75.5885       1.1648     104.6342       3.4732     104.8418     200.9773 1533222336 9999999.9999
     211.0    1375.9785       0.0000    -175.0495      75.9035      -7.1095     104.7145      -4.8011     104.9239     207.4872 1533222337 9999999.9999
