~VERSION INFORMATION
VERS.           2.0   :CWLS Log ASCII Standard - VERSION 2.0
WRAP.           NO    :One Line per depth step
PROD.  Schlumberger   :LAS Producer
PROG.  DLIS to ASCII 19C2-270                          :LAS Program name and version
CREA.        2018/08/03 10:59                          :LAS Creation date {YYYY/MM/DD hh:mm}
DLIS_CREA.  2018-Aug-03 09:50                          :DLIS Creation date and time {YYYY-MMM-DD hh:mm}
SOURCE.     PERFO_Perfo_088PTP.DLIS                    :DLIS File Name
FILE-ID.     PERFO_Perfo_088PTP                        :File Identification Number
#--------------------------------------------------
~WELL INFORMATION
#MNEM.UNIT      DATA             DESCRIPTION
#---- ------ --------------   -----------------------------
STRT .S            0.0       :START TIME      
STOP .S          526.0       :STOP TIME      
STEP .S            1.0       :STEP     
NULL .          -999.25      :NULL VALUE
COMP .        SHELL INTERNATIONAL EP                   :COMPANY
WELL .        WPP TEST 4                               :WELL
FLD  .        WILDCAT                                  :FIELD
LOC  .        NA                                       :LOCATION
CNTY .        HARRIS                                   :COUNTY
STAT .        TEXAS                                    :STATE
CTRY .                                                 :COUNTRY
API  .        NA                                       :API NUMBER
UWI  .                                                 :UNIQUE WELL ID
DATE .        02-Aug-2018                              :LOG DATE {DD-MMM-YYYY}
SRVC .        Schlumberger                             :SERVICE COMPANY
LATI .DEG                                              :LATITUDE
LONG .DEG                                              :LONGITUDE
GDAT .                                                 :GeoDetic Datum
SECT .        NA                                       :Section
RANG .        NA                                       :Range
TOWN .        NA                                       :Township
#-----------------------------------------------------------------------------
~PARAMETER INFORMATION
#MNEM.UNIT    VALUE                      DESCRIPTION
#---- -----   --------------------       ------------------------
U-PHASE_B_COMP_PER_YT.                 0 :Phase B Comparator Period Yt
U-PHASE_A_COMP_PER_XT.                 0 :Phase A Comparator Period Xt
U-MAX_EXC_CUR_LIMIT.MA       265.00000   :Requested CM Current Limit
U-REQ_EXC_FQ.HZ              50          :Requested CM Frequency
U-TILT_Y_OFFSET.          -2.06578       :WPTET Tilt Y Offset
U-TILT_Y_GAIN.           1.02173         :WPTET Tilt Y Gain
U-TILT_X_OFFSET.           2.30841       :WPTET Tilt X Offset
U-TILT_X_GAIN.           1.00000         :WPTET Tilt X Gain
U-TILT_OFFSET_TOL.           0.00100     :WPTET Tilt Offset Calibration Tolerance
U-MOT_CUR_LIMIT_REQ.MA        70.00000   :Requested Motor Current Limit
U-MOT_SPD_REQ_WPMS.RPM        1.00000    :Requested Motor Speed
U-STD_TOL_TILT.           0.01000        :Tilt Standard Deviation Tolerance
CWEI .LB/F      29.00000                 :Casing Weight
CSIZ .IN         7.00000                 :Current Casing Size
LCC  .               440                 :Logging Company Code
LUN  .              2134                 :Logging Unit Number
HIDE .                                   :Header Identifier
HID1 .                                   :Header Identifier Line 1
R1   .                                   :Remark Line 1
WITN .        MR. KELLY McCOY            :Witness's Name
ENGI .        MORRIS MOORE               :Engineer's Name
LUL  .        IOWA COLONY                :Logging Unit Location
DATE .        02-Aug-2018                :Date as Month-Day-Year
STAT .        TEXAS                      :State or Province
COUN .        HARRIS                     :County or Rig Name
FN   .        WILDCAT                    :Field Name
WN   .        WPP TEST 4                 :Well Name
CN   .        SHELL INTERNATIONAL EP     :Company Name
CLAB .        County                     :County/Rig Label
SLAB .        State                      :State/Province Label
RUN  .          1                        :RUN NUMBER
PDAT .        GROUND LEVEL               :Permanent Datum
EPD  .                                   :Elevation of Permanent Datum above Mean Sea Level
LMF  .          NA                       :Logging Measured From (Name of Logging Elevation Reference)
APD  .                                   :Elevation of Depth Reference (LMF) above Permanent Datum
#-----------------------------------------------------------------------------
~CURVE INFORMATION
#MNEM.UNIT   API CODE                                  DESCRIPTION
#---- -----  --------                                  -----------------------
TIME .S                                                :TIME {F10.1}
FREQ_EMF_SL.HZ                                         :Electromagnetic Field Frequency {F13.4}
PH_SH_WPPCM_SL.DEG                                     :WPPCM Phase Shift {F13.4}
RB_SL.DEG                                              :Relative Bearing {F13.4}
SDEV_SL.DEG                                            :Sonde Deviation {F13.4}
RTIX_SL.DEG                                            :Raw X-axis Tilt {F13.4}
RTIY_SL.DEG                                            :Raw Y-axis Tilt {F13.4}
TILX_SL.DEG                                            :X-axis Tilt {F13.4}
TILY_SL.DEG                                            :Y-axis Tilt {F13.4}
ROTA_SL.DEG                                            :Motor Rotation Angle {F13.4}
TOD7 .S                                                :Time of Day {I11}
TOJ  .S                                                :Time of Job {F13.4}
#-----------------------------------------------------------------------------
# 
#     TIME    FREQ_EMF_SL  PH_SH_WPPCM_    RB_SL       SDEV_SL      RTIX_SL      RTIY_SL      TILX_SL      TILY_SL      ROTA_SL        TOD7            TOJ
#                          SL
~A  
# ...
     212.0       0.0000       0.0000      43.1934    -999.2500      52.2970     -56.9563      54.6054     -60.2596      76.6639 1533250476 9999999.9999
     213.0       0.0000       0.0000      51.6692    -999.2500      74.6297     -47.2762      76.9381     -50.3691      82.7565 1533250477 9999999.9999
     214.0       0.0000       0.0000      55.4021    -999.2500      83.0245     -40.4880      85.3329     -43.4335      88.8491 1533250478 9999999.9999
     215.0       0.0000       0.0000      59.4783    -999.2500      90.1340     -33.2982      92.4424     -36.0874      94.9739 1533250479 9999999.9999
     216.0       0.0000       0.0000      63.9040    -999.2500      96.0385     -26.3493      98.3469     -28.9876     101.0726 1533250480 9999999.9999
     217.0       0.0000       0.0000      69.9236    -999.2500     100.2158     -18.4365     102.5242     -20.9029     107.1775 1533250481 9999999.9999
     218.0       0.0000       0.0000      76.6490      85.5813     101.7422     -11.0057     104.0506     -13.3106     113.2701 1533250482 9999999.9999
     219.0       0.0000       0.0000      85.2954      76.2345     102.2242      -2.4502     104.5326      -4.5692     119.3688 1533250483 9999999.9999
     220.0       0.0000       0.0000      94.3879      75.8371     102.5053       6.1857     104.8137       4.2543     125.4491 1533250484 9999999.9999
     221.0       0.0000       0.0000     102.4872      84.1510     101.4610      14.1788     103.7694      12.4211     131.5426 1533250485 9999999.9999
     222.0       0.0000       0.0000     109.5548    -999.2500      97.8460      22.0515     100.1544      20.4648     137.6414 1533250486 9999999.9999
     223.0       0.0000       0.0000     115.5882    -999.2500      92.3432      29.9242      94.6516      28.5086     144.1452 1533250487 9999999.9999
     224.0       0.0000       0.0000     120.6446    -999.2500      85.7157      37.5558      88.0241      36.3060     150.2440 1533250488 9999999.9999
     225.0       0.0000       0.0000     125.0958    -999.2500      77.8430      44.9063      80.1514      43.8162     156.3428 1533250489 9999999.9999
     226.0       0.0000       0.0000     129.5772    -999.2500      68.3235      52.1765      70.6319      51.2444     162.4294 1533250490 9999999.9999
     227.0       0.0000       0.0000     137.4408    -999.2500      54.6668      66.5562      56.9752      65.9365     168.5282 1533250491 9999999.9999
     228.0       0.0000       0.0000     141.6484    -999.2500      47.9590      76.7987      50.2674      76.4015     174.6270 1533250492 9999999.9999
     229.0       0.0000       0.0000     145.5885    -999.2500      40.7290      85.2839      43.0374      85.0711     180.7259 1533250493 9999999.9999
     230.0       0.0000       0.0000     149.8354    -999.2500      33.1777      92.8252      35.4861      92.7762     186.8378 1533250494 9999999.9999
     231.0       0.0000       0.0000     154.9380    -999.2500      25.1845      99.0912      27.4929      99.1784     192.9427 1533250495 9999999.9999
     232.0       0.0000       0.0000     160.9855    -999.2500      17.2315     103.7505      19.5399     103.9389     199.0477 1533250496 9999999.9999
     233.0       0.0000       0.0000     168.1794      78.6677       9.2785     106.0802      11.5869     106.3192     205.1342 1533250497 9999999.9999
     234.0       0.0000       0.0000     176.5889      73.6121       0.9640     106.4818       3.2724     106.7296     211.2208 1533250498 9999999.9999
     235.0       0.0000       0.0000    -174.7554      74.0481      -7.3505     106.5220      -5.0421     106.7706     217.7307 1533250499 9999999.9999
     236.0       0.0000       0.0000    -166.7099      84.8785     -15.5445     104.0317     -13.2361     104.2262     223.8357 1533250500 9999999.9999
     237.0       0.0000       0.0000    -160.0288    -999.2500     -23.3368      99.0108     -21.0284      99.0963     229.9222 1533250501 9999999.9999
     238.0       0.0000       0.0000    -153.5894    -999.2500     -32.0530      92.6243     -29.7446      92.5710     236.0278 1533250502 9999999.9999
     239.0       0.0000       0.0000    -148.5323    -999.2500     -39.8855      85.3542     -37.5771      85.1429     242.1203 1533250503 9999999.9999
     240.0       0.0000       0.0000    -144.0587    -999.2500     -47.2360      77.3208     -44.9276      76.9350     248.2191 1533250504 9999999.9999
     241.0       0.0000       0.0000    -139.3089    -999.2500     -54.5865      67.5101     -52.2781      66.9111     254.3310 1533250505 9999999.9999
     242.0       0.0000       0.0000    -131.5692    -999.2500     -68.4440      55.0685     -66.1356      54.1992     260.4358 1533250506 9999999.9999
     243.0       0.0000       0.0000    -127.2481    -999.2500     -77.6020      48.3607     -75.2936      47.3456     266.5283 1533250507 9999999.9999
     244.0       0.0000       0.0000    -123.0673    -999.2500     -85.5952      41.4520     -83.2868      40.2869     272.6269 1533250508 9999999.9999
     245.0       0.0000       0.0000    -118.4039    -999.2500     -92.8252      34.0613     -90.5168      32.7356     278.7518 1533250509 9999999.9999
     246.0       0.0000       0.0000    -112.8794    -999.2500     -99.0912      26.2690     -96.7828      24.7740     284.8565 1533250510 9999999.9999
     247.0       0.0000       0.0000    -106.2242    -999.2500    -103.8308      18.2357    -101.5224      16.5661     290.9629 1533250511 9999999.9999
     248.0       0.0000       0.0000     -98.7192      79.1944    -106.1605      10.4032    -103.8521       8.5634     297.4664 1533250512 9999999.9999
     249.0       0.0000       0.0000     -89.9435      75.9070    -106.4015       1.9682    -104.0931      -0.0549     303.5650 1533250513 9999999.9999
     250.0       0.0000       0.0000     -81.2942      79.1837    -106.1605      -6.3463    -103.8521      -8.5500     309.6759 1533250514 9999999.9999
     251.0       0.0000       0.0000     -73.6429      91.0035    -104.4333     -14.2993    -102.1249     -16.6758     315.7621 1533250515 9999999.9999
     252.0       0.0000       0.0000     -66.9516    -999.2500    -100.2158     -22.3728     -97.9074     -24.9247     321.8870 1533250516 9999999.9999
     253.0       0.0000       0.0000     -61.4059    -999.2500     -94.2310     -30.2857     -91.9226     -33.0095     328.0054 1533250517 9999999.9999
     254.0       0.0000       0.0000     -56.5035    -999.2500     -86.9608     -38.3190     -84.6524     -41.2173     334.1232 1533250518 9999999.9999
     255.0       0.0000       0.0000     -52.4223    -999.2500     -79.1283     -45.4687     -76.8199     -48.5224     340.2218 1533250519 9999999.9999
     256.0       0.0000       0.0000     -48.2865    -999.2500     -69.7695     -52.2167     -67.4611     -55.4170     346.3335 1533250520 9999999.9999
     257.0       0.0000       0.0000     -39.8441    -999.2500     -54.5865     -67.8817     -52.2781     -71.4223     352.4382 1533250521 9999999.9999
     258.0       0.0000       0.0000     -35.7375    -999.2500     -47.7180     -78.0037     -45.4096     -81.7642     358.5562 1533250522 9999999.9999
     259.0       0.0000       0.0000     -31.6988    -999.2500     -40.4478     -86.3182     -38.1394     -90.2594       4.6427 1533250523 9999999.9999
     260.0       0.0000       0.0000     -27.2786    -999.2500     -33.0973     -92.8653     -30.7889     -96.9488      11.1655 1533250524 9999999.9999
     261.0       0.0000       0.0000     -21.9791    -999.2500     -25.5460     -97.9665     -23.2376    -102.1608      17.2710 1533250525 9999999.9999
     262.0       0.0000       0.0000     -15.7254      84.0331     -18.0750    -100.9388     -15.7666    -105.1977      23.3698 1533250526 9999999.9999
     263.0       0.0000       0.0000      -8.0945      76.0353     -10.1622    -101.8225      -7.8538    -106.1006      29.4693 1533250527 9999999.9999
     264.0       0.0000       0.0000       0.9387      74.0494      -1.4058    -101.7020       0.9026    -105.9775      35.5619 1533250528 9999999.9999
