~VERSION INFORMATION
VERS.           2.0   :CWLS Log ASCII Standard - VERSION 2.0
WRAP.           NO    :One Line per depth step
PROD.  Schlumberger   :LAS Producer
PROG.  DLIS to ASCII 19C2-270                          :LAS Program name and version
CREA.        2018/08/03 10:59                          :LAS Creation date {YYYY/MM/DD hh:mm}
DLIS_CREA.  2018-Aug-03 08:37                          :DLIS Creation date and time {YYYY-MMM-DD hh:mm}
SOURCE.     PERFO_Perfo_060PTP.DLIS                    :DLIS File Name
FILE-ID.     PERFO_Perfo_060PTP                        :File Identification Number
#--------------------------------------------------
~WELL INFORMATION
#MNEM.UNIT      DATA             DESCRIPTION
#---- ------ --------------   -----------------------------
STRT .S            0.0       :START TIME      
STOP .S         1390.0       :STOP TIME      
STEP .S            1.0       :STEP     
NULL .          -999.25      :NULL VALUE
COMP .        SHELL INTERNATIONAL EP                   :COMPANY
WELL .        WPP TEST 4                               :WELL
FLD  .        WILDCAT                                  :FIELD
LOC  .        NA                                       :LOCATION
CNTY .        HARRIS                                   :COUNTY
STAT .        TEXAS                                    :STATE
CTRY .                                                 :COUNTRY
API  .        NA                                       :API NUMBER
UWI  .                                                 :UNIQUE WELL ID
DATE .        02-Aug-2018                              :LOG DATE {DD-MMM-YYYY}
SRVC .        Schlumberger                             :SERVICE COMPANY
LATI .DEG                                              :LATITUDE
LONG .DEG                                              :LONGITUDE
GDAT .                                                 :GeoDetic Datum
SECT .        NA                                       :Section
RANG .        NA                                       :Range
TOWN .        NA                                       :Township
#-----------------------------------------------------------------------------
~PARAMETER INFORMATION
#MNEM.UNIT    VALUE                      DESCRIPTION
#---- -----   --------------------       ------------------------
U-PHASE_B_COMP_PER_YT.                 0 :Phase B Comparator Period Yt
U-PHASE_A_COMP_PER_XT.                 0 :Phase A Comparator Period Xt
U-MAX_EXC_CUR_LIMIT.MA       265.00000   :Requested CM Current Limit
U-REQ_EXC_FQ.HZ              50          :Requested CM Frequency
U-TILT_Y_OFFSET.          -2.06578       :WPTET Tilt Y Offset
U-TILT_Y_GAIN.           1.02173         :WPTET Tilt Y Gain
U-TILT_X_OFFSET.           2.30841       :WPTET Tilt X Offset
U-TILT_X_GAIN.           1.00000         :WPTET Tilt X Gain
U-TILT_OFFSET_TOL.           0.00100     :WPTET Tilt Offset Calibration Tolerance
U-MOT_CUR_LIMIT_REQ.MA        70.00000   :Requested Motor Current Limit
U-MOT_SPD_REQ_WPMS.RPM        1.00000    :Requested Motor Speed
U-STD_TOL_TILT.           0.01000        :Tilt Standard Deviation Tolerance
CWEI .LB/F      29.00000                 :Casing Weight
CSIZ .IN         7.00000                 :Current Casing Size
LCC  .               440                 :Logging Company Code
LUN  .              2134                 :Logging Unit Number
HIDE .                                   :Header Identifier
HID1 .                                   :Header Identifier Line 1
R1   .                                   :Remark Line 1
WITN .        MR. KELLEY McCOY           :Witness's Name
ENGI .        MORRIS MOORE               :Engineer's Name
LUL  .        IOWA COLONY                :Logging Unit Location
DATE .        02-Aug-2018                :Date as Month-Day-Year
STAT .        TEXAS                      :State or Province
COUN .        HARRIS                     :County or Rig Name
FN   .        WILDCAT                    :Field Name
WN   .        WPP TEST 4                 :Well Name
CN   .        SHELL INTERNATIONAL EP     :Company Name
CLAB .        County                     :County/Rig Label
SLAB .        State                      :State/Province Label
RUN  .          1                        :RUN NUMBER
PDAT .        GROUND LEVEL               :Permanent Datum
EPD  .                                   :Elevation of Permanent Datum above Mean Sea Level
LMF  .          NA                       :Logging Measured From (Name of Logging Elevation Reference)
APD  .                                   :Elevation of Depth Reference (LMF) above Permanent Datum
#-----------------------------------------------------------------------------
~CURVE INFORMATION
#MNEM.UNIT   API CODE                                  DESCRIPTION
#---- -----  --------                                  -----------------------
TIME .S                                                :TIME {F10.1}
FREQ_EMF_SL.HZ                                         :Electromagnetic Field Frequency {F13.4}
PH_SH_WPPCM_SL.DEG                                     :WPPCM Phase Shift {F13.4}
RB_SL.DEG                                              :Relative Bearing {F13.4}
SDEV_SL.DEG                                            :Sonde Deviation {F13.4}
RTIX_SL.DEG                                            :Raw X-axis Tilt {F13.4}
RTIY_SL.DEG                                            :Raw Y-axis Tilt {F13.4}
TILX_SL.DEG                                            :X-axis Tilt {F13.4}
TILY_SL.DEG                                            :Y-axis Tilt {F13.4}
ROTA_SL.DEG                                            :Motor Rotation Angle {F13.4}
TOD7 .S                                                :Time of Day {I11}
TOJ  .S                                                :Time of Job {F13.4}
#-----------------------------------------------------------------------------
# 
#     TIME    FREQ_EMF_SL  PH_SH_WPPCM_    RB_SL       SDEV_SL      RTIX_SL      RTIY_SL      TILX_SL      TILY_SL      ROTA_SL        TOD7            TOJ
#                          SL
~A  
# ...
    1325.0    1400.6475       0.0000    -147.2857    -999.2500     -41.7332      81.6588     -39.4248      81.3673     196.1943 1533223451 9999999.9999
    1326.0    1406.2500       0.0000    -142.6989    -999.2500     -48.9632      73.1435     -46.6548      72.6669     202.2962 1533223452 9999999.9999
    1327.0    1409.0682       0.0000    -137.4919    -999.2500     -56.1530      62.4592     -53.8446      61.7504     208.4112 1533223453 9999999.9999
    1328.0    1406.2500       0.0000    -129.5927    -999.2500     -71.5770      51.6142     -69.2686      50.6698     214.4884 1533223454 9999999.9999
    1329.0    1405.5472       0.0000    -125.1596    -999.2500     -80.4639      44.6754     -78.1555      43.5803     220.5903 1533223455 9999999.9999
    1330.0    1406.2500       0.0000    -120.5441    -999.2500     -88.2863      37.3148     -85.9779      36.0598     226.6984 1533223456 9999999.9999
    1331.0    1397.8628       0.0000    -115.6573    -999.2500     -95.0343      30.0848     -92.7259      28.6727     232.7941 1533223457 9999999.9999
    1332.0    1400.6475       0.0000    -109.3042    -999.2500    -100.2158      21.8908     -97.9074      20.3007     238.8837 1533223458 9999999.9999
    1333.0    1400.6475       0.0000    -102.3370      86.0938    -103.7103      14.1387    -101.4019      12.3801     244.9855 1533223459 9999999.9999
    1334.0    1400.6475       0.0000     -94.0898      78.5332    -104.4735       5.9447    -102.1651       4.0080     251.0874 1533223460 9999999.9999
    1335.0    1392.3268       0.0000     -85.6349      78.8065    -104.3128      -2.1690    -102.0044      -4.2819     257.6104 1533223461 9999999.9999
    1336.0    1395.0892       0.0000     -77.3304      90.2015    -103.5898     -10.4433    -101.2814     -12.7360     263.7122 1533223462 9999999.9999
    1337.0    1400.6475       0.0000     -70.4417    -999.2500    -100.7380     -18.1152     -98.4296     -20.5745     269.8140 1533223463 9999999.9999
    1338.0    1403.4431       0.0000     -64.4858    -999.2500     -95.6770     -25.8272     -93.3686     -28.4541     275.9158 1533223464 9999999.9999
    1339.0    1397.8628       0.0000     -59.4988    -999.2500     -89.6520     -33.2580     -87.3436     -36.0464     282.0176 1533223465 9999999.9999
    1340.0    1395.0892       0.0000     -55.2220    -999.2500     -82.5425     -40.2470     -80.2341     -43.1872     288.1194 1533223466 9999999.9999
    1341.0    1401.3453       0.0000     -50.9698    -999.2500     -73.8665     -47.1758     -71.5581     -50.2665     294.2213 1533223467 9999999.9999
    1342.0    1397.8628       0.0000     -46.0486    -999.2500     -62.7805     -53.7832     -60.4721     -57.0175     300.3231 1533223468 9999999.9999
    1343.0    1400.6475       0.0000     -37.3396    -999.2500     -49.9272     -71.8983     -47.6188     -75.5263     306.4125 1533223469 9999999.9999
    1344.0    1403.4431       0.0000     -33.2805    -999.2500     -43.0988     -80.6145     -40.7904     -84.4318     312.4896 1533223470 9999999.9999
    1345.0    1400.6475       0.0000     -29.1235    -999.2500     -36.1500     -87.6838     -33.8416     -91.6547     318.5914 1533223471 9999999.9999
    1346.0    1397.8628       0.0000     -24.3429    -999.2500     -28.9602     -93.3875     -26.6518     -97.4823     324.6932 1533223472 9999999.9999
    1347.0    1403.4431       0.0000     -18.9633    -999.2500     -22.0113     -96.9623     -19.7029    -101.1348     330.7950 1533223473 9999999.9999
    1348.0    1406.2500       0.0000     -12.4164      86.4751     -14.7010     -98.6895     -12.3926    -102.8995     337.3048 1533223474 9999999.9999
    1349.0    1406.2500       0.0000      -4.3412      77.5363      -6.5472     -98.9707      -4.2388    -103.1868     343.3943 1533223475 9999999.9999
    1350.0    1403.4431       0.0000       4.6220      77.8119       2.2092     -98.8100       4.5176    -103.0226     349.4961 1533223476 9999999.9999
    1351.0    1395.0892       0.0000      12.2576      85.8614       9.9613     -97.8058      12.2697    -101.9967     355.5979 1533223477 9999999.9999
    1352.0    1403.4431       0.0000      18.6957    -999.2500      17.1913     -95.3155      19.4997     -99.4522       1.6997 1533223478 9999999.9999
    1353.0    1405.5472       0.0000      24.1186    -999.2500      24.1904     -90.7064      26.4988     -94.7430       7.8015 1533223479 9999999.9999
    1354.0    1397.8628       0.0000      28.9140    -999.2500      31.2095     -84.7517      33.5179     -88.6589      13.9034 1533223480 9999999.9999
    1355.0    1403.4431       0.0000      33.0413    -999.2500      37.7567     -77.9635      40.0651     -81.7232      19.9928 1533223481 9999999.9999
    1356.0    1400.6475       0.0000      37.2593    -999.2500      44.3842     -69.4883      46.6926     -73.0639      26.0946 1533223482 9999999.9999
    1357.0    1397.8628       0.0000      42.3704    -999.2500      50.1280     -57.0367      52.4364     -60.3417      32.1964 1533223483 9999999.9999
    1358.0    1400.6475       0.0000      51.9631    -999.2500      72.3402     -45.9105      74.6486     -48.9738      38.2859 1533223484 9999999.9999
    1359.0    1403.4431       0.0000      55.7915    -999.2500      80.8153     -39.5240      83.1237     -42.4485      44.3877 1533223485 9999999.9999
    1360.0    1403.4431       0.0000      59.7486    -999.2500      87.7642     -32.8965      90.0726     -35.6770      50.8975 1533223486 9999999.9999
    1361.0    1397.8628       0.0000      64.2391    -999.2500      93.3473     -26.0682      95.6557     -28.7003      57.0024 1533223487 9999999.9999
    1362.0    1397.8628       0.0000      69.5060    -999.2500      97.0427     -19.1595      99.3511     -21.6416      63.1012 1533223488 9999999.9999
    1363.0    1397.8628       0.0000      75.9056    -999.2500      98.9707     -11.9295     101.2791     -14.2545      69.2029 1533223489 9999999.9999
    1364.0    1400.6475       0.0000      84.2259      79.5062      99.6535      -3.5347     101.9619      -5.6772      75.3178 1533223490 9999999.9999
    1365.0    1400.6475       0.0000      93.0904      78.0231     100.0552       4.9807     102.3636       3.0231      81.4196 1533223491 9999999.9999
    1366.0    1400.6475       0.0000     101.5183      89.7984      99.2117      13.2952     101.5201      11.5183      87.5214 1533223492 9999999.9999
    1367.0    1400.6475       0.0000     108.5928    -999.2500      96.0787      21.0473      98.3871      19.4389      93.6231 1533223493 9999999.9999
    1368.0    1397.8628       0.0000     114.4825    -999.2500      91.2587      28.4782      93.5671      27.0311      99.7249 1533223494 9999999.9999
    1369.0    1395.0892       0.0000     119.5592    -999.2500      84.7918      35.7885      87.1002      34.5003     105.8144 1533223495 9999999.9999
    1370.0    1400.6475       0.0000     124.3079    -999.2500      77.1602      43.2595      79.4686      42.1336     111.9193 1533223496 9999999.9999
    1371.0    1397.8628       0.0000     128.8754    -999.2500      68.0423      50.3690      70.3507      49.3976     118.0211 1533223497 9999999.9999
    1372.0    1397.8628       0.0000     137.6567    -999.2500      53.3413      65.5922      55.6497      64.9515     124.5278 1533223498 9999999.9999
    1373.0    1397.8628       0.0000     141.7388    -999.2500      47.2762      75.3125      49.5846      74.8830     130.6296 1533223499 9999999.9999
    1374.0    1400.6475       0.0000     145.6115    -999.2500      40.5282      83.6672      42.8366      83.4192     136.7315 1533223500 9999999.9999
    1375.0    1400.6475       0.0000     149.7647    -999.2500      33.3383      90.8570      35.6467      90.7653     142.8334 1533223501 9999999.9999
    1376.0    1400.6475       0.0000     154.6358    -999.2500      25.7468      97.1632      28.0552      97.2085     148.9353 1533223502 9999999.9999
    1377.0    1395.0892       0.0000     160.5048    -999.2500      17.9545     101.8225      20.2629     101.9690     155.0372 1533223503 9999999.9999
