~VERSION INFORMATION
VERS.           2.0   :CWLS Log ASCII Standard - VERSION 2.0
WRAP.           NO    :One Line per depth step
PROD.  Schlumberger   :LAS Producer
PROG.  DLIS to ASCII 19C2-270                          :LAS Program name and version
CREA.        2018/08/03 10:59                          :LAS Creation date {YYYY/MM/DD hh:mm}
DLIS_CREA.  2018-Aug-03 09:28                          :DLIS Creation date and time {YYYY-MMM-DD hh:mm}
SOURCE.     PERFO_Perfo_076PTP.DLIS                    :DLIS File Name
FILE-ID.     PERFO_Perfo_076PTP                        :File Identification Number
#--------------------------------------------------
~WELL INFORMATION
#MNEM.UNIT      DATA             DESCRIPTION
#---- ------ --------------   -----------------------------
STRT .S            0.0       :START TIME      
STOP .S         1744.0       :STOP TIME      
STEP .S            1.0       :STEP     
NULL .          -999.25      :NULL VALUE
COMP .        SHELL INTERNATIONAL EP                   :COMPANY
WELL .        WPP TEST 4                               :WELL
FLD  .        WILDCAT                                  :FIELD
LOC  .        NA                                       :LOCATION
CNTY .        HARRIS                                   :COUNTY
STAT .        TEXAS                                    :STATE
CTRY .                                                 :COUNTRY
API  .        NA                                       :API NUMBER
UWI  .                                                 :UNIQUE WELL ID
DATE .        02-Aug-2018                              :LOG DATE {DD-MMM-YYYY}
SRVC .        Schlumberger                             :SERVICE COMPANY
LATI .DEG                                              :LATITUDE
LONG .DEG                                              :LONGITUDE
GDAT .                                                 :GeoDetic Datum
SECT .        NA                                       :Section
RANG .        NA                                       :Range
TOWN .        NA                                       :Township
#-----------------------------------------------------------------------------
~PARAMETER INFORMATION
#MNEM.UNIT    VALUE                      DESCRIPTION
#---- -----   --------------------       ------------------------
U-PHASE_B_COMP_PER_YT.                 0 :Phase B Comparator Period Yt
U-PHASE_A_COMP_PER_XT.                 0 :Phase A Comparator Period Xt
U-MAX_EXC_CUR_LIMIT.MA       265.00000   :Requested CM Current Limit
U-REQ_EXC_FQ.HZ              50          :Requested CM Frequency
U-TILT_Y_OFFSET.          -2.06578       :WPTET Tilt Y Offset
U-TILT_Y_GAIN.           1.02173         :WPTET Tilt Y Gain
U-TILT_X_OFFSET.           2.30841       :WPTET Tilt X Offset
U-TILT_X_GAIN.           1.00000         :WPTET Tilt X Gain
U-TILT_OFFSET_TOL.           0.00100     :WPTET Tilt Offset Calibration Tolerance
U-MOT_CUR_LIMIT_REQ.MA        70.00000   :Requested Motor Current Limit
U-MOT_SPD_REQ_WPMS.RPM        1.00000    :Requested Motor Speed
U-STD_TOL_TILT.           0.01000        :Tilt Standard Deviation Tolerance
CWEI .LB/F      29.00000                 :Casing Weight
CSIZ .IN         7.00000                 :Current Casing Size
LCC  .               440                 :Logging Company Code
LUN  .              2134                 :Logging Unit Number
HIDE .                                   :Header Identifier
HID1 .                                   :Header Identifier Line 1
R1   .                                   :Remark Line 1
WITN .        MR. KELLY McCOY            :Witness's Name
ENGI .        MORRIS MOORE               :Engineer's Name
LUL  .        IOWA COLONY                :Logging Unit Location
DATE .        02-Aug-2018                :Date as Month-Day-Year
STAT .        TEXAS                      :State or Province
COUN .        HARRIS                     :County or Rig Name
FN   .        WILDCAT                    :Field Name
WN   .        WPP TEST 4                 :Well Name
CN   .        SHELL INTERNATIONAL EP     :Company Name
CLAB .        County                     :County/Rig Label
SLAB .        State                      :State/Province Label
RUN  .          1                        :RUN NUMBER
PDAT .        GROUND LEVEL               :Permanent Datum
EPD  .                                   :Elevation of Permanent Datum above Mean Sea Level
LMF  .          NA                       :Logging Measured From (Name of Logging Elevation Reference)
APD  .                                   :Elevation of Depth Reference (LMF) above Permanent Datum
#-----------------------------------------------------------------------------
~CURVE INFORMATION
#MNEM.UNIT   API CODE                                  DESCRIPTION
#---- -----  --------                                  -----------------------
TIME .S                                                :TIME {F10.1}
FREQ_EMF_SL.HZ                                         :Electromagnetic Field Frequency {F13.4}
PH_SH_WPPCM_SL.DEG                                     :WPPCM Phase Shift {F13.4}
RB_SL.DEG                                              :Relative Bearing {F13.4}
SDEV_SL.DEG                                            :Sonde Deviation {F13.4}
RTIX_SL.DEG                                            :Raw X-axis Tilt {F13.4}
RTIY_SL.DEG                                            :Raw Y-axis Tilt {F13.4}
TILX_SL.DEG                                            :X-axis Tilt {F13.4}
TILY_SL.DEG                                            :Y-axis Tilt {F13.4}
ROTA_SL.DEG                                            :Motor Rotation Angle {F13.4}
TOD7 .S                                                :Time of Day {I11}
TOJ  .S                                                :Time of Job {F13.4}
#-----------------------------------------------------------------------------
# 
#     TIME    FREQ_EMF_SL  PH_SH_WPPCM_    RB_SL       SDEV_SL      RTIX_SL      RTIY_SL      TILX_SL      TILY_SL      ROTA_SL        TOD7            TOJ
#                          SL
~A  
# ...
    1590.0       0.0000       0.0000    -110.0093    -999.2500    -101.3003      22.6540     -98.9919      21.0804     322.9896 1533243612 9999999.9999
    1591.0       0.0000       0.0000    -102.8985      84.0218    -104.9153      14.6608    -102.6069      12.9136     329.0943 1533243613 9999999.9999
    1592.0       0.0000       0.0000     -94.7830      77.2421    -105.9195       6.5873    -103.6111       4.6647     335.1991 1533243614 9999999.9999
    1593.0       0.0000       0.0000     -85.5660      77.1610    -105.8793      -2.2092    -103.5709      -4.3229     341.2977 1533243615 9999999.9999
    1594.0       0.0000       0.0000     -77.1434      85.3104    -105.1162     -10.5638    -102.8078     -12.8591     347.3963 1533243616 9999999.9999
    1595.0       0.0000       0.0000     -70.0256    -999.2500    -102.1438     -18.5168     -99.8354     -20.9849     353.5010 1533243617 9999999.9999
    1596.0       0.0000       0.0000     -64.0369    -999.2500     -97.0828     -26.3895     -94.7744     -29.0287     359.6188 1533243618 9999999.9999
    1597.0       0.0000       0.0000     -59.0757    -999.2500     -90.6562     -33.9810     -88.3478     -36.7851       5.7175 1533243619 9999999.9999
    1598.0       0.0000       0.0000     -54.7917    -999.2500     -83.5065     -41.2512     -81.1981     -44.2132      11.8224 1533243620 9999999.9999
    1599.0       0.0000       0.0000     -50.7739    -999.2500     -75.0715     -48.1197     -72.7631     -51.2310      18.3323 1533243621 9999999.9999
    1600.0       0.0000       0.0000     -46.2198    -999.2500     -64.5077     -54.7070     -62.1992     -57.9614      24.4310 1533243622 9999999.9999
    1601.0       0.0000       0.0000     -37.9013    -999.2500     -51.3732     -72.3803     -49.0648     -76.0187      30.5298 1533243623 9999999.9999
    1602.0       0.0000       0.0000     -33.8939    -999.2500     -44.3440     -81.4982     -42.0356     -85.3347      36.6346 1533243624 9999999.9999
    1603.0       0.0000       0.0000     -29.8012    -999.2500     -37.1943     -89.0093     -34.8859     -93.0090      42.7395 1533243625 9999999.9999
    1604.0       0.0000       0.0000     -25.1686    -999.2500     -29.9643     -94.8335     -27.6559     -98.9597      48.8382 1533243626 9999999.9999
    1605.0       0.0000       0.0000     -19.5577    -999.2500     -22.5335     -99.0912     -20.2251    -103.3099      54.9370 1533243627 9999999.9999
    1606.0       0.0000       0.0000     -12.5694      81.6103     -14.7412    -100.8183     -12.4328    -105.0746      61.0486 1533243628 9999999.9999
    1607.0       0.0000       0.0000      -4.2172      75.2576      -6.3865    -101.0593      -4.0781    -105.3208      67.1473 1533243629 9999999.9999
    1608.0       0.0000       0.0000       4.7476      75.5895       2.2895    -100.8987       4.5979    -105.1567      73.2468 1533243630 9999999.9999
    1609.0       0.0000       0.0000      12.5987      83.2788      10.2023    -100.0150      12.5107    -104.2538      79.3517 1533243631 9999999.9999
    1610.0       0.0000       0.0000      19.1641    -999.2500      17.5930     -97.4443      19.9014    -101.6273      85.4441 1533243632 9999999.9999
    1611.0       0.0000       0.0000      24.6706    -999.2500      24.8230     -92.7850      27.1314     -96.8667      91.9477 1533243633 9999999.9999
    1612.0       0.0000       0.0000      29.2170    -999.2500      31.6915     -87.0010      33.9999     -90.9571      98.0526 1533243634 9999999.9999
    1613.0       0.0000       0.0000      33.3257    -999.2500      38.5198     -80.0923      40.8282     -83.8983     104.1513 1533243635 9999999.9999
    1614.0       0.0000       0.0000      37.4715    -999.2500      45.4687     -71.4163      47.7771     -75.0338     110.2694 1533243636 9999999.9999
    1615.0       0.0000       0.0000      42.3438    -999.2500      51.8150     -59.4065      54.1234     -62.7630     116.3681 1533243637 9999999.9999
    1616.0    1548.7335       0.0000      51.3962    -999.2500      73.3042     -47.5573      75.6126     -50.6564     122.3892 1533243638 9999999.9999
    1617.0    1719.1321       0.0000      55.4199    -999.2500      82.4622     -40.4077      84.7706     -43.3514     128.5010 1533243639 9999999.9999
    1618.0    1740.4083       0.0000      59.3648    -999.2500      89.5717     -33.4990      91.8801     -36.2926     134.6060 1533243640 9999999.9999
    1619.0    1749.0671       0.0000      63.9148    -999.2500      95.3155     -26.3895      97.6239     -29.0287     140.7109 1533243641 9999999.9999
    1620.0    1744.7272       0.0000      69.3405    -999.2500      99.2117     -19.1997     101.5201     -21.6826     146.8098 1533243642 9999999.9999
    1621.0    1736.1111       0.0000      75.8811      85.2688     100.9388     -11.8492     103.2472     -14.1724     152.9147 1533243643 9999999.9999
    1622.0    1740.4083       0.0000      84.2647      77.3282     101.5815      -3.4543     103.8899      -5.5952     159.0136 1533243644 9999999.9999
    1623.0    1740.4083       0.0000      93.2826      76.1655     101.9028       5.1413     104.2112       3.1873     165.5173 1533243645 9999999.9999
    1624.0    1736.1111       0.0000     101.4774      83.1797     101.0192      13.1747     103.3276      11.3951     171.6356 1533243646 9999999.9999
    1625.0    1736.1111       0.0000     108.7243      88.8784      98.0067      21.0875     100.3151      19.4799     177.7405 1533243647 9999999.9999
    1626.0    1727.5798       0.0000     114.7683    -999.2500      92.7850      28.7995      95.0934      27.3595     183.8394 1533243648 9999999.9999
    1627.0    1727.5798       0.0000     119.8908    -999.2500      86.3182      36.3508      88.6266      35.0749     189.9443 1533243649 9999999.9999
    1628.0    1727.5798       0.0000     124.5496    -999.2500      78.5660      43.9423      80.8744      42.8313     196.0624 1533243650 9999999.9999
    1629.0    1723.3456       0.0000     129.2675    -999.2500      68.6047      51.5338      70.9131      50.5877     202.1620 1533243651 9999999.9999
    1630.0    1714.9390       0.0000     137.3970    -999.2500      54.5463      66.1947      56.8547      65.5671     208.2608 1533243652 9999999.9999
    1631.0    1706.6141       0.0000     141.5265    -999.2500      48.0393      76.0757      50.3477      75.6628     214.3658 1533243653 9999999.9999
    1632.0    1714.9390       0.0000     145.3368    -999.2500      41.1708      84.5508      43.4792      84.3221     220.4707 1533243654 9999999.9999
    1633.0    1706.6141       0.0000     149.5359    -999.2500      33.6998      91.9013      36.0082      91.8323     226.5696 1533243655 9999999.9999
    1634.0    1702.4818       0.0000     154.3953    -999.2500      25.9878      98.3682      28.2962      98.4397     232.6684 1533243656 9999999.9999
    1635.0    1706.6141       0.0000     160.4372    -999.2500      17.9143     103.2283      20.2227     103.4054     239.1791 1533243657 9999999.9999
    1636.0    1698.3695       0.0000     167.5781      79.9817       9.9212     105.6785      12.2296     105.9088     245.2841 1533243658 9999999.9999
    1637.0    1690.2042       0.0000     176.0087      73.9095       1.5263     106.3212       3.8347     106.5654     251.3960 1533243659 9999999.9999
    1638.0    1690.2042       0.0000    -175.3028      74.2251      -6.8283     106.2007      -4.5199     106.4423     257.5009 1533243660 9999999.9999
    1639.0    1694.2772       0.0000    -167.3279      83.6650     -14.9018     103.9513     -12.5934     104.1441     263.6056 1533243661 9999999.9999
    1640.0    1690.2042       0.0000    -160.0517    -999.2500     -23.2967      99.2117     -20.9883      99.3015     269.7042 1533243662 9999999.9999
    1641.0    1694.2772       0.0000    -153.7038    -999.2500     -31.8923      92.5038     -29.5839      92.4479     275.8028 1533243663 9999999.9999
    1642.0    1690.2042       0.0000    -148.5443    -999.2500     -39.8453      85.0730     -37.5369      84.8556     281.9206 1533243664 9999999.9999
