~VERSION INFORMATION
VERS.           2.0   :CWLS Log ASCII Standard - VERSION 2.0
WRAP.           NO    :One Line per depth step
PROD.  Schlumberger   :LAS Producer
PROG.  DLIS to ASCII 19C2-270                          :LAS Program name and version
CREA.        2018/08/03 10:59                          :LAS Creation date {YYYY/MM/DD hh:mm}
DLIS_CREA.  2018-Aug-03 09:50                          :DLIS Creation date and time {YYYY-MMM-DD hh:mm}
SOURCE.     PERFO_Perfo_088PTP.DLIS                    :DLIS File Name
FILE-ID.     PERFO_Perfo_088PTP                        :File Identification Number
#--------------------------------------------------
~WELL INFORMATION
#MNEM.UNIT      DATA             DESCRIPTION
#---- ------ --------------   -----------------------------
STRT .S            0.0       :START TIME      
STOP .S          526.0       :STOP TIME      
STEP .S            1.0       :STEP     
NULL .          -999.25      :NULL VALUE
COMP .        SHELL INTERNATIONAL EP                   :COMPANY
WELL .        WPP TEST 4                               :WELL
FLD  .        WILDCAT                                  :FIELD
LOC  .        NA                                       :LOCATION
CNTY .        HARRIS                                   :COUNTY
STAT .        TEXAS                                    :STATE
CTRY .                                                 :COUNTRY
API  .        NA                                       :API NUMBER
UWI  .                                                 :UNIQUE WELL ID
DATE .        02-Aug-2018                              :LOG DATE {DD-MMM-YYYY}
SRVC .        Schlumberger                             :SERVICE COMPANY
LATI .DEG                                              :LATITUDE
LONG .DEG                                              :LONGITUDE
GDAT .                                                 :GeoDetic Datum
SECT .        NA                                       :Section
RANG .        NA                                       :Range
TOWN .        NA                                       :Township
#-----------------------------------------------------------------------------
~PARAMETER INFORMATION
#MNEM.UNIT    VALUE                      DESCRIPTION
#---- -----   --------------------       ------------------------
U-PHASE_B_COMP_PER_YT.                 0 :Phase B Comparator Period Yt
U-PHASE_A_COMP_PER_XT.                 0 :Phase A Comparator Period Xt
U-MAX_EXC_CUR_LIMIT.MA       265.00000   :Requested CM Current Limit
U-REQ_EXC_FQ.HZ              50          :Requested CM Frequency
U-TILT_Y_OFFSET.          -2.06578       :WPTET Tilt Y Offset
U-TILT_Y_GAIN.           1.02173         :WPTET Tilt Y Gain
U-TILT_X_OFFSET.           2.30841       :WPTET Tilt X Offset
U-TILT_X_GAIN.           1.00000         :WPTET Tilt X Gain
U-TILT_OFFSET_TOL.           0.00100     :WPTET Tilt Offset Calibration Tolerance
U-MOT_CUR_LIMIT_REQ.MA        70.00000   :Requested Motor Current Limit
U-MOT_SPD_REQ_WPMS.RPM        1.00000    :Requested Motor Speed
U-STD_TOL_TILT.           0.01000        :Tilt Standard Deviation Tolerance
CWEI .LB/F      29.00000                 :Casing Weight
CSIZ .IN         7.00000                 :Current Casing Size
LCC  .               440                 :Logging Company Code
LUN  .              2134                 :Logging Unit Number
HIDE .                                   :Header Identifier
HID1 .                                   :Header Identifier Line 1
R1   .                                   :Remark Line 1
WITN .        MR. KELLY McCOY            :Witness's Name
ENGI .        MORRIS MOORE               :Engineer's Name
LUL  .        IOWA COLONY                :Logging Unit Location
DATE .        02-Aug-2018                :Date as Month-Day-Year
STAT .        TEXAS                      :State or Province
COUN .        HARRIS                     :County or Rig Name
FN   .        WILDCAT                    :Field Name
WN   .        WPP TEST 4                 :Well Name
CN   .        SHELL INTERNATIONAL EP     :Company Name
CLAB .        County                     :County/Rig Label
SLAB .        State                      :State/Province Label
RUN  .          1                        :RUN NUMBER
PDAT .        GROUND LEVEL               :Permanent Datum
EPD  .                                   :Elevation of Permanent Datum above Mean Sea Level
LMF  .          NA                       :Logging Measured From (Name of Logging Elevation Reference)
APD  .                                   :Elevation of Depth Reference (LMF) above Permanent Datum
#-----------------------------------------------------------------------------
~CURVE INFORMATION
#MNEM.UNIT   API CODE                                  DESCRIPTION
#---- -----  --------                                  -----------------------
TIME .S                                                :TIME {F10.1}
FREQ_EMF_SL.HZ                                         :Electromagnetic Field Frequency {F13.4}
PH_SH_WPPCM_SL.DEG                                     :WPPCM Phase Shift {F13.4}
RB_SL.DEG                                              :Relative Bearing {F13.4}
SDEV_SL.DEG                                            :Sonde Deviation {F13.4}
RTIX_SL.DEG                                            :Raw X-axis Tilt {F13.4}
RTIY_SL.DEG                                            :Raw Y-axis Tilt {F13.4}
TILX_SL.DEG                                            :X-axis Tilt {F13.4}
TILY_SL.DEG                                            :Y-axis Tilt {F13.4}
ROTA_SL.DEG                                            :Motor Rotation Angle {F13.4}
TOD7 .S                                                :Time of Day {I11}
TOJ  .S                                                :Time of Job {F13.4}
#-----------------------------------------------------------------------------
# 
#     TIME    FREQ_EMF_SL  PH_SH_WPPCM_    RB_SL       SDEV_SL      RTIX_SL      RTIY_SL      TILX_SL      TILY_SL      ROTA_SL        TOD7            TOJ
#                          SL
~A  
# ...
     318.0       0.0000       0.0000     -33.2094    -999.2500     -43.1390     -83.3057     -40.8306     -87.1814       6.6943 1533250582 9999999.9999
     319.0       0.0000       0.0000     -29.0901    -999.2500     -35.9893     -90.5758     -33.6809     -94.6096      12.7938 1533250583 9999999.9999
     320.0       0.0000       0.0000     -24.0679    -999.2500     -28.3577     -96.3598     -26.0493    -100.5192      19.3098 1533250584 9999999.9999
     321.0       0.0000       0.0000     -18.2352    -999.2500     -20.9268    -100.0552     -18.6184    -104.2949      25.4085 1533250585 9999999.9999
     322.0       0.0000       0.0000     -11.2851      78.7911     -13.3755    -101.5815     -11.0671    -105.8544      31.1023 1533250586 9999999.9999
     323.0       0.0000       0.0000      -2.5693      74.1420      -4.7798    -101.7823      -2.4714    -106.0596      37.2203 1533250587 9999999.9999
     324.0       0.0000       0.0000       6.3656      75.5844       3.8560    -101.4610       6.1644    -105.7312      43.3127 1533250588 9999999.9999
     325.0       0.0000       0.0000      14.1430      86.5859      11.8090    -100.2962      14.1174    -104.5411      49.3989 1533250589 9999999.9999
     326.0       0.0000       0.0000      21.1010    -999.2500      19.9628     -96.6812      22.2712    -100.8475      55.5238 1533250590 9999999.9999
     327.0       0.0000       0.0000      26.4123    -999.2500      27.3133     -91.5800      29.6217     -95.6356      61.6417 1533250591 9999999.9999
     328.0       0.0000       0.0000      30.8839    -999.2500      34.4228     -85.3943      36.7312     -89.3155      67.7466 1533250592 9999999.9999
     329.0       0.0000       0.0000      34.9394    -999.2500      41.4118     -77.8430      43.7202     -81.6001      73.8453 1533250593 9999999.9999
     330.0       0.0000       0.0000      39.0477    -999.2500      48.2402     -68.6047      50.5486     -72.1610      79.9440 1533250594 9999999.9999
     331.0       0.0000       0.0000      48.0157    -999.2500      63.6240     -52.0560      65.9324     -55.2528      86.0489 1533250595 9999999.9999
     332.0       0.0000       0.0000      52.5035    -999.2500      76.6380     -45.7900      78.9464     -48.8507      92.5587 1533250596 9999999.9999
     333.0       0.0000       0.0000      56.2644    -999.2500      84.7918     -38.9215      87.1002     -41.8329      98.6968 1533250597 9999999.9999
     334.0       0.0000       0.0000      60.3181    -999.2500      91.7005     -31.8923      94.0089     -34.6510     104.7892 1533250598 9999999.9999
     335.0       0.0000       0.0000      64.7910    -999.2500      97.0828     -25.0640      99.3912     -27.6743     110.8941 1533250599 9999999.9999
     336.0       0.0000       0.0000      71.1291    -999.2500     100.5372     -17.0307     102.8456     -19.4665     116.9928 1533250600 9999999.9999
     337.0       0.0000       0.0000      77.9725      82.2231     101.9832      -9.6400     104.2916     -11.9152     123.0915 1533250601 9999999.9999
     338.0       0.0000       0.0000      86.8953      75.7960     102.2242      -0.9238     104.5326      -3.0097     129.1964 1533250602 9999999.9999
     339.0       0.0000       0.0000      96.1880      76.6029     102.4250       7.9128     104.7334       6.0190     135.2768 1533250603 9999999.9999
     340.0       0.0000       0.0000     104.1226      88.3259     100.7782      15.9060     103.0866      14.1858     141.3756 1533250604 9999999.9999
     341.0       0.0000       0.0000     110.9622    -999.2500      96.7615      23.7787      99.0699      22.2295     147.4744 1533250605 9999999.9999
     342.0       0.0000       0.0000     116.7399    -999.2500      91.1783      31.5710      93.4867      30.1912     153.5927 1533250606 9999999.9999
     343.0       0.0000       0.0000     121.5673    -999.2500      84.1492      39.0420      86.4576      37.8245     159.6976 1533250607 9999999.9999
     344.0       0.0000       0.0000     126.0873    -999.2500      75.9953      46.5933      78.3037      45.5399     166.1891 1533250608 9999999.9999
     345.0       0.0000       0.0000     130.6700    -999.2500      65.7528      53.7430      68.0612      52.8449     172.2941 1533250609 9999999.9999
     346.0       0.0000       0.0000     138.4644    -999.2500      53.1405      68.9662      55.4489      68.3988     178.3990 1533250610 9999999.9999
     347.0       0.0000       0.0000     142.5071    -999.2500      46.3925      78.6865      48.7009      78.3304     184.4854 1533250611 9999999.9999
     348.0       0.0000       0.0000     146.2481    -999.2500      39.4838      85.9968      41.7922      85.7995     190.5973 1533250612 9999999.9999
     349.0       0.0000       0.0000     150.5326    -999.2500      32.0128      93.7490      34.3212      93.7201     196.7023 1533250613 9999999.9999
     350.0       0.0000       0.0000     155.8630    -999.2500      23.8590     100.1054      26.1674     100.2146     202.7827 1533250614 9999999.9999
     351.0       0.0000       0.0000     162.4157    -999.2500      15.5445     104.4735      17.8529     104.6776     208.8815 1533250615 9999999.9999
     352.0       0.0000       0.0000     169.9530      76.8126       7.4710     106.2810       9.7794     106.5244     214.9803 1533250616 9999999.9999
     353.0       0.0000       0.0000     178.3857      73.1813      -0.7632     106.6425       1.5452     106.8938     221.0853 1533250617 9999999.9999
     354.0       0.0000       0.0000    -173.0683      74.8270      -8.9973     106.4015      -6.6889     106.6475     227.2035 1533250618 9999999.9999
     355.0       0.0000       0.0000    -165.1792      87.4951     -17.2315     103.1078     -14.9231     103.2823     233.3024 1533250619 9999999.9999
     356.0       0.0000       0.0000    -158.2850    -999.2500     -25.5460      97.7657     -23.2376      97.8241     239.8123 1533250620 9999999.9999
     357.0       0.0000       0.0000    -152.5078    -999.2500     -33.6597      91.2587     -31.3513      91.1757     245.9172 1533250621 9999999.9999
     358.0       0.0000       0.0000    -147.5947    -999.2500     -41.4118      83.7877     -39.1034      83.5424     252.0168 1533250622 9999999.9999
     359.0       0.0000       0.0000    -143.1691    -999.2500     -48.6820      75.5535     -46.3736      75.1293     258.1287 1533250623 9999999.9999
     360.0       0.0000       0.0000    -138.5191    -999.2500     -55.7112      65.8733     -53.4028      65.2388     264.2465 1533250624 9999999.9999
     361.0       0.0000       0.0000    -130.9372    -999.2500     -69.7293      54.1045     -67.4209      53.2143     270.3512 1533250625 9999999.9999
     362.0       0.0000       0.0000    -126.4797    -999.2500     -79.2288      47.1155     -76.9203      46.0734     276.4498 1533250626 9999999.9999
     363.0       0.0000       0.0000    -122.1086    -999.2500     -87.2420      39.8855     -84.9336      38.6863     282.5484 1533250627 9999999.9999
     364.0       0.0000       0.0000    -117.2180    -999.2500     -94.3917      32.2940     -92.0833      30.9299     288.6409 1533250628 9999999.9999
     365.0       0.0000       0.0000    -111.6328    -999.2500    -100.1757      24.6623     -97.8672      23.1324     294.7587 1533250629 9999999.9999
     366.0       0.0000       0.0000    -104.8379    -999.2500    -104.5137      16.7093    -102.2053      15.0066     300.8573 1533250630 9999999.9999
     367.0       0.0000       0.0000    -100.9494      82.7843    -105.3973      12.6525    -103.0889      10.8616     306.9497 1533250631 9999999.9999
     368.0       0.0000       0.0000    -105.8860      85.0504    -103.7505      17.8742    -101.4421      16.1967     313.0422 1533250632 9999999.9999
     369.0       0.0000       0.0000     -99.7309      80.2644    -106.0400      11.4073    -103.7316       9.5894     319.5457 1533250633 9999999.9999
     370.0       0.0000       0.0000     -91.0840      76.3104    -106.0400       3.0527    -103.7316       1.0532     325.6582 1533250634 9999999.9999
