~VERSION INFORMATION
VERS.           2.0   :CWLS Log ASCII Standard - VERSION 2.0
WRAP.           NO    :One Line per depth step
PROD.  Schlumberger   :LAS Producer
PROG.  DLIS to ASCII 19C2-270                          :LAS Program name and version
CREA.        2018/08/03 10:59                          :LAS Creation date {YYYY/MM/DD hh:mm}
DLIS_CREA.  2018-Aug-03 09:28                          :DLIS Creation date and time {YYYY-MMM-DD hh:mm}
SOURCE.     PERFO_Perfo_076PTP.DLIS                    :DLIS File Name
FILE-ID.     PERFO_Perfo_076PTP                        :File Identification Number
#--------------------------------------------------
~WELL INFORMATION
#MNEM.UNIT      DATA             DESCRIPTION
#---- ------ --------------   -----------------------------
STRT .S            0.0       :START TIME      
STOP .S         1744.0       :STOP TIME      
STEP .S            1.0       :STEP     
NULL .          -999.25      :NULL VALUE
COMP .        SHELL INTERNATIONAL EP                   :COMPANY
WELL .        WPP TEST 4                               :WELL
FLD  .        WILDCAT                                  :FIELD
LOC  .        NA                                       :LOCATION
CNTY .        HARRIS                                   :COUNTY
STAT .        TEXAS                                    :STATE
CTRY .                                                 :COUNTRY
API  .        NA                                       :API NUMBER
UWI  .                                                 :UNIQUE WELL ID
DATE .        02-Aug-2018                              :LOG DATE {DD-MMM-YYYY}
SRVC .        Schlumberger                             :SERVICE COMPANY
LATI .DEG                                              :LATITUDE
LONG .DEG                                              :LONGITUDE
GDAT .                                                 :GeoDetic Datum
SECT .        NA                                       :Section
RANG .        NA                                       :Range
TOWN .        NA                                       :Township
#-----------------------------------------------------------------------------
~PARAMETER INFORMATION
#MNEM.UNIT    VALUE                      DESCRIPTION
#---- -----   --------------------       ------------------------
U-PHASE_B_COMP_PER_YT.                 0 :Phase B Comparator Period Yt
U-PHASE_A_COMP_PER_XT.                 0 :Phase A Comparator Period Xt
U-MAX_EXC_CUR_LIMIT.MA       265.00000   :Requested CM Current Limit
U-REQ_EXC_FQ.HZ              50          :Requested CM Frequency
U-TILT_Y_OFFSET.          -2.06578       :WPTET Tilt Y Offset
U-TILT_Y_GAIN.           1.02173         :WPTET Tilt Y Gain
U-TILT_X_OFFSET.           2.30841       :WPTET Tilt X Offset
U-TILT_X_GAIN.           1.00000         :WPTET Tilt X Gain
U-TILT_OFFSET_TOL.           0.00100     :WPTET Tilt Offset Calibration Tolerance
U-MOT_CUR_LIMIT_REQ.MA        70.00000   :Requested Motor Current Limit
U-MOT_SPD_REQ_WPMS.RPM        1.00000    :Requested Motor Speed
U-STD_TOL_TILT.           0.01000        :Tilt Standard Deviation Tolerance
CWEI .LB/F      29.00000                 :Casing Weight
CSIZ .IN         7.00000                 :Current Casing Size
LCC  .               440                 :Logging Company Code
LUN  .              2134                 :Logging Unit Number
HIDE .                                   :Header Identifier
HID1 .                                   :Header Identifier Line 1
R1   .                                   :Remark Line 1
WITN .        MR. KELLY McCOY            :Witness's Name
ENGI .        MORRIS MOORE               :Engineer's Name
LUL  .        IOWA COLONY                :Logging Unit Location
DATE .        02-Aug-2018                :Date as Month-Day-Year
STAT .        TEXAS                      :State or Province
COUN .        HARRIS                     :County or Rig Name
FN   .        WILDCAT                    :Field Name
WN   .        WPP TEST 4                 :Well Name
CN   .        SHELL INTERNATIONAL EP     :Company Name
CLAB .        County                     :County/Rig Label
SLAB .        State                      :State/Province Label
RUN  .          1                        :RUN NUMBER
PDAT .        GROUND LEVEL               :Permanent Datum
EPD  .                                   :Elevation of Permanent Datum above Mean Sea Level
LMF  .          NA                       :Logging Measured From (Name of Logging Elevation Reference)
APD  .                                   :Elevation of Depth Reference (LMF) above Permanent Datum
#-----------------------------------------------------------------------------
~CURVE INFORMATION
#MNEM.UNIT   API CODE                                  DESCRIPTION
#---- -----  --------                                  -----------------------
TIME .S                                                :TIME {F10.1}
FREQ_EMF_SL.HZ                                         :Electromagnetic Field Frequency {F13.4}
PH_SH_WPPCM_SL.DEG                                     :WPPCM Phase Shift {F13.4}
RB_SL.DEG                                              :Relative Bearing {F13.4}
SDEV_SL.DEG                                            :Sonde Deviation {F13.4}
RTIX_SL.DEG                                            :Raw X-axis Tilt {F13.4}
RTIY_SL.DEG                                            :Raw Y-axis Tilt {F13.4}
TILX_SL.DEG                                            :X-axis Tilt {F13.4}
TILY_SL.DEG                                            :Y-axis Tilt {F13.4}
ROTA_SL.DEG                                            :Motor Rotation Angle {F13.4}
TOD7 .S                                                :Time of Day {I11}
TOJ  .S                                                :Time of Job {F13.4}
#-----------------------------------------------------------------------------
# 
#     TIME    FREQ_EMF_SL  PH_SH_WPPCM_    RB_SL       SDEV_SL      RTIX_SL      RTIY_SL      TILX_SL      TILY_SL      ROTA_SL        TOD7            TOJ
#                          SL
~A  
# ...
    1007.0    1753.4288       0.0000     -55.8079    -999.2500     -85.3542     -39.4838     -83.0458     -42.4075     346.0075 1533243029 9999999.9999
    1008.0    1753.4288       0.0000     -51.8374    -999.2500     -77.4413     -46.3523     -75.1329     -49.4252     352.0969 1533243030 9999999.9999
    1009.0    1753.4288       0.0000     -47.4917    -999.2500     -67.5202     -53.1003     -65.2118     -56.3198     358.2118 1533243031 9999999.9999
    1010.0    1762.2180       0.0000     -38.8705    -999.2500     -52.9397     -69.9703     -50.6313     -73.5564       4.3136 1533243032 9999999.9999
    1011.0    1771.0958       0.0000     -34.8427    -999.2500     -46.0310     -79.3693     -43.7226     -83.1596      10.4154 1533243033 9999999.9999
    1012.0    1762.2180       0.0000     -30.5361    -999.2500     -38.4395     -87.7240     -36.1311     -91.6958      16.5304 1533243034 9999999.9999
    1013.0    1771.0958       0.0000     -25.9248    -999.2500     -31.0890     -93.8293     -28.7806     -97.9338      22.6322 1533243035 9999999.9999
    1014.0    1766.6456       0.0000     -20.4131    -999.2500     -23.6180     -98.2477     -21.3096    -102.4481      28.7340 1533243036 9999999.9999
    1015.0    1766.6456       0.0000     -14.0468      85.3319     -16.3077    -100.5372     -13.9993    -104.7873      34.8358 1533243037 9999999.9999
    1016.0    1771.0958       0.0000      -6.1508      75.9409      -8.2743    -101.0593      -5.9659    -105.3208      40.9508 1533243038 9999999.9999
    1017.0    1766.6456       0.0000       2.9294      75.0807       0.5222    -100.9388       2.8306    -105.1977      47.0526 1533243039 9999999.9999
    1018.0    1762.2180       0.0000      11.1713      80.7614       8.7162    -100.2158      11.0246    -104.4590      53.5501 1533243040 9999999.9999
    1019.0    1757.8126       0.0000      17.8429      83.2175      16.0265     -98.0468      18.3349    -102.2429      59.6519 1533243041 9999999.9999
    1020.0    1771.0958       0.0000      23.6288    -999.2500      23.3770     -93.7088      25.6854     -97.8106      65.7537 1533243042 9999999.9999
    1021.0    1766.6456       0.0000      28.4315    -999.2500      30.4463     -88.1257      32.7547     -92.1062      71.8555 1533243043 9999999.9999
    1022.0    1753.4288       0.0000      32.5755    -999.2500      37.2345     -81.3375      39.5429     -85.1705      77.9573 1533243044 9999999.9999
    1023.0    1753.4288       0.0000      36.6618    -999.2500      44.1432     -73.1837      46.4516     -76.8395      84.0591 1533243045 9999999.9999
    1024.0    1753.4288       0.0000      41.5972    -999.2500      51.0920     -61.3345      53.4004     -64.7329      90.1485 1533243046 9999999.9999
    1025.0    1762.2180       0.0000      50.9517    -999.2500      72.0188     -48.2402      74.3272     -51.3541      96.2503 1533243047 9999999.9999
    1026.0    1753.4288       0.0000      54.8113    -999.2500      81.0563     -41.4922      83.3647     -44.4595     102.3521 1533243048 9999999.9999
    1027.0    1744.7272       0.0000      58.6521    -999.2500      88.5273     -34.7040      90.8357     -37.5238     108.4669 1533243049 9999999.9999
    1028.0       0.0000       0.0000      62.9859    -999.2500      94.3515     -27.7552      96.6599     -30.4240     114.6782 1533243050 9999999.9999
    1029.0       0.0000       0.0000      68.2961    -999.2500      98.7297     -20.4850     101.0381     -22.9959     120.7807 1533243051 9999999.9999
    1030.0       0.0000       0.0000      74.5576    -999.2500     100.7782     -13.2550     103.0866     -15.6088     127.2905 1533243052 9999999.9999
    1031.0       0.0000       0.0000      82.6114      78.3961     101.4208      -5.0610     103.7292      -7.2367     133.4056 1533243053 9999999.9999
    1032.0       0.0000       0.0000      91.6356      75.9622     101.8225       3.5748     104.1309       1.5867     139.4952 1533243054 9999999.9999
    1033.0       0.0000       0.0000     100.0893      80.8197     101.3003      11.7688     103.6087       9.9588     145.6102 1533243055 9999999.9999
    1034.0       0.0000       0.0000     107.3719     107.8053      98.7698      19.5210     101.0782      17.8794     151.7121 1533243056 9999999.9999
    1035.0       0.0000       0.0000     113.7064    -999.2500      93.9097      27.3535      96.2181      25.8820     157.8139 1533243057 9999999.9999
    1036.0       0.0000       0.0000     119.1801    -999.2500      87.3625      35.2463      89.6709      33.9463     163.9158 1533243058 9999999.9999
    1037.0       0.0000       0.0000     123.9519    -999.2500      79.6103      42.9382      81.9187      41.8053     170.0177 1533243059 9999999.9999
    1038.0       0.0000       0.0000     128.3791    -999.2500      70.5728      50.1682      72.8812      49.1924     176.1196 1533243060 9999999.9999
    1039.0       0.0000       0.0000     135.2009    -999.2500      55.9923      59.7278      58.3007      58.9598     182.2215 1533243061 9999999.9999
    1040.0       0.0000       0.0000     140.7775    -999.2500      49.3247      74.3083      51.6331      73.8571     188.3242 1533243062 9999999.9999
    1041.0       0.0000       0.0000     144.6549    -999.2500      42.4160      83.1048      44.7244      82.8447     194.4261 1533243063 9999999.9999
    1042.0       0.0000       0.0000     148.6019    -999.2500      35.3065      90.3750      37.6149      90.2728     200.5280 1533243064 9999999.9999
    1043.0       0.0000       0.0000     153.3463    -999.2500      27.5543      97.2033      29.8627      97.2495     207.0379 1533243065 9999999.9999
    1044.0       0.0000       0.0000     159.0857    -999.2500      19.6013     102.3045      21.9097     102.4615     213.1530 1533243066 9999999.9999
    1045.0       0.0000       0.0000     165.9100      83.4781      11.6885     105.2768      13.9969     105.4984     219.2549 1533243067 9999999.9999
    1046.0       0.0000       0.0000     173.9810      74.6264       3.4945     106.2408       5.8029     106.4834     225.3568 1533243068 9999999.9999
    1047.0       0.0000       0.0000    -177.3823      73.6370      -4.8200     106.3212      -2.5116     106.5654     231.4464 1533243069 9999999.9999
    1048.0       0.0000       0.0000    -168.9733      79.9727     -13.1646     104.6543     -10.8562     104.8623     237.5483 1533243070 9999999.9999
    1049.0       0.0000       0.0000    -161.2927      83.9867     -21.7703     100.1757     -19.4619     100.2864     243.6533 1533243071 9999999.9999
    1050.0       0.0000       0.0000    -155.0724    -999.2500     -29.9242      94.1908     -27.6158      94.1716     249.7521 1533243072 9999999.9999
    1051.0       0.0000       0.0000    -149.7995    -999.2500     -37.8370      86.9608     -35.5286      86.7845     255.8540 1533243073 9999999.9999
    1052.0       0.0000       0.0000    -145.1219    -999.2500     -45.4285      79.0480     -43.1201      78.6997     261.9558 1533243074 9999999.9999
    1053.0       0.0000       0.0000    -140.6146    -999.2500     -52.5380      69.9703     -50.2296      69.4248     268.0576 1533243075 9999999.9999
    1054.0       0.0000       0.0000    -132.6394    -999.2500     -65.8332      56.3538     -63.5247      55.5125     274.1471 1533243076 9999999.9999
    1055.0       0.0000       0.0000    -128.0641    -999.2500     -75.6740      49.6058     -73.3656      48.6178     280.6570 1533243077 9999999.9999
    1056.0       0.0000       0.0000    -123.8853    -999.2500     -83.9483      42.7775     -81.6399      41.6412     286.7588 1533243078 9999999.9999
    1057.0       0.0000       0.0000    -119.2477    -999.2500     -91.3792      35.3467     -89.0708      34.0489     292.8606 1533243079 9999999.9999
    1058.0       0.0000       0.0000    -113.7176    -999.2500     -98.0067      27.3937     -95.6982      25.9231     298.9624 1533243080 9999999.9999
    1059.0       0.0000       0.0000    -107.0639    -999.2500    -103.0677      19.1997    -100.7593      17.5510     305.0641 1533243081 9999999.9999
