~VERSION INFORMATION
VERS.           2.0   :CWLS Log ASCII Standard - VERSION 2.0
WRAP.           NO    :One Line per depth step
PROD.  Schlumberger   :LAS Producer
PROG.  DLIS to ASCII 19C2-270                          :LAS Program name and version
CREA.        2018/08/03 10:59                          :LAS Creation date {YYYY/MM/DD hh:mm}
DLIS_CREA.  2018-Aug-03 09:50                          :DLIS Creation date and time {YYYY-MMM-DD hh:mm}
SOURCE.     PERFO_Perfo_088PTP.DLIS                    :DLIS File Name
FILE-ID.     PERFO_Perfo_088PTP                        :File Identification Number
#--------------------------------------------------
~WELL INFORMATION
#MNEM.UNIT      DATA             DESCRIPTION
#---- ------ --------------   -----------------------------
STRT .S            0.0       :START TIME      
STOP .S          526.0       :STOP TIME      
STEP .S            1.0       :STEP     
NULL .          -999.25      :NULL VALUE
COMP .        SHELL INTERNATIONAL EP                   :COMPANY
WELL .        WPP TEST 4                               :WELL
FLD  .        WILDCAT                                  :FIELD
LOC  .        NA                                       :LOCATION
CNTY .        HARRIS                                   :COUNTY
STAT .        TEXAS                                    :STATE
CTRY .                                                 :COUNTRY
API  .        NA                                       :API NUMBER
UWI  .                                                 :UNIQUE WELL ID
DATE .        02-Aug-2018                              :LOG DATE {DD-MMM-YYYY}
SRVC .        Schlumberger                             :SERVICE COMPANY
LATI .DEG                                              :LATITUDE
LONG .DEG                                              :LONGITUDE
GDAT .                                                 :GeoDetic Datum
SECT .        NA                                       :Section
RANG .        NA                                       :Range
TOWN .        NA                                       :Township
#-----------------------------------------------------------------------------
~PARAMETER INFORMATION
#MNEM.UNIT    VALUE                      DESCRIPTION
#---- -----   --------------------       ------------------------
U-PHASE_B_COMP_PER_YT.                 0 :Phase B Comparator Period Yt
U-PHASE_A_COMP_PER_XT.                 0 :Phase A Comparator Period Xt
U-MAX_EXC_CUR_LIMIT.MA       265.00000   :Requested CM Current Limit
U-REQ_EXC_FQ.HZ              50          :Requested CM Frequency
U-TILT_Y_OFFSET.          -2.06578       :WPTET Tilt Y Offset
U-TILT_Y_GAIN.           1.02173         :WPTET Tilt Y Gain
U-TILT_X_OFFSET.           2.30841       :WPTET Tilt X Offset
U-TILT_X_GAIN.           1.00000         :WPTET Tilt X Gain
U-TILT_OFFSET_TOL.           0.00100     :WPTET Tilt Offset Calibration Tolerance
U-MOT_CUR_LIMIT_REQ.MA        70.00000   :Requested Motor Current Limit
U-MOT_SPD_REQ_WPMS.RPM        1.00000    :Requested Motor Speed
U-STD_TOL_TILT.           0.01000        :Tilt Standard Deviation Tolerance
CWEI .LB/F      29.00000                 :Casing Weight
CSIZ .IN         7.00000                 :Current Casing Size
LCC  .               440                 :Logging Company Code
LUN  .              2134                 :Logging Unit Number
HIDE .                                   :Header Identifier
HID1 .                                   :Header Identifier Line 1
R1   .                                   :Remark Line 1
WITN .        MR. KELLY McCOY            :Witness's Name
ENGI .        MORRIS MOORE               :Engineer's Name
LUL  .        IOWA COLONY                :Logging Unit Location
DATE .        02-Aug-2018                :Date as Month-Day-Year
STAT .        TEXAS                      :State or Province
COUN .        HARRIS                     :County or Rig Name
FN   .        WILDCAT                    :Field Name
WN   .        WPP TEST 4                 :Well Name
CN   .        SHELL INTERNATIONAL EP     :Company Name
CLAB .        County                     :County/Rig Label
SLAB .        State                      :State/Province Label
RUN  .          1                        :RUN NUMBER
PDAT .        GROUND LEVEL               :Permanent Datum
EPD  .                                   :Elevation of Permanent Datum above Mean Sea Level
LMF  .          NA                       :Logging Measured From (Name of Logging Elevation Reference)
APD  .                                   :Elevation of Depth Reference (LMF) above Permanent Datum
#-----------------------------------------------------------------------------
~CURVE INFORMATION
#MNEM.UNIT   API CODE                                  DESCRIPTION
#---- -----  --------                                  -----------------------
TIME .S                                                :TIME {F10.1}
FREQ_EMF_SL.HZ                                         :Electromagnetic Field Frequency {F13.4}
PH_SH_WPPCM_SL.DEG                                     :WPPCM Phase Shift {F13.4}
RB_SL.DEG                                              :Relative Bearing {F13.4}
SDEV_SL.DEG                                            :Sonde Deviation {F13.4}
RTIX_SL.DEG                                            :Raw X-axis Tilt {F13.4}
RTIY_SL.DEG                                            :Raw Y-axis Tilt {F13.4}
TILX_SL.DEG                                            :X-axis Tilt {F13.4}
TILY_SL.DEG                                            :Y-axis Tilt {F13.4}
ROTA_SL.DEG                                            :Motor Rotation Angle {F13.4}
TOD7 .S                                                :Time of Day {I11}
TOJ  .S                                                :Time of Job {F13.4}
#-----------------------------------------------------------------------------
# 
#     TIME    FREQ_EMF_SL  PH_SH_WPPCM_    RB_SL       SDEV_SL      RTIX_SL      RTIY_SL      TILX_SL      TILY_SL      ROTA_SL        TOD7            TOJ
#                          SL
~A  
# ...
     106.0    1531.8628       0.0000     124.2370    -999.2500      79.4497      43.4603      81.7581      42.3388     145.9540 1533250370 9999999.9999
     107.0    1512.0968       0.0000     128.6487    -999.2500      70.3720      50.7305      72.6804      49.7670     152.0589 1533250371 9999999.9999
     108.0    1519.4490       0.0000     136.2282    -999.2500      55.5505      62.8106      57.8589      62.1095     158.1578 1533250372 9999999.9999
     109.0    1496.0106       0.0000     141.1280    -999.2500      48.8828      75.5937      51.1912      75.1703     164.2566 1533250373 9999999.9999
     110.0    1474.0566       0.0000     144.9555    -999.2500      41.8938      83.9885      44.2022      83.7476     170.3616 1533250374 9999999.9999
     111.0    1449.7422       0.0000     149.0168    -999.2500      34.5835      91.3792      36.8919      91.2988     176.4665 1533250375 9999999.9999
     112.0    1426.2170       0.0000     153.7853    -999.2500      26.8715      97.9665      29.1799      98.0293     182.5654 1533250376 9999999.9999
     113.0    1411.8976       0.0000     159.6467    -999.2500      18.8783     102.8668      21.1867     103.0361     188.6642 1533250377 9999999.9999
     114.0    1397.8628       0.0000     166.6795      80.9969      10.8450     105.7990      13.1534     106.0319     194.7692 1533250378 9999999.9999
     115.0    1370.6140       0.0000     174.7982      73.9912       2.6912     106.5622       4.9996     106.8117     201.2666 1533250379 9999999.9999
     116.0    1375.9785       0.0000    -176.5827      73.4037      -5.5832     106.6827      -3.2748     106.9348     207.3532 1533250380 9999999.9999
     117.0    1373.2910       0.0000    -168.3680      80.4537     -13.7772     104.7948     -11.4688     105.0060     213.4773 1533250381 9999999.9999
     118.0    1352.1635       0.0000    -160.9416      84.4104     -22.1720     100.2962     -19.8636     100.4095     219.5892 1533250382 9999999.9999
     119.0    1336.7396       0.0000    -154.7533    -999.2500     -30.3660      94.1105     -28.0576      94.0895     225.6880 1533250383 9999999.9999
     120.0    1341.2017       0.0000    -149.4105    -999.2500     -38.4696      86.6997     -36.1612      86.5177     231.7869 1533250384 9999999.9999
     121.0    1334.2030       0.0000    -144.7554    -999.2500     -46.0712      78.5660     -43.7628      78.2072     237.8803 1533250385 9999999.9999
     122.0    1329.1588       0.0000    -140.2153    -999.2500     -53.2610      69.4080     -50.9526      68.8503     243.9853 1533250386 9999999.9999
     123.0    1339.2858       0.0000    -132.7174    -999.2500     -65.9135      56.6350     -63.6051      55.7997     250.0849 1533250387 9999999.9999
     124.0    1339.2858       0.0000    -128.1922    -999.2500     -75.6338      49.8870     -73.3254      48.9051     256.1844 1533250388 9999999.9999
     125.0    1329.1588       0.0000    -123.9918    -999.2500     -83.9483      42.9783     -81.6399      41.8464     262.2891 1533250389 9999999.9999
     126.0    1336.7396       0.0000    -119.4286    -999.2500     -91.3390      35.6278     -89.0306      34.3361     268.3816 1533250390 9999999.9999
     127.0    1344.4073       0.0000    -114.1430    -999.2500     -97.8058      27.9560     -95.4974      26.4976     274.8851 1533250391 9999999.9999
     128.0    1346.9828       0.0000    -108.0385    -999.2500    -103.0677      20.2842    -100.7593      18.6591     280.9898 1533250392 9999999.9999
     129.0    1349.5681       0.0000    -100.3327      81.0297    -105.9597      12.0098    -103.6513      10.2050     287.0946 1533250393 9999999.9999
     130.0    1354.7688       0.0000     -91.8466      76.0260    -106.4015       3.7757    -104.0931       1.7919     293.2062 1533250394 9999999.9999
     131.0    1360.0098       0.0000     -83.1399      77.7519    -106.3212      -4.5388    -104.0127      -6.7032     299.3179 1533250395 9999999.9999
     132.0    1370.6140       0.0000     -75.0010      88.6125    -104.9153     -12.8132    -102.6069     -15.1573     305.4226 1533250396 9999999.9999
     133.0    1373.2910       0.0000     -67.7874    -999.2500    -100.8585     -21.2883     -98.5501     -23.8167     311.5274 1533250397 9999999.9999
     134.0    1397.8628       0.0000     -62.0625    -999.2500     -95.1147     -29.2815     -92.8063     -31.9835     317.6260 1533250398 9999999.9999
     135.0    1420.4546       0.0000     -57.3724    -999.2500     -88.4470     -36.8328     -86.1386     -39.6989     323.7307 1533250399 9999999.9999
     136.0    1434.9490       0.0000     -53.2492    -999.2500     -80.8555     -44.0227     -78.5471     -47.0449     329.8293 1533250400 9999999.9999
     137.0    1443.7886       0.0000     -49.1322    -999.2500     -71.8180     -50.9715     -69.5096     -54.1447     335.9341 1533250401 9999999.9999
     138.0    1464.8438       0.0000     -41.8879    -999.2500     -55.9120     -60.4508     -53.6036     -63.8300     342.0341 1533250402 9999999.9999
     139.0    1489.6716       0.0000     -36.5233    -999.2500     -49.1238     -76.1962     -46.8154     -79.9175     348.5568 1533250403 9999999.9999
     140.0    1502.4038       0.0000     -32.5818    -999.2500     -42.0143     -84.5508     -39.7059     -88.4537     354.6623 1533250404 9999999.9999
     141.0    1521.9155       0.0000     -28.2981    -999.2500     -34.7040     -91.6202     -32.3956     -95.6766       0.7609 1533250405 9999999.9999
     142.0    1531.8628       0.0000     -23.1558    -999.2500     -27.1125     -97.0427     -24.8041    -101.2169       6.8727 1533250406 9999999.9999
     143.0    1541.9408       0.0000     -17.2312    -999.2500     -19.7620    -100.4970     -17.4536    -104.7463      12.9907 1533250407 9999999.9999
     144.0    1559.0355       0.0000      -9.8241      77.2850     -11.8893    -101.7422      -9.5809    -106.0185      19.1086 1533250408 9999999.9999
     145.0    1569.4755       0.0000      -0.4817      74.0296      -2.7715    -101.7020      -0.4631    -105.9775      25.1951 1533250409 9999999.9999
     146.0    1587.1896       0.0000       8.3138      76.7923       5.7840    -101.3003       8.0924    -105.5671      31.2939 1533250410 9999999.9999
     147.0    1598.0114       0.0000      15.7427      93.8281      13.5763     -99.6133      15.8847    -103.8434      37.3988 1533250411 9999999.9999
     148.0    1616.3793       0.0000      21.9689    -999.2500      21.0875     -95.9983      23.3959    -100.1499      43.5036 1533250412 9999999.9999
     149.0    1620.1036       0.0000      27.1847    -999.2500      28.4782     -90.6963      30.7866     -94.7327      49.6024 1533250413 9999999.9999
     150.0    1631.3805       0.0000      31.5520    -999.2500      35.5475     -84.1090      37.8559     -88.0022      55.7274 1533250414 9999999.9999
     151.0    1623.8453       0.0000      35.6278    -999.2500      42.5767     -76.2363      44.8851     -79.9585      62.2434 1533250415 9999999.9999
     152.0    1638.9860       0.0000      39.8378    -999.2500      49.4050     -66.6767      51.7134     -70.1911      68.3421 1533250416 9999999.9999
     153.0    1631.3805       0.0000      49.0883    -999.2500      68.0022     -51.4937      70.3106     -54.6783      74.4163 1533250417 9999999.9999
     154.0    1635.1744       0.0000      53.0570    -999.2500      77.9233     -44.7858      80.2317     -47.8247      80.5088 1533250418 9999999.9999
     155.0    1638.9860       0.0000      56.7559    -999.2500      85.8362     -38.0378      88.1446     -40.9301      86.6137 1533250419 9999999.9999
     156.0    1646.6628       0.0000      61.0654    -999.2500      92.6243     -30.6873      94.9327     -33.4199      92.7385 1533250420 9999999.9999
     157.0    1642.8153       0.0000      66.2959    -999.2500      98.1272     -23.0155     100.4356     -25.5813      98.8372 1533250421 9999999.9999
     158.0    1638.9860       0.0000      72.2877    -999.2500     100.9388     -15.7052     103.2472     -18.1122     104.9552 1533250422 9999999.9999
