~VERSION INFORMATION
VERS.           2.0   :CWLS Log ASCII Standard - VERSION 2.0
WRAP.           NO    :One Line per depth step
PROD.  Schlumberger   :LAS Producer
PROG.  DLIS to ASCII 19C2-270                          :LAS Program name and version
CREA.        2018/08/03 10:59                          :LAS Creation date {YYYY/MM/DD hh:mm}
DLIS_CREA.  2018-Aug-03 09:28                          :DLIS Creation date and time {YYYY-MMM-DD hh:mm}
SOURCE.     PERFO_Perfo_076PTP.DLIS                    :DLIS File Name
FILE-ID.     PERFO_Perfo_076PTP                        :File Identification Number
#--------------------------------------------------
~WELL INFORMATION
#MNEM.UNIT      DATA             DESCRIPTION
#---- ------ --------------   -----------------------------
STRT .S            0.0       :START TIME      
STOP .S         1744.0       :STOP TIME      
STEP .S            1.0       :STEP     
NULL .          -999.25      :NULL VALUE
COMP .        SHELL INTERNATIONAL EP                   :COMPANY
WELL .        WPP TEST 4                               :WELL
FLD  .        WILDCAT                                  :FIELD
LOC  .        NA                                       :LOCATION
CNTY .        HARRIS                                   :COUNTY
STAT .        TEXAS                                    :STATE
CTRY .                                                 :COUNTRY
API  .        NA                                       :API NUMBER
UWI  .                                                 :UNIQUE WELL ID
DATE .        02-Aug-2018                              :LOG DATE {DD-MMM-YYYY}
SRVC .        Schlumberger                             :SERVICE COMPANY
LATI .DEG                                              :LATITUDE
LONG .DEG                                              :LONGITUDE
GDAT .                                                 :GeoDetic Datum
SECT .        NA                                       :Section
RANG .        NA                                       :Range
TOWN .        NA                                       :Township
#-----------------------------------------------------------------------------
~PARAMETER INFORMATION
#MNEM.UNIT    VALUE                      DESCRIPTION
#---- -----   --------------------       ------------------------
U-PHASE_B_COMP_PER_YT.                 0 :Phase B Comparator Period Yt
U-PHASE_A_COMP_PER_XT.                 0 :Phase A Comparator Period Xt
U-MAX_EXC_CUR_LIMIT.MA       265.00000   :Requested CM Current Limit
U-REQ_EXC_FQ.HZ              50          :Requested CM Frequency
U-TILT_Y_OFFSET.          -2.06578       :WPTET Tilt Y Offset
U-TILT_Y_GAIN.           1.02173         :WPTET Tilt Y Gain
U-TILT_X_OFFSET.           2.30841       :WPTET Tilt X Offset
U-TILT_X_GAIN.           1.00000         :WPTET Tilt X Gain
U-TILT_OFFSET_TOL.           0.00100     :WPTET Tilt Offset Calibration Tolerance
U-MOT_CUR_LIMIT_REQ.MA        70.00000   :Requested Motor Current Limit
U-MOT_SPD_REQ_WPMS.RPM        1.00000    :Requested Motor Speed
U-STD_TOL_TILT.           0.01000        :Tilt Standard Deviation Tolerance
CWEI .LB/F      29.00000                 :Casing Weight
CSIZ .IN         7.00000                 :Current Casing Size
LCC  .               440                 :Logging Company Code
LUN  .              2134                 :Logging Unit Number
HIDE .                                   :Header Identifier
HID1 .                                   :Header Identifier Line 1
R1   .                                   :Remark Line 1
WITN .        MR. KELLY McCOY            :Witness's Name
ENGI .        MORRIS MOORE               :Engineer's Name
LUL  .        IOWA COLONY                :Logging Unit Location
DATE .        02-Aug-2018                :Date as Month-Day-Year
STAT .        TEXAS                      :State or Province
COUN .        HARRIS                     :County or Rig Name
FN   .        WILDCAT                    :Field Name
WN   .        WPP TEST 4                 :Well Name
CN   .        SHELL INTERNATIONAL EP     :Company Name
CLAB .        County                     :County/Rig Label
SLAB .        State                      :State/Province Label
RUN  .          1                        :RUN NUMBER
PDAT .        GROUND LEVEL               :Permanent Datum
EPD  .                                   :Elevation of Permanent Datum above Mean Sea Level
LMF  .          NA                       :Logging Measured From (Name of Logging Elevation Reference)
APD  .                                   :Elevation of Depth Reference (LMF) above Permanent Datum
#-----------------------------------------------------------------------------
~CURVE INFORMATION
#MNEM.UNIT   API CODE                                  DESCRIPTION
#---- -----  --------                                  -----------------------
TIME .S                                                :TIME {F10.1}
FREQ_EMF_SL.HZ                                         :Electromagnetic Field Frequency {F13.4}
PH_SH_WPPCM_SL.DEG                                     :WPPCM Phase Shift {F13.4}
RB_SL.DEG                                              :Relative Bearing {F13.4}
SDEV_SL.DEG                                            :Sonde Deviation {F13.4}
RTIX_SL.DEG                                            :Raw X-axis Tilt {F13.4}
RTIY_SL.DEG                                            :Raw Y-axis Tilt {F13.4}
TILX_SL.DEG                                            :X-axis Tilt {F13.4}
TILY_SL.DEG                                            :Y-axis Tilt {F13.4}
ROTA_SL.DEG                                            :Motor Rotation Angle {F13.4}
TOD7 .S                                                :Time of Day {I11}
TOJ  .S                                                :Time of Job {F13.4}
#-----------------------------------------------------------------------------
# 
#     TIME    FREQ_EMF_SL  PH_SH_WPPCM_    RB_SL       SDEV_SL      RTIX_SL      RTIY_SL      TILX_SL      TILY_SL      ROTA_SL        TOD7            TOJ
#                          SL
~A  
       0.0    1464.8438       0.0000      24.0408    -999.2500      23.9795     -92.7850      26.2879     -96.8667     289.3349 1533242023 9999999.9999
       1.0    1702.4818       0.0000      27.1447    -999.2500      28.4782     -89.3307      30.7866     -93.3373     293.8077 1533242023 9999999.9999
       2.0    1780.0632       0.0000      31.4868    -999.2500      35.3868     -82.8237      37.6952     -86.6890     300.3307 1533242024 9999999.9999
       3.0    1784.5813       0.0000      35.4989    -999.2500      42.0947     -75.1117      44.4031     -78.8094     306.4325 1533242025 9999999.9999
       4.0    1789.1222       0.0000      39.8816    -999.2500      48.8025     -65.1905      51.1109     -68.6727     312.5343 1533242026 9999999.9999
       5.0    1780.0632       0.0000      50.0104    -999.2500      68.8457     -49.4050      71.1541     -52.5442     318.6361 1533242027 9999999.9999
       6.0    1784.5813       0.0000      53.7373    -999.2500      78.2045     -43.3398      80.5129     -46.3473     324.7379 1533242028 9999999.9999
       7.0    1780.0632       0.0000      57.4870    -999.2500      85.9567     -36.7123      88.2651     -39.5758     330.8398 1533242029 9999999.9999
       8.0    1771.0958       0.0000      61.8956    -999.2500      92.5842     -29.4422      94.8926     -32.1476     336.9292 1533242030 9999999.9999
       9.0    1771.0958       0.0000      66.8556    -999.2500      97.3238     -22.3728      99.6322     -24.9247     343.0187 1533242031 9999999.9999
      10.0    1753.4288       0.0000      73.0096    -999.2500      99.9347     -14.9822     102.2431     -17.3735     349.1205 1533242032 9999999.9999
      11.0    1753.4288       0.0000      80.3048      81.0480     100.8585      -7.3505     103.1669      -9.5760     355.2355 1533242033 9999999.9999
      12.0    1736.1111       0.0000      89.5638      76.5187     101.1798       1.6067     103.4882      -0.4242       1.3413 1533242034 9999999.9999
      13.0    1727.5798       0.0000      98.2184      79.1662     101.2602       9.9212     103.5686       8.0709       7.4531 1533242035 9999999.9999
      14.0    1723.3456       0.0000     105.8508      91.8174      99.1715      17.8340     101.4799      16.1557      13.9629 1533242036 9999999.9999
      15.0    1710.7665       0.0000     112.2544    -999.2500      94.8737      25.4657      97.1821      23.9532      20.0647 1533242037 9999999.9999
      16.0    1706.6141       0.0000     117.7603    -999.2500      88.9692      33.0973      91.2776      31.7507      26.1665 1533242038 9999999.9999
      17.0    1702.4818       0.0000     122.4340    -999.2500      81.9802      40.4077      84.2886      39.2198      32.2683 1533242039 9999999.9999
      18.0    1690.2042       0.0000     126.8845    -999.2500      73.5452      47.7180      75.8536      46.6890      38.3702 1533242040 9999999.9999
      19.0    1678.1025       0.0000     131.5383    -999.2500      63.1018      54.5463      65.4102      53.6657      44.4720 1533242041 9999999.9999
      20.0    1674.1072       0.0000     139.8778    -999.2500      50.7707      72.0590      53.0791      71.5589      50.5738 1533242042 9999999.9999
      21.0    1670.1307       0.0000     143.7356    -999.2500      44.0628      80.9358      46.3712      80.6286      56.6887 1533242043 9999999.9999
      22.0    1662.2340       0.0000     147.8448    -999.2500      36.6320      88.9692      38.9404      88.8364      62.7905 1533242044 9999999.9999
      23.0    1658.3137       0.0000     152.0568    -999.2500      29.5627      95.4762      31.8711      95.4848      68.8923 1533242045 9999999.9999
      24.0    1650.5282       0.0000     157.6122    -999.2500      21.5293     101.0192      23.8377     101.1482      74.9941 1533242046 9999999.9999
      25.0    1658.3137       0.0000     164.0967      85.4451      13.6968     104.3932      16.0052     104.5956      81.0959 1533242047 9999999.9999
      26.0    1654.4117       0.0000     172.0340      76.0894       5.4225     105.7588       7.7309     105.9909      87.6057 1533242048 9999999.9999
      27.0    1650.5282       0.0000    -179.5179      73.8519      -2.7715     105.9195      -0.4631     106.1551      93.7074 1533242049 9999999.9999
      28.0    1654.4117       0.0000    -171.0819      77.2727     -11.0057     105.2768      -8.6973     105.4984      99.8223 1533242050 9999999.9999
      29.0    1646.6628       0.0000    -163.5034      90.7792     -19.1595     101.6618     -16.8511     101.8049     105.9241 1533242051 9999999.9999
      30.0    1654.4117       0.0000    -156.8488    -999.2500     -27.4740      95.9983     -25.1656      96.0183     112.0259 1533242052 9999999.9999
      31.0    1650.5282       0.0000    -151.4502    -999.2500     -35.2663      89.2905     -32.9579      89.1647     118.1283 1533242053 9999999.9999
      32.0    1650.5282       0.0000    -146.4557    -999.2500     -43.2294      81.3978     -40.9210      81.1005     124.2301 1533242054 9999999.9999
      33.0    1654.4117       0.0000    -141.9210    -999.2500     -50.5297      72.6213     -48.2213      72.1334     130.3320 1533242055 9999999.9999
      34.0    1654.4117       0.0000    -136.6774    -999.2500     -57.5588      61.3345     -55.2504      60.6013     136.4092 1533242056 9999999.9999
      35.0    1666.1730       0.0000    -129.2174    -999.2500     -73.2238      51.4133     -70.9154      50.4646     142.5242 1533242057 9999999.9999
      36.0    1662.2340       0.0000    -125.0489    -999.2500     -81.8195      44.7055     -79.5111      43.6110     148.6393 1533242058 9999999.9999
      37.0    1670.1307       0.0000    -120.5873    -999.2500     -89.4512      37.4353     -87.1428      36.1829     154.7412 1533242059 9999999.9999
      38.0    1678.1025       0.0000    -115.4756    -999.2500     -96.1188      29.8037     -93.8104      28.3854     161.2511 1533242060 9999999.9999
      39.0    1686.1511       0.0000    -109.2317    -999.2500    -101.6217      21.7302     -99.3133      20.1365     167.3530 1533242061 9999999.9999
      40.0    1686.1511       0.0000    -102.1515      86.9344    -104.8350      13.8977    -102.5266      12.1338     173.4681 1533242062 9999999.9999
      41.0    1698.3695       0.0000     -93.9824      77.3107    -105.5982       5.8242    -103.2897       3.8849     179.5700 1533242063 9999999.9999
      42.0    1710.7665       0.0000     -84.9892      77.8057    -105.4777      -2.7715    -103.1693      -4.8975     185.6719 1533242064 9999999.9999
      43.0    1714.9390       0.0000     -76.6621      87.1665    -104.6342     -11.0860    -102.3258     -13.3926     191.7869 1533242065 9999999.9999
      44.0    1713.8939       0.0000     -69.6391    -999.2500    -101.5514     -19.0089     -99.2430     -21.4877     197.8919 1533242066 9999999.9999
      45.0    1727.5798       0.0000     -63.5405    -999.2500     -96.3197     -27.1125     -94.0113     -29.7674     203.9907 1533242067 9999999.9999
      46.0    1731.8351       0.0000     -58.7043    -999.2500     -89.9332     -34.5835     -87.6248     -37.4007     210.1057 1533242068 9999999.9999
      47.0    1749.0671       0.0000     -54.4706    -999.2500     -82.6630     -41.7733     -80.3546     -44.7467     216.2207 1533242069 9999999.9999
      48.0    1744.7272       0.0000     -50.4044    -999.2500     -73.9468     -48.6017     -71.6384     -51.7234     222.3109 1533242070 9999999.9999
      49.0    1762.2180       0.0000     -45.9680    -999.2500     -63.6642     -54.7873     -61.3558     -58.0435     228.4128 1533242071 9999999.9999
      50.0    1771.0958       0.0000     -37.3235    -999.2500     -50.2887     -73.3443     -47.9803     -77.0037     234.5147 1533242072 9999999.9999
      51.0    1771.0958       0.0000     -33.3906    -999.2500     -43.4202     -82.1408     -41.1118     -85.9913     241.0246 1533242073 9999999.9999
      52.0    1775.5682       0.0000     -29.3772    -999.2500     -36.5115     -89.0897     -34.2031     -93.0911     247.1265 1533242074 9999999.9999
