~VERSION INFORMATION
VERS.           2.0   :CWLS Log ASCII Standard - VERSION 2.0
WRAP.           NO    :One Line per depth step
PROD.  Schlumberger   :LAS Producer
PROG.  DLIS to ASCII 19C2-270                          :LAS Program name and version
CREA.        2018/08/03 10:59                          :LAS Creation date {YYYY/MM/DD hh:mm}
DLIS_CREA.  2018-Aug-03 09:50                          :DLIS Creation date and time {YYYY-MMM-DD hh:mm}
SOURCE.     PERFO_Perfo_088PTP.DLIS                    :DLIS File Name
FILE-ID.     PERFO_Perfo_088PTP                        :File Identification Number
#--------------------------------------------------
~WELL INFORMATION
#MNEM.UNIT      DATA             DESCRIPTION
#---- ------ --------------   -----------------------------
STRT .S            0.0       :START TIME      
STOP .S          526.0       :STOP TIME      
STEP .S            1.0       :STEP     
NULL .          -999.25      :NULL VALUE
COMP .        SHELL INTERNATIONAL EP                   :COMPANY
WELL .        WPP TEST 4                               :WELL
FLD  .        WILDCAT                                  :FIELD
LOC  .        NA                                       :LOCATION
CNTY .        HARRIS                                   :COUNTY
STAT .        TEXAS                                    :STATE
CTRY .                                                 :COUNTRY
API  .        NA                                       :API NUMBER
UWI  .                                                 :UNIQUE WELL ID
DATE .        02-Aug-2018                              :LOG DATE {DD-MMM-YYYY}
SRVC .        Schlumberger                             :SERVICE COMPANY
LATI .DEG                                              :LATITUDE
LONG .DEG                                              :LONGITUDE
GDAT .                                                 :GeoDetic Datum
SECT .        NA                                       :Section
RANG .        NA                                       :Range
TOWN .        NA                                       :Township
#-----------------------------------------------------------------------------
~PARAMETER INFORMATION
#MNEM.UNIT    VALUE                      DESCRIPTION
#---- -----   --------------------       ------------------------
U-PHASE_B_COMP_PER_YT.                 0 :Phase B Comparator Period Yt
U-PHASE_A_COMP_PER_XT.                 0 :Phase A Comparator Period Xt
U-MAX_EXC_CUR_LIMIT.MA       265.00000   :Requested CM Current Limit
U-REQ_EXC_FQ.HZ              50          :Requested CM Frequency
U-TILT_Y_OFFSET.          -2.06578       :WPTET Tilt Y Offset
U-TILT_Y_GAIN.           1.02173         :WPTET Tilt Y Gain
U-TILT_X_OFFSET.           2.30841       :WPTET Tilt X Offset
U-TILT_X_GAIN.           1.00000         :WPTET Tilt X Gain
U-TILT_OFFSET_TOL.           0.00100     :WPTET Tilt Offset Calibration Tolerance
U-MOT_CUR_LIMIT_REQ.MA        70.00000   :Requested Motor Current Limit
U-MOT_SPD_REQ_WPMS.RPM        1.00000    :Requested Motor Speed
U-STD_TOL_TILT.           0.01000        :Tilt Standard Deviation Tolerance
CWEI .LB/F      29.00000                 :Casing Weight
CSIZ .IN         7.00000                 :Current Casing Size
LCC  .               440                 :Logging Company Code
LUN  .              2134                 :Logging Unit Number
HIDE .                                   :Header Identifier
HID1 .                                   :Header Identifier Line 1
R1   .                                   :Remark Line 1
WITN .        MR. KELLY McCOY            :Witness's Name
ENGI .        MORRIS MOORE               :Engineer's Name
LUL  .        IOWA COLONY                :Logging Unit Location
DATE .        02-Aug-2018                :Date as Month-Day-Year
STAT .        TEXAS                      :State or Province
COUN .        HARRIS                     :County or Rig Name
FN   .        WILDCAT                    :Field Name
WN   .        WPP TEST 4                 :Well Name
CN   .        SHELL INTERNATIONAL EP     :Company Name
CLAB .        County                     :County/Rig Label
SLAB .        State                      :State/Province Label
RUN  .          1                        :RUN NUMBER
PDAT .        GROUND LEVEL               :Permanent Datum
EPD  .                                   :Elevation of Permanent Datum above Mean Sea Level
LMF  .          NA                       :Logging Measured From (Name of Logging Elevation Reference)
APD  .                                   :Elevation of Depth Reference (LMF) above Permanent Datum
#-----------------------------------------------------------------------------
~CURVE INFORMATION
#MNEM.UNIT   API CODE                                  DESCRIPTION
#---- -----  --------                                  -----------------------
TIME .S                                                :TIME {F10.1}
FREQ_EMF_SL.HZ                                         :Electromagnetic Field Frequency {F13.4}
PH_SH_WPPCM_SL.DEG                                     :WPPCM Phase Shift {F13.4}
RB_SL.DEG                                              :Relative Bearing {F13.4}
SDEV_SL.DEG                                            :Sonde Deviation {F13.4}
RTIX_SL.DEG                                            :Raw X-axis Tilt {F13.4}
RTIY_SL.DEG                                            :Raw Y-axis Tilt {F13.4}
TILX_SL.DEG                                            :X-axis Tilt {F13.4}
TILY_SL.DEG                                            :Y-axis Tilt {F13.4}
ROTA_SL.DEG                                            :Motor Rotation Angle {F13.4}
TOD7 .S                                                :Time of Day {I11}
TOJ  .S                                                :Time of Job {F13.4}
#-----------------------------------------------------------------------------
# 
#     TIME    FREQ_EMF_SL  PH_SH_WPPCM_    RB_SL       SDEV_SL      RTIX_SL      RTIY_SL      TILX_SL      TILY_SL      ROTA_SL        TOD7            TOJ
#                          SL
~A  
# ...
      53.0    1417.5908       0.0000     156.1562    -999.2500      23.4573     100.2962      25.7657     100.4095     180.4896 1533250317 9999999.9999
      54.0    1406.2500       0.0000     162.4547    -999.2500      15.5043     104.4333      17.8127     104.6366     186.9940 1533250318 9999999.9999
      55.0    1386.8344       0.0000     169.9930      76.7825       7.4308     106.2810       9.7392     106.5244     193.0989 1533250319 9999999.9999
      56.0    1375.9785       0.0000     178.3018      73.1893      -0.6828     106.6425       1.6256     106.8938     199.2047 1533250320 9999999.9999
      57.0    1362.6454       0.0000    -173.1504      74.7904      -8.9170     106.4015      -6.6086     106.6475     205.2912 1533250321 9999999.9999
      58.0    1352.1635       0.0000    -165.2815      87.6748     -17.1110     103.2685     -14.8026     103.4465     211.3837 1533250322 9999999.9999
      59.0    1346.9828       0.0000    -158.4040    -999.2500     -25.3853      97.9665     -23.0769      98.0293     217.5020 1533250323 9999999.9999
      60.0    1344.4073       0.0000    -152.2685    -999.2500     -34.0212      90.8972     -31.7128      90.8063     223.6008 1533250324 9999999.9999
      61.0    1329.1588       0.0000    -147.2820    -999.2500     -41.9340      83.3458     -39.6256      83.0909     229.6996 1533250325 9999999.9999
      62.0    1319.1838       0.0000    -142.9062    -999.2500     -49.0837      74.9510     -46.7753      74.5137     235.7923 1533250326 9999999.9999
      63.0    1339.2858       0.0000    -138.2000    -999.2500     -56.1128      65.1503     -53.8044      64.5001     241.8973 1533250327 9999999.9999
      64.0    1336.7396       0.0000    -130.7090    -999.2500     -70.2515      53.7832     -67.9431      52.8859     247.9836 1533250328 9999999.9999
      65.0    1334.2030       0.0000    -126.4118    -999.2500     -79.3292      46.9950     -77.0208      45.9503     254.0825 1533250329 9999999.9999
      66.0    1329.1588       0.0000    -122.1842    -999.2500     -87.0813      40.0060     -84.7729      38.8094     260.5983 1533250330 9999999.9999
      67.0    1336.7396       0.0000    -117.4383    -999.2500     -94.2712      32.6153     -91.9628      31.2582     266.6847 1533250331 9999999.9999
      68.0    1339.2858       0.0000    -111.6328    -999.2500    -100.1757      24.6623     -97.8672      23.1324     272.7833 1533250332 9999999.9999
      69.0    1346.9828       0.0000    -104.8000    -999.2500    -104.5137      16.6692    -102.2053      14.9656     278.8829 1533250333 9999999.9999
      70.0    1344.4073       0.0000     -97.1182      78.0390    -106.2007       8.8367    -103.8923       6.9629     284.9937 1533250334 9999999.9999
      71.0    1357.3842       0.0000     -88.3788      76.0390    -106.3613       0.4820    -104.0529      -1.5733     291.1054 1533250335 9999999.9999
      72.0    1362.6454       0.0000     -79.2789      81.4994    -105.9597      -8.3547    -103.6513     -10.6020     297.2040 1533250336 9999999.9999
      73.0    1370.6140       0.0000     -71.8359      84.7983    -103.5898     -16.3478    -101.2814     -18.7688     303.3218 1533250337 9999999.9999
      74.0    1375.9785       0.0000     -65.5178    -999.2500     -98.8903     -24.3008     -96.5819     -26.8946     309.4265 1533250338 9999999.9999
      75.0    1386.8344       0.0000     -60.1744    -999.2500     -92.7448     -32.2137     -90.4364     -34.9794     315.5251 1533250339 9999999.9999
      76.0    1420.4546       0.0000     -55.8488    -999.2500     -85.7157     -39.4437     -83.4072     -42.3664     321.6248 1533250340 9999999.9999
      77.0    1449.7422       0.0000     -51.7442    -999.2500     -77.6422     -46.6335     -75.3338     -49.7125     327.7428 1533250341 9999999.9999
      78.0    1455.7454       0.0000     -47.4749    -999.2500     -67.9218     -53.4217     -65.6134     -56.6482     334.2400 1533250342 9999999.9999
      79.0    1470.9729       0.0000     -39.0563    -999.2500     -53.4217     -70.0105     -51.1133     -73.5974     340.3386 1533250343 9999999.9999
      80.0    1496.0106       0.0000     -35.0098    -999.2500     -46.3925     -79.5300     -44.0841     -83.3237     346.4564 1533250344 9999999.9999
      81.0    1508.8519       0.0000     -30.9398    -999.2500     -39.1223     -87.5633     -36.8139     -91.5316     352.5487 1533250345 9999999.9999
      82.0    1515.3556       0.0000     -26.3011    -999.2500     -31.6112     -93.9097     -29.3028     -98.0158     358.6603 1533250346 9999999.9999
      83.0    1538.5668       0.0000     -20.8521    -999.2500     -24.1000     -98.7297     -21.7916    -102.9406       4.7590 1533250347 9999999.9999
      84.0    1545.3296       0.0000     -13.7916      82.7091     -15.9863    -101.3003     -13.6779    -105.5671      10.8905 1533250348 9999999.9999
      85.0    1555.5862       0.0000      -5.6793      74.9534      -7.7923    -101.7823      -5.4839    -106.0596      16.9953 1533250349 9999999.9999
      86.0    1580.0563       0.0000       3.2304      74.4280       0.8033    -101.6217       3.1117    -105.8954      23.0941 1533250350 9999999.9999
      87.0    1587.1896       0.0000      11.6030      80.0527       9.1178    -100.9790      11.4262    -105.2388      29.1928 1533250351 9999999.9999
      88.0    1598.0114       0.0000      18.3868      82.8337      16.6290     -98.2878      18.9374    -102.4891      35.2855 1533250352 9999999.9999
      89.0    1612.6721       0.0000      24.2457    -999.2500      24.1803     -93.8695      26.4887     -97.9748      41.3903 1533250353 9999999.9999
      90.0    1620.1036       0.0000      29.0773    -999.2500      31.4505     -88.1257      33.7589     -92.1062      47.9071 1533250354 9999999.9999
      91.0    1638.9860       0.0000      33.2172    -999.2500      38.3993     -81.0563      40.7077     -84.8832      54.0119 1533250355 9999999.9999
      92.0    1638.9860       0.0000      37.3790    -999.2500      45.5490     -72.4205      47.8574     -76.0598      60.1168 1533250356 9999999.9999
      93.0    1631.3805       0.0000      41.9521    -999.2500      51.9355     -61.1337      54.2439     -64.5277      66.2155 1533250357 9999999.9999
      94.0    1646.6628       0.0000      50.9474    -999.2500      72.7017     -48.4812      75.0101     -51.6003      72.3143 1533250358 9999999.9999
      95.0    1658.3137       0.0000      54.5980    -999.2500      81.4580     -41.9742      83.7664     -44.9519      78.3950 1533250359 9999999.9999
      96.0    1642.8153       0.0000      58.4612    -999.2500      88.7683     -35.0253      91.0767     -37.8521      84.5534 1533250360 9999999.9999
      97.0    1635.1744       0.0000      63.3847    -999.2500      95.4762     -27.1125      97.7846     -29.7674      90.6397 1533250361 9999999.9999
      98.0    1638.9860       0.0000      68.7281    -999.2500      99.7338     -19.8825     102.0422     -22.3803      96.7384 1533250362 9999999.9999
      99.0    1635.1744       0.0000      75.2661      85.0857     101.6217     -12.4517     103.9301     -14.7880     102.8432 1533250363 9999999.9999
     100.0    1620.1036       0.0000      83.6253      77.0027     102.1438      -4.0568     104.4522      -6.2108     108.9366 1533250364 9999999.9999
     101.0    1612.6721       0.0000      92.6573      75.4213     102.5053       4.5388     104.8137       2.5717     115.0484 1533250365 9999999.9999
     102.0    1612.6721       0.0000     100.9527      81.1447     101.7422      12.6123     104.0506      10.8206     121.5582 1533250366 9999999.9999
     103.0    1598.0114       0.0000     108.2354      84.1575      98.7698      20.4850     101.0782      18.8643     127.6630 1533250367 9999999.9999
     104.0    1587.1896       0.0000     114.4077    -999.2500      93.7088      28.2773      96.0172      26.8259     133.7619 1533250368 9999999.9999
     105.0    1572.9866       0.0000     119.6310    -999.2500      87.1617      35.9492      89.4701      34.6645     139.8482 1533250369 9999999.9999
