~VERSION INFORMATION
VERS.           2.0   :CWLS Log ASCII Standard - VERSION 2.0
WRAP.           NO    :One Line per depth step
PROD.  Schlumberger   :LAS Producer
PROG.  DLIS to ASCII 19C2-270                          :LAS Program name and version
CREA.        2018/08/03 10:59                          :LAS Creation date {YYYY/MM/DD hh:mm}
DLIS_CREA.  2018-Aug-03 08:37                          :DLIS Creation date and time {YYYY-MMM-DD hh:mm}
SOURCE.     PERFO_Perfo_060PTP.DLIS                    :DLIS File Name
FILE-ID.     PERFO_Perfo_060PTP                        :File Identification Number
#--------------------------------------------------
~WELL INFORMATION
#MNEM.UNIT      DATA             DESCRIPTION
#---- ------ --------------   -----------------------------
STRT .S            0.0       :START TIME      
STOP .S         1390.0       :STOP TIME      
STEP .S            1.0       :STEP     
NULL .          -999.25      :NULL VALUE
COMP .        SHELL INTERNATIONAL EP                   :COMPANY
WELL .        WPP TEST 4                               :WELL
FLD  .        WILDCAT                                  :FIELD
LOC  .        NA                                       :LOCATION
CNTY .        HARRIS                                   :COUNTY
STAT .        TEXAS                                    :STATE
CTRY .                                                 :COUNTRY
API  .        NA                                       :API NUMBER
UWI  .                                                 :UNIQUE WELL ID
DATE .        02-Aug-2018                              :LOG DATE {DD-MMM-YYYY}
SRVC .        Schlumberger                             :SERVICE COMPANY
LATI .DEG                                              :LATITUDE
LONG .DEG                                              :LONGITUDE
GDAT .                                                 :GeoDetic Datum
SECT .        NA                                       :Section
RANG .        NA                                       :Range
TOWN .        NA                                       :Township
#-----------------------------------------------------------------------------
~PARAMETER INFORMATION
#MNEM.UNIT    VALUE                      DESCRIPTION
#---- -----   --------------------       ------------------------
U-PHASE_B_COMP_PER_YT.                 0 :Phase B Comparator Period Yt
U-PHASE_A_COMP_PER_XT.                 0 :Phase A Comparator Period Xt
U-MAX_EXC_CUR_LIMIT.MA       265.00000   :Requested CM Current Limit
U-REQ_EXC_FQ.HZ              50          :Requested CM Frequency
U-TILT_Y_OFFSET.          -2.06578       :WPTET Tilt Y Offset
U-TILT_Y_GAIN.           1.02173         :WPTET Tilt Y Gain
U-TILT_X_OFFSET.           2.30841       :WPTET Tilt X Offset
U-TILT_X_GAIN.           1.00000         :WPTET Tilt X Gain
U-TILT_OFFSET_TOL.           0.00100     :WPTET Tilt Offset Calibration Tolerance
U-MOT_CUR_LIMIT_REQ.MA        70.00000   :Requested Motor Current Limit
U-MOT_SPD_REQ_WPMS.RPM        1.00000    :Requested Motor Speed
U-STD_TOL_TILT.           0.01000        :Tilt Standard Deviation Tolerance
CWEI .LB/F      29.00000                 :Casing Weight
CSIZ .IN         7.00000                 :Current Casing Size
LCC  .               440                 :Logging Company Code
LUN  .              2134                 :Logging Unit Number
HIDE .                                   :Header Identifier
HID1 .                                   :Header Identifier Line 1
R1   .                                   :Remark Line 1
WITN .        MR. KELLEY McCOY           :Witness's Name
ENGI .        MORRIS MOORE               :Engineer's Name
LUL  .        IOWA COLONY                :Logging Unit Location
DATE .        02-Aug-2018                :Date as Month-Day-Year
STAT .        TEXAS                      :State or Province
COUN .        HARRIS                     :County or Rig Name
FN   .        WILDCAT                    :Field Name
WN   .        WPP TEST 4                 :Well Name
CN   .        SHELL INTERNATIONAL EP     :Company Name
CLAB .        County                     :County/Rig Label
SLAB .        State                      :State/Province Label
RUN  .          1                        :RUN NUMBER
PDAT .        GROUND LEVEL               :Permanent Datum
EPD  .                                   :Elevation of Permanent Datum above Mean Sea Level
LMF  .          NA                       :Logging Measured From (Name of Logging Elevation Reference)
APD  .                                   :Elevation of Depth Reference (LMF) above Permanent Datum
#-----------------------------------------------------------------------------
~CURVE INFORMATION
#MNEM.UNIT   API CODE                                  DESCRIPTION
#---- -----  --------                                  -----------------------
TIME .S                                                :TIME {F10.1}
FREQ_EMF_SL.HZ                                         :Electromagnetic Field Frequency {F13.4}
PH_SH_WPPCM_SL.DEG                                     :WPPCM Phase Shift {F13.4}
RB_SL.DEG                                              :Relative Bearing {F13.4}
SDEV_SL.DEG                                            :Sonde Deviation {F13.4}
RTIX_SL.DEG                                            :Raw X-axis Tilt {F13.4}
RTIY_SL.DEG                                            :Raw Y-axis Tilt {F13.4}
TILX_SL.DEG                                            :X-axis Tilt {F13.4}
TILY_SL.DEG                                            :Y-axis Tilt {F13.4}
ROTA_SL.DEG                                            :Motor Rotation Angle {F13.4}
TOD7 .S                                                :Time of Day {I11}
TOJ  .S                                                :Time of Job {F13.4}
#-----------------------------------------------------------------------------
# 
#     TIME    FREQ_EMF_SL  PH_SH_WPPCM_    RB_SL       SDEV_SL      RTIX_SL      RTIY_SL      TILX_SL      TILY_SL      ROTA_SL        TOD7            TOJ
#                          SL
~A  
# ...
     795.0       0.0000       0.0000    -150.7484    -999.2500     -36.3107      87.0412     -34.0023      86.8665     341.8229 1533222921 9999999.9999
     796.0       0.0000       0.0000    -150.6958    -999.2500     -36.3910      86.9608     -34.0826      86.7845     341.8229 1533222922 9999999.9999
     797.0       0.0000       0.0000    -150.6945    -999.2500     -36.3910      86.9106     -34.0826      86.7332     341.8229 1533222923 9999999.9999
     798.0       0.0000       0.0000    -150.6948    -999.2500     -36.3910      86.9207     -34.0826      86.7434     341.8229 1533222924 9999999.9999
     799.0       0.0000       0.0000    -150.6948    -999.2500     -36.3910      86.9207     -34.0826      86.7434     341.8229 1533222925 9999999.9999
     800.0       0.0000       0.0000    -150.6958    -999.2500     -36.3910      86.9608     -34.0826      86.7845     341.8229 1533222926 9999999.9999
     801.0       0.0000       0.0000    -150.6967    -999.2500     -36.3910      87.0010     -34.0826      86.8255     341.8229 1533222927 9999999.9999
     802.0       0.0000       0.0000    -150.6967    -999.2500     -36.3910      87.0010     -34.0826      86.8255     341.8229 1533222928 9999999.9999
     803.0       0.0000       0.0000    -150.7211    -999.2500     -36.3508      86.9608     -34.0424      86.7845     341.8229 1533222929 9999999.9999
     804.0       0.0000       0.0000    -150.7475    -999.2500     -36.3107      87.0010     -34.0023      86.8255     341.8229 1533222930 9999999.9999
     805.0       0.0000       0.0000    -150.7738    -999.2500     -36.2705      87.0412     -33.9621      86.8665     341.8229 1533222931 9999999.9999
     806.0       0.0000       0.0000    -150.6967    -999.2500     -36.3910      87.0010     -34.0826      86.8255     341.8229 1533222932 9999999.9999
     807.0       0.0000       0.0000    -150.7231    -999.2500     -36.3508      87.0412     -34.0424      86.8665     341.8229 1533222933 9999999.9999
     808.0       0.0000       0.0000    -150.6977    -999.2500     -36.3910      87.0412     -34.0826      86.8665     341.8229 1533222934 9999999.9999
     809.0       0.0000       0.0000    -150.7369    -999.2500     -36.3307      87.0914     -34.0223      86.9178     341.8229 1533222935 9999999.9999
     810.0    1997.5142       0.0000    -150.6958    -999.2500     -36.3910      86.9608     -34.0826      86.7845     341.8229 1533222936 9999999.9999
     811.0    1386.8344       0.0000    -149.0050    -999.2500     -39.0018      84.3098     -36.6934      84.0759     344.8942 1533222937 9999999.9999
     812.0    1395.0892       0.0000    -145.2187    -999.2500     -44.9867      77.8028     -42.6783      77.4275     349.8043 1533222938 9999999.9999
     813.0    1392.3268       0.0000    -140.6110    -999.2500     -52.0560      68.9260     -49.7476      68.3578     355.8483 1533222939 9999999.9999
     814.0    1392.3268       0.0000    -132.2524    -999.2500     -65.8332      55.2693     -63.5247      54.4044       1.9501 1533222940 9999999.9999
     815.0    1397.8628       0.0000    -127.5877    -999.2500     -75.6338      48.5213     -73.3254      47.5098       8.0519 1533222941 9999999.9999
     816.0    1395.0892       0.0000    -123.2389    -999.2500     -83.8680      41.5725     -81.5596      40.4100      14.5594 1533222942 9999999.9999
     817.0    1395.0892       0.0000    -118.5422    -999.2500     -91.0177      34.2622     -88.7093      32.9408      20.6488 1533222943 9999999.9999
     818.0    1392.3268       0.0000    -113.1609    -999.2500     -97.2837      26.7108     -94.9753      25.2254      26.7637 1533222944 9999999.9999
     819.0    1397.8628       0.0000    -106.6048    -999.2500    -101.9028      18.7578     -99.5944      17.0996      32.8655 1533222945 9999999.9999
     820.0    1403.4431       0.0000     -99.1700      82.7949    -103.9513      10.9253    -101.6429       9.0969      38.9805 1533222946 9999999.9999
     821.0    1397.8628       0.0000     -90.7405      78.2193    -104.1120       2.7313    -101.8036       0.7249      45.0823 1533222947 9999999.9999
     822.0    1406.2500       0.0000     -81.5331      82.0967    -103.8710      -6.1857    -101.5626      -8.3858      51.1841 1533222948 9999999.9999
     823.0    1406.2500       0.0000     -74.0168      84.3821    -102.2242     -14.0182     -99.9157     -16.3885      57.2859 1533222949 9999999.9999
     824.0    1397.8628       0.0000     -67.6006    -999.2500     -98.5690     -21.6498     -96.2606     -24.1860      63.3885 1533222950 9999999.9999
     825.0    1403.4431       0.0000     -62.1423    -999.2500     -93.2268     -29.2012     -90.9184     -31.9014      69.4934 1533222951 9999999.9999
     826.0    1403.4431       0.0000     -57.5890    -999.2500     -86.4387     -36.3107     -84.1302     -39.1654      75.5952 1533222952 9999999.9999
     827.0    1411.8976       0.0000     -53.4828    -999.2500     -79.0078     -43.0988     -76.6994     -46.1010      81.6847 1533222953 9999999.9999
     828.0    1406.2500       0.0000     -49.2219    -999.2500     -69.8097     -49.6862     -67.5013     -52.8315      88.1791 1533222954 9999999.9999
     829.0    1406.2500       0.0000     -40.0057    -999.2500     -52.4577     -62.7403     -50.1493     -66.1693      94.2808 1533222955 9999999.9999
     830.0    1414.7384       0.0000     -35.5635    -999.2500     -46.9548     -75.6740     -44.6464     -79.3840     100.3957 1533222956 9999999.9999
     831.0    1411.8976       0.0000     -31.4420    -999.2500     -39.9658     -83.8680     -37.6574     -87.7560     106.4975 1533222957 9999999.9999
     832.0    1411.8976       0.0000     -27.0896    -999.2500     -32.9768     -90.2545     -30.6684     -94.2813     112.5993 1533222958 9999999.9999
     833.0    1411.8976       0.0000     -22.0662    -999.2500     -25.9075     -94.9138     -23.5991     -99.0418     118.7017 1533222959 9999999.9999
     834.0    1417.5908       0.0000     -15.7100    -999.2500     -18.2758     -97.8460     -15.9674    -102.0377     124.8042 1533222960 9999999.9999
     835.0    1411.8976       0.0000      -8.4581      80.2794     -10.6442     -98.6493      -8.3358    -102.8585     130.9061 1533222961 9999999.9999
     836.0    1411.8976       0.0000       0.3077      77.2272      -2.0083     -98.5690       0.3001    -102.7764     137.0273 1533222962 9999999.9999
     837.0    1417.5908       0.0000       8.6784      81.1567       6.2660     -98.1673       8.5744    -102.3660     143.1261 1533222963 9999999.9999
     838.0    1414.7384       0.0000      15.7059     100.6423      13.7370     -96.4402      16.0454    -100.6013     149.2156 1533222964 9999999.9999
     839.0    1411.8976       0.0000      21.3842    -999.2500      20.5653     -92.8653      22.8737     -96.9488     155.3151 1533222965 9999999.9999
     840.0    1409.0682       0.0000      26.3680    -999.2500      27.3937     -87.7240      29.7021     -91.6958     161.8250 1533222966 9999999.9999
     841.0    1411.8976       0.0000      30.6551    -999.2500      33.9007     -81.4982      36.2091     -85.3347     167.9300 1533222967 9999999.9999
     842.0    1414.7384       0.0000      34.8291    -999.2500      40.5282     -74.0673      42.8366     -77.7424     174.0288 1533222968 9999999.9999
     843.0    1411.8976       0.0000      39.2379    -999.2500      46.9950     -64.7085      49.3034     -68.1802     180.1307 1533222969 9999999.9999
     844.0    1406.2500       0.0000      49.5380    -999.2500      66.3955     -49.4853      68.7039     -52.6263     186.2204 1533222970 9999999.9999
     845.0    1411.8976       0.0000      53.8471    -999.2500      76.4372     -42.7775      78.7456     -45.7727     192.3223 1533222971 9999999.9999
     846.0    1406.2500       0.0000      57.9852    -999.2500      84.5910     -35.7885      86.8994     -38.6319     198.4373 1533222972 9999999.9999
     847.0    1403.4431       0.0000      62.1920    -999.2500      90.8168     -29.0807      93.1252     -31.7783     204.5392 1533222973 9999999.9999
