~VERSION INFORMATION
VERS.           2.0   :CWLS Log ASCII Standard - VERSION 2.0
WRAP.           NO    :One Line per depth step
PROD.  Schlumberger   :LAS Producer
PROG.  DLIS to ASCII 19C2-270                          :LAS Program name and version
CREA.        2018/08/03 10:59                          :LAS Creation date {YYYY/MM/DD hh:mm}
DLIS_CREA.  2018-Aug-03 09:50                          :DLIS Creation date and time {YYYY-MMM-DD hh:mm}
SOURCE.     PERFO_Perfo_088PTP.DLIS                    :DLIS File Name
FILE-ID.     PERFO_Perfo_088PTP                        :File Identification Number
#--------------------------------------------------
~WELL INFORMATION
#MNEM.UNIT      DATA             DESCRIPTION
#---- ------ --------------   -----------------------------
STRT .S            0.0       :START TIME      
STOP .S          526.0       :STOP TIME      
STEP .S            1.0       :STEP     
NULL .          -999.25      :NULL VALUE
COMP .        SHELL INTERNATIONAL EP                   :COMPANY
WELL .        WPP TEST 4                               :WELL
FLD  .        WILDCAT                                  :FIELD
LOC  .        NA                                       :LOCATION
CNTY .        HARRIS                                   :COUNTY
STAT .        TEXAS                                    :STATE
CTRY .                                                 :COUNTRY
API  .        NA                                       :API NUMBER
UWI  .                                                 :UNIQUE WELL ID
DATE .        02-Aug-2018                              :LOG DATE {DD-MMM-YYYY}
SRVC .        Schlumberger                             :SERVICE COMPANY
LATI .DEG                                              :LATITUDE
LONG .DEG                                              :LONGITUDE
GDAT .                                                 :GeoDetic Datum
SECT .        NA                                       :Section
RANG .        NA                                       :Range
TOWN .        NA                                       :Township
#-----------------------------------------------------------------------------
~PARAMETER INFORMATION
#MNEM.UNIT    VALUE                      DESCRIPTION
#---- -----   --------------------       ------------------------
U-PHASE_B_COMP_PER_YT.                 0 :Phase B Comparator Period Yt
U-PHASE_A_COMP_PER_XT.                 0 :Phase A Comparator Period Xt
U-MAX_EXC_CUR_LIMIT.MA       265.00000   :Requested CM Current Limit
U-REQ_EXC_FQ.HZ              50          :Requested CM Frequency
U-TILT_Y_OFFSET.          -2.06578       :WPTET Tilt Y Offset
U-TILT_Y_GAIN.           1.02173         :WPTET Tilt Y Gain
U-TILT_X_OFFSET.           2.30841       :WPTET Tilt X Offset
U-TILT_X_GAIN.           1.00000         :WPTET Tilt X Gain
U-TILT_OFFSET_TOL.           0.00100     :WPTET Tilt Offset Calibration Tolerance
U-MOT_CUR_LIMIT_REQ.MA        70.00000   :Requested Motor Current Limit
U-MOT_SPD_REQ_WPMS.RPM        1.00000    :Requested Motor Speed
U-STD_TOL_TILT.           0.01000        :Tilt Standard Deviation Tolerance
CWEI .LB/F      29.00000                 :Casing Weight
CSIZ .IN         7.00000                 :Current Casing Size
LCC  .               440                 :Logging Company Code
LUN  .              2134                 :Logging Unit Number
HIDE .                                   :Header Identifier
HID1 .                                   :Header Identifier Line 1
R1   .                                   :Remark Line 1
WITN .        MR. KELLY McCOY            :Witness's Name
ENGI .        MORRIS MOORE               :Engineer's Name
LUL  .        IOWA COLONY                :Logging Unit Location
DATE .        02-Aug-2018                :Date as Month-Day-Year
STAT .        TEXAS                      :State or Province
COUN .        HARRIS                     :County or Rig Name
FN   .        WILDCAT                    :Field Name
WN   .        WPP TEST 4                 :Well Name
CN   .        SHELL INTERNATIONAL EP     :Company Name
CLAB .        County                     :County/Rig Label
SLAB .        State                      :State/Province Label
RUN  .          1                        :RUN NUMBER
PDAT .        GROUND LEVEL               :Permanent Datum
EPD  .                                   :Elevation of Permanent Datum above Mean Sea Level
LMF  .          NA                       :Logging Measured From (Name of Logging Elevation Reference)
APD  .                                   :Elevation of Depth Reference (LMF) above Permanent Datum
#-----------------------------------------------------------------------------
~CURVE INFORMATION
#MNEM.UNIT   API CODE                                  DESCRIPTION
#---- -----  --------                                  -----------------------
TIME .S                                                :TIME {F10.1}
FREQ_EMF_SL.HZ                                         :Electromagnetic Field Frequency {F13.4}
PH_SH_WPPCM_SL.DEG                                     :WPPCM Phase Shift {F13.4}
RB_SL.DEG                                              :Relative Bearing {F13.4}
SDEV_SL.DEG                                            :Sonde Deviation {F13.4}
RTIX_SL.DEG                                            :Raw X-axis Tilt {F13.4}
RTIY_SL.DEG                                            :Raw Y-axis Tilt {F13.4}
TILX_SL.DEG                                            :X-axis Tilt {F13.4}
TILY_SL.DEG                                            :Y-axis Tilt {F13.4}
ROTA_SL.DEG                                            :Motor Rotation Angle {F13.4}
TOD7 .S                                                :Time of Day {I11}
TOJ  .S                                                :Time of Job {F13.4}
#-----------------------------------------------------------------------------
# 
#     TIME    FREQ_EMF_SL  PH_SH_WPPCM_    RB_SL       SDEV_SL      RTIX_SL      RTIY_SL      TILX_SL      TILY_SL      ROTA_SL        TOD7            TOJ
#                          SL
~A  
# ...
     265.0       0.0000       0.0000       9.7186      77.8331       7.1898    -101.2602       9.4982    -105.5260      41.6668 1533250529 9999999.9999
     266.0       0.0000       0.0000      17.2274      92.6718      15.2633     -98.9707      17.5717    -103.1868      47.7655 1533250530 9999999.9999
     267.0       0.0000       0.0000      23.3014    -999.2500      22.8548     -95.0343      25.1632     -99.1649      53.8520 1533250531 9999999.9999
     268.0       0.0000       0.0000      28.2431    -999.2500      30.1250     -89.2102      32.4334     -93.2142      59.9446 1533250532 9999999.9999
     269.0       0.0000       0.0000      32.6102    -999.2500      37.3550     -82.2212      39.6634     -86.0734      66.0625 1533250533 9999999.9999
     270.0       0.0000       0.0000      36.6597    -999.2500      44.3440     -74.0272      46.6524     -77.7013      72.1743 1533250534 9999999.9999
     271.0       0.0000       0.0000      41.1302    -999.2500      51.0920     -63.3830      53.4004     -66.8259      78.2730 1533250535 9999999.9999
     272.0       0.0000       0.0000      50.3932    -999.2500      71.2958     -49.4050      73.6042     -52.5442      84.7890 1533250536 9999999.9999
     273.0       0.0000       0.0000      53.9711    -999.2500      80.1727     -43.1390      82.4811     -46.1421      90.9017 1533250537 9999999.9999
     274.0       0.0000       0.0000      57.9761    -999.2500      88.1257     -35.8688      90.4341     -38.7139      97.0005 1533250538 9999999.9999
     275.0       0.0000       0.0000      62.1314    -999.2500      94.1507     -29.0003      96.4591     -31.6962     103.1053 1533250539 9999999.9999
     276.0       0.0000       0.0000      67.3730    -999.2500      98.7698     -21.6097     101.0782     -24.1450     109.2102 1533250540 9999999.9999
     277.0       0.0000       0.0000      73.7426    -999.2500     101.2200     -14.0985     103.5284     -16.4706     115.3350 1533250541 9999999.9999
     278.0       0.0000       0.0000      82.2180      77.8319     102.1037      -5.4225     104.4121      -7.6061     121.4343 1533250542 9999999.9999
     279.0       0.0000       0.0000      91.0888      75.3060     102.4250       3.0527     104.7334       1.0532     127.5269 1533250543 9999999.9999
     280.0       0.0000       0.0000      99.6324      79.3920     101.9832      11.2868     104.2916       9.4663     133.6196 1533250544 9999999.9999
     281.0       0.0000       0.0000     107.1541      95.4196      99.4125      19.2398     101.7209      17.5921     139.7184 1533250545 9999999.9999
     282.0       0.0000       0.0000     113.5461    -999.2500      94.5523      27.1125      96.8607      25.6358     145.8172 1533250546 9999999.9999
     283.0       0.0000       0.0000     118.8546    -999.2500      88.2863      34.7442      90.5947      33.4333     151.9222 1533250547 9999999.9999
     284.0       0.0000       0.0000     123.5926    -999.2500      80.5743      42.3758      82.8827      41.2308     158.4321 1533250548 9999999.9999
     285.0       0.0000       0.0000     127.9103    -999.2500      71.8983      49.5255      74.2067      48.5358     164.5440 1533250549 9999999.9999
     286.0       0.0000       0.0000     132.9224    -999.2500      59.8885      56.1932      62.1969      55.3483     170.6490 1533250550 9999999.9999
     287.0       0.0000       0.0000     140.1584    -999.2500      50.4895      73.1435      52.7979      72.6669     176.7549 1533250551 9999999.9999
     288.0       0.0000       0.0000     143.9982    -999.2500      43.6612      81.9802      45.9696      81.6956     182.8538 1533250552 9999999.9999
     289.0       0.0000       0.0000     147.8708    -999.2500      36.5918      89.4512      38.9002      89.3289     188.9526 1533250553 9999999.9999
     290.0       0.0000       0.0000     152.6796    -999.2500      28.5585      96.6812      30.8669      96.7160     195.0462 1533250554 9999999.9999
     291.0       0.0000       0.0000     158.3774    -999.2500      20.4850     102.0635      22.7934     102.2153     201.1387 1533250555 9999999.9999
     292.0       0.0000       0.0000     165.1794      84.8762      12.4517     105.4375      14.7601     105.6626     207.2376 1533250556 9999999.9999
     293.0       0.0000       0.0000     173.2717      74.6026       4.1773     106.5220       6.4857     106.7706     213.3241 1533250557 9999999.9999
     294.0       0.0000       0.0000    -178.1728      73.1199      -4.0568     106.7228      -1.7484     106.9758     219.4291 1533250558 9999999.9999
     295.0       0.0000       0.0000    -169.9933      77.8888     -12.0902     105.4375      -9.7818     105.6626     225.5473 1533250559 9999999.9999
     296.0       0.0000       0.0000    -162.3785      98.0457     -20.4448     101.3405     -18.1364     101.4766     232.0388 1533250560 9999999.9999
     297.0       0.0000       0.0000    -155.8696    -999.2500     -28.7995      95.2753     -26.4911      95.2796     238.1438 1533250561 9999999.9999
     298.0       0.0000       0.0000    -150.6506    -999.2500     -36.5115      88.6880     -34.2031      88.5492     244.2618 1533250562 9999999.9999
     299.0       0.0000       0.0000    -145.9890    -999.2500     -44.0628      81.0162     -41.7544      80.7106     250.3606 1533250563 9999999.9999
     300.0       0.0000       0.0000    -141.5117    -999.2500     -51.3330      72.2197     -49.0246      71.7230     256.4472 1533250564 9999999.9999
     301.0       0.0000       0.0000    -135.8796    -999.2500     -58.6835      59.9287     -56.3751      59.1650     262.5272 1533250565 9999999.9999
     302.0       0.0000       0.0000    -128.9046    -999.2500     -74.1075      51.0117     -71.7991      50.0542     268.6197 1533250566 9999999.9999
     303.0       0.0000       0.0000    -124.8051    -999.2500     -82.5425      44.3440     -80.2341      43.2417     274.7313 1533250567 9999999.9999
     304.0       0.0000       0.0000    -120.3293    -999.2500     -90.0135      37.0337     -87.7051      35.7725     280.8309 1533250568 9999999.9999
     305.0       0.0000       0.0000    -115.2247    -999.2500     -96.6812      29.4422     -94.3727      28.0161     286.9357 1533250569 9999999.9999
     306.0       0.0000       0.0000    -109.0188    -999.2500    -102.2242      21.4490     -99.9157      19.8492     293.0667 1533250570 9999999.9999
     307.0       0.0000       0.0000    -101.9095      84.1510    -105.5580      13.6165    -103.2496      11.8466     299.1531 1533250571 9999999.9999
     308.0       0.0000       0.0000     -93.5328      76.3897    -106.3613       5.3823    -104.0529       3.4335     305.6628 1533250572 9999999.9999
     309.0       0.0000       0.0000     -84.8042      76.9682    -106.3212      -2.9322    -104.0127      -5.0617     311.7675 1533250573 9999999.9999
     310.0       0.0000       0.0000     -76.5868      86.5280    -105.3572     -11.1262    -103.0488     -13.4337     317.8661 1533250574 9999999.9999
     311.0       0.0000       0.0000     -69.4497    -999.2500    -102.0635     -19.1997     -99.7551     -21.6826     323.9647 1533250575 9999999.9999
     312.0       0.0000       0.0000     -63.5185    -999.2500     -97.0427     -27.1125     -94.7343     -29.7674     330.0694 1533250576 9999999.9999
     313.0       0.0000       0.0000     -58.5679    -999.2500     -90.2947     -34.8245     -87.9863     -37.6469     336.1742 1533250577 9999999.9999
     314.0       0.0000       0.0000     -54.0672    -999.2500     -82.4622     -42.5767     -80.1538     -45.5675     342.2728 1533250578 9999999.9999
     315.0       0.0000       0.0000     -49.9299    -999.2500     -73.6255     -49.6862     -71.3171     -52.8315     348.3844 1533250579 9999999.9999
     316.0       0.0000       0.0000     -45.0789    -999.2500     -62.0575     -56.1932     -59.7491     -59.4799     354.4892 1533250580 9999999.9999
     317.0       0.0000       0.0000     -37.3440    -999.2500     -50.5698     -74.2682     -48.2614     -77.9476       0.6070 1533250581 9999999.9999
