~VERSION INFORMATION
VERS.           2.0   :CWLS Log ASCII Standard - VERSION 2.0
WRAP.           NO    :One Line per depth step
PROD.  Schlumberger   :LAS Producer
PROG.  DLIS to ASCII 19C2-270                          :LAS Program name and version
CREA.        2018/08/03 10:59                          :LAS Creation date {YYYY/MM/DD hh:mm}
DLIS_CREA.  2018-Aug-03 08:37                          :DLIS Creation date and time {YYYY-MMM-DD hh:mm}
SOURCE.     PERFO_Perfo_060PTP.DLIS                    :DLIS File Name
FILE-ID.     PERFO_Perfo_060PTP                        :File Identification Number
#--------------------------------------------------
~WELL INFORMATION
#MNEM.UNIT      DATA             DESCRIPTION
#---- ------ --------------   -----------------------------
STRT .S            0.0       :START TIME      
STOP .S         1390.0       :STOP TIME      
STEP .S            1.0       :STEP     
NULL .          -999.25      :NULL VALUE
COMP .        SHELL INTERNATIONAL EP                   :COMPANY
WELL .        WPP TEST 4                               :WELL
FLD  .        WILDCAT                                  :FIELD
LOC  .        NA                                       :LOCATION
CNTY .        HARRIS                                   :COUNTY
STAT .        TEXAS                                    :STATE
CTRY .                                                 :COUNTRY
API  .        NA                                       :API NUMBER
UWI  .                                                 :UNIQUE WELL ID
DATE .        02-Aug-2018                              :LOG DATE {DD-MMM-YYYY}
SRVC .        Schlumberger                             :SERVICE COMPANY
LATI .DEG                                              :LATITUDE
LONG .DEG                                              :LONGITUDE
GDAT .                                                 :GeoDetic Datum
SECT .        NA                                       :Section
RANG .        NA                                       :Range
TOWN .        NA                                       :Township
#-----------------------------------------------------------------------------
~PARAMETER INFORMATION
#MNEM.UNIT    VALUE                      DESCRIPTION
#---- -----   --------------------       ------------------------
U-PHASE_B_COMP_PER_YT.                 0 :Phase B Comparator Period Yt
U-PHASE_A_COMP_PER_XT.                 0 :Phase A Comparator Period Xt
U-MAX_EXC_CUR_LIMIT.MA       265.00000   :Requested CM Current Limit
U-REQ_EXC_FQ.HZ              50          :Requested CM Frequency
U-TILT_Y_OFFSET.          -2.06578       :WPTET Tilt Y Offset
U-TILT_Y_GAIN.           1.02173         :WPTET Tilt Y Gain
U-TILT_X_OFFSET.           2.30841       :WPTET Tilt X Offset
U-TILT_X_GAIN.           1.00000         :WPTET Tilt X Gain
U-TILT_OFFSET_TOL.           0.00100     :WPTET Tilt Offset Calibration Tolerance
U-MOT_CUR_LIMIT_REQ.MA        70.00000   :Requested Motor Current Limit
U-MOT_SPD_REQ_WPMS.RPM        1.00000    :Requested Motor Speed
U-STD_TOL_TILT.           0.01000        :Tilt Standard Deviation Tolerance
CWEI .LB/F      29.00000                 :Casing Weight
CSIZ .IN         7.00000                 :Current Casing Size
LCC  .               440                 :Logging Company Code
LUN  .              2134                 :Logging Unit Number
HIDE .                                   :Header Identifier
HID1 .                                   :Header Identifier Line 1
R1   .                                   :Remark Line 1
WITN .        MR. KELLEY McCOY           :Witness's Name
ENGI .        MORRIS MOORE               :Engineer's Name
LUL  .        IOWA COLONY                :Logging Unit Location
DATE .        02-Aug-2018                :Date as Month-Day-Year
STAT .        TEXAS                      :State or Province
COUN .        HARRIS                     :County or Rig Name
FN   .        WILDCAT                    :Field Name
WN   .        WPP TEST 4                 :Well Name
CN   .        SHELL INTERNATIONAL EP     :Company Name
CLAB .        County                     :County/Rig Label
SLAB .        State                      :State/Province Label
RUN  .          1                        :RUN NUMBER
PDAT .        GROUND LEVEL               :Permanent Datum
EPD  .                                   :Elevation of Permanent Datum above Mean Sea Level
LMF  .          NA                       :Logging Measured From (Name of Logging Elevation Reference)
APD  .                                   :Elevation of Depth Reference (LMF) above Permanent Datum
#-----------------------------------------------------------------------------
~CURVE INFORMATION
#MNEM.UNIT   API CODE                                  DESCRIPTION
#---- -----  --------                                  -----------------------
TIME .S                                                :TIME {F10.1}
FREQ_EMF_SL.HZ                                         :Electromagnetic Field Frequency {F13.4}
PH_SH_WPPCM_SL.DEG                                     :WPPCM Phase Shift {F13.4}
RB_SL.DEG                                              :Relative Bearing {F13.4}
SDEV_SL.DEG                                            :Sonde Deviation {F13.4}
RTIX_SL.DEG                                            :Raw X-axis Tilt {F13.4}
RTIY_SL.DEG                                            :Raw Y-axis Tilt {F13.4}
TILX_SL.DEG                                            :X-axis Tilt {F13.4}
TILY_SL.DEG                                            :Y-axis Tilt {F13.4}
ROTA_SL.DEG                                            :Motor Rotation Angle {F13.4}
TOD7 .S                                                :Time of Day {I11}
TOJ  .S                                                :Time of Job {F13.4}
#-----------------------------------------------------------------------------
# 
#     TIME    FREQ_EMF_SL  PH_SH_WPPCM_    RB_SL       SDEV_SL      RTIX_SL      RTIY_SL      TILX_SL      TILY_SL      ROTA_SL        TOD7            TOJ
#                          SL
~A  
# ...
     954.0    1411.8976       0.0000      -6.3083      78.7607      -8.4952     -98.6594      -6.1868    -102.8687     141.1532 1533223080 9999999.9999
     955.0    1409.0682       0.0000       2.7757      77.5239       0.4017     -98.5690       2.7101    -102.7764     147.2551 1533223081 9999999.9999
     956.0    1409.0682       0.0000      10.8691      84.7948       8.5153     -97.8460      10.8237    -102.0377     153.3570 1533223082 9999999.9999
     957.0    1409.0682       0.0000      17.3454    -999.2500      15.6248     -95.5163      17.9332     -99.6574     159.4589 1533223083 9999999.9999
     958.0    1409.0682       0.0000      22.9466    -999.2500      22.6138     -91.4997      24.9222     -95.5535     165.5639 1533223084 9999999.9999
     959.0    1409.0682       0.0000      27.6741    -999.2500      29.3217     -86.2378      31.6301     -90.1773     171.6658 1533223085 9999999.9999
     960.0    1406.2500       0.0000      31.8445    -999.2500      35.7885     -79.6103      38.0969     -83.4058     177.7677 1533223086 9999999.9999
     961.0    1409.0682       0.0000      36.0195    -999.2500      42.3758     -71.6573      44.6842     -75.2800     184.2745 1533223087 9999999.9999
     962.0    1406.2500       0.0000      40.7743    -999.2500      48.6017     -60.7722      50.9101     -64.1584     190.3764 1533223088 9999999.9999
     963.0    1403.4431       0.0000      51.1558    -999.2500      70.0507     -47.0352      72.3591     -50.1229     196.4783 1533223089 9999999.9999
     964.0    1409.0682       0.0000      54.9796    -999.2500      78.7267     -40.8495      81.0351     -43.8028     202.5679 1533223090 9999999.9999
     965.0    1409.0682       0.0000      58.9084    -999.2500      86.1575     -34.2622      88.4659     -37.0724     208.6698 1533223091 9999999.9999
     966.0    1403.4431       0.0000      63.2191    -999.2500      91.9817     -27.5543      94.2901     -30.2188     214.7717 1533223092 9999999.9999
     967.0    1400.6475       0.0000      68.8022    -999.2500      96.3598     -20.0432      98.6682     -22.5444     220.8613 1533223093 9999999.9999
     968.0    1400.6475       0.0000      75.0230    -999.2500      98.4083     -12.8935     100.7167     -15.2394     226.9763 1533223094 9999999.9999
     969.0    1397.8628       0.0000      83.0036      80.9265      99.1313      -4.7397     101.4397      -6.9084     233.0658 1533223095 9999999.9999
     970.0    1395.0892       0.0000      91.8727      78.1835      99.6535       3.8158     101.9619       1.8330     239.1739 1533223096 9999999.9999
     971.0    1400.6475       0.0000     100.0065      84.4274      99.1313      11.7688     101.4397       9.9588     245.2828 1533223097 9999999.9999
     972.0    1397.8628       0.0000     107.0537    -999.2500      96.7615      19.2800      99.0699      17.6331     251.3847 1533223098 9999999.9999
     973.0    1392.3268       0.0000     113.2070    -999.2500      92.1022      26.7912      94.4106      25.3075     257.8946 1533223099 9999999.9999
     974.0    1389.5751       0.0000     118.4106    -999.2500      86.2378      34.0613      88.5462      32.7356     263.9964 1533223100 9999999.9999
     975.0    1392.3268       0.0000     123.1476    -999.2500      78.9677      41.3717      81.2761      40.2048     270.0982 1533223101 9999999.9999
     976.0    1392.3268       0.0000     127.7378    -999.2500      70.1310      48.5615      72.4394      47.5508     276.2000 1533223102 9999999.9999
     977.0    1389.5751       0.0000     133.3883    -999.2500      56.8358      55.1087      59.1442      54.2402     282.3018 1533223103 9999999.9999
     978.0    1386.8344       0.0000     140.9937    -999.2500      48.4410      73.4247      50.7494      72.9542     288.4043 1533223104 9999999.9999
     979.0    1389.5751       0.0000     145.1249    -999.2500      41.3717      82.5425      43.6801      82.2701     294.4938 1533223105 9999999.9999
     980.0    1386.8344       0.0000     149.1886    -999.2500      34.3023      89.7323      36.6107      89.6162     300.6086 1533223106 9999999.9999
     981.0    1386.8344       0.0000     153.9886    -999.2500      26.7108      96.1992      29.0192      96.2235     306.7112 1533223107 9999999.9999
     982.0    1381.3850       0.0000     159.7367    -999.2500      18.9185     101.1397      21.2269     101.2714     312.8130 1533223108 9999999.9999
     983.0    1386.8344       0.0000     166.4996      86.4986      11.1663     103.7505      13.4747     103.9389     318.9311 1533223109 9999999.9999
     984.0    1384.1044       0.0000     174.6472      76.3132       2.8920     104.4735       5.2004     104.6776     325.0329 1533223110 9999999.9999
     985.0    1381.3850       0.0000    -176.7834      75.5033      -5.4225     104.6342      -3.1141     104.8418     331.5528 1533223111 9999999.9999
     986.0    1384.1044       0.0000    -168.9931      82.3003     -13.2148     103.2283     -10.9064     103.4054     337.6546 1533223112 9999999.9999
     987.0    1386.8344       0.0000    -161.6632      87.5906     -21.4088      99.0510     -19.1004      99.1373     343.7564 1533223113 9999999.9999
     988.0    1381.3850       0.0000    -155.5095    -999.2500     -29.3618      93.2268     -27.0534      93.1866     349.8713 1533223114 9999999.9999
     989.0    1384.1044       0.0000    -150.1988    -999.2500     -37.1542      86.2378     -34.8458      86.0458     355.9731 1533223115 9999999.9999
     990.0    1386.8344       0.0000    -145.4412    -999.2500     -44.6653      78.3652     -42.3569      78.0020       2.0749 1533223116 9999999.9999
     991.0    1381.3850       0.0000    -140.4877    -999.2500     -52.2568      68.7252     -49.9484      68.1526       8.1899 1533223117 9999999.9999
     992.0    1384.1044       0.0000    -132.2724    -999.2500     -65.7528      55.2693     -63.4444      54.4044      14.2824 1533223118 9999999.9999
     993.0    1384.1044       0.0000    -127.5753    -999.2500     -75.5937      48.4812     -73.2853      47.4687      20.3689 1533223119 9999999.9999
     994.0    1392.3268       0.0000    -123.3601    -999.2500     -83.7073      41.7733     -81.3989      40.6152      26.4707 1533223120 9999999.9999
     995.0    1384.1044       0.0000    -118.6215    -999.2500     -91.0578      34.3827     -88.7494      33.0639      32.5725 1533223121 9999999.9999
     996.0    1386.8344       0.0000    -113.2188    -999.2500     -97.1230      26.7912     -94.8146      25.3075      38.6743 1533223122 9999999.9999
     997.0    1384.1044       0.0000    -106.7471    -999.2500    -101.8225      18.9185     -99.5141      17.2638      45.1849 1533223123 9999999.9999
     998.0    1392.3268       0.0000     -99.4130      83.0483    -103.9915      11.1663    -101.6831       9.3432      51.2868 1533223124 9999999.9999
     999.0    1389.5751       0.0000     -90.9503      78.1536    -104.1923       2.9322    -101.8839       0.9301      57.3886 1533223125 9999999.9999
    1000.0    1389.5751       0.0000     -82.4281      81.2360    -103.8710      -5.3020    -101.5626      -7.4830      63.4904 1533223126 9999999.9999
    1001.0    1389.5751       0.0000     -74.5959      96.8127    -102.5455     -13.3755    -100.2371     -15.7319      69.5922 1533223127 9999999.9999
    1002.0    1397.8628       0.0000     -68.1962    -999.2500     -99.0912     -20.8867     -96.7828     -23.4063      75.6940 1533223128 9999999.9999
    1003.0    1395.0892       0.0000     -62.3062    -999.2500     -93.2268     -28.9602     -90.9184     -31.6552      81.7958 1533223129 9999999.9999
    1004.0    1400.6475       0.0000     -57.6438    -999.2500     -86.6395     -36.2303     -84.3311     -39.0833      87.8975 1533223130 9999999.9999
    1005.0    1406.2500       0.0000     -53.5676    -999.2500     -79.0882     -42.9382     -76.7798     -45.9369      93.9993 1533223131 9999999.9999
    1006.0    1403.4431       0.0000     -49.2054    -999.2500     -69.7293     -49.6862     -67.4209     -52.8315     100.1011 1533223132 9999999.9999
