~VERSION INFORMATION
VERS.           2.0   :CWLS Log ASCII Standard - VERSION 2.0
WRAP.           NO    :One Line per depth step
PROD.  Schlumberger   :LAS Producer
PROG.  DLIS to ASCII 19C2-270                          :LAS Program name and version
CREA.        2018/08/03 10:59                          :LAS Creation date {YYYY/MM/DD hh:mm}
DLIS_CREA.  2018-Aug-03 08:37                          :DLIS Creation date and time {YYYY-MMM-DD hh:mm}
SOURCE.     PERFO_Perfo_060PTP.DLIS                    :DLIS File Name
FILE-ID.     PERFO_Perfo_060PTP                        :File Identification Number
#--------------------------------------------------
~WELL INFORMATION
#MNEM.UNIT      DATA             DESCRIPTION
#---- ------ --------------   -----------------------------
STRT .S            0.0       :START TIME      
STOP .S         1390.0       :STOP TIME      
STEP .S            1.0       :STEP     
NULL .          -999.25      :NULL VALUE
COMP .        SHELL INTERNATIONAL EP                   :COMPANY
WELL .        WPP TEST 4                               :WELL
FLD  .        WILDCAT                                  :FIELD
LOC  .        NA                                       :LOCATION
CNTY .        HARRIS                                   :COUNTY
STAT .        TEXAS                                    :STATE
CTRY .                                                 :COUNTRY
API  .        NA                                       :API NUMBER
UWI  .                                                 :UNIQUE WELL ID
DATE .        02-Aug-2018                              :LOG DATE {DD-MMM-YYYY}
SRVC .        Schlumberger                             :SERVICE COMPANY
LATI .DEG                                              :LATITUDE
LONG .DEG                                              :LONGITUDE
GDAT .                                                 :GeoDetic Datum
SECT .        NA                                       :Section
RANG .        NA                                       :Range
TOWN .        NA                                       :Township
#-----------------------------------------------------------------------------
~PARAMETER INFORMATION
#MNEM.UNIT    VALUE                      DESCRIPTION
#---- -----   --------------------       ------------------------
U-PHASE_B_COMP_PER_YT.                 0 :Phase B Comparator Period Yt
U-PHASE_A_COMP_PER_XT.                 0 :Phase A Comparator Period Xt
U-MAX_EXC_CUR_LIMIT.MA       265.00000   :Requested CM Current Limit
U-REQ_EXC_FQ.HZ              50          :Requested CM Frequency
U-TILT_Y_OFFSET.          -2.06578       :WPTET Tilt Y Offset
U-TILT_Y_GAIN.           1.02173         :WPTET Tilt Y Gain
U-TILT_X_OFFSET.           2.30841       :WPTET Tilt X Offset
U-TILT_X_GAIN.           1.00000         :WPTET Tilt X Gain
U-TILT_OFFSET_TOL.           0.00100     :WPTET Tilt Offset Calibration Tolerance
U-MOT_CUR_LIMIT_REQ.MA        70.00000   :Requested Motor Current Limit
U-MOT_SPD_REQ_WPMS.RPM        1.00000    :Requested Motor Speed
U-STD_TOL_TILT.           0.01000        :Tilt Standard Deviation Tolerance
CWEI .LB/F      29.00000                 :Casing Weight
CSIZ .IN         7.00000                 :Current Casing Size
LCC  .               440                 :Logging Company Code
LUN  .              2134                 :Logging Unit Number
HIDE .                                   :Header Identifier
HID1 .                                   :Header Identifier Line 1
R1   .                                   :Remark Line 1
WITN .        MR. KELLEY McCOY           :Witness's Name
ENGI .        MORRIS MOORE               :Engineer's Name
LUL  .        IOWA COLONY                :Logging Unit Location
DATE .        02-Aug-2018                :Date as Month-Day-Year
STAT .        TEXAS                      :State or Province
COUN .        HARRIS                     :County or Rig Name
FN   .        WILDCAT                    :Field Name
WN   .        WPP TEST 4                 :Well Name
CN   .        SHELL INTERNATIONAL EP     :Company Name
CLAB .        County                     :County/Rig Label
SLAB .        State                      :State/Province Label
RUN  .          1                        :RUN NUMBER
PDAT .        GROUND LEVEL               :Permanent Datum
EPD  .                                   :Elevation of Permanent Datum above Mean Sea Level
LMF  .          NA                       :Logging Measured From (Name of Logging Elevation Reference)
APD  .                                   :Elevation of Depth Reference (LMF) above Permanent Datum
#-----------------------------------------------------------------------------
~CURVE INFORMATION
#MNEM.UNIT   API CODE                                  DESCRIPTION
#---- -----  --------                                  -----------------------
TIME .S                                                :TIME {F10.1}
FREQ_EMF_SL.HZ                                         :Electromagnetic Field Frequency {F13.4}
PH_SH_WPPCM_SL.DEG                                     :WPPCM Phase Shift {F13.4}
RB_SL.DEG                                              :Relative Bearing {F13.4}
SDEV_SL.DEG                                            :Sonde Deviation {F13.4}
RTIX_SL.DEG                                            :Raw X-axis Tilt {F13.4}
RTIY_SL.DEG                                            :Raw Y-axis Tilt {F13.4}
TILX_SL.DEG                                            :X-axis Tilt {F13.4}
TILY_SL.DEG                                            :Y-axis Tilt {F13.4}
ROTA_SL.DEG                                            :Motor Rotation Angle {F13.4}
TOD7 .S                                                :Time of Day {I11}
TOJ  .S                                                :Time of Job {F13.4}
#-----------------------------------------------------------------------------
# 
#     TIME    FREQ_EMF_SL  PH_SH_WPPCM_    RB_SL       SDEV_SL      RTIX_SL      RTIY_SL      TILX_SL      TILY_SL      ROTA_SL        TOD7            TOJ
#                          SL
~A  
       0.0    1395.0892       0.0000     -17.3417    -999.2500     -20.1235     -97.3640     -17.8151    -101.5452     354.7120 1533222127 9999999.9999
       1.0    1392.3268       0.0000     -12.7090      83.9813     -15.0223     -98.4083     -12.7139    -102.6123     359.1848 1533222127 9999999.9999
       2.0    1397.8628       0.0000      -4.7052      77.8875      -6.9087     -98.7698      -4.6003    -102.9816       5.2998 1533222128 9999999.9999
       3.0    1400.6475       0.0000       4.2099      77.8827       1.8075     -98.6092       4.1159    -102.8174      11.4016 1533222129 9999999.9999
       4.0    1403.4431       0.0000      12.0604      86.6917       9.7605     -97.6853      12.0689    -101.8735      17.4911 1533222130 9999999.9999
       5.0    1403.4431       0.0000      18.4479    -999.2500      16.9102     -95.1950      19.2186     -99.3291      23.5929 1533222131 9999999.9999
       6.0    1409.0682       0.0000      23.9263    -999.2500      23.9393     -90.5758      26.2477     -94.6096      30.1158 1533222132 9999999.9999
       7.0    1414.7384       0.0000      28.5501    -999.2500      30.6472     -84.9927      32.9556     -88.9051      36.2052 1533222133 9999999.9999
       8.0    1411.8976       0.0000      32.7173    -999.2500      37.1943     -78.2045      39.5027     -81.9694      42.3202 1533222134 9999999.9999
       9.0    1406.2500       0.0000      37.0274    -999.2500      43.9423     -69.6892      46.2507     -73.2691      48.4220 1533222135 9999999.9999
      10.0    1417.5908       0.0000      42.0433    -999.2500      49.7263     -57.6392      52.0347     -60.9573      54.5239 1533222136 9999999.9999
      11.0    1416.1631       0.0000      52.0360    -999.2500      72.3000     -45.7297      74.6084     -48.7891      60.6387 1533222137 9999999.9999
      12.0    1411.8976       0.0000      56.0610    -999.2500      81.1367     -39.0420      83.4451     -41.9561      66.7413 1533222138 9999999.9999
      13.0    1411.8976       0.0000      60.0233    -999.2500      88.0453     -32.4547      90.3537     -35.2256      72.8430 1533222139 9999999.9999
      14.0    1417.5908       0.0000      64.6461    -999.2500      93.5080     -25.5058      95.8164     -28.1258      78.9448 1533222140 9999999.9999
      15.0    1417.5908       0.0000      69.9833    -999.2500      97.0427     -18.5972      99.3511     -21.0670      85.0466 1533222141 9999999.9999
      16.0    1414.7384       0.0000      76.5589    -999.2500      98.9305     -11.2467     101.2389     -13.5568      91.1616 1533222142 9999999.9999
      17.0    1414.7384       0.0000      84.8911      79.3478      99.4928      -2.8920     101.8012      -5.0206      97.2633 1533222143 9999999.9999
      18.0    1414.7384       0.0000      93.7985      78.3948      99.8945       5.6635     102.2029       3.7208     103.7731 1533222144 9999999.9999
      19.0    1411.8976       0.0000     101.5844      86.4159      98.8903      13.3755     101.1987      11.6003     109.8756 1533222145 9999999.9999
      20.0    1406.2500       0.0000     108.6227    -999.2500      95.9582      21.0875      98.2666      19.4799     115.9905 1533222146 9999999.9999
      21.0    1411.8976       0.0000     114.5653    -999.2500      90.8972      28.5987      93.2056      27.1543     122.0922 1533222147 9999999.9999
      22.0    1409.0682       0.0000     119.6404    -999.2500      84.5910      35.9090      86.8994      34.6234     128.1940 1533222148 9999999.9999
      23.0    1403.4431       0.0000     124.3079    -999.2500      76.9192      43.2193      79.2276      42.0926     134.2959 1533222149 9999999.9999
      24.0    1403.4431       0.0000     129.1777    -999.2500      67.1185      50.6903      69.4269      49.7259     140.3978 1533222150 9999999.9999
      25.0    1403.4431       0.0000     137.5926    -999.2500      53.5020      65.5520      55.8104      64.9105     146.4874 1533222151 9999999.9999
      26.0    1400.6475       0.0000     142.0578    -999.2500      46.7138      75.9552      49.0222      75.5397     152.5893 1533222152 9999999.9999
      27.0    1392.3268       0.0000     145.9198    -999.2500      39.9658      84.1090      42.2742      83.8707     158.6918 1533222153 9999999.9999
      28.0    1392.3268       0.0000     150.1053    -999.2500      32.7760      91.2587      35.0844      91.1757     164.7937 1533222154 9999999.9999
      29.0    1389.5751       0.0000     155.0661    -999.2500      25.1443      97.3640      27.4527      97.4137     170.8956 1533222155 9999999.9999
      30.0    1389.5751       0.0000     160.9463    -999.2500      17.4323     101.9028      19.7407     102.0511     177.4086 1533222156 9999999.9999
      31.0    1381.3850       0.0000     167.9827      82.3297       9.5998     104.0317      11.9082     104.2262     183.5074 1533222157 9999999.9999
      32.0    1378.6765       0.0000     176.2892      75.5771       1.2853     104.6743       3.5937     104.8828     189.6093 1533222158 9999999.9999
      33.0    1384.1044       0.0000    -175.1336      75.9618      -7.0292     104.6342      -4.7208     104.8418     195.7112 1533222159 9999999.9999
      34.0    1373.2910       0.0000    -167.4433      88.6713     -14.8617     102.4652     -12.5533     102.6257     201.8008 1533222160 9999999.9999
      35.0    1373.2910       0.0000    -160.9206    -999.2500     -22.3327      98.0468     -20.0243      98.1113     207.9158 1533222161 9999999.9999
      36.0    1375.9785       0.0000    -154.0844    -999.2500     -31.3702      91.5398     -29.0618      91.4630     214.0053 1533222162 9999999.9999
      37.0    1375.9785       0.0000    -148.9774    -999.2500     -39.0420      84.2295     -36.7336      83.9938     220.1072 1533222163 9999999.9999
      38.0    1365.2913       0.0000    -144.3876    -999.2500     -46.3122      76.3167     -44.0038      75.9090     226.1967 1533222164 9999999.9999
      39.0    1365.2913       0.0000    -139.5683    -999.2500     -53.5422      66.8373     -51.2338      66.2237     232.3017 1533222165 9999999.9999
      40.0    1373.2910       0.0000    -131.4152    -999.2500     -67.1988      53.9037     -64.8904      53.0091     238.4137 1533222166 9999999.9999
      41.0    1370.6140       0.0000    -126.7613    -999.2500     -77.2003      47.1958     -74.8919      46.1555     244.5156 1533222167 9999999.9999
      42.0    1362.6454       0.0000    -122.4849    -999.2500     -85.1533      40.3675     -82.8449      39.1788     251.0131 1533222168 9999999.9999
      43.0    1365.2913       0.0000    -117.7272    -999.2500     -92.1423      33.0572     -89.8339      31.7096     257.1157 1533222169 9999999.9999
      44.0    1367.9475       0.0000    -112.1663    -999.2500     -98.0870      25.4255     -95.7786      23.9121     263.2183 1533222170 9999999.9999
      45.0    1365.2913       0.0000    -105.5560    -999.2500    -102.3447      17.5930    -100.0363      15.9095     269.3201 1533222171 9999999.9999
      46.0    1362.6454       0.0000     -98.1217      81.4059    -104.1120       9.8810    -101.8036       8.0299     275.4219 1533222172 9999999.9999
      47.0    1367.9475       0.0000     -89.5664      78.0435    -104.2727       1.6067    -101.9642      -0.4242     281.5368 1533222173 9999999.9999
      48.0    1367.9475       0.0000     -80.2399      83.6209    -103.9513      -7.4710    -101.6429      -9.6991     287.6517 1533222174 9999999.9999
      49.0    1365.2913       0.0000     -72.9320      88.2260    -101.9430     -15.2232     -99.6346     -17.6197     293.7535 1533222175 9999999.9999
      50.0    1365.2913       0.0000     -66.6734    -999.2500     -97.8460     -22.8548     -95.5376     -25.4172     299.8685 1533222176 9999999.9999
      51.0    1375.9785       0.0000     -61.2867    -999.2500     -91.9817     -30.4865     -89.6733     -33.2147     305.9703 1533222177 9999999.9999
      52.0    1373.2910       0.0000     -56.7609    -999.2500     -85.1533     -37.6763     -82.8449     -40.5607     312.0852 1533222178 9999999.9999
