~VERSION INFORMATION
VERS.           2.0   :CWLS Log ASCII Standard - VERSION 2.0
WRAP.           NO    :One Line per depth step
PROD.  Schlumberger   :LAS Producer
PROG.  DLIS to ASCII 19C2-270                          :LAS Program name and version
CREA.        2018/08/03 10:59                          :LAS Creation date {YYYY/MM/DD hh:mm}
DLIS_CREA.  2018-Aug-03 09:28                          :DLIS Creation date and time {YYYY-MMM-DD hh:mm}
SOURCE.     PERFO_Perfo_076PTP.DLIS                    :DLIS File Name
FILE-ID.     PERFO_Perfo_076PTP                        :File Identification Number
#--------------------------------------------------
~WELL INFORMATION
#MNEM.UNIT      DATA             DESCRIPTION
#---- ------ --------------   -----------------------------
STRT .S            0.0       :START TIME      
STOP .S         1744.0       :STOP TIME      
STEP .S            1.0       :STEP     
NULL .          -999.25      :NULL VALUE
COMP .        SHELL INTERNATIONAL EP                   :COMPANY
WELL .        WPP TEST 4                               :WELL
FLD  .        WILDCAT                                  :FIELD
LOC  .        NA                                       :LOCATION
CNTY .        HARRIS                                   :COUNTY
STAT .        TEXAS                                    :STATE
CTRY .                                                 :COUNTRY
API  .        NA                                       :API NUMBER
UWI  .                                                 :UNIQUE WELL ID
DATE .        02-Aug-2018                              :LOG DATE {DD-MMM-YYYY}
SRVC .        Schlumberger                             :SERVICE COMPANY
LATI .DEG                                              :LATITUDE
LONG .DEG                                              :LONGITUDE
GDAT .                                                 :GeoDetic Datum
SECT .        NA                                       :Section
RANG .        NA                                       :Range
TOWN .        NA                                       :Township
#-----------------------------------------------------------------------------
~PARAMETER INFORMATION
#MNEM.UNIT    VALUE                      DESCRIPTION
#---- -----   --------------------       ------------------------
U-PHASE_B_COMP_PER_YT.                 0 :Phase B Comparator Period Yt
U-PHASE_A_COMP_PER_XT.                 0 :Phase A Comparator Period Xt
U-MAX_EXC_CUR_LIMIT.MA       265.00000   :Requested CM Current Limit
U-REQ_EXC_FQ.HZ              50          :Requested CM Frequency
U-TILT_Y_OFFSET.          -2.06578       :WPTET Tilt Y Offset
U-TILT_Y_GAIN.           1.02173         :WPTET Tilt Y Gain
U-TILT_X_OFFSET.           2.30841       :WPTET Tilt X Offset
U-TILT_X_GAIN.           1.00000         :WPTET Tilt X Gain
U-TILT_OFFSET_TOL.           0.00100     :WPTET Tilt Offset Calibration Tolerance
U-MOT_CUR_LIMIT_REQ.MA        70.00000   :Requested Motor Current Limit
U-MOT_SPD_REQ_WPMS.RPM        1.00000    :Requested Motor Speed
U-STD_TOL_TILT.           0.01000        :Tilt Standard Deviation Tolerance
CWEI .LB/F      29.00000                 :Casing Weight
CSIZ .IN         7.00000                 :Current Casing Size
LCC  .               440                 :Logging Company Code
LUN  .              2134                 :Logging Unit Number
HIDE .                                   :Header Identifier
HID1 .                                   :Header Identifier Line 1
R1   .                                   :Remark Line 1
WITN .        MR. KELLY McCOY            :Witness's Name
ENGI .        MORRIS MOORE               :Engineer's Name
LUL  .        IOWA COLONY                :Logging Unit Location
DATE .        02-Aug-2018                :Date as Month-Day-Year
STAT .        TEXAS                      :State or Province
COUN .        HARRIS                     :County or Rig Name
FN   .        WILDCAT                    :Field Name
WN   .        WPP TEST 4                 :Well Name
CN   .        SHELL INTERNATIONAL EP     :Company Name
CLAB .        County                     :County/Rig Label
SLAB .        State                      :State/Province Label
RUN  .          1                        :RUN NUMBER
PDAT .        GROUND LEVEL               :Permanent Datum
EPD  .                                   :Elevation of Permanent Datum above Mean Sea Level
LMF  .          NA                       :Logging Measured From (Name of Logging Elevation Reference)
APD  .                                   :Elevation of Depth Reference (LMF) above Permanent Datum
#-----------------------------------------------------------------------------
~CURVE INFORMATION
#MNEM.UNIT   API CODE                                  DESCRIPTION
#---- -----  --------                                  -----------------------
TIME .S                                                :TIME {F10.1}
FREQ_EMF_SL.HZ                                         :Electromagnetic Field Frequency {F13.4}
PH_SH_WPPCM_SL.DEG                                     :WPPCM Phase Shift {F13.4}
RB_SL.DEG                                              :Relative Bearing {F13.4}
SDEV_SL.DEG                                            :Sonde Deviation {F13.4}
RTIX_SL.DEG                                            :Raw X-axis Tilt {F13.4}
RTIY_SL.DEG                                            :Raw Y-axis Tilt {F13.4}
TILX_SL.DEG                                            :X-axis Tilt {F13.4}
TILY_SL.DEG                                            :Y-axis Tilt {F13.4}
ROTA_SL.DEG                                            :Motor Rotation Angle {F13.4}
TOD7 .S                                                :Time of Day {I11}
TOJ  .S                                                :Time of Job {F13.4}
#-----------------------------------------------------------------------------
# 
#     TIME    FREQ_EMF_SL  PH_SH_WPPCM_    RB_SL       SDEV_SL      RTIX_SL      RTIY_SL      TILX_SL      TILY_SL      ROTA_SL        TOD7            TOJ
#                          SL
~A  
# ...
     106.0    1740.4083       0.0000     -56.0569    -999.2500     -85.6755     -39.0420     -83.3671     -41.9561     218.2996 1533242128 9999999.9999
     107.0    1762.2180       0.0000     -52.0144    -999.2500     -77.4815     -45.9507     -75.1731     -49.0148     224.3984 1533242129 9999999.9999
     108.0    1744.7272       0.0000     -47.7940    -999.2500     -68.0022     -52.5380     -65.6938     -55.7453     230.4880 1533242130 9999999.9999
     109.0    1757.8126       0.0000     -38.8417    -999.2500     -52.7790     -69.7293     -50.4706     -73.3101     236.5899 1533242131 9999999.9999
     110.0    1766.6456       0.0000     -34.9525    -999.2500     -46.1917     -78.8472     -43.8833     -82.6261     242.6918 1533242132 9999999.9999
     111.0    1766.6456       0.0000     -30.8151    -999.2500     -38.9215     -86.9207     -36.6131     -90.8750     249.1987 1533242133 9999999.9999
     112.0    1784.5813       0.0000     -26.3668    -999.2500     -31.7718     -93.0260     -29.4634     -97.1130     255.3006 1533242134 9999999.9999
     113.0    1784.5813       0.0000     -21.0889    -999.2500     -24.5017     -97.4443     -22.1933    -101.6273     261.4054 1533242135 9999999.9999
     114.0    1789.1222       0.0000     -14.9494      84.9808     -17.3118     -99.9347     -15.0034    -104.1717     267.4825 1533242136 9999999.9999
     115.0    1784.5813       0.0000      -7.2754      77.0914      -9.3990    -100.5372      -7.0906    -104.7873     273.5720 1533242137 9999999.9999
     116.0    1798.2737       0.0000       1.7204      75.5175      -0.6427    -100.3363       1.6657    -104.5821     279.6738 1533242138 9999999.9999
     117.0    1798.2737       0.0000      10.7539      81.1002       8.3145     -99.6937      10.6229    -103.9255     285.7632 1533242139 9999999.9999
     118.0    1802.8846       0.0000      17.4632      83.4141      15.6248     -97.6452      17.9332    -101.8325     291.8650 1533242140 9999999.9999
     119.0    1793.6862       0.0000      23.1930    -999.2500      22.8147     -93.6285      25.1231     -97.7286     297.9668 1533242141 9999999.9999
     120.0    1798.2737       0.0000      27.9057    -999.2500      29.6430     -88.2462      31.9514     -92.2293     304.0686 1533242142 9999999.9999
     121.0    1798.2737       0.0000      32.1937    -999.2500      36.5517     -81.4178      38.8601     -85.2526     310.1704 1533242143 9999999.9999
     122.0    1784.5813       0.0000      36.1948    -999.2500      43.2193     -73.5452      45.5277     -77.2089     316.2722 1533242144 9999999.9999
     123.0    1793.6862       0.0000      40.8049    -999.2500      49.9673     -62.9412      52.2757     -66.3745     322.7790 1533242145 9999999.9999
     124.0    1780.0632       0.0000      50.5980    -999.2500      70.7737     -48.6820      73.0821     -51.8055     328.8940 1533242146 9999999.9999
     125.0    1771.0958       0.0000      54.4681    -999.2500      79.8915     -42.0545      82.1999     -45.0340     334.9958 1533242147 9999999.9999
     126.0    1780.0632       0.0000      58.2545    -999.2500      87.4027     -35.3868      89.7111     -38.2215     341.1007 1533242148 9999999.9999
     127.0    1771.0958       0.0000      62.5206    -999.2500      93.4678     -28.4782      95.7762     -31.1627     347.1901 1533242149 9999999.9999
     128.0    1762.2180       0.0000      67.6646    -999.2500      97.8058     -21.3285     100.1142     -23.8577     353.2919 1533242150 9999999.9999
     129.0    1749.0671       0.0000      74.4071    -999.2500     100.1355     -13.4558     102.4439     -15.8140     359.3937 1533242151 9999999.9999
     130.0    1753.4288       0.0000      82.3795      79.1318     100.9388      -5.3020     103.2472      -7.4830       5.4956 1533242152 9999999.9999
     131.0    1740.4083       0.0000      91.3791      76.4196     101.3405       3.3338     103.6489       1.3405      11.5974 1533242153 9999999.9999
     132.0    1727.5798       0.0000      99.9133      81.1684     100.9388      11.6082     103.2472       9.7946      17.7123 1533242154 9999999.9999
     133.0    1727.5798       0.0000     106.9996      83.8130      98.6092      19.1193     100.9176      17.4690      23.8142 1533242155 9999999.9999
     134.0    1706.6141       0.0000     113.3592    -999.2500      93.8293      26.9117      96.1377      25.4306      29.9160 1533242156 9999999.9999
     135.0    1710.7665       0.0000     118.7216    -999.2500      87.7240      34.5433      90.0324      33.2281      36.4258 1533242157 9999999.9999
     136.0    1702.4818       0.0000     123.3606    -999.2500      80.4538      41.9340      82.7622      40.7793      42.5276 1533242158 9999999.9999
     137.0    1686.1511       0.0000     127.7310    -999.2500      71.6573      49.0435      73.9657      48.0433      48.6264 1533242159 9999999.9999
     138.0    1686.1511       0.0000     132.8281    -999.2500      59.1655      55.3898      61.4739      54.5275      54.7313 1533242160 9999999.9999
     139.0    1678.1025       0.0000     140.4662    -999.2500      49.8067      73.4648      52.1151      72.9952      60.8340 1533242161 9999999.9999
     140.0    1678.1025       0.0000     144.3000    -999.2500      43.0587      82.3015      45.3671      82.0239      66.9358 1533242162 9999999.9999
     141.0    1662.2340       0.0000     148.5557    -999.2500      35.3868      90.2545      37.6952      90.1497      73.0376 1533242163 9999999.9999
     142.0    1662.2340       0.0000     153.1949    -999.2500      27.7953      96.8820      30.1037      96.9212      79.1393 1533242164 9999999.9999
     143.0    1662.2340       0.0000     158.9074    -999.2500      19.8423     102.0233      22.1507     102.1742      85.2289 1533242165 9999999.9999
     144.0    1654.4117       0.0000     165.7037      84.8721      11.9295     104.9555      14.2379     105.1701      91.3306 1533242166 9999999.9999
     145.0    1658.3137       0.0000     173.7507      75.2961       3.7355     105.7187       6.0439     105.9499      97.4324 1533242167 9999999.9999
     146.0    1658.3137       0.0000    -177.7210      73.9608      -4.4987     105.9597      -2.1903     106.1961     103.5342 1533242168 9999999.9999
     147.0    1658.3137       0.0000    -169.5066      79.1547     -12.6123     104.8350     -10.3039     105.0470     110.0440 1533242169 9999999.9999
     148.0    1650.5282       0.0000    -162.0333     104.7198     -20.8867     100.6175     -18.5783     100.7379     116.1458 1533242170 9999999.9999
     149.0    1650.5282       0.0000    -155.7383    -999.2500     -29.0003      94.7130     -26.6919      94.7051     122.2476 1533242171 9999999.9999
     150.0    1658.3137       0.0000    -150.4122    -999.2500     -36.8730      87.8445     -34.5646      87.6873     128.3494 1533242172 9999999.9999
     151.0    1646.6628       0.0000    -145.5855    -999.2500     -44.6653      79.8915     -42.3569      79.5615     134.4513 1533242173 9999999.9999
     152.0    1662.2340       0.0000    -141.1920    -999.2500     -51.6543      71.1352     -49.3459      70.6150     140.5539 1533242174 9999999.9999
     153.0    1658.3137       0.0000    -132.5193    -999.2500     -66.0340      56.1530     -63.7256      55.3073     146.6566 1533242175 9999999.9999
     154.0    1674.1072       0.0000    -128.2809    -999.2500     -75.1518      49.9272     -72.8434      48.9462     152.7592 1533242176 9999999.9999
     155.0    1666.1730       0.0000    -124.1133    -999.2500     -83.4262      43.1390     -81.1178      42.0105     158.8611 1533242177 9999999.9999
     156.0    1674.1072       0.0000    -119.4834    -999.2500     -90.9373      35.7082     -88.6289      34.4182     164.9507 1533242178 9999999.9999
     157.0    1682.1173       0.0000    -114.1598    -999.2500     -97.4042      27.9962     -95.0957      26.5387     171.0526 1533242179 9999999.9999
     158.0    1686.1511       0.0000    -107.8268    -999.2500    -102.4652      20.0833    -100.1568      18.4539     177.1677 1533242180 9999999.9999
