~VERSION INFORMATION
VERS.           2.0   :CWLS Log ASCII Standard - VERSION 2.0
WRAP.           NO    :One Line per depth step
PROD.  Schlumberger   :LAS Producer
PROG.  DLIS to ASCII 19C2-270                          :LAS Program name and version
CREA.        2018/08/03 10:59                          :LAS Creation date {YYYY/MM/DD hh:mm}
DLIS_CREA.  2018-Aug-03 09:28                          :DLIS Creation date and time {YYYY-MMM-DD hh:mm}
SOURCE.     PERFO_Perfo_076PTP.DLIS                    :DLIS File Name
FILE-ID.     PERFO_Perfo_076PTP                        :File Identification Number
#--------------------------------------------------
~WELL INFORMATION
#MNEM.UNIT      DATA             DESCRIPTION
#---- ------ --------------   -----------------------------
STRT .S            0.0       :START TIME      
STOP .S         1744.0       :STOP TIME      
STEP .S            1.0       :STEP     
NULL .          -999.25      :NULL VALUE
COMP .        SHELL INTERNATIONAL EP                   :COMPANY
WELL .        WPP TEST 4                               :WELL
FLD  .        WILDCAT                                  :FIELD
LOC  .        NA                                       :LOCATION
CNTY .        HARRIS                                   :COUNTY
STAT .        TEXAS                                    :STATE
CTRY .                                                 :COUNTRY
API  .        NA                                       :API NUMBER
UWI  .                                                 :UNIQUE WELL ID
DATE .        02-Aug-2018                              :LOG DATE {DD-MMM-YYYY}
SRVC .        Schlumberger                             :SERVICE COMPANY
LATI .DEG                                              :LATITUDE
LONG .DEG                                              :LONGITUDE
GDAT .                                                 :GeoDetic Datum
SECT .        NA                                       :Section
RANG .        NA                                       :Range
TOWN .        NA                                       :Township
#-----------------------------------------------------------------------------
~PARAMETER INFORMATION
#MNEM.UNIT    VALUE                      DESCRIPTION
#---- -----   --------------------       ------------------------
U-PHASE_B_COMP_PER_YT.                 0 :Phase B Comparator Period Yt
U-PHASE_A_COMP_PER_XT.                 0 :Phase A Comparator Period Xt
U-MAX_EXC_CUR_LIMIT.MA       265.00000   :Requested CM Current Limit
U-REQ_EXC_FQ.HZ              50          :Requested CM Frequency
U-TILT_Y_OFFSET.          -2.06578       :WPTET Tilt Y Offset
U-TILT_Y_GAIN.           1.02173         :WPTET Tilt Y Gain
U-TILT_X_OFFSET.           2.30841       :WPTET Tilt X Offset
U-TILT_X_GAIN.           1.00000         :WPTET Tilt X Gain
U-TILT_OFFSET_TOL.           0.00100     :WPTET Tilt Offset Calibration Tolerance
U-MOT_CUR_LIMIT_REQ.MA        70.00000   :Requested Motor Current Limit
U-MOT_SPD_REQ_WPMS.RPM        1.00000    :Requested Motor Speed
U-STD_TOL_TILT.           0.01000        :Tilt Standard Deviation Tolerance
CWEI .LB/F      29.00000                 :Casing Weight
CSIZ .IN         7.00000                 :Current Casing Size
LCC  .               440                 :Logging Company Code
LUN  .              2134                 :Logging Unit Number
HIDE .                                   :Header Identifier
HID1 .                                   :Header Identifier Line 1
R1   .                                   :Remark Line 1
WITN .        MR. KELLY McCOY            :Witness's Name
ENGI .        MORRIS MOORE               :Engineer's Name
LUL  .        IOWA COLONY                :Logging Unit Location
DATE .        02-Aug-2018                :Date as Month-Day-Year
STAT .        TEXAS                      :State or Province
COUN .        HARRIS                     :County or Rig Name
FN   .        WILDCAT                    :Field Name
WN   .        WPP TEST 4                 :Well Name
CN   .        SHELL INTERNATIONAL EP     :Company Name
CLAB .        County                     :County/Rig Label
SLAB .        State                      :State/Province Label
RUN  .          1                        :RUN NUMBER
PDAT .        GROUND LEVEL               :Permanent Datum
EPD  .                                   :Elevation of Permanent Datum above Mean Sea Level
LMF  .          NA                       :Logging Measured From (Name of Logging Elevation Reference)
APD  .                                   :Elevation of Depth Reference (LMF) above Permanent Datum
#-----------------------------------------------------------------------------
~CURVE INFORMATION
#MNEM.UNIT   API CODE                                  DESCRIPTION
#---- -----  --------                                  -----------------------
TIME .S                                                :TIME {F10.1}
FREQ_EMF_SL.HZ                                         :Electromagnetic Field Frequency {F13.4}
PH_SH_WPPCM_SL.DEG                                     :WPPCM Phase Shift {F13.4}
RB_SL.DEG                                              :Relative Bearing {F13.4}
SDEV_SL.DEG                                            :Sonde Deviation {F13.4}
RTIX_SL.DEG                                            :Raw X-axis Tilt {F13.4}
RTIY_SL.DEG                                            :Raw Y-axis Tilt {F13.4}
TILX_SL.DEG                                            :X-axis Tilt {F13.4}
TILY_SL.DEG                                            :Y-axis Tilt {F13.4}
ROTA_SL.DEG                                            :Motor Rotation Angle {F13.4}
TOD7 .S                                                :Time of Day {I11}
TOJ  .S                                                :Time of Job {F13.4}
#-----------------------------------------------------------------------------
# 
#     TIME    FREQ_EMF_SL  PH_SH_WPPCM_    RB_SL       SDEV_SL      RTIX_SL      RTIY_SL      TILX_SL      TILY_SL      ROTA_SL        TOD7            TOJ
#                          SL
~A  
# ...
    1219.0       0.0000       0.0000     161.6167    -999.2500      16.5085     103.7505      18.8169     103.9389     206.7266 1533243241 9999999.9999
    1220.0       0.0000       0.0000     168.9488      78.4268       8.5153     105.7187      10.8237     105.9499     212.8285 1533243242 9999999.9999
    1221.0       0.0000       0.0000     177.6783      73.6765      -0.0803     106.2408       2.2281     106.4834     218.9304 1533243243 9999999.9999
    1222.0       0.0000       0.0000    -174.0235      74.7426      -8.0735     106.1203      -5.7651     106.3603     225.0200 1533243244 9999999.9999
    1223.0       0.0000       0.0000    -166.0301      86.4982     -16.3077     103.3087     -13.9993     103.4875     231.1219 1533243245 9999999.9999
    1224.0       0.0000       0.0000    -158.9748    -999.2500     -24.6623      98.2477     -22.3539      98.3165     237.6319 1533243246 9999999.9999
    1225.0       0.0000       0.0000    -153.1304    -999.2500     -32.7358      91.7407     -30.4274      91.6682     243.7368 1533243247 9999999.9999
    1226.0       0.0000       0.0000    -148.2157    -999.2500     -40.3675      84.4303     -38.0591      84.1990     249.8356 1533243248 9999999.9999
    1227.0       0.0000       0.0000    -143.5105    -999.2500     -47.9992      75.7543     -45.6908      75.3345     255.9375 1533243249 9999999.9999
    1228.0       0.0000       0.0000    -138.9033    -999.2500     -55.0283      66.4357     -52.7199      65.8133     262.0393 1533243250 9999999.9999
    1229.0       0.0000       0.0000    -131.0359    -999.2500     -69.3277      54.1447     -67.0192      53.2553     268.1411 1533243251 9999999.9999
    1230.0       0.0000       0.0000    -126.3402    -999.2500     -79.2890      46.8343     -76.9806      45.7861     274.2429 1533243252 9999999.9999
    1231.0       0.0000       0.0000    -121.9015    -999.2500     -87.2018      39.5240     -84.8934      38.3170     280.3579 1533243253 9999999.9999
    1232.0       0.0000       0.0000    -116.9687    -999.2500     -94.5523      31.9325     -92.2439      30.5605     286.4597 1533243254 9999999.9999
    1233.0       0.0000       0.0000    -111.3667    -999.2500    -100.1355      24.3410     -97.8271      22.8041     292.5624 1533243255 9999999.9999
    1234.0       0.0000       0.0000    -104.4537    -999.2500    -104.4333      16.3077    -102.1249      14.5962     298.6642 1533243256 9999999.9999
    1235.0       0.0000       0.0000     -96.3205      78.0573    -105.7990       8.0735    -103.4906       6.1831     304.7853 1533243257 9999999.9999
    1236.0       0.0000       0.0000     -92.7690      76.7094    -105.8793       4.6593    -103.5709       2.6948     311.3022 1533243258 9999999.9999
    1237.0       0.0000       0.0000     -84.5421      77.5121    -105.9195      -3.1932    -103.6111      -5.3284     316.9959 1533243259 9999999.9999
    1238.0       0.0000       0.0000     -75.6606      92.0933    -104.6743     -12.1303    -102.3659     -14.4597     323.0977 1533243260 9999999.9999
    1239.0       0.0000       0.0000     -69.1386    -999.2500    -101.5815     -19.6013     -99.2731     -22.0930     329.2127 1533243261 9999999.9999
    1240.0       0.0000       0.0000     -63.1218    -999.2500     -96.0385     -27.7150     -93.7301     -30.3829     335.3145 1533243262 9999999.9999
    1241.0       0.0000       0.0000     -58.3668    -999.2500     -89.6118     -35.1458     -87.3034     -37.9752     341.4163 1533243263 9999999.9999
    1242.0       0.0000       0.0000     -53.9552    -999.2500     -81.8195     -42.6972     -79.5111     -45.6906     347.5181 1533243264 9999999.9999
    1243.0       0.0000       0.0000     -49.8431    -999.2500     -73.0230     -49.6460     -70.7146     -52.7904     353.6076 1533243265 9999999.9999
    1244.0       0.0000       0.0000     -44.8531    -999.2500     -61.0533     -55.9522     -58.7449     -59.2336     359.7094 1533243266 9999999.9999
    1245.0       0.0000       0.0000     -36.9826    -999.2500     -49.8067     -74.5493     -47.4983     -78.2349       5.8112 1533243267 9999999.9999
    1246.0       0.0000       0.0000     -32.8855    -999.2500     -42.5365     -83.3860     -40.2281     -87.2635      11.9130 1533243268 9999999.9999
    1247.0       0.0000       0.0000     -28.7975    -999.2500     -35.5475     -90.2947     -33.2391     -94.3223      18.0148 1533243269 9999999.9999
    1248.0       0.0000       0.0000     -23.8563    -999.2500     -28.1167     -95.9582     -25.8083    -100.1088      24.5246 1533243270 9999999.9999
    1249.0       0.0000       0.0000     -18.1514    -999.2500     -20.8867     -99.4125     -18.5783    -103.6382      30.6265 1533243271 9999999.9999
    1250.0       0.0000       0.0000     -11.2873      79.8182     -13.4157    -100.8987     -11.1073    -105.1567      36.7292 1533243272 9999999.9999
    1251.0       0.0000       0.0000      -2.8074      75.0578      -5.0208    -100.9388      -2.7124    -105.1977      42.8441 1533243273 9999999.9999
    1252.0       0.0000       0.0000       6.2243      76.1981       3.7355    -100.8585       6.0439    -105.1157      48.9460 1533243274 9999999.9999
    1253.0       0.0000       0.0000      13.9147      85.8036      11.6082     -99.6535      13.9166    -103.8845      55.0478 1533243275 9999999.9999
    1254.0       0.0000       0.0000      20.5480    -999.2500      19.3202     -96.3197      21.6286    -100.4782      61.1372 1533243276 9999999.9999
    1255.0       0.0000       0.0000      25.8158    -999.2500      26.4698     -91.5800      28.7782     -95.6356      67.2390 1533243277 9999999.9999
    1256.0       0.0000       0.0000      30.2588    -999.2500      33.3785     -85.4747      35.6869     -89.3976      73.3408 1533243278 9999999.9999
    1257.0       0.0000       0.0000      34.3468    -999.2500      40.2470     -78.0037      42.5554     -81.7642      79.4217 1533243279 9999999.9999
    1258.0       0.0000       0.0000      38.3999    -999.2500      46.9548     -69.3678      49.2632     -72.9408      85.5366 1533243280 9999999.9999
    1259.0       0.0000       0.0000      45.9522    -999.2500      56.0727     -52.2568      58.3811     -55.4580      91.6107 1533243281 9999999.9999
    1260.0       0.0000       0.0000      52.3184    -999.2500      75.4732     -45.9507      77.7816     -49.0148      98.1081 1533243282 9999999.9999
    1261.0       0.0000       0.0000      56.0681    -999.2500      83.7877     -39.2428      86.0961     -42.1612     104.2099 1533243283 9999999.9999
    1262.0       0.0000       0.0000      60.1411    -999.2500      90.6963     -32.2137      93.0047     -34.9794     110.3117 1533243284 9999999.9999
    1263.0       0.0000       0.0000      64.7221    -999.2500      96.2393     -25.2247      98.5477     -27.8385     116.4135 1533243285 9999999.9999
    1264.0       0.0000       0.0000      70.4092    -999.2500      99.7338     -17.9143     102.0422     -20.3693     122.5152 1533243286 9999999.9999
    1265.0       0.0000       0.0000      77.1871      85.7498     101.1798     -10.4835     103.4882     -12.7771     128.6170 1533243287 9999999.9999
    1266.0       0.0000       0.0000      86.6078      76.3985     101.7020      -1.2050     104.0104      -3.2970     134.7189 1533243288 9999999.9999
    1267.0       0.0000       0.0000      95.6735      76.9490     101.9028       7.4308     104.2112       5.5265     140.8239 1533243289 9999999.9999
    1268.0       0.0000       0.0000     103.3441      87.4894     100.6577      15.1027     102.9661      13.3650     146.9227 1533243290 9999999.9999
    1269.0       0.0000       0.0000     110.3523    -999.2500      96.7213      23.0557      99.0297      21.4908     153.0277 1533243291 9999999.9999
    1270.0       0.0000       0.0000     116.1449    -999.2500      91.4193      30.7275      93.7277      29.3293     159.1296 1533243292 9999999.9999
    1271.0       0.0000       0.0000     120.9849    -999.2500      84.5107      38.0780      86.8191      36.8395     165.2315 1533243293 9999999.9999
