~VERSION INFORMATION
VERS.           2.0   :CWLS Log ASCII Standard - VERSION 2.0
WRAP.           NO    :One Line per depth step
PROD.  Schlumberger   :LAS Producer
PROG.  DLIS to ASCII 19C2-270                          :LAS Program name and version
CREA.        2018/08/03 10:59                          :LAS Creation date {YYYY/MM/DD hh:mm}
DLIS_CREA.  2018-Aug-03 09:50                          :DLIS Creation date and time {YYYY-MMM-DD hh:mm}
SOURCE.     PERFO_Perfo_088PTP.DLIS                    :DLIS File Name
FILE-ID.     PERFO_Perfo_088PTP                        :File Identification Number
#--------------------------------------------------
~WELL INFORMATION
#MNEM.UNIT      DATA             DESCRIPTION
#---- ------ --------------   -----------------------------
STRT .S            0.0       :START TIME      
STOP .S          526.0       :STOP TIME      
STEP .S            1.0       :STEP     
NULL .          -999.25      :NULL VALUE
COMP .        SHELL INTERNATIONAL EP                   :COMPANY
WELL .        WPP TEST 4                               :WELL
FLD  .        WILDCAT                                  :FIELD
LOC  .        NA                                       :LOCATION
CNTY .        HARRIS                                   :COUNTY
STAT .        TEXAS                                    :STATE
CTRY .                                                 :COUNTRY
API  .        NA                                       :API NUMBER
UWI  .                                                 :UNIQUE WELL ID
DATE .        02-Aug-2018                              :LOG DATE {DD-MMM-YYYY}
SRVC .        Schlumberger                             :SERVICE COMPANY
LATI .DEG                                              :LATITUDE
LONG .DEG                                              :LONGITUDE
GDAT .                                                 :GeoDetic Datum
SECT .        NA                                       :Section
RANG .        NA                                       :Range
TOWN .        NA                                       :Township
#-----------------------------------------------------------------------------
~PARAMETER INFORMATION
#MNEM.UNIT    VALUE                      DESCRIPTION
#---- -----   --------------------       ------------------------
U-PHASE_B_COMP_PER_YT.                 0 :Phase B Comparator Period Yt
U-PHASE_A_COMP_PER_XT.                 0 :Phase A Comparator Period Xt
U-MAX_EXC_CUR_LIMIT.MA       265.00000   :Requested CM Current Limit
U-REQ_EXC_FQ.HZ              50          :Requested CM Frequency
U-TILT_Y_OFFSET.          -2.06578       :WPTET Tilt Y Offset
U-TILT_Y_GAIN.           1.02173         :WPTET Tilt Y Gain
U-TILT_X_OFFSET.           2.30841       :WPTET Tilt X Offset
U-TILT_X_GAIN.           1.00000         :WPTET Tilt X Gain
U-TILT_OFFSET_TOL.           0.00100     :WPTET Tilt Offset Calibration Tolerance
U-MOT_CUR_LIMIT_REQ.MA        70.00000   :Requested Motor Current Limit
U-MOT_SPD_REQ_WPMS.RPM        1.00000    :Requested Motor Speed
U-STD_TOL_TILT.           0.01000        :Tilt Standard Deviation Tolerance
CWEI .LB/F      29.00000                 :Casing Weight
CSIZ .IN         7.00000                 :Current Casing Size
LCC  .               440                 :Logging Company Code
LUN  .              2134                 :Logging Unit Number
HIDE .                                   :Header Identifier
HID1 .                                   :Header Identifier Line 1
R1   .                                   :Remark Line 1
WITN .        MR. KELLY McCOY            :Witness's Name
ENGI .        MORRIS MOORE               :Engineer's Name
LUL  .        IOWA COLONY                :Logging Unit Location
DATE .        02-Aug-2018                :Date as Month-Day-Year
STAT .        TEXAS                      :State or Province
COUN .        HARRIS                     :County or Rig Name
FN   .        WILDCAT                    :Field Name
WN   .        WPP TEST 4                 :Well Name
CN   .        SHELL INTERNATIONAL EP     :Company Name
CLAB .        County                     :County/Rig Label
SLAB .        State                      :State/Province Label
RUN  .          1                        :RUN NUMBER
PDAT .        GROUND LEVEL               :Permanent Datum
EPD  .                                   :Elevation of Permanent Datum above Mean Sea Level
LMF  .          NA                       :Logging Measured From (Name of Logging Elevation Reference)
APD  .                                   :Elevation of Depth Reference (LMF) above Permanent Datum
#-----------------------------------------------------------------------------
~CURVE INFORMATION
#MNEM.UNIT   API CODE                                  DESCRIPTION
#---- -----  --------                                  -----------------------
TIME .S                                                :TIME {F10.1}
FREQ_EMF_SL.HZ                                         :Electromagnetic Field Frequency {F13.4}
PH_SH_WPPCM_SL.DEG                                     :WPPCM Phase Shift {F13.4}
RB_SL.DEG                                              :Relative Bearing {F13.4}
SDEV_SL.DEG                                            :Sonde Deviation {F13.4}
RTIX_SL.DEG                                            :Raw X-axis Tilt {F13.4}
RTIY_SL.DEG                                            :Raw Y-axis Tilt {F13.4}
TILX_SL.DEG                                            :X-axis Tilt {F13.4}
TILY_SL.DEG                                            :Y-axis Tilt {F13.4}
ROTA_SL.DEG                                            :Motor Rotation Angle {F13.4}
TOD7 .S                                                :Time of Day {I11}
TOJ  .S                                                :Time of Job {F13.4}
#-----------------------------------------------------------------------------
# 
#     TIME    FREQ_EMF_SL  PH_SH_WPPCM_    RB_SL       SDEV_SL      RTIX_SL      RTIY_SL      TILX_SL      TILY_SL      ROTA_SL        TOD7            TOJ
#                          SL
~A  
# ...
     371.0       0.0000       0.0000     -82.5776      78.7031    -105.7990      -5.1012    -103.4906      -7.2778     331.7639 1533250635 9999999.9999
     372.0       0.0000       0.0000     -74.5264      80.7776    -104.6342     -13.3353    -102.3258     -15.6909     337.8817 1533250636 9999999.9999
     373.0       0.0000       0.0000     -67.3792    -999.2500    -100.6175     -21.8105     -98.3091     -24.3502     343.9819 1533250637 9999999.9999
     374.0       0.0000       0.0000     -61.7647    -999.2500     -94.7732     -29.7334     -92.4648     -32.4452     350.0938 1533250638 9999999.9999
     375.0       0.0000       0.0000     -57.9208    -999.2500     -89.4110     -35.9090     -87.1026     -38.7550     356.2247 1533250639 9999999.9999
     376.0       0.0000       0.0000     -61.1218    -999.2500     -93.7088     -30.7275     -91.4004     -33.4609       2.3425 1533250640 9999999.9999
     377.0       0.0000       0.0000     -61.6939    -999.2500     -94.5925     -29.8438     -92.2841     -32.5580       8.4288 1533250641 9999999.9999
     378.0       0.0000       0.0000     -57.3661    -999.2500     -88.2462     -36.8328     -85.9378     -39.6989      14.5276 1533250642 9999999.9999
     379.0       0.0000       0.0000     -53.3711    -999.2500     -80.9760     -43.7817     -78.6676     -46.7987      20.6518 1533250643 9999999.9999
     380.0       0.0000       0.0000     -56.4210    -999.2500     -86.5592     -38.4395     -84.2508     -41.3405      26.7637 1533250644 9999999.9999
     381.0       0.0000       0.0000     -58.3951    -999.2500     -89.8528     -35.1057     -87.5444     -37.9342      33.3487 1533250645 9999999.9999
     382.0       0.0000       0.0000     -54.3599    -999.2500     -82.7433     -42.0143     -80.4349     -44.9930      39.4413 1533250646 9999999.9999
     383.0       0.0000       0.0000     -51.8152    -999.2500     -77.4012     -46.3925     -75.0928     -49.4663      45.5461 1533250647 9999999.9999
     384.0       0.0000       0.0000     -50.7298    -999.2500     -75.3125     -48.3205     -73.0041     -51.4361      51.6581 1533250648 9999999.9999
     385.0       0.0000       0.0000     -45.9264    -999.2500     -64.0257     -55.2292     -61.7173     -58.4949      57.7707 1533250649 9999999.9999
     386.0       0.0000       0.0000     -37.7780    -999.2500     -51.2527     -72.9828     -48.9443     -76.6343      63.8888 1533250650 9999999.9999
     387.0       0.0000       0.0000     -33.5957    -999.2500     -43.8218     -82.3015     -41.5134     -86.1555      69.9937 1533250651 9999999.9999
     388.0       0.0000       0.0000     -29.3929    -999.2500     -36.5115     -89.6922     -34.2031     -93.7067      76.0924 1533250652 9999999.9999
     389.0       0.0000       0.0000     -24.5070    -999.2500     -29.0003     -95.6770     -26.6919     -99.8216      82.1789 1533250653 9999999.9999
     390.0       0.0000       0.0000     -18.7679    -999.2500     -21.5695     -99.6535     -19.2611    -103.8845      88.3031 1533250654 9999999.9999
     391.0       0.0000       0.0000     -11.7753      79.8719     -13.8977    -101.2200     -11.5893    -105.4850      94.4018 1533250655 9999999.9999
     392.0       0.0000       0.0000      -3.3120      74.6968      -5.5028    -101.3807      -3.1944    -105.6492     100.5005 1533250656 9999999.9999
     393.0       0.0000       0.0000       5.7430      75.5951       3.2535    -101.2200       5.5619    -105.4850     107.0103 1533250657 9999999.9999
     394.0       0.0000       0.0000      13.6374      85.5371      11.2868    -100.0953      13.5952    -104.3359     113.1283 1533250658 9999999.9999
     395.0       0.0000       0.0000      20.2005    -999.2500      18.8382     -97.1632      21.1466    -101.3400     119.2270 1533250659 9999999.9999
     396.0       0.0000       0.0000      25.6142    -999.2500      26.1485     -92.2628      28.4569     -96.3332     125.3257 1533250660 9999999.9999
     397.0       0.0000       0.0000      30.0128    -999.2500      32.9768     -86.1575      35.2852     -90.0952     131.4306 1533250661 9999999.9999
     398.0       0.0000       0.0000      34.0700    -999.2500      39.8453     -79.1283      42.1537     -82.9134     137.5233 1533250662 9999999.9999
     399.0       0.0000       0.0000      38.3779    -999.2500      47.0753     -69.8498      49.3837     -73.4333     143.6221 1533250663 9999999.9999
     400.0       0.0000       0.0000      43.8252    -999.2500      51.8552     -54.3857      54.1636     -57.6331     149.7209 1533250664 9999999.9999
     401.0       0.0000       0.0000      52.2108    -999.2500      75.5937     -46.2318      77.9021     -49.3021     155.8320 1533250665 9999999.9999
     402.0       0.0000       0.0000      55.8361    -999.2500      83.7073     -39.6847      86.0157     -42.6127     161.9309 1533250666 9999999.9999
     403.0       0.0000       0.0000      59.7392    -999.2500      90.6963     -32.8563      93.0047     -35.6360     168.0297 1533250667 9999999.9999
     404.0       0.0000       0.0000      64.4460    -999.2500      96.3598     -25.5862      98.6682     -28.2079     174.1479 1533250668 9999999.9999
     405.0       0.0000       0.0000      69.9725    -999.2500     100.0150     -18.3963     102.3234     -20.8618     180.6579 1533250669 9999999.9999
     406.0       0.0000       0.0000      76.5801      86.3838     101.5815     -11.0860     103.8899     -13.3926     186.7321 1533250670 9999999.9999
     407.0       0.0000       0.0000      85.3884      76.6708     101.7823      -2.3698     104.0907      -4.4871     192.8323 1533250671 9999999.9999
     408.0       0.0000       0.0000      94.3855      75.9627     102.3848       6.1857     104.6932       4.2543     198.9511 1533250672 9999999.9999
     409.0       0.0000       0.0000     103.0928      87.2788     101.0593      14.8215     103.3677      13.0778     205.1538 1533250673 9999999.9999
     410.0       0.0000       0.0000     109.5827    -999.2500      97.7255      22.0917     100.0339      20.5059     211.2532 1533250674 9999999.9999
     411.0       0.0000       0.0000     115.9261    -999.2500      91.9013      30.4062      94.2097      29.0010     217.3023 1533250675 9999999.9999
     412.0       0.0000       0.0000     120.7470    -999.2500      85.4345      37.7165      87.7429      36.4702     223.4142 1533250676 9999999.9999
     413.0       0.0000       0.0000     125.7794    -999.2500      76.7987      46.1113      79.1071      45.0474     229.5394 1533250677 9999999.9999
     414.0       0.0000       0.0000     130.0181    -999.2500      67.1988      52.7790      69.5072      51.8600     235.6390 1533250678 9999999.9999
     415.0       0.0000       0.0000     137.8039    -999.2500      54.0242      67.2390      56.3326      66.6341     241.7317 1533250679 9999999.9999
     416.0       0.0000       0.0000     142.0375    -999.2500      47.2360      77.6020      49.5444      77.2223     247.8630 1533250680 9999999.9999
     417.0       0.0000       0.0000     145.7651    -999.2500      40.4077      85.6755      42.7161      85.4712     254.3667 1533250681 9999999.9999
     418.0       0.0000       0.0000     150.0540    -999.2500      32.8162      92.9457      35.1246      92.8993     260.4654 1533250682 9999999.9999
     419.0       0.0000       0.0000     155.1111    -999.2500      24.9435      99.1715      27.2519      99.2604     266.5702 1533250683 9999999.9999
     420.0       0.0000       0.0000     160.9189    -999.2500      17.3118     103.7103      19.6202     103.8979     272.6749 1533250684 9999999.9999
     421.0       0.0000       0.0000     168.2211      78.6841       9.2383     106.0400      11.5467     106.2782     278.7622 1533250685 9999999.9999
     422.0       0.0000       0.0000     176.5881      73.5703       0.9640     106.5220       3.2724     106.7706     284.8547 1533250686 9999999.9999
     423.0       0.0000       0.0000    -174.1360      74.3042      -7.9530     106.4818      -5.6446     106.7296     290.9594 1533250687 9999999.9999
