~VERSION INFORMATION
VERS.           2.0   :CWLS Log ASCII Standard - VERSION 2.0
WRAP.           NO    :One Line per depth step
PROD.  Schlumberger   :LAS Producer
PROG.  DLIS to ASCII 19C2-270                          :LAS Program name and version
CREA.        2018/08/03 10:59                          :LAS Creation date {YYYY/MM/DD hh:mm}
DLIS_CREA.  2018-Aug-03 09:50                          :DLIS Creation date and time {YYYY-MMM-DD hh:mm}
SOURCE.     PERFO_Perfo_088PTP.DLIS                    :DLIS File Name
FILE-ID.     PERFO_Perfo_088PTP                        :File Identification Number
#--------------------------------------------------
~WELL INFORMATION
#MNEM.UNIT      DATA             DESCRIPTION
#---- ------ --------------   -----------------------------
STRT .S            0.0       :START TIME      
STOP .S          526.0       :STOP TIME      
STEP .S            1.0       :STEP     
NULL .          -999.25      :NULL VALUE
COMP .        SHELL INTERNATIONAL EP                   :COMPANY
WELL .        WPP TEST 4                               :WELL
FLD  .        WILDCAT                                  :FIELD
LOC  .        NA                                       :LOCATION
CNTY .        HARRIS                                   :COUNTY
STAT .        TEXAS                                    :STATE
CTRY .                                                 :COUNTRY
API  .        NA                                       :API NUMBER
UWI  .                                                 :UNIQUE WELL ID
DATE .        02-Aug-2018                              :LOG DATE {DD-MMM-YYYY}
SRVC .        Schlumberger                             :SERVICE COMPANY
LATI .DEG                                              :LATITUDE
LONG .DEG                                              :LONGITUDE
GDAT .                                                 :GeoDetic Datum
SECT .        NA                                       :Section
RANG .        NA                                       :Range
TOWN .        NA                                       :Township
#-----------------------------------------------------------------------------
~PARAMETER INFORMATION
#MNEM.UNIT    VALUE                      DESCRIPTION
#---- -----   --------------------       ------------------------
U-PHASE_B_COMP_PER_YT.                 0 :Phase B Comparator Period Yt
U-PHASE_A_COMP_PER_XT.                 0 :Phase A Comparator Period Xt
U-MAX_EXC_CUR_LIMIT.MA       265.00000   :Requested CM Current Limit
U-REQ_EXC_FQ.HZ              50          :Requested CM Frequency
U-TILT_Y_OFFSET.          -2.06578       :WPTET Tilt Y Offset
U-TILT_Y_GAIN.           1.02173         :WPTET Tilt Y Gain
U-TILT_X_OFFSET.           2.30841       :WPTET Tilt X Offset
U-TILT_X_GAIN.           1.00000         :WPTET Tilt X Gain
U-TILT_OFFSET_TOL.           0.00100     :WPTET Tilt Offset Calibration Tolerance
U-MOT_CUR_LIMIT_REQ.MA        70.00000   :Requested Motor Current Limit
U-MOT_SPD_REQ_WPMS.RPM        1.00000    :Requested Motor Speed
U-STD_TOL_TILT.           0.01000        :Tilt Standard Deviation Tolerance
CWEI .LB/F      29.00000                 :Casing Weight
CSIZ .IN         7.00000                 :Current Casing Size
LCC  .               440                 :Logging Company Code
LUN  .              2134                 :Logging Unit Number
HIDE .                                   :Header Identifier
HID1 .                                   :Header Identifier Line 1
R1   .                                   :Remark Line 1
WITN .        MR. KELLY McCOY            :Witness's Name
ENGI .        MORRIS MOORE               :Engineer's Name
LUL  .        IOWA COLONY                :Logging Unit Location
DATE .        02-Aug-2018                :Date as Month-Day-Year
STAT .        TEXAS                      :State or Province
COUN .        HARRIS                     :County or Rig Name
FN   .        WILDCAT                    :Field Name
WN   .        WPP TEST 4                 :Well Name
CN   .        SHELL INTERNATIONAL EP     :Company Name
CLAB .        County                     :County/Rig Label
SLAB .        State                      :State/Province Label
RUN  .          1                        :RUN NUMBER
PDAT .        GROUND LEVEL               :Permanent Datum
EPD  .                                   :Elevation of Permanent Datum above Mean Sea Level
LMF  .          NA                       :Logging Measured From (Name of Logging Elevation Reference)
APD  .                                   :Elevation of Depth Reference (LMF) above Permanent Datum
#-----------------------------------------------------------------------------
~CURVE INFORMATION
#MNEM.UNIT   API CODE                                  DESCRIPTION
#---- -----  --------                                  -----------------------
TIME .S                                                :TIME {F10.1}
FREQ_EMF_SL.HZ                                         :Electromagnetic Field Frequency {F13.4}
PH_SH_WPPCM_SL.DEG                                     :WPPCM Phase Shift {F13.4}
RB_SL.DEG                                              :Relative Bearing {F13.4}
SDEV_SL.DEG                                            :Sonde Deviation {F13.4}
RTIX_SL.DEG                                            :Raw X-axis Tilt {F13.4}
RTIY_SL.DEG                                            :Raw Y-axis Tilt {F13.4}
TILX_SL.DEG                                            :X-axis Tilt {F13.4}
TILY_SL.DEG                                            :Y-axis Tilt {F13.4}
ROTA_SL.DEG                                            :Motor Rotation Angle {F13.4}
TOD7 .S                                                :Time of Day {I11}
TOJ  .S                                                :Time of Job {F13.4}
#-----------------------------------------------------------------------------
# 
#     TIME    FREQ_EMF_SL  PH_SH_WPPCM_    RB_SL       SDEV_SL      RTIX_SL      RTIY_SL      TILX_SL      TILY_SL      ROTA_SL        TOD7            TOJ
#                          SL
~A  
# ...
     159.0    1635.1744       0.0000      79.8138      79.9221     101.9832      -7.7923     104.2916     -10.0274     111.0477 1533250423 9999999.9999
     160.0    1627.6041       0.0000      88.8404      75.3516     102.3848       0.9238     104.6932      -1.1219     117.1465 1533250424 9999999.9999
     161.0    1616.3793       0.0000      97.6387      77.4581     102.3447       9.3187     104.6531       7.4554     123.2452 1533250425 9999999.9999
     162.0    1616.3793       0.0000     105.3135      90.4777     100.2962      17.1913     102.6046      15.4991     129.3501 1533250426 9999999.9999
     163.0    1598.0114       0.0000     112.0110    -999.2500      95.9180      25.1042      98.2264      23.5838     135.8600 1533250427 9999999.9999
     164.0    1572.9866       0.0000     117.6623    -999.2500      89.8930      32.9367      92.2014      31.5865     141.9588 1533250428 9999999.9999
     165.0    1565.9799       0.0000     122.3500    -999.2500      82.9040      40.3273      85.2124      39.1378     148.0638 1533250429 9999999.9999
     166.0    1521.9155       0.0000     126.7716    -999.2500      74.3485      47.6778      76.6569      46.6480     154.1687 1533250430 9999999.9999
     167.0    1525.2169       0.0000     131.4635    -999.2500      63.9052      54.8275      66.2136      53.9530     160.2676 1533250431 9999999.9999
     168.0    1515.3556       0.0000     139.2305    -999.2500      51.9757      70.8540      54.2841      70.3277     166.3664 1533250432 9999999.9999
     169.0    1480.2632       0.0000     143.3795    -999.2500      44.8260      80.7752      47.1344      80.4644     172.4589 1533250433 9999999.9999
     170.0    1452.7377       0.0000     147.2633    -999.2500      37.6763      88.3667      39.9847      88.2208     178.5779 1533250434 9999999.9999
     171.0    1449.7422       0.0000     151.6881    -999.2500      30.1250      95.3958      32.4334      95.4027     184.6767 1533250435 9999999.9999
     172.0    1411.8976       0.0000     157.1894    -999.2500      22.0515     101.1397      24.3599     101.2714     190.7756 1533250436 9999999.9999
     173.0    1397.8628       0.0000     163.6141      85.4636      14.1788     104.9555      16.4872     105.1701     196.8938 1533250437 9999999.9999
     174.0    1389.5751       0.0000     171.4402      75.7160       5.9848     106.3613       8.2932     106.6065     202.9987 1533250438 9999999.9999
     175.0    1375.9785       0.0000     179.8123      73.0662      -2.1288     106.6827       0.1796     106.9348     209.5031 1533250439 9999999.9999
     176.0    1362.6454       0.0000    -171.6159      76.0448     -10.4433     105.9998      -8.1349     106.2371     215.6214 1533250440 9999999.9999
     177.0    1352.1635       0.0000    -163.8618      92.0897     -18.7177     102.3447     -16.4093     102.5025     221.7269 1533250441 9999999.9999
     178.0    1352.1635       0.0000    -157.1919    -999.2500     -26.9920      96.7213     -24.6836      96.7570     227.8135 1533250442 9999999.9999
     179.0    1341.8416       0.0000    -151.5831    -999.2500     -35.0655      89.9733     -32.7571      89.8624     233.9133 1533250443 9999999.9999
     180.0    1344.4073       0.0000    -146.8328    -999.2500     -42.6570      82.4220     -40.3486      82.1470     240.0058 1533250444 9999999.9999
     181.0    1339.2858       0.0000    -142.0976    -999.2500     -50.3690      73.3042     -48.0606      72.8311     246.1107 1533250445 9999999.9999
     182.0    1331.6761       0.0000    -137.1329    -999.2500     -57.4383      62.8207     -55.1299      62.1198     252.2102 1533250446 9999999.9999
     183.0    1334.2030       0.0000    -129.8635    -999.2500     -72.1393      52.5380     -69.8309      51.6137     258.3089 1533250447 9999999.9999
     184.0    1334.2030       0.0000    -125.6637    -999.2500     -80.7752      45.7498     -78.4668      44.6781     264.4014 1533250448 9999999.9999
     185.0       0.0000       0.0000    -121.2859    -999.2500     -88.6478      38.5600     -86.3394      37.3320     270.6018 1533250449 9999999.9999
     186.0       0.0000       0.0000    -116.3584    -999.2500     -95.3155      31.0488     -93.0071      29.6577     276.7004 1533250450 9999999.9999
     187.0       0.0000       0.0000    -110.3462    -999.2500    -101.2200      23.0557     -98.9116      21.4908     283.2107 1533250451 9999999.9999
     188.0       0.0000       0.0000    -103.2563      84.0038    -105.0760      15.0223    -102.7676      13.2829     289.3154 1533250452 9999999.9999
     189.0       0.0000       0.0000     -95.1686      76.9143    -106.3613       6.9488    -104.0529       5.0340     295.4271 1533250453 9999999.9999
     190.0       0.0000       0.0000     -86.6493      76.3446    -106.3613      -1.1648    -104.0529      -3.2559     301.5387 1533250454 9999999.9999
     191.0       0.0000       0.0000     -78.0938      83.6967    -105.7588      -9.5597    -103.4504     -11.8332     307.6565 1533250455 9999999.9999
     192.0       0.0000       0.0000     -70.7770    -999.2500    -102.9472     -17.5930    -100.6388     -20.0410     313.7886 1533250456 9999999.9999
     193.0       0.0000       0.0000     -64.1647    -999.2500     -97.6050     -26.1887     -95.2966     -28.8235     319.9003 1533250457 9999999.9999
     194.0       0.0000       0.0000     -59.1274    -999.2500     -90.9373     -33.9007     -88.6289     -36.7030     326.0183 1533250458 9999999.9999
     195.0       0.0000       0.0000     -54.8258    -999.2500     -83.9885     -41.2512     -81.6801     -44.2132     332.1169 1533250459 9999999.9999
     196.0       0.0000       0.0000     -50.7918    -999.2500     -75.5133     -48.2402     -73.2049     -51.3541     338.2216 1533250460 9999999.9999
     197.0       0.0000       0.0000     -46.2816    -999.2500     -64.9897     -54.9078     -62.6813     -58.1666     344.3202 1533250461 9999999.9999
     198.0       0.0000       0.0000     -38.0957    -999.2500     -51.8150     -72.3000     -49.5066     -75.9367     350.4513 1533250462 9999999.9999
     199.0       0.0000       0.0000     -34.0096    -999.2500     -44.5850     -81.6990     -42.2766     -85.5399     356.9485 1533250463 9999999.9999
     200.0       0.0000       0.0000     -30.0040    -999.2500     -37.5157     -89.2102     -35.2073     -93.2142       3.0349 1533250464 9999999.9999
     201.0       0.0000       0.0000     -25.1698    -999.2500     -29.9242     -95.3155     -27.6158     -99.4522       9.1467 1533250465 9999999.9999
     202.0       0.0000       0.0000     -19.4822    -999.2500     -22.4130     -99.4527     -20.1046    -103.6793      15.2392 1533250466 9999999.9999
     203.0       0.0000       0.0000     -12.6830      80.6862     -14.8215    -101.4208     -12.5131    -105.6902      21.3440 1533250467 9999999.9999
     204.0       0.0000       0.0000      -4.3568      74.5277      -6.5070    -101.7823      -4.1986    -106.0596      27.4561 1533250468 9999999.9999
     205.0       0.0000       0.0000       5.2168      75.0512       2.7313    -101.5413       5.0397    -105.8133      33.5679 1533250469 9999999.9999
     206.0       0.0000       0.0000      13.1623      83.3839      10.7647    -100.4568      13.0731    -104.7053      39.6727 1533250470 9999999.9999
     207.0       0.0000       0.0000      19.7904    -999.2500      18.3160     -97.6050      20.6244    -101.7915      45.7776 1533250471 9999999.9999
     208.0       0.0000       0.0000      25.4352    -999.2500      25.8673     -92.7850      28.1757     -96.8667      51.8763 1533250472 9999999.9999
     209.0       0.0000       0.0000      30.0386    -999.2500      33.0170     -86.6395      35.3254     -90.5877      57.9812 1533250473 9999999.9999
     210.0       0.0000       0.0000      34.1177    -999.2500      39.9658     -79.3693      42.2742     -83.1596      64.0738 1533250474 9999999.9999
     211.0       0.0000       0.0000      38.1670    -999.2500      46.8343     -70.6130      49.1427     -74.2130      70.5775 1533250475 9999999.9999
