~VERSION INFORMATION
VERS.           2.0   :CWLS Log ASCII Standard - VERSION 2.0
WRAP.           NO    :One Line per depth step
PROD.  Schlumberger   :LAS Producer
PROG.  DLIS to ASCII 19C2-270                          :LAS Program name and version
CREA.        2017/09/16 17:42                          :LAS Creation date {YYYY/MM/DD hh:mm}
DLIS_CREA.  2017-Sep-15 20:25                          :DLIS Creation date and time {YYYY-MMM-DD hh:mm}
SOURCE.     BLANK_S2_BV.DLIS                           :DLIS File Name
FILE-ID.     PERFO_Perfo_WPGRT_068LTP                  :File Identification Number
#--------------------------------------------------
~WELL INFORMATION
#MNEM.UNIT      DATA             DESCRIPTION
#---- ------ --------------   -----------------------------
STRT .S         3786.0       :START TIME      
STOP .S         4067.0       :STOP TIME      
STEP .S            1.0       :STEP     
NULL .          -999.25      :NULL VALUE
COMP .        SHELL INTERNATIONAL E P                  :COMPANY
WELL .        WPP TEST 2                               :WELL
FLD  .        WILDCAT                                  :FIELD
LOC  .        NA                                       :LOCATION
CNTY .        HARRIS                                   :COUNTY
STAT .        TEXAS                                    :STATE
CTRY .                                                 :COUNTRY
API  .        NA                                       :API NUMBER
UWI  .                                                 :UNIQUE WELL ID
DATE .        15-Sep-2017                              :LOG DATE {DD-MMM-YYYY}
SRVC .        Schlumberger                             :SERVICE COMPANY
LATI .DEG                                              :LATITUDE
LONG .DEG                                              :LONGITUDE
GDAT .                                                 :GeoDetic Datum
SECT .        NA                                       :Section
RANG .        NA                                       :Range
TOWN .        NA                                       :Township
#-----------------------------------------------------------------------------
~PARAMETER INFORMATION
#MNEM.UNIT    VALUE                      DESCRIPTION
#---- -----   --------------------       ------------------------
U-PHASE_B_COMP_PER_YT.                 0 :Phase B Comparator Period Yt
U-PHASE_A_COMP_PER_XT.                 0 :Phase A Comparator Period Xt
U-MAX_EXC_CUR_LIMIT.MA       240.00000   :Requested CM Current Limit
U-REQ_EXC_FQ.HZ              50          :Requested CM Frequency
U-TILT_Y_OFFSET.           0.19916       :WPTET Tilt Y Offset
U-TILT_Y_GAIN.           1.01796         :WPTET Tilt Y Gain
U-TILT_X_OFFSET.          -1.77103       :WPTET Tilt X Offset
U-TILT_X_GAIN.           1.00000         :WPTET Tilt X Gain
U-TILT_OFFSET_TOL.           0.00100     :WPTET Tilt Offset Calibration Tolerance
U-NO_TILT_CAL_ROTATIONS.                 3 :Number of Rotations for Tilt Calibration
HAZI .DEG        0.00000                 :Hole Azimuth
U-STD_TOL_TILT.           0.01000        :Tilt Standard Deviation Tolerance
U-GUN_POS_TOL.DEG        5.00000         :Gun Position Tolerance
ROT_ANGLE_THRESHOLD.DEG        5.00000   :Rotation Stop Angle Tolerance
STOP_ROT_ANGLE.DEG        0.00000        :Rotation Stop Angle
WITN .        MR. DHRUA ARORA            :Witness's Name
ENGI .        MORRIS MOORE               :Engineer's Name
COUN .        HARRIS                     :County or Rig Name
FN   .        WILDCAT                    :Field Name
WN   .        WPP TEST 2                 :Well Name
CN   .        SHELL INTERNATIONAL E P    :Company Name
CLAB .        County                     :County/Rig Label
SLAB .        State                      :State/Province Label
RUN  .          1                        :RUN NUMBER
PDAT .        GROUND LEVEL               :Permanent Datum
EPD  .                                   :Elevation of Permanent Datum above Mean Sea Level
LMF  .          NA                       :Logging Measured From (Name of Logging Elevation Reference)
APD  .                                   :Elevation of Depth Reference (LMF) above Permanent Datum
#-----------------------------------------------------------------------------
~CURVE INFORMATION
#MNEM.UNIT   API CODE                                  DESCRIPTION
#---- -----  --------                                  -----------------------
TIME .S                                                :TIME {F10.1}
FREQ_EMF_SL.HZ                                         :Electromagnetic Field Frequency {F13.4}
PH_SH_WPPCM_SL.DEG                                     :WPPCM Phase Shift {F13.4}
FREQ_EXC_REQ_SL.HZ                                     :Requested Exciter Frequency {F13.4}
RB_SL.DEG                                              :Relative Bearing {F13.4}
SDEV_SL.DEG                                            :Sonde Deviation {F13.4}
TILX_SL.DEG                                            :X-axis Tilt {F13.4}
TILY_SL.DEG                                            :Y-axis Tilt {F13.4}
ROTA_SL.DEG                                            :Motor Rotation Angle {F13.4}
MSPE_SL.RPM                                            :Motor Speed {F13.4}
#-----------------------------------------------------------------------------
# 
#     TIME    FREQ_EMF_SL  PH_SH_WPPCM_ FREQ_EXC_REQ    RB_SL       SDEV_SL      TILX_SL      TILY_SL      ROTA_SL      MSPE_SL
#                          SL           _SL
~A  
# ...
    3849.0    1431.8979       0.0000      50.8611     -68.3495       6.2088      -5.7686      -2.2873     324.2183       1.0226
    3850.0    1437.0484       0.0000      50.8611     -62.5064       6.2210      -5.5161      -2.8674     330.3332       1.0226
    3851.0    1435.1127       0.0000      50.8611     -59.5131       6.4068      -5.5181      -3.2451     336.4227       1.0226
    3852.0    1427.5968       0.0000      50.8611     -54.0615       6.4634      -5.2294      -3.7864     342.5245       1.0226
    3853.0    1418.2710       0.0000      50.8611     -48.1895       6.3030      -4.6937      -4.1973     349.0336       1.0226
    3854.0    1419.7744       0.0000      50.8611     -43.2412       6.2996      -4.3111      -4.5847     355.1354       1.0226
    3855.0    1407.0683       0.0000      50.8611     -35.6665       6.1094      -3.5574      -4.9604       1.2372       1.0226
    3856.0    1404.1098       0.0000      50.8611     -34.0094       6.3006      -3.5193      -5.2195       7.3428       1.0146
    3857.0    1400.6475       0.0000      50.8611     -28.1432       6.0831      -2.8651      -5.3616      13.4417       1.0226
    3858.0    1390.3740       0.0000      50.8611     -23.0543       6.1738      -2.4137      -5.6790      19.5341       1.0146
    3859.0    1386.8344       0.0000      50.8611     -16.9283       6.1519      -1.7881      -5.8834      25.6367       1.0226
    3860.0    1361.2641       0.0000      50.8611     -12.4160       6.1408      -1.3176      -5.9964      31.7487       1.0146
    3861.0    1360.0098       0.0000      50.8611      -6.1392       5.8223      -0.6233      -5.7879      37.8382       1.0146
    3862.0    1344.9118       0.0000      50.8611      -1.5288       5.7201      -0.1528      -5.7178      43.9285       1.0226
    3863.0    1327.2465       0.0000      50.8611       3.7007       5.7007       0.3673      -5.6887      50.0442       1.0226
    3864.0    1308.7795       0.0000      50.8611       8.0691       5.7950       0.8112      -5.7373      56.1453       1.0226
    3865.0    1306.9238       0.0000      50.8611      14.3112       5.4697       1.3504      -5.2993      62.6544       1.0226
    3866.0    1280.0744       0.0000      50.8611      20.0458       5.3043       1.8154      -4.9819      68.7562       1.0226
    3867.0    1269.6272       0.0000      50.8611      26.1315       5.2880       2.3260      -4.7462      74.8486       1.0226
    3868.0    1261.2703       0.0000      50.8611      32.8137       5.2258       2.8291      -4.3900      80.9606       1.0226
    3869.0    1248.8899       0.0000      50.8611      37.3454       5.0466       3.0585      -4.0103      87.0624       1.0226
    3870.0    1242.1719       0.0000      50.8611      44.4372       4.9760       3.4813      -3.5508      93.1750       1.0226
    3871.0    1228.6281       0.0000      50.8611      50.6214       4.8946       3.7815      -3.1031      99.2799       1.0226
    3872.0    1226.0805       0.0000      50.8611      56.2674       4.7651       3.9613      -2.6436     105.3817       1.0226
    3873.0    1218.0868       0.0000      50.8611      62.4745       4.6409       4.1144      -2.1432     111.4589       1.0201
    3874.0    1204.3839       0.0000      50.8611      70.4572       4.5375       4.2751      -1.5161     117.5607       1.0226
    3875.0    1209.6052       0.0000      50.8611      77.9797       4.4416       4.3438      -0.9242     123.6501       1.0226
    3876.0    1210.3125       0.0000      50.8611      83.9156       4.3877       4.3629      -0.4648     129.7519       1.0226
    3877.0    1205.0671       0.0000      50.8611      90.7317       4.3464       4.3459       0.0550     136.2726       1.0308
    3878.0    1202.9024       0.0000      50.8611      97.8833       4.2872       4.2464       0.5866     142.3907       1.0226
    3879.0    1208.6124       0.0000      50.8611     105.5959       4.1967       4.0416       1.1278     148.4926       1.0226
    3880.0    1217.5878       0.0000      50.8611     115.7083       4.2847       3.8598       1.8561     154.5945       1.0226
    3881.0    1212.2845       0.0000      50.8611     121.8975       4.1713       3.5405       2.2027     160.6964       1.0226
    3882.0    1216.9800       0.0000      50.8611     127.7466       4.2031       3.3226       2.5707     166.7983       1.0226
    3883.0    1225.4642       0.0000      50.8611     136.6892       4.2858       2.9360       3.1160     172.9016       1.0226
    3884.0    1233.5526       0.0000      50.8611     145.2833       4.3492       2.4751       3.5734     179.0021       1.0226
    3885.0    1236.2373       0.0000      50.8611     151.9864       4.4217       2.0734       3.9026     185.1171       1.0226
    3886.0    1255.5803       0.0000      50.8611     158.6827       4.4405       1.6125       4.1362     191.1973       1.0176
    3887.0    1273.3634       0.0000      50.8611     165.4063       4.4865       1.1285       4.3406     197.3093       1.0252
    3888.0    1279.6336       0.0000      50.8611     173.2617       4.6606       0.5451       4.6268     203.4119       1.0308
    3889.0    1291.8336       0.0000      50.8611     -94.4037       4.6171      -0.0077       4.6151     209.9220       1.0226
    3890.0    1314.2523       0.0000      50.8611    -173.1120       4.7449      -0.5700       4.7086     216.0262       1.0226
    3891.0    1318.5971       0.0000      50.8611    -166.9916       4.7679      -1.0711       4.6442     222.1388       1.0308
    3892.0    1341.8416       0.0000      50.8611    -160.2011       4.9728      -1.6832       4.6774     228.2671       1.0252
    3893.0    1350.1845       0.0000      50.8611    -154.4910       5.1264      -2.2053       4.6248     234.3689       1.0226
    3894.0    1367.9475       0.0000      50.8611    -148.1516       5.0389      -2.6567       4.2782     240.4839       1.0252
    3895.0    1378.8269       0.0000      50.8611    -142.8231       5.1643      -3.1176       4.1126     246.5858       1.0226
    3896.0    1391.6733       0.0000      50.8611    -137.1970       5.3467      -3.6302       3.9200     252.6884       1.0226
    3897.0    1390.2286       0.0000      50.8611    -130.1884       5.5590      -4.2443       3.5831     258.7895       1.0226
    3898.0    1406.2500       0.0000      50.8611    -124.3870       5.5352      -4.5656       3.1216     264.8928       1.0226
    3899.0    1408.3989       0.0000      50.8611    -118.8059       5.6580      -4.9557       2.7225     271.0038       1.0252
    3900.0    1417.5908       0.0000      50.8611    -112.6176       5.6757      -5.2369       2.1792     277.1080       1.0226
    3901.0    1413.9299       0.0000      50.8611    -107.6204       5.8328      -5.5582       1.7626     283.6309       1.0226
    3902.0    1428.4274       0.0000      50.8611    -102.3720       5.8554      -5.7189       1.2525     289.7427       1.0308
    3903.0    1436.4924       0.0000      50.8611     -97.2374       5.9676      -5.9197       0.7501     295.8477       1.0226
    3904.0    1429.1158       0.0000      50.8611     -91.9670       6.1051      -6.1015       0.2089     301.9595       1.0252
    3905.0    1435.6459       0.0000      50.8611     -86.9732       6.1196      -6.1110      -0.3227     308.0520       1.0226
    3906.0    1441.6892       0.0000      50.8611     -81.1324       6.0826      -6.0096      -0.9360     314.1538       1.0226
    3907.0    1438.7390       0.0000      50.8611     -75.9623       6.1108      -5.9273      -1.4793     320.2657       1.0252
    3908.0    1438.5832       0.0000      50.8611     -70.2853       6.1798      -5.8163      -2.0809     326.3706       1.0226
    3909.0    1439.4331       0.0000      50.8611     -64.9022       6.2486      -5.6556      -2.6456     332.4601       1.0308
    3910.0    1434.9490       0.0000      50.8611     -59.4113       6.2718      -5.3956      -3.1869     338.5751       1.0226
    3911.0    1428.2909       0.0000      50.8611     -55.1950       6.3427      -5.2043      -3.6152     344.6769       1.0226
