~VERSION INFORMATION
VERS.           2.0   :CWLS Log ASCII Standard - VERSION 2.0
WRAP.           NO    :One Line per depth step
PROD.  Schlumberger   :LAS Producer
PROG.  DLIS to ASCII 19C2-270                          :LAS Program name and version
CREA.        2017/09/16 17:42                          :LAS Creation date {YYYY/MM/DD hh:mm}
DLIS_CREA.  2017-Sep-15 20:25                          :DLIS Creation date and time {YYYY-MMM-DD hh:mm}
SOURCE.     BLANK_S2_BV.DLIS                           :DLIS File Name
FILE-ID.     PERFO_Perfo_WPGRT_068LTP                  :File Identification Number
#--------------------------------------------------
~WELL INFORMATION
#MNEM.UNIT      DATA             DESCRIPTION
#---- ------ --------------   -----------------------------
STRT .S         3786.0       :START TIME      
STOP .S         4067.0       :STOP TIME      
STEP .S            1.0       :STEP     
NULL .          -999.25      :NULL VALUE
COMP .        SHELL INTERNATIONAL E P                  :COMPANY
WELL .        WPP TEST 2                               :WELL
FLD  .        WILDCAT                                  :FIELD
LOC  .        NA                                       :LOCATION
CNTY .        HARRIS                                   :COUNTY
STAT .        TEXAS                                    :STATE
CTRY .                                                 :COUNTRY
API  .        NA                                       :API NUMBER
UWI  .                                                 :UNIQUE WELL ID
DATE .        15-Sep-2017                              :LOG DATE {DD-MMM-YYYY}
SRVC .        Schlumberger                             :SERVICE COMPANY
LATI .DEG                                              :LATITUDE
LONG .DEG                                              :LONGITUDE
GDAT .                                                 :GeoDetic Datum
SECT .        NA                                       :Section
RANG .        NA                                       :Range
TOWN .        NA                                       :Township
#-----------------------------------------------------------------------------
~PARAMETER INFORMATION
#MNEM.UNIT    VALUE                      DESCRIPTION
#---- -----   --------------------       ------------------------
U-PHASE_B_COMP_PER_YT.                 0 :Phase B Comparator Period Yt
U-PHASE_A_COMP_PER_XT.                 0 :Phase A Comparator Period Xt
U-MAX_EXC_CUR_LIMIT.MA       240.00000   :Requested CM Current Limit
U-REQ_EXC_FQ.HZ              50          :Requested CM Frequency
U-TILT_Y_OFFSET.           0.19916       :WPTET Tilt Y Offset
U-TILT_Y_GAIN.           1.01796         :WPTET Tilt Y Gain
U-TILT_X_OFFSET.          -1.77103       :WPTET Tilt X Offset
U-TILT_X_GAIN.           1.00000         :WPTET Tilt X Gain
U-TILT_OFFSET_TOL.           0.00100     :WPTET Tilt Offset Calibration Tolerance
U-NO_TILT_CAL_ROTATIONS.                 3 :Number of Rotations for Tilt Calibration
HAZI .DEG        0.00000                 :Hole Azimuth
U-STD_TOL_TILT.           0.01000        :Tilt Standard Deviation Tolerance
U-GUN_POS_TOL.DEG        5.00000         :Gun Position Tolerance
ROT_ANGLE_THRESHOLD.DEG        5.00000   :Rotation Stop Angle Tolerance
STOP_ROT_ANGLE.DEG        0.00000        :Rotation Stop Angle
WITN .        MR. DHRUA ARORA            :Witness's Name
ENGI .        MORRIS MOORE               :Engineer's Name
COUN .        HARRIS                     :County or Rig Name
FN   .        WILDCAT                    :Field Name
WN   .        WPP TEST 2                 :Well Name
CN   .        SHELL INTERNATIONAL E P    :Company Name
CLAB .        County                     :County/Rig Label
SLAB .        State                      :State/Province Label
RUN  .          1                        :RUN NUMBER
PDAT .        GROUND LEVEL               :Permanent Datum
EPD  .                                   :Elevation of Permanent Datum above Mean Sea Level
LMF  .          NA                       :Logging Measured From (Name of Logging Elevation Reference)
APD  .                                   :Elevation of Depth Reference (LMF) above Permanent Datum
#-----------------------------------------------------------------------------
~CURVE INFORMATION
#MNEM.UNIT   API CODE                                  DESCRIPTION
#---- -----  --------                                  -----------------------
TIME .S                                                :TIME {F10.1}
FREQ_EMF_SL.HZ                                         :Electromagnetic Field Frequency {F13.4}
PH_SH_WPPCM_SL.DEG                                     :WPPCM Phase Shift {F13.4}
FREQ_EXC_REQ_SL.HZ                                     :Requested Exciter Frequency {F13.4}
RB_SL.DEG                                              :Relative Bearing {F13.4}
SDEV_SL.DEG                                            :Sonde Deviation {F13.4}
TILX_SL.DEG                                            :X-axis Tilt {F13.4}
TILY_SL.DEG                                            :Y-axis Tilt {F13.4}
ROTA_SL.DEG                                            :Motor Rotation Angle {F13.4}
MSPE_SL.RPM                                            :Motor Speed {F13.4}
#-----------------------------------------------------------------------------
# 
#     TIME    FREQ_EMF_SL  PH_SH_WPPCM_ FREQ_EXC_REQ    RB_SL       SDEV_SL      TILX_SL      TILY_SL      ROTA_SL      MSPE_SL
#                          SL           _SL
~A  
    3786.0    1446.7593       0.0000      50.8611     -84.8683       6.0127      -5.9885      -0.5368     299.6178       1.0226
    3787.0    1431.1981       0.0000      50.8611     -81.4492       6.0967      -6.0287      -0.9048     303.8220       1.0308
    3788.0    1424.7041       0.0000      50.8611     -77.7047       6.1805      -6.0382      -1.3137     309.9170       1.0283
    3789.0    1432.0265       0.0000      50.8611     -70.6342       6.1039      -5.7571      -2.0205     316.0335       1.0308
    3790.0    1425.5314       0.0000      50.8611     -65.8066       6.1375      -5.5964      -2.5112     322.1361       1.0226
    3791.0    1419.0970       0.0000      50.8611     -60.6359       6.3192      -5.5045      -3.0933     328.2286       1.0226
    3792.0    1424.0156       0.0000      50.8611     -56.0353       6.3540      -5.2655      -3.5452     334.7365       1.0308
    3793.0    1426.2170       0.0000      50.8611     -50.4114       6.2743      -4.8312      -3.9929     340.8522       1.0226
    3794.0    1419.0970       0.0000      50.8611     -46.1261       6.1502      -4.4296      -4.2576     346.9417       1.0226
    3795.0    1410.4149       0.0000      50.8611     -40.6437       6.3328      -4.1198      -4.8009     353.0435       1.0226
    3796.0    1401.3114       0.0000      50.8611     -35.9631       6.2388      -3.6589      -5.0463     359.1439       1.0171
    3797.0    1405.5834       0.0000      50.8611     -31.8687       6.2101      -3.2743      -5.2701       5.2278       1.0171
    3798.0    1403.4431       0.0000      50.8611     -25.5540       5.9937      -2.5819      -5.4049      11.3267       1.0226
    3799.0    1390.1150       0.0000      50.8611     -19.6741       6.0428      -2.0311      -5.6887      17.4423       1.0252
    3800.0    1381.9185       0.0000      50.8611     -15.4397       6.0503      -1.6084      -5.8308      23.5310       1.0226
    3801.0    1378.6765       0.0000      50.8611     -10.5179       5.9423      -1.0842      -5.8405      29.6411       1.0334
    3802.0    1368.7215       0.0000      50.8611      -5.3287       5.8779      -0.5449      -5.8523      35.7591       1.0308
    3803.0    1359.3862       0.0000      50.8611       0.5679       5.7903       0.0576      -5.7899      41.8517       1.0226
    3804.0    1336.0172       0.0000      50.8611       5.7415       5.7157       0.5702      -5.6867      48.3608       1.0226
    3805.0    1324.1526       0.0000      50.8611      10.6879       5.5695       1.0311      -5.4725      54.4626       1.0226
    3806.0    1316.7135       0.0000      50.8611      17.1930       5.4402       1.6050      -5.1960      60.5775       1.0252
    3807.0    1291.2662       0.0000      50.8611      22.9422       5.3094       2.0659      -4.8883      66.6793       1.0226
    3808.0    1278.3051       0.0000      50.8611      28.2085       5.2264       2.4676      -4.6042      72.7811       1.0226
    3809.0    1266.8918       0.0000      50.8611      35.6398       4.9990       2.9094      -4.0609      78.8836       1.0252
    3810.0    1255.0488       0.0000      50.8611      40.5003       5.0142       3.2542      -3.8103      84.9861       1.0226
    3811.0    1244.4691       0.0000      50.8611      46.0357       4.8826       3.5119      -3.3872      91.0863       1.0252
    3812.0    1239.1755       0.0000      50.8611      53.3298       4.7803       3.8312      -2.8536      97.1898       1.0226
    3813.0    1228.1150       0.0000      50.8611      59.5651       4.6919       4.0436      -2.3747     103.2916       1.0226
    3814.0    1221.7133       0.0000      50.8611      66.8064       4.5311       4.1641      -1.7829     109.3941       1.0146
    3815.0    1220.2007       0.0000      50.8611      73.0429       4.5003       4.3037      -1.3117     115.4967       1.0252
    3816.0    1214.9874       0.0000      50.8611      79.8471       4.3316       4.2635      -0.7627     121.8995       1.0226
    3817.0    1210.6935       0.0000      50.8611      86.3714       4.3029       4.2941      -0.2721     128.0952       1.0226
    3818.0    1208.6124       0.0000      50.8611      93.9325       4.1010       4.0913       0.2809     134.1971       1.0226
    3819.0    1222.3219       0.0000      50.8611     102.1996       4.1830       4.0873       0.8769     140.3252       1.0226
    3820.0    1219.0900       0.0000      50.8611     108.9584       3.9280       3.7107       1.2776     146.4157       1.0252
    3821.0    1215.8804       0.0000      50.8611     118.6054       4.2428       3.7243       2.0294     152.5307       1.0252
    3822.0    1224.1436       0.0000      50.8611     124.8171       4.2118       3.4564       2.4031     158.6326       1.0226
    3823.0    1234.6926       0.0000      50.8611     133.9870       4.1304       2.9706       2.8666     164.7345       1.0226
    3824.0    1241.2314       0.0000      50.8611     139.8901       4.3150       2.7773       3.2990     170.8241       1.0146
    3825.0    1246.1515       0.0000      50.8611     147.8977       4.3416       2.3049       3.6767     176.9137       1.0226
    3826.0    1260.6180       0.0000      50.8611     154.7663       4.3241       1.8420       3.9103     183.0164       1.0226
    3827.0    1266.8918       0.0000      50.8611     160.7852       4.4447       1.4614       4.1965     189.1183       1.0226
    3828.0    1285.5505       0.0000      50.8611     168.9520       4.5360       0.8684       4.4515     195.5189       1.0308
    3829.0    1297.9743       0.0000      50.8611     175.6348       4.5447       0.3463       4.5312     201.7401       1.0308
    3830.0    1321.0746       0.0000      50.8611    -179.0961       4.7189      -0.0745       4.7183     207.8582       1.0226
    3831.0    1334.9392       0.0000      50.8611    -171.0282       4.8173      -0.7498       4.7571     213.9601       1.0226
    3832.0    1341.2346       0.0000      50.8611    -164.1420       4.8414      -1.3217       4.6559     220.0721       1.0252
    3833.0    1359.3862       0.0000      50.8611    -158.5650       4.9358      -1.8017       4.5936     226.1771       1.0226
    3834.0    1365.6745       0.0000      50.8611    -152.5019       5.0136      -2.3124       4.4456     232.2790       1.0165
    3835.0    1378.0357       0.0000      50.8611    -146.3231       5.1925      -2.8766       4.3191     238.3685       1.0226
    3836.0    1382.0309       0.0000      50.8611    -138.9170       5.2842      -3.4696       3.9803     244.4704       1.0226
    3837.0    1386.8344       0.0000      50.8611    -133.0786       5.4273      -3.9611       3.7038     250.5730       1.0226
    3838.0    1393.1287       0.0000      50.8611    -128.2085       5.5317      -4.3437       3.4176     256.6749       1.0226
    3839.0    1400.6475       0.0000      50.8611    -122.7852       5.5632      -4.6746       3.0087     262.7767       1.0226
    3840.0    1404.7791       0.0000      50.8611    -116.6686       5.6836      -5.0762       2.5471     268.8917       1.0226
    3841.0    1406.9193       0.0000      50.8611    -110.9589       5.7361      -5.3554       2.0488     275.4016       1.0226
    3842.0    1414.0637       0.0000      50.8611    -105.0572       5.8823      -5.6787       1.5249     281.5164       1.0226
    3843.0    1422.6471       0.0000      50.8611    -101.5350       5.8590      -5.7400       1.1687     287.6206       1.0226
    3844.0    1437.8834       0.0000      50.8611     -94.5777       5.9486      -5.9293       0.4736     293.7200       1.0226
    3845.0    1431.1981       0.0000      50.8611     -88.7545       6.0094      -6.0076      -0.1300     299.8096       1.0121
    3846.0    1437.1865       0.0000      50.8611     -81.9311       6.0295      -5.9656      -0.8448     305.9005       1.0226
    3847.0    1433.5636       0.0000      50.8611     -79.7717       6.1479      -6.0498      -1.0898     312.0140       1.0226
    3848.0    1431.3352       0.0000      50.8611     -73.1927       6.1510      -5.8871      -1.7752     318.1158       1.0226
