~VERSION INFORMATION
VERS.           2.0   :CWLS Log ASCII Standard - VERSION 2.0
WRAP.           NO    :One Line per depth step
PROD.  Schlumberger   :LAS Producer
PROG.  DLIS to ASCII 19C2-270                          :LAS Program name and version
CREA.        2017/09/16 17:42                          :LAS Creation date {YYYY/MM/DD hh:mm}
DLIS_CREA.  2017-Sep-15 20:14                          :DLIS Creation date and time {YYYY-MMM-DD hh:mm}
SOURCE.     BLANK_S1_AV.DLIS                           :DLIS File Name
FILE-ID.     PERFO_Perfo_WPGRT_066LTP                  :File Identification Number
#--------------------------------------------------
~WELL INFORMATION
#MNEM.UNIT      DATA             DESCRIPTION
#---- ------ --------------   -----------------------------
STRT .S         3129.0       :START TIME      
STOP .S         3321.0       :STOP TIME      
STEP .S            1.0       :STEP     
NULL .          -999.25      :NULL VALUE
COMP .        SHELL INTERNATIONAL E P                  :COMPANY
WELL .        WPP TEST 2                               :WELL
FLD  .        WILDCAT                                  :FIELD
LOC  .        NA                                       :LOCATION
CNTY .        HARRIS                                   :COUNTY
STAT .        TEXAS                                    :STATE
CTRY .                                                 :COUNTRY
API  .        NA                                       :API NUMBER
UWI  .                                                 :UNIQUE WELL ID
DATE .        15-Sep-2017                              :LOG DATE {DD-MMM-YYYY}
SRVC .        Schlumberger                             :SERVICE COMPANY
LATI .DEG                                              :LATITUDE
LONG .DEG                                              :LONGITUDE
GDAT .                                                 :GeoDetic Datum
SECT .        NA                                       :Section
RANG .        NA                                       :Range
TOWN .        NA                                       :Township
#-----------------------------------------------------------------------------
~PARAMETER INFORMATION
#MNEM.UNIT    VALUE                      DESCRIPTION
#---- -----   --------------------       ------------------------
U-PHASE_B_COMP_PER_YT.                 0 :Phase B Comparator Period Yt
U-PHASE_A_COMP_PER_XT.                 0 :Phase A Comparator Period Xt
U-MAX_EXC_CUR_LIMIT.MA       240.00000   :Requested CM Current Limit
U-REQ_EXC_FQ.HZ              50          :Requested CM Frequency
U-TILT_Y_OFFSET.           0.19916       :WPTET Tilt Y Offset
U-TILT_Y_GAIN.           1.01796         :WPTET Tilt Y Gain
U-TILT_X_OFFSET.          -1.77103       :WPTET Tilt X Offset
U-TILT_X_GAIN.           1.00000         :WPTET Tilt X Gain
U-TILT_OFFSET_TOL.           0.00100     :WPTET Tilt Offset Calibration Tolerance
U-NO_TILT_CAL_ROTATIONS.                 3 :Number of Rotations for Tilt Calibration
HAZI .DEG        0.00000                 :Hole Azimuth
U-STD_TOL_TILT.           0.01000        :Tilt Standard Deviation Tolerance
U-GUN_POS_TOL.DEG        5.00000         :Gun Position Tolerance
ROT_ANGLE_THRESHOLD.DEG        5.00000   :Rotation Stop Angle Tolerance
STOP_ROT_ANGLE.DEG        0.00000        :Rotation Stop Angle
WITN .        MR. DHRUA ARORA            :Witness's Name
ENGI .        MORRIS MOORE               :Engineer's Name
COUN .        HARRIS                     :County or Rig Name
FN   .        WILDCAT                    :Field Name
WN   .        WPP TEST 2                 :Well Name
CN   .        SHELL INTERNATIONAL E P    :Company Name
CLAB .        County                     :County/Rig Label
SLAB .        State                      :State/Province Label
RUN  .          1                        :RUN NUMBER
PDAT .        GROUND LEVEL               :Permanent Datum
EPD  .                                   :Elevation of Permanent Datum above Mean Sea Level
LMF  .          NA                       :Logging Measured From (Name of Logging Elevation Reference)
APD  .                                   :Elevation of Depth Reference (LMF) above Permanent Datum
#-----------------------------------------------------------------------------
~CURVE INFORMATION
#MNEM.UNIT   API CODE                                  DESCRIPTION
#---- -----  --------                                  -----------------------
TIME .S                                                :TIME {F10.1}
FREQ_EMF_SL.HZ                                         :Electromagnetic Field Frequency {F13.4}
PH_SH_WPPCM_SL.DEG                                     :WPPCM Phase Shift {F13.4}
FREQ_EXC_REQ_SL.HZ                                     :Requested Exciter Frequency {F13.4}
RB_SL.DEG                                              :Relative Bearing {F13.4}
SDEV_SL.DEG                                            :Sonde Deviation {F13.4}
TILX_SL.DEG                                            :X-axis Tilt {F13.4}
TILY_SL.DEG                                            :Y-axis Tilt {F13.4}
ROTA_SL.DEG                                            :Motor Rotation Angle {F13.4}
MSPE_SL.RPM                                            :Motor Speed {F13.4}
#-----------------------------------------------------------------------------
# 
#     TIME    FREQ_EMF_SL  PH_SH_WPPCM_ FREQ_EXC_REQ    RB_SL       SDEV_SL      TILX_SL      TILY_SL      ROTA_SL      MSPE_SL
#                          SL           _SL
~A  
# ...
    3192.0    1434.9490       0.0000      50.8611     -47.2628       1.2216      -0.9014      -0.8235     322.4875       1.0156
    3193.0    1427.1776       0.0000      50.8611     -44.0326       1.0942      -0.7010      -0.7128     328.5902       1.0226
    3194.0    1415.6940       0.0000      50.8611     -30.3950       1.0524      -0.5536      -0.8778     334.6838       1.0191
    3195.0    1407.1941       0.0000      50.8611     -52.9157       1.0966      -0.8070      -0.6881     340.7732       1.0191
    3196.0    1403.4684       0.0000      50.8611     -36.2418       1.2072      -0.7134      -0.9729     347.2890       1.0226
    3197.0    1385.0088       0.0000      50.8611     -44.6948       0.9820      -0.6867      -0.7008     353.3918       1.0226
    3198.0    1379.6152       0.0000      50.8611     -69.4027       1.3559      -1.2621      -0.4818     359.4936       1.0226
    3199.0    1372.4111       0.0000      50.8611     -53.2272       1.1550      -0.9271      -0.6867       5.5955       1.0226
    3200.0    1360.0330       0.0000      50.8611     -44.9435       1.0213      -0.7273      -0.7143      11.6973       1.0226
    3201.0    1342.7011       0.0000      50.8611     -40.0079       0.9851      -0.6329      -0.7548      17.7991       1.0226
    3202.0    1331.9113       0.0000      50.8611     -54.4379       1.0906      -0.8872      -0.6323      23.9009       1.0226
    3203.0    1311.8616       0.0000      50.8611     -40.1652       0.8989      -0.5795      -0.6867      30.0027       1.0226
    3204.0    1312.6217       0.0000      50.8611     -34.8591       0.7772      -0.4582      -0.6049      36.0963       1.0191
    3205.0    1274.5428       0.0000      50.8611     -31.4870       0.8560      -0.4453      -0.7278      42.2091       1.0226
    3206.0    1254.0920       0.0000      50.8611     -28.7368       0.6451      -0.3120      -0.5646      48.2987       1.0226
    3207.0    1234.3025       0.0000      50.8611     -42.5254       0.7162      -0.5116      -0.4820      54.3881       1.0226
    3208.0    1217.8942       0.0000      50.8611     -44.2983       0.5619      -0.3921      -0.4005      60.8949       1.0226
    3209.0    1199.8721       0.0000      50.8611     -23.4594       0.4727      -0.2186      -0.4150      66.9977       1.0226
    3210.0    1192.4151       0.0000      50.8611     -54.7711       0.9718      -0.7526      -0.6039      73.0985       1.0226
    3211.0    1183.0835       0.0000      50.8611     -92.1922       0.7279      -0.6323      -0.0586      79.2144       1.0226
    3212.0    1159.0212       0.0000      50.8611     -46.8024       0.6848      -0.4991      -0.4687      85.3080       1.0156
    3213.0    1161.5476       0.0000      50.8611     -46.1832       0.5987      -0.4321      -0.4142      91.4086       1.0226
    3214.0    1155.8194       0.0000      50.8611     -55.0499       0.6579      -0.5393      -0.3767      97.5001       1.0156
    3215.0    1152.0434       0.0000      50.8611     -50.7444       1.0422      -0.8070      -0.6595     103.5978       1.0226
    3216.0    1162.1901       0.0000      50.8611     -54.1447       0.7616      -0.6192      -0.4414     109.6996       1.0226
    3217.0    1162.1901       0.0000      50.8611     -68.3534       0.8261      -0.7669      -0.3050     115.8034       1.0226
    3218.0    1168.6328       0.0000      50.8611     -78.3323       0.8122      -0.7934      -0.1686     121.9052       1.0226
    3219.0    1187.0415       0.0000      50.8611     -59.2890       0.8218      -0.7126      -0.4005     128.0034       1.0335
    3220.0    1203.9780       0.0000      50.8611     -53.6349       0.9350      -0.7532      -0.5505     134.3920       1.0226
    3221.0    1224.9532       0.0000      50.8611     -68.7330       0.7379      -0.6867      -0.2641     140.6296       1.0226
    3222.0    1242.2703       0.0000      50.8611     -67.5072       0.6733      -0.5927      -0.2649     146.7375       1.0191
    3223.0    1266.1309       0.0000      50.8611     -71.2618       0.9279      -0.8737      -0.3048     152.8484       1.0226
    3224.0    1299.6879       0.0000      50.8611     -66.6877       0.9080      -0.8337      -0.3596     158.9503       1.0226
    3225.0    1310.1667       0.0000      50.8611     -56.7482       0.8897      -0.7403      -0.4820     165.0529       1.0226
    3226.0    1321.2741       0.0000      50.8611     -71.8018       0.9559      -0.9075      -0.2982     171.1548       1.0226
    3227.0    1343.5513       0.0000      50.8611     -71.2809       0.9087      -0.8606      -0.2915     177.2588       1.0226
    3228.0    1351.2977       0.0000      50.8611     -75.6822       1.1233      -1.0882      -0.2778     183.3483       1.0298
    3229.0    1353.0362       0.0000      50.8611     -61.7891       1.0520      -0.9273      -0.4959     189.4633       1.0226
    3230.0    1362.6454       0.0000      50.8611     -68.3549       1.0123      -0.9410      -0.3733     195.5783       1.0226
    3231.0    1380.4777       0.0000      50.8611     -70.2204       1.1451      -1.0747      -0.3872     201.6802       1.0226
    3232.0    1389.5723       0.0000      50.8611     -74.5989       1.0462      -1.0079      -0.2780     208.0514       1.0226
    3233.0    1395.1142       0.0000      50.8611     -74.1465       1.2162      -1.1685      -0.3326     214.2900       1.0226
    3234.0    1403.4684       0.0000      50.8611     -65.4891       1.0638      -0.9677      -0.4414     220.3919       1.0226
    3235.0    1413.7867       0.0000      50.8611     -68.1500       1.1166      -1.0348      -0.4140     226.4814       1.0191
    3236.0    1427.1776       0.0000      50.8611     -69.3478       1.1053      -1.0344      -0.3870     232.5965       1.0226
    3237.0    1433.9886       0.0000      50.8611     -67.4686       1.2223      -1.1284      -0.4685     238.6983       1.0226
    3238.0    1439.3522       0.0000      50.8611     -67.5530       1.2944      -1.1951      -0.4957     244.8002       1.0226
    3239.0    1447.7586       0.0000      50.8611     -62.9059       1.1479      -1.0213      -0.5233     250.9108       1.0262
    3240.0    1456.7571       0.0000      50.8611     -61.2845       1.1501      -1.0081      -0.5503     257.0323       1.0262
    3241.0    1459.7815       0.0000      50.8611     -66.8975       1.2996      -1.1952      -0.5096     263.1341       1.0226
    3242.0    1466.8834       0.0000      50.8611     -58.5335       1.2325      -1.0482      -0.6462     269.2359       1.0226
    3243.0    1460.7823       0.0000      50.8611     -57.5472       1.3055      -1.1016      -0.7004     275.3254       1.0226
    3244.0    1459.7815       0.0000      50.8611     -58.1408       1.2497      -1.0615      -0.6595     281.4293       1.0226
    3245.0    1464.8438       0.0000      50.8611     -50.3650       1.2046      -0.9275      -0.7685     287.9227       1.0226
    3246.0    1462.8075       0.0000      50.8611     -54.1061       1.3343      -1.0749      -0.7817     294.0234       1.0226
    3247.0    1460.7823       0.0000      50.8611     -51.2614       1.3999      -1.0882      -0.8772     300.1252       1.0226
    3248.0    1453.7810       0.0000      50.8611     -58.8424       1.2559      -1.0751      -0.6458     306.2271       1.0226
    3249.0    1452.7377       0.0000      50.8611     -52.4395       1.2378      -0.9809      -0.7548     312.3299       1.0226
    3250.0    1443.7859       0.0000      50.8611     -48.9345       1.2990      -0.9807      -0.8502     318.4317       1.0226
    3251.0    1435.9320       0.0000      50.8611     -49.0482       1.1752      -0.8876      -0.7685     324.5345       1.0226
    3252.0    1435.9668       0.0000      50.8611     -52.4153       1.1707      -0.9275      -0.7141     330.6373       1.0226
    3253.0    1427.1881       0.0000      50.8611     -39.9786       1.2383      -0.7934      -0.9459     336.7392       1.0226
    3254.0    1420.4518       0.0000      50.8611     -47.1788       1.1920      -0.8741      -0.8093     342.8410       1.0226
