~VERSION INFORMATION
VERS.           2.0   :CWLS Log ASCII Standard - VERSION 2.0
WRAP.           NO    :One Line per depth step
PROD.  Schlumberger   :LAS Producer
PROG.  DLIS to ASCII 19C2-270                          :LAS Program name and version
CREA.        2017/09/16 17:42                          :LAS Creation date {YYYY/MM/DD hh:mm}
DLIS_CREA.  2017-Sep-15 20:31                          :DLIS Creation date and time {YYYY-MMM-DD hh:mm}
SOURCE.     BLANK_S2_B5.DLIS                           :DLIS File Name
FILE-ID.     PERFO_Perfo_WPGRT_069LTP                  :File Identification Number
#--------------------------------------------------
~WELL INFORMATION
#MNEM.UNIT      DATA             DESCRIPTION
#---- ------ --------------   -----------------------------
STRT .S         4138.0       :START TIME      
STOP .S         4326.0       :STOP TIME      
STEP .S            1.0       :STEP     
NULL .          -999.25      :NULL VALUE
COMP .        SHELL INTERNATIONAL E P                  :COMPANY
WELL .        WPP TEST 2                               :WELL
FLD  .        WILDCAT                                  :FIELD
LOC  .        NA                                       :LOCATION
CNTY .        HARRIS                                   :COUNTY
STAT .        TEXAS                                    :STATE
CTRY .                                                 :COUNTRY
API  .        NA                                       :API NUMBER
UWI  .                                                 :UNIQUE WELL ID
DATE .        15-Sep-2017                              :LOG DATE {DD-MMM-YYYY}
SRVC .        Schlumberger                             :SERVICE COMPANY
LATI .DEG                                              :LATITUDE
LONG .DEG                                              :LONGITUDE
GDAT .                                                 :GeoDetic Datum
SECT .        NA                                       :Section
RANG .        NA                                       :Range
TOWN .        NA                                       :Township
#-----------------------------------------------------------------------------
~PARAMETER INFORMATION
#MNEM.UNIT    VALUE                      DESCRIPTION
#---- -----   --------------------       ------------------------
U-PHASE_B_COMP_PER_YT.                 0 :Phase B Comparator Period Yt
U-PHASE_A_COMP_PER_XT.                 0 :Phase A Comparator Period Xt
U-MAX_EXC_CUR_LIMIT.MA       240.00000   :Requested CM Current Limit
U-REQ_EXC_FQ.HZ              50          :Requested CM Frequency
U-TILT_Y_OFFSET.           0.19916       :WPTET Tilt Y Offset
U-TILT_Y_GAIN.           1.01796         :WPTET Tilt Y Gain
U-TILT_X_OFFSET.          -1.77103       :WPTET Tilt X Offset
U-TILT_X_GAIN.           1.00000         :WPTET Tilt X Gain
U-TILT_OFFSET_TOL.           0.00100     :WPTET Tilt Offset Calibration Tolerance
U-NO_TILT_CAL_ROTATIONS.                 3 :Number of Rotations for Tilt Calibration
HAZI .DEG        0.00000                 :Hole Azimuth
U-STD_TOL_TILT.           0.01000        :Tilt Standard Deviation Tolerance
U-GUN_POS_TOL.DEG        5.00000         :Gun Position Tolerance
ROT_ANGLE_THRESHOLD.DEG        5.00000   :Rotation Stop Angle Tolerance
STOP_ROT_ANGLE.DEG        0.00000        :Rotation Stop Angle
WITN .        MR. DHRUA ARORA            :Witness's Name
ENGI .        MORRIS MOORE               :Engineer's Name
COUN .        HARRIS                     :County or Rig Name
FN   .        WILDCAT                    :Field Name
WN   .        WPP TEST 2                 :Well Name
CN   .        SHELL INTERNATIONAL E P    :Company Name
CLAB .        County                     :County/Rig Label
SLAB .        State                      :State/Province Label
RUN  .          1                        :RUN NUMBER
PDAT .        GROUND LEVEL               :Permanent Datum
EPD  .                                   :Elevation of Permanent Datum above Mean Sea Level
LMF  .          NA                       :Logging Measured From (Name of Logging Elevation Reference)
APD  .                                   :Elevation of Depth Reference (LMF) above Permanent Datum
#-----------------------------------------------------------------------------
~CURVE INFORMATION
#MNEM.UNIT   API CODE                                  DESCRIPTION
#---- -----  --------                                  -----------------------
TIME .S                                                :TIME {F10.1}
FREQ_EMF_SL.HZ                                         :Electromagnetic Field Frequency {F13.4}
PH_SH_WPPCM_SL.DEG                                     :WPPCM Phase Shift {F13.4}
FREQ_EXC_REQ_SL.HZ                                     :Requested Exciter Frequency {F13.4}
RB_SL.DEG                                              :Relative Bearing {F13.4}
SDEV_SL.DEG                                            :Sonde Deviation {F13.4}
TILX_SL.DEG                                            :X-axis Tilt {F13.4}
TILY_SL.DEG                                            :Y-axis Tilt {F13.4}
ROTA_SL.DEG                                            :Motor Rotation Angle {F13.4}
MSPE_SL.RPM                                            :Motor Speed {F13.4}
#-----------------------------------------------------------------------------
# 
#     TIME    FREQ_EMF_SL  PH_SH_WPPCM_ FREQ_EXC_REQ    RB_SL       SDEV_SL      TILX_SL      TILY_SL      ROTA_SL      MSPE_SL
#                          SL           _SL
~A  
# ...
    4201.0    1446.2988       0.0000      50.8611     -52.2091       1.1173      -0.8811      -0.6848     331.4432       1.0226
    4202.0    1444.7114       0.0000      50.8611     -51.9739       1.1266      -0.8874      -0.6940     337.5501       1.0226
    4203.0    1449.2798       0.0000      50.8611     -42.6770       1.2313      -0.8347      -0.9048     343.6365       1.0226
    4204.0    1445.8402       0.0000      50.8611     -48.8044       1.3429      -1.0135      -0.8703     349.7626       1.0226
    4205.0    1443.7886       0.0000      50.8611     -40.2825       1.1861      -0.7669      -0.9048     356.2745       1.0243
    4206.0    1437.2419       0.0000      50.8611     -49.9333       1.1076      -0.8472      -0.7131       2.3751       1.0137
    4207.0    1434.9490       0.0000      50.8611     -52.1685       1.5471      -1.2657      -0.8040       8.4770       1.0226
    4208.0    1433.1480       0.0000      50.8611     -41.8858       1.1714      -0.7821      -0.8703      14.5788       1.0226
    4209.0    1425.7695       0.0000      50.8611     -43.5126       1.1451      -0.7883      -0.8294      20.6811       1.0226
    4210.0    1412.7800       0.0000      50.8611     -38.3192       0.9975      -0.6186      -0.7822      26.7824       1.0226
    4211.0    1417.3123       0.0000      50.8611     -51.6159       1.1817      -0.9286      -0.7240      32.8842       1.0226
    4212.0    1410.1538       0.0000      50.8611     -46.3339       0.9255      -0.6678      -0.6376      38.9860       1.0226
    4213.0    1402.1483       0.0000      50.8611     -34.2908       0.8629      -0.4857      -0.7131      45.0878       1.0226
    4214.0    1377.6612       0.0000      50.8611     -35.8848       0.8067      -0.4732      -0.6532      51.1773       1.0226
    4215.0    1375.5620       0.0000      50.8611     -42.9684       0.9307      -0.6339      -0.6814      57.2791       1.0226
    4216.0    1361.0207       0.0000      50.8611     -45.3329       0.9105      -0.6464      -0.6405      63.3809       1.0226
    4217.0    1335.9548       0.0000      50.8611     -24.7025       0.6308      -0.2634      -0.5714      69.5494       1.0226
    4218.0    1330.8972       0.0000      50.8611     -54.2196       0.7502      -0.6062      -0.4395      76.0066       1.0317
    4219.0    1310.6686       0.0000      50.8611     -45.4666       0.7960      -0.5660      -0.5587      82.1064       1.0137
    4220.0    1295.4406       0.0000      50.8611     -53.9975       0.8911      -0.7205      -0.5242      88.1978       1.0226
    4221.0    1282.3517       0.0000      50.8611     -56.8881       0.7182      -0.6000      -0.3923      94.2873       1.0226
    4222.0    1256.9804       0.0000      50.8611     -50.6699       0.6219      -0.4795      -0.3951     100.3891       1.0226
    4223.0    1247.4495       0.0000      50.8611     -56.4569       0.7423      -0.6186      -0.4094     106.4935       1.0226
    4224.0    1237.5589       0.0000      50.8611     -55.2624       0.7379      -0.6062      -0.4205     112.5926       1.0226
    4225.0    1229.2395       0.0000      50.8611     -58.8986       0.9215      -0.7883      -0.4769     118.6944       1.0226
    4226.0    1216.4792       0.0000      50.8611     -62.3526       0.7299      -0.6464      -0.3387     124.7865       1.0226
    4227.0    1210.1979       0.0000      50.8611     -62.4452       0.6507      -0.5723      -0.3007     130.8884       1.0226
    4228.0    1206.6899       0.0000      50.8611     -66.1368       0.7514      -0.6865      -0.3042     136.9903       1.0226
    4229.0    1204.3012       0.0000      50.8611     -63.3935       0.8199      -0.7329      -0.3669     143.1528       1.0226
    4230.0    1204.4568       0.0000      50.8611     -67.8580       0.8647      -0.8008      -0.3260     149.5995       1.0226
    4231.0    1202.2421       0.0000      50.8611     -36.3490       0.6577      -0.3686      -0.5143     155.6995       1.0210
    4232.0    1197.3804       0.0000      50.8611     -76.5028       0.7733      -0.7516      -0.1815     161.7909       1.0226
    4233.0    1205.7263       0.0000      50.8611     -75.2570       1.0165      -0.9830      -0.2569     167.8948       1.0243
    4234.0    1206.0464       0.0000      50.8611     -58.6379       0.9579      -0.8133      -0.4988     174.0078       1.0226
    4235.0    1214.8672       0.0000      50.8611     -77.0732       0.9517      -0.9275      -0.2129     180.1228       1.0317
    4236.0    1217.7932       0.0000      50.8611     -82.0362       0.9709      -0.9615      -0.1343     186.2379       1.0226
    4237.0    1218.9154       0.0000      50.8611     -65.0468       0.9554      -0.8659      -0.4015     192.3424       1.0226
    4238.0    1230.3948       0.0000      50.8611     -74.3936       1.0339      -0.9954      -0.2788     198.4417       1.0226
    4239.0    1247.0188       0.0000      50.8611     -69.5914       0.9534      -0.8936      -0.3324     204.5436       1.0226
    4240.0    1243.6408       0.0000      50.8611     -71.8760       1.2255      -1.1623      -0.3825     210.6455       1.0226
    4241.0    1253.6892       0.0000      50.8611     -72.1148       1.0851      -1.0328      -0.3324     216.7350       1.0226
    4242.0    1266.8918       0.0000      50.8611     -70.3261       1.0708      -1.0079      -0.3606     223.2457       1.0226
    4243.0    1285.7854       0.0000      50.8611     -69.0968       1.0656      -0.9954      -0.3796     229.3476       1.0226
    4244.0    1303.2109       0.0000      50.8611     -67.7180       1.1093      -1.0265      -0.4205     235.4626       1.0226
    4245.0    1315.4011       0.0000      50.8611     -71.5637       1.3099      -1.2426      -0.4142     241.5776       1.0226
    4246.0    1334.5962       0.0000      50.8611     -68.0354       1.2167      -1.1284      -0.4551     247.6795       1.0226
    4247.0    1364.8811       0.0000      50.8611     -60.9770       1.2381      -1.0820      -0.6012     253.7814       1.0226
    4248.0    1367.9475       0.0000      50.8611     -63.1206       1.2027      -1.0729      -0.5432     259.8734       1.0226
    4249.0    1385.1517       0.0000      50.8611     -67.1310       1.2430      -1.1436      -0.4804     265.9726       1.0226
    4250.0    1396.5782       0.0000      50.8611     -60.8833       1.3694      -1.1962      -0.6658     272.0876       1.0226
    4251.0    1400.6475       0.0000      50.8611     -59.8117       1.1736      -1.0141      -0.5904     278.2025       1.0226
    4252.0    1404.3150       0.0000      50.8611     -60.7691       1.2085      -1.0543      -0.5904     284.3173       1.0226
    4253.0    1424.4379       0.0000      50.8611     -54.7478       1.3330      -1.0882      -0.7695     290.4196       1.0226
    4254.0    1426.6664       0.0000      50.8611     -54.2628       1.3176      -1.0695      -0.7695     296.9421       1.0226
    4255.0    1426.0424       0.0000      50.8611     -55.9739       1.3872      -1.1498      -0.7758     303.0439       1.0226
    4256.0    1428.2190       0.0000      50.8611     -56.4792       1.2168      -1.0141      -0.6722     309.1457       1.0226
    4257.0    1436.9756       0.0000      50.8611     -50.0718       1.2624      -0.9677      -0.8104     315.2475       1.0226
    4258.0    1440.1858       0.0000      50.8611     -53.2603       1.2501      -1.0016      -0.7476     321.3369       1.0226
    4259.0    1443.7886       0.0000      50.8611     -51.6866       1.3278      -1.0418      -0.8230     327.4387       1.0226
    4260.0    1449.2798       0.0000      50.8611     -49.9333       1.1076      -0.8472      -0.7131     333.5537       1.0226
    4261.0    1446.7593       0.0000      50.8611     -48.5760       1.1918      -0.8936      -0.7885     339.6555       1.0226
    4262.0    1446.2988       0.0000      50.8611     -45.2862       1.2693      -0.9026      -0.8921     345.7573       1.0226
    4263.0    1438.3401       0.0000      50.8611     -46.2657       1.3778      -0.9954      -0.9520     351.8749       1.0317
