~VERSION INFORMATION
VERS.           2.0   :CWLS Log ASCII Standard - VERSION 2.0
WRAP.           NO    :One Line per depth step
PROD.  Schlumberger   :LAS Producer
PROG.  DLIS to ASCII 19C2-270                          :LAS Program name and version
CREA.        2017/09/16 17:42                          :LAS Creation date {YYYY/MM/DD hh:mm}
DLIS_CREA.  2017-Sep-15 20:14                          :DLIS Creation date and time {YYYY-MMM-DD hh:mm}
SOURCE.     BLANK_S1_AV.DLIS                           :DLIS File Name
FILE-ID.     PERFO_Perfo_WPGRT_066LTP                  :File Identification Number
#--------------------------------------------------
~WELL INFORMATION
#MNEM.UNIT      DATA             DESCRIPTION
#---- ------ --------------   -----------------------------
STRT .S         3129.0       :START TIME      
STOP .S         3321.0       :STOP TIME      
STEP .S            1.0       :STEP     
NULL .          -999.25      :NULL VALUE
COMP .        SHELL INTERNATIONAL E P                  :COMPANY
WELL .        WPP TEST 2                               :WELL
FLD  .        WILDCAT                                  :FIELD
LOC  .        NA                                       :LOCATION
CNTY .        HARRIS                                   :COUNTY
STAT .        TEXAS                                    :STATE
CTRY .                                                 :COUNTRY
API  .        NA                                       :API NUMBER
UWI  .                                                 :UNIQUE WELL ID
DATE .        15-Sep-2017                              :LOG DATE {DD-MMM-YYYY}
SRVC .        Schlumberger                             :SERVICE COMPANY
LATI .DEG                                              :LATITUDE
LONG .DEG                                              :LONGITUDE
GDAT .                                                 :GeoDetic Datum
SECT .        NA                                       :Section
RANG .        NA                                       :Range
TOWN .        NA                                       :Township
#-----------------------------------------------------------------------------
~PARAMETER INFORMATION
#MNEM.UNIT    VALUE                      DESCRIPTION
#---- -----   --------------------       ------------------------
U-PHASE_B_COMP_PER_YT.                 0 :Phase B Comparator Period Yt
U-PHASE_A_COMP_PER_XT.                 0 :Phase A Comparator Period Xt
U-MAX_EXC_CUR_LIMIT.MA       240.00000   :Requested CM Current Limit
U-REQ_EXC_FQ.HZ              50          :Requested CM Frequency
U-TILT_Y_OFFSET.           0.19916       :WPTET Tilt Y Offset
U-TILT_Y_GAIN.           1.01796         :WPTET Tilt Y Gain
U-TILT_X_OFFSET.          -1.77103       :WPTET Tilt X Offset
U-TILT_X_GAIN.           1.00000         :WPTET Tilt X Gain
U-TILT_OFFSET_TOL.           0.00100     :WPTET Tilt Offset Calibration Tolerance
U-NO_TILT_CAL_ROTATIONS.                 3 :Number of Rotations for Tilt Calibration
HAZI .DEG        0.00000                 :Hole Azimuth
U-STD_TOL_TILT.           0.01000        :Tilt Standard Deviation Tolerance
U-GUN_POS_TOL.DEG        5.00000         :Gun Position Tolerance
ROT_ANGLE_THRESHOLD.DEG        5.00000   :Rotation Stop Angle Tolerance
STOP_ROT_ANGLE.DEG        0.00000        :Rotation Stop Angle
WITN .        MR. DHRUA ARORA            :Witness's Name
ENGI .        MORRIS MOORE               :Engineer's Name
COUN .        HARRIS                     :County or Rig Name
FN   .        WILDCAT                    :Field Name
WN   .        WPP TEST 2                 :Well Name
CN   .        SHELL INTERNATIONAL E P    :Company Name
CLAB .        County                     :County/Rig Label
SLAB .        State                      :State/Province Label
RUN  .          1                        :RUN NUMBER
PDAT .        GROUND LEVEL               :Permanent Datum
EPD  .                                   :Elevation of Permanent Datum above Mean Sea Level
LMF  .          NA                       :Logging Measured From (Name of Logging Elevation Reference)
APD  .                                   :Elevation of Depth Reference (LMF) above Permanent Datum
#-----------------------------------------------------------------------------
~CURVE INFORMATION
#MNEM.UNIT   API CODE                                  DESCRIPTION
#---- -----  --------                                  -----------------------
TIME .S                                                :TIME {F10.1}
FREQ_EMF_SL.HZ                                         :Electromagnetic Field Frequency {F13.4}
PH_SH_WPPCM_SL.DEG                                     :WPPCM Phase Shift {F13.4}
FREQ_EXC_REQ_SL.HZ                                     :Requested Exciter Frequency {F13.4}
RB_SL.DEG                                              :Relative Bearing {F13.4}
SDEV_SL.DEG                                            :Sonde Deviation {F13.4}
TILX_SL.DEG                                            :X-axis Tilt {F13.4}
TILY_SL.DEG                                            :Y-axis Tilt {F13.4}
ROTA_SL.DEG                                            :Motor Rotation Angle {F13.4}
MSPE_SL.RPM                                            :Motor Speed {F13.4}
#-----------------------------------------------------------------------------
# 
#     TIME    FREQ_EMF_SL  PH_SH_WPPCM_ FREQ_EXC_REQ    RB_SL       SDEV_SL      TILX_SL      TILY_SL      ROTA_SL      MSPE_SL
#                          SL           _SL
~A  
    3129.0    1455.7454       0.0000      50.8611     -59.9382       1.0717      -0.9275      -0.5368     297.9851       1.0226
    3130.0    1444.7838       0.0000      50.8611     -69.9186       0.9342      -0.8741      -0.3185     302.0568       1.0087
    3131.0    1444.7865       0.0000      50.8611     -74.9132       1.1147      -1.0747      -0.2913     308.1562       1.0226
    3132.0    1433.9886       0.0000      50.8611     -69.5929       0.8764      -0.8205      -0.3050     314.2851       1.0298
    3133.0    1423.3561       0.0000      50.8611     -64.2245       1.0469      -0.9410      -0.4548     320.3775       1.0087
    3134.0    1428.1447       0.0000      50.8611     -69.2588       1.1771      -1.1012      -0.4142     326.4752       1.0334
    3135.0    1410.9498       0.0000      50.8611     -65.0183       1.1415      -1.0346      -0.4822     332.5952       1.0298
    3136.0    1397.8878       0.0000      50.8611     -54.2406       1.0122      -0.8205      -0.5912     339.1101       1.0335
    3137.0    1389.5997       0.0000      50.8611     -62.5743       1.1357      -1.0079      -0.5231     345.2207       1.0226
    3138.0    1387.7424       0.0000      50.8611     -62.4162       1.1688      -1.0344      -0.5370     351.3154       1.0226
    3139.0    1373.2910       0.0000      50.8611     -63.1505       1.0699      -0.9544      -0.4822     357.4274       1.0262
    3140.0    1363.5318       0.0000      50.8611     -59.6897       0.9656      -0.8341      -0.4822       3.5426       1.0226
    3141.0    1356.5613       0.0000      50.8611     -57.5366       1.1797      -0.9946      -0.6321       9.6429       1.0262
    3142.0    1337.5926       0.0000      50.8611     -60.1352       1.1321      -0.9811      -0.5642      15.7368       1.0226
    3143.0    1321.6636       0.0000      50.8611     -59.9960       1.0554      -0.9145      -0.5231      21.8474       1.0298
    3144.0    1306.9845       0.0000      50.8611     -50.8583       1.7153      -1.3153      -1.0947      27.9536       1.0156
    3145.0    1283.8606       0.0000      50.8611     -67.5789       1.3802      -1.2754      -0.5233      34.0442       1.0226
    3146.0    1254.8745       0.0000      50.8611     -59.2810       1.1689      -1.0069      -0.5507      40.1458       1.0226
    3147.0    1246.6945       0.0000      50.8611     -54.7822       1.0713      -0.8741      -0.6188      46.2362       1.0226
    3148.0    1232.8423       0.0000      50.8611     -47.8092       0.9210      -0.6733      -0.6182      52.7440       1.0226
    3149.0    1210.8969       0.0000      50.8611     -58.0200       1.0933      -0.9277      -0.5777      58.8458       1.0226
    3150.0    1188.4058       0.0000      50.8611     -49.2778       1.0610      -0.8076      -0.6871      64.9476       1.0226
    3151.0    1178.4258       0.0000      50.8611     -48.7447       1.1449      -0.8606      -0.7550      71.0494       1.0226
    3152.0    1169.2741       0.0000      50.8611     -53.2580       1.2609      -1.0079      -0.7552      77.1501       1.0226
    3153.0    1167.3447       0.0000      50.8611     -51.1825       1.3128      -1.0213      -0.8228      83.2550       1.0226
    3154.0    1159.0212       0.0000      50.8611     -58.9243       1.0872      -0.9277      -0.5644      89.3434       1.0226
    3155.0    1157.0938       0.0000      50.8611     -48.1190       1.1921      -0.8874      -0.7959      95.4503       1.0226
    3156.0    1162.8324       0.0000      50.8611     -46.5554       1.2613      -0.9139      -0.8641     101.5588       1.0298
    3157.0    1166.6861       0.0000      50.8611     -58.4749       1.3638      -1.1551      -0.7145     107.6636       1.0226
    3158.0    1173.2131       0.0000      50.8611     -59.4912       1.2161      -1.0081      -0.6176     113.7654       1.0226
    3159.0    1191.7543       0.0000      50.8611     -45.1391       0.5748      -0.4194      -0.3872     119.8636       1.0262
    3160.0    1201.2373       0.0000      50.8611     -25.6649       0.7022      -0.3393      -0.6057     126.3747       1.0226
    3161.0    1209.5029       0.0000      50.8611     -49.9867       0.9640      -0.7395      -0.6182     132.4766       1.0226
    3162.0    1227.0942       0.0000      50.8611     -40.5914       0.9270      -0.5925      -0.7008     138.5795       1.0226
    3163.0    1254.8445       0.0000      50.8611     -40.5057       0.8701      -0.5658      -0.6595     144.6814       1.0226
    3164.0    1285.4173       0.0000      50.8611     -35.5032       0.8819      -0.5122      -0.7141     150.7858       1.0262
    3165.0    1289.3487       0.0000      50.8611     -47.1208       0.9911      -0.7269      -0.6732     156.9085       1.0298
    3166.0    1317.5318       0.0000      50.8611     -48.0538       1.1367      -0.8476      -0.7550     163.0046       1.0226
    3167.0    1331.6730       0.0000      50.8611     -57.2801       1.0214      -0.8602      -0.5503     169.0920       1.0226
    3168.0    1340.9854       0.0000      50.8611     -71.0169       0.9121      -0.8608      -0.2913     175.1960       1.0226
    3169.0    1350.4376       0.0000      50.8611     -89.0137       1.0262      -1.0079      -0.0196     181.2979       1.0226
    3170.0    1353.0362       0.0000      50.8611     -62.0863       0.6778      -0.6074      -0.2367     187.3998       1.0226
    3171.0    1371.5009       0.0000      50.8611     -51.7663       0.9239      -0.7271      -0.5640     193.5017       1.0226
    3172.0    1382.2860       0.0000      50.8611     -48.4436       1.1310      -0.8201      -0.7676     200.0085       1.0226
    3173.0    1387.7525       0.0000      50.8611     -67.5468       0.7295      -0.6731      -0.2780     206.1104       1.0226
    3174.0    1401.5737       0.0000      50.8611     -61.5470       0.9556      -0.7932      -0.4424     212.2141       1.0226
    3175.0    1410.0056       0.0000      50.8611     -68.1063       1.1752      -1.0880      -0.4411     218.3291       1.0226
    3176.0    1416.6353       0.0000      50.8611     -92.1088       1.2478      -1.2364       0.0771     224.4238       1.0156
    3177.0    1424.2971       0.0000      50.8611     -42.9455       0.7145      -0.4857      -0.5233     230.5244       1.0192
    3178.0    1437.8834       0.0000      50.8611     -66.9844       1.0083      -0.9279      -0.3868     236.6252       1.0226
    3179.0    1443.7886       0.0000      50.8611     -75.7153       1.2894      -1.2493      -0.3189     242.7382       1.0226
    3180.0    1448.7429       0.0000      50.8611     -71.2315       1.3105      -1.2358      -0.4138     248.8401       1.0226
    3181.0    1447.7586       0.0000      50.8611     -77.9205       1.0461      -1.0217      -0.2095     254.9441       1.0226
    3182.0    1462.8186       0.0000      50.8611     -72.1859       1.0448      -0.9946      -0.3187     261.0459       1.0226
    3183.0    1455.7427       0.0000      50.8611     -73.8509       1.0215      -0.9815      -0.2778     267.1609       1.0226
    3184.0    1455.7454       0.0000      50.8611     -66.8314       1.6081      -1.4764      -0.6325     273.6604       1.0156
    3185.0    1461.7983       0.0000      50.8611     -69.1223       1.3465      -1.2489      -0.4829     279.7465       1.0226
    3186.0    1458.7655       0.0000      50.8611     -65.4545       1.5204      -1.3826      -0.6321     285.8483       1.0226
    3187.0    1455.7454       0.0000      50.8611     -61.6949       1.3416      -1.1816      -0.6323     291.9501       1.0226
    3188.0    1457.7538       0.0000      50.8611     -54.5761       1.1878      -0.9679      -0.6867     298.0519       1.0226
    3189.0    1447.7586       0.0000      50.8611     -51.5113       1.3048      -1.0215      -0.8093     304.1689       1.0226
    3190.0    1442.7974       0.0000      50.8611     -46.5166       1.3151      -0.9542      -0.9048     310.2687       1.0226
    3191.0    1437.8834       0.0000      50.8611     -38.5360       1.0854      -0.6735      -0.8508     316.3705       1.0226
