~VERSION INFORMATION
VERS.           2.0   :CWLS Log ASCII Standard - VERSION 2.0
WRAP.           NO    :One Line per depth step
PROD.  Schlumberger   :LAS Producer
PROG.  DLIS to ASCII 19C2-270                          :LAS Program name and version
CREA.        2017/09/16 17:42                          :LAS Creation date {YYYY/MM/DD hh:mm}
DLIS_CREA.  2017-Sep-15 20:20                          :DLIS Creation date and time {YYYY-MMM-DD hh:mm}
SOURCE.     BLANK_S1_A5.DLIS                           :DLIS File Name
FILE-ID.     PERFO_Perfo_WPGRT_067LTP                  :File Identification Number
#--------------------------------------------------
~WELL INFORMATION
#MNEM.UNIT      DATA             DESCRIPTION
#---- ------ --------------   -----------------------------
STRT .S         3480.0       :START TIME      
STOP .S         3691.0       :STOP TIME      
STEP .S            1.0       :STEP     
NULL .          -999.25      :NULL VALUE
COMP .        SHELL INTERNATIONAL E P                  :COMPANY
WELL .        WPP TEST 2                               :WELL
FLD  .        WILDCAT                                  :FIELD
LOC  .        NA                                       :LOCATION
CNTY .        HARRIS                                   :COUNTY
STAT .        TEXAS                                    :STATE
CTRY .                                                 :COUNTRY
API  .        NA                                       :API NUMBER
UWI  .                                                 :UNIQUE WELL ID
DATE .        15-Sep-2017                              :LOG DATE {DD-MMM-YYYY}
SRVC .        Schlumberger                             :SERVICE COMPANY
LATI .DEG                                              :LATITUDE
LONG .DEG                                              :LONGITUDE
GDAT .                                                 :GeoDetic Datum
SECT .        NA                                       :Section
RANG .        NA                                       :Range
TOWN .        NA                                       :Township
#-----------------------------------------------------------------------------
~PARAMETER INFORMATION
#MNEM.UNIT    VALUE                      DESCRIPTION
#---- -----   --------------------       ------------------------
U-PHASE_B_COMP_PER_YT.                 0 :Phase B Comparator Period Yt
U-PHASE_A_COMP_PER_XT.                 0 :Phase A Comparator Period Xt
U-MAX_EXC_CUR_LIMIT.MA       240.00000   :Requested CM Current Limit
U-REQ_EXC_FQ.HZ              50          :Requested CM Frequency
U-TILT_Y_OFFSET.           0.19916       :WPTET Tilt Y Offset
U-TILT_Y_GAIN.           1.01796         :WPTET Tilt Y Gain
U-TILT_X_OFFSET.          -1.77103       :WPTET Tilt X Offset
U-TILT_X_GAIN.           1.00000         :WPTET Tilt X Gain
U-TILT_OFFSET_TOL.           0.00100     :WPTET Tilt Offset Calibration Tolerance
U-NO_TILT_CAL_ROTATIONS.                 3 :Number of Rotations for Tilt Calibration
HAZI .DEG        0.00000                 :Hole Azimuth
U-STD_TOL_TILT.           0.01000        :Tilt Standard Deviation Tolerance
U-GUN_POS_TOL.DEG        5.00000         :Gun Position Tolerance
ROT_ANGLE_THRESHOLD.DEG        5.00000   :Rotation Stop Angle Tolerance
STOP_ROT_ANGLE.DEG        0.00000        :Rotation Stop Angle
WITN .        MR. DHRUA ARORA            :Witness's Name
ENGI .        MORRIS MOORE               :Engineer's Name
COUN .        HARRIS                     :County or Rig Name
FN   .        WILDCAT                    :Field Name
WN   .        WPP TEST 2                 :Well Name
CN   .        SHELL INTERNATIONAL E P    :Company Name
CLAB .        County                     :County/Rig Label
SLAB .        State                      :State/Province Label
RUN  .          1                        :RUN NUMBER
PDAT .        GROUND LEVEL               :Permanent Datum
EPD  .                                   :Elevation of Permanent Datum above Mean Sea Level
LMF  .          NA                       :Logging Measured From (Name of Logging Elevation Reference)
APD  .                                   :Elevation of Depth Reference (LMF) above Permanent Datum
#-----------------------------------------------------------------------------
~CURVE INFORMATION
#MNEM.UNIT   API CODE                                  DESCRIPTION
#---- -----  --------                                  -----------------------
TIME .S                                                :TIME {F10.1}
FREQ_EMF_SL.HZ                                         :Electromagnetic Field Frequency {F13.4}
PH_SH_WPPCM_SL.DEG                                     :WPPCM Phase Shift {F13.4}
FREQ_EXC_REQ_SL.HZ                                     :Requested Exciter Frequency {F13.4}
RB_SL.DEG                                              :Relative Bearing {F13.4}
SDEV_SL.DEG                                            :Sonde Deviation {F13.4}
TILX_SL.DEG                                            :X-axis Tilt {F13.4}
TILY_SL.DEG                                            :Y-axis Tilt {F13.4}
ROTA_SL.DEG                                            :Motor Rotation Angle {F13.4}
MSPE_SL.RPM                                            :Motor Speed {F13.4}
#-----------------------------------------------------------------------------
# 
#     TIME    FREQ_EMF_SL  PH_SH_WPPCM_ FREQ_EXC_REQ    RB_SL       SDEV_SL      TILX_SL      TILY_SL      ROTA_SL      MSPE_SL
#                          SL           _SL
~A  
# ...
    3606.0    1271.4738       0.0000      50.8611     -10.3751       6.0012      -1.0788      -5.9027      49.7275       1.0226
    3607.0    1254.3905       0.0000      50.8611      -5.8238       5.8924      -0.5968      -5.8618      55.8276       1.0226
    3608.0    1234.2056       0.0000      50.8611       0.5707       5.7709       0.0579      -5.7705      61.9295       1.0226
    3609.0    1214.0406       0.0000      50.8611       5.2736       5.7514       0.5279      -5.7269      68.0284       1.0201
    3610.0    1195.3162       0.0000      50.8611      11.0268       5.6100       1.0714      -5.5060      74.1207       1.0226
    3611.0    1178.9651       0.0000      50.8611      17.0043       5.4796       1.6004      -5.2389      80.2225       1.0201
    3612.0    1165.1438       0.0000      50.8611      21.7529       5.4686       2.0234      -5.0780      86.3250       1.0201
    3613.0    1154.5566       0.0000      50.8611      28.8754       5.3228       2.5670      -4.6596      92.4145       1.0226
    3614.0    1144.2856       0.0000      50.8611      34.3989       5.1886       2.9285      -4.2794      98.5041       1.0226
    3615.0    1137.8709       0.0000      50.8611      38.8954       5.0035       3.1387      -3.8923     104.6030       1.0145
    3616.0    1139.1556       0.0000      50.8611      45.4096       4.8314       3.4386      -3.3894     111.1033       1.0226
    3617.0    1135.4764       0.0000      50.8611      51.3262       4.8585       3.7908      -3.0337     117.2051       1.0226
    3618.0    1141.8706       0.0000      50.8611      59.6868       4.7796       4.1241      -2.4108     123.2945       1.0226
    3619.0    1141.4368       0.0000      50.8611      65.6406       4.5830       4.1736      -1.8888     129.3963       1.0226
    3620.0    1147.9004       0.0000      50.8611      69.9643       4.6598       4.3745      -1.5957     135.4982       1.0226
    3621.0    1163.0911       0.0000      50.8611      77.9728       4.3598       4.2634      -0.9075     141.6001       1.0226
    3622.0    1171.7574       0.0000      50.8611      85.9631       4.3240       4.3129      -0.3037     147.7020       1.0226
    3623.0    1194.3719       0.0000      50.8611      95.1818       4.2313       4.2138       0.3818     153.7916       1.0226
    3624.0    1211.1750       0.0000      50.8611     102.1989       4.2825       4.1856       0.9038     159.8943       1.0226
    3625.0    1229.2395       0.0000      50.8611     108.7850       4.2067       3.9822       1.3536     166.0093       1.0226
    3626.0    1248.7570       0.0000      50.8611     117.1938       4.2175       3.7506       1.9260     172.1112       1.0226
    3627.0    1272.5525       0.0000      50.8611     124.7874       4.2213       3.4653       2.4045     178.2261       1.0226
    3628.0    1305.7924       0.0000      50.8611     129.8285       4.4393       3.4089       2.8351     184.7360       1.0226
    3629.0    1332.8597       0.0000      50.8611     137.5017       4.3030       2.9029       3.1691     190.8372       1.0226
    3630.0    1342.4413       0.0000      50.8611     145.2778       4.0706       2.3166       3.3449     196.9398       1.0226
    3631.0    1355.3801       0.0000      50.8611     155.4417       4.3661       1.8132       3.9704     203.0548       1.0226
    3632.0    1376.6092       0.0000      50.8611     161.8409       4.4145       1.3740       4.1940     209.1560       1.0226
    3633.0    1385.3831       0.0000      50.8611     167.5583       4.5172       0.9723       4.4106     215.2586       1.0226
    3634.0    1399.3482       0.0000      50.8611     173.7594       4.6016       0.4997       4.5742     221.3605       1.0226
    3635.0    1413.2284       0.0000      50.8611    -177.6307       4.7227      -0.1951       4.7186     227.4624       1.0226
    3636.0    1420.2848       0.0000      50.8611    -171.4131       4.7918      -0.7147       4.7377     233.5643       1.0226
    3637.0    1426.8946       0.0000      50.8611    -165.1238       4.8700      -1.2489       4.7064     239.6662       1.0226
    3638.0    1442.4082       0.0000      50.8611    -159.4316       5.0202      -1.7616       4.6995     245.7681       1.0226
    3639.0    1454.1467       0.0000      50.8611    -153.2766       5.0101      -2.2504       4.4733     251.8830       1.0226
    3640.0    1459.4744       0.0000      50.8611    -147.0295       5.1392      -2.7940       4.3097     258.3922       1.0226
    3641.0    1462.5102       0.0000      50.8611    -140.8677       5.3078      -3.3469       4.1148     264.4940       1.0226
    3642.0    1477.3737       0.0000      50.8611    -136.2674       5.3210      -3.6750       3.8408     270.5973       1.0226
    3643.0    1477.1533       0.0000      50.8611    -128.6162       5.4693      -4.2707       3.4102     276.6991       1.0226
    3644.0    1481.7262       0.0000      50.8611    -123.7305       5.5016      -4.5733       3.0518     281.7018       0.0005
    3645.0    1475.5074       0.0000      50.8611    -123.9125       5.5102      -4.5707       3.0709     281.7018       0.0005
    3646.0    1485.7891       0.0000      50.8611    -124.1366       5.5736      -4.6109       3.1240     281.7018       0.0005
    3647.0    1481.7262       0.0000      50.8611    -123.9922       5.4814      -4.5425       3.0613     281.7018       0.0005
    3648.0    1478.6102       0.0000      50.8611    -124.2753       5.6089      -4.6322       3.1553     281.7018       0.0005
    3649.0    1483.3861       0.0000      50.8611    -123.0607       5.5778      -4.6724       3.0395     281.7018       0.0005
    3650.0    1483.3861       0.0000      50.8611    -124.2877       5.6240      -4.6442       3.1649     281.7018       0.0005
    3651.0    1481.7262       0.0000      50.8611    -125.7789       5.2978      -4.2963       3.0926     281.7018       0.0005
    3652.0    1478.6102       0.0000      50.8611    -123.7633       5.5025      -4.5707       3.0560     281.7018       0.0005
    3653.0    1477.1533       0.0000      50.8611    -124.7040       5.9406      -4.8795       3.3799     281.7018       0.0005
    3654.0    1482.6561       0.0000      50.8611    -126.1385       5.2652      -4.2489       3.0751     281.7018       0.0005
    3655.0    1477.1533       0.0000      50.8611    -124.9870       5.6687      -4.6416       3.2466     281.7018       0.0005
    3656.0    1480.9932       0.0000      50.8611    -122.8563       5.4367      -4.5655       2.9456     281.7018       0.0005
    3657.0    1477.1533       0.0000      50.8611    -122.3045       5.5168      -4.6604       2.9456     281.7018       0.0005
    3658.0    1476.9704       0.0000      50.8611    -122.7180       5.6110      -4.7178       3.0273     281.7018       0.0005
    3659.0    1478.6102       0.0000      50.8611    -124.1422       5.4330      -4.4930       3.0464     281.7018       0.0005
    3660.0    1484.3321       0.0000      50.8611    -124.9127       5.5310      -4.5331       3.1622     281.7018       0.0005
    3661.0    1484.3321       0.0000      50.8611    -124.5247       5.6745      -4.6724       3.2127     281.7018       0.0005
    3662.0    1478.6102       0.0000      50.8611    -123.2420       5.5702      -4.6562       3.0491     281.7018       0.0005
    3663.0    1481.7262       0.0000      50.8611    -124.1099       5.7236      -4.7366       3.2058     281.7018       0.0005
    3664.0    1479.5363       0.0000      50.8611    -123.8395       5.5428      -4.6015       3.0831     281.7018       0.0005
    3665.0    1480.2632       0.0000      50.8611    -124.9254       5.5174      -4.5211       3.1553     281.7018       0.0005
    3666.0    1484.8553       0.0000      50.8611    -123.4661       5.7338      -4.7820       3.1553     281.7018       0.0005
    3667.0    1477.8803       0.0000      50.8611    -128.6547       5.6267      -4.3912       3.5111     281.7018       0.0005
    3668.0    1478.8124       0.0000      50.8611    -124.8243       5.8514      -4.7986       3.3194     281.7018       0.0005
