~VERSION INFORMATION
VERS.           2.0   :CWLS Log ASCII Standard - VERSION 2.0
WRAP.           NO    :One Line per depth step
PROD.  Schlumberger   :LAS Producer
PROG.  DLIS to ASCII 19C2-270                          :LAS Program name and version
CREA.        2017/09/16 17:42                          :LAS Creation date {YYYY/MM/DD hh:mm}
DLIS_CREA.  2017-Sep-15 20:20                          :DLIS Creation date and time {YYYY-MMM-DD hh:mm}
SOURCE.     BLANK_S1_A5.DLIS                           :DLIS File Name
FILE-ID.     PERFO_Perfo_WPGRT_067LTP                  :File Identification Number
#--------------------------------------------------
~WELL INFORMATION
#MNEM.UNIT      DATA             DESCRIPTION
#---- ------ --------------   -----------------------------
STRT .S         3480.0       :START TIME      
STOP .S         3691.0       :STOP TIME      
STEP .S            1.0       :STEP     
NULL .          -999.25      :NULL VALUE
COMP .        SHELL INTERNATIONAL E P                  :COMPANY
WELL .        WPP TEST 2                               :WELL
FLD  .        WILDCAT                                  :FIELD
LOC  .        NA                                       :LOCATION
CNTY .        HARRIS                                   :COUNTY
STAT .        TEXAS                                    :STATE
CTRY .                                                 :COUNTRY
API  .        NA                                       :API NUMBER
UWI  .                                                 :UNIQUE WELL ID
DATE .        15-Sep-2017                              :LOG DATE {DD-MMM-YYYY}
SRVC .        Schlumberger                             :SERVICE COMPANY
LATI .DEG                                              :LATITUDE
LONG .DEG                                              :LONGITUDE
GDAT .                                                 :GeoDetic Datum
SECT .        NA                                       :Section
RANG .        NA                                       :Range
TOWN .        NA                                       :Township
#-----------------------------------------------------------------------------
~PARAMETER INFORMATION
#MNEM.UNIT    VALUE                      DESCRIPTION
#---- -----   --------------------       ------------------------
U-PHASE_B_COMP_PER_YT.                 0 :Phase B Comparator Period Yt
U-PHASE_A_COMP_PER_XT.                 0 :Phase A Comparator Period Xt
U-MAX_EXC_CUR_LIMIT.MA       240.00000   :Requested CM Current Limit
U-REQ_EXC_FQ.HZ              50          :Requested CM Frequency
U-TILT_Y_OFFSET.           0.19916       :WPTET Tilt Y Offset
U-TILT_Y_GAIN.           1.01796         :WPTET Tilt Y Gain
U-TILT_X_OFFSET.          -1.77103       :WPTET Tilt X Offset
U-TILT_X_GAIN.           1.00000         :WPTET Tilt X Gain
U-TILT_OFFSET_TOL.           0.00100     :WPTET Tilt Offset Calibration Tolerance
U-NO_TILT_CAL_ROTATIONS.                 3 :Number of Rotations for Tilt Calibration
HAZI .DEG        0.00000                 :Hole Azimuth
U-STD_TOL_TILT.           0.01000        :Tilt Standard Deviation Tolerance
U-GUN_POS_TOL.DEG        5.00000         :Gun Position Tolerance
ROT_ANGLE_THRESHOLD.DEG        5.00000   :Rotation Stop Angle Tolerance
STOP_ROT_ANGLE.DEG        0.00000        :Rotation Stop Angle
WITN .        MR. DHRUA ARORA            :Witness's Name
ENGI .        MORRIS MOORE               :Engineer's Name
COUN .        HARRIS                     :County or Rig Name
FN   .        WILDCAT                    :Field Name
WN   .        WPP TEST 2                 :Well Name
CN   .        SHELL INTERNATIONAL E P    :Company Name
CLAB .        County                     :County/Rig Label
SLAB .        State                      :State/Province Label
RUN  .          1                        :RUN NUMBER
PDAT .        GROUND LEVEL               :Permanent Datum
EPD  .                                   :Elevation of Permanent Datum above Mean Sea Level
LMF  .          NA                       :Logging Measured From (Name of Logging Elevation Reference)
APD  .                                   :Elevation of Depth Reference (LMF) above Permanent Datum
#-----------------------------------------------------------------------------
~CURVE INFORMATION
#MNEM.UNIT   API CODE                                  DESCRIPTION
#---- -----  --------                                  -----------------------
TIME .S                                                :TIME {F10.1}
FREQ_EMF_SL.HZ                                         :Electromagnetic Field Frequency {F13.4}
PH_SH_WPPCM_SL.DEG                                     :WPPCM Phase Shift {F13.4}
FREQ_EXC_REQ_SL.HZ                                     :Requested Exciter Frequency {F13.4}
RB_SL.DEG                                              :Relative Bearing {F13.4}
SDEV_SL.DEG                                            :Sonde Deviation {F13.4}
TILX_SL.DEG                                            :X-axis Tilt {F13.4}
TILY_SL.DEG                                            :Y-axis Tilt {F13.4}
ROTA_SL.DEG                                            :Motor Rotation Angle {F13.4}
MSPE_SL.RPM                                            :Motor Speed {F13.4}
#-----------------------------------------------------------------------------
# 
#     TIME    FREQ_EMF_SL  PH_SH_WPPCM_ FREQ_EXC_REQ    RB_SL       SDEV_SL      TILX_SL      TILY_SL      ROTA_SL      MSPE_SL
#                          SL           _SL
~A  
# ...
    3543.0    1354.7688       0.0000      50.8611     -30.3985       6.1948      -3.1299      -5.3398      23.6549       1.0226
    3544.0    1342.6150       0.0000      50.8611     -24.0117       6.2434      -2.5368      -5.7009      29.7574       1.0226
    3545.0    1329.3357       0.0000      50.8611     -19.8515       6.1162      -2.0736      -5.7514      35.8592       1.0226
    3546.0    1296.3442       0.0000      50.8611     -14.6418       6.0723      -1.5326      -5.8740      41.9610       1.0226
    3547.0    1281.4419       0.0000      50.8611      -9.1585       5.8623      -0.9301      -5.7869      48.0652       1.0226
    3548.0    1249.0454       0.0000      50.8611      -3.2976       5.8718      -0.3370      -5.8618      54.1618       1.0201
    3549.0    1543.9081       0.0000      50.8611       2.0343       5.7350       0.2031      -5.7313      59.8461       1.0226
    3550.0    1207.0168       0.0000      50.8611       9.1053       5.5711       0.8800      -5.5007      65.9479       1.0226
    3551.0    1186.1764       0.0000      50.8611      12.7375       5.5304       1.2175      -5.3929      72.0497       1.0226
    3552.0    1181.4025       0.0000      50.8611      19.0270       5.4460       1.7730      -5.1476      78.1515       1.0226
    3553.0    1161.2950       0.0000      50.8611      25.1629       5.3380       2.2670      -4.8301      84.2664       1.0226
    3554.0    1155.0005       0.0000      50.8611      29.8260       5.2284       2.5978      -4.5343      90.3558       1.0145
    3555.0    1135.0495       0.0000      50.8611      36.4683       4.9955       2.9660      -4.0150      96.5501       1.0145
    3556.0    1137.3130       0.0000      50.8611      41.2909       5.0036       3.2994      -3.7574     102.9552       1.0226
    3557.0    1141.4368       0.0000      50.8611      48.3818       4.8459       3.6207      -3.2163     109.0446       1.0145
    3558.0    1141.9954       0.0000      50.8611      54.5576       4.7042       3.8309      -2.7257     115.1456       1.0226
    3559.0    1141.7630       0.0000      50.8611      61.8783       4.6651       4.1121      -2.1968     121.2359       1.0226
    3560.0    1152.2229       0.0000      50.8611      69.1184       4.5538       4.2540      -1.6217     127.3377       1.0226
    3561.0    1163.5523       0.0000      50.8611      74.2129       4.3824       4.2162      -1.1913     133.4403       1.0226
    3562.0    1165.4726       0.0000      50.8611      82.0908       4.3640       4.3223      -0.5995     139.5291       1.0226
    3563.0    1185.2417       0.0000      50.8611      90.3084       4.2731       4.2728       0.0234     145.6310       1.0226
    3564.0    1199.7490       0.0000      50.8611      97.1853       4.2877       4.2540       0.5358     151.7329       1.0226
    3565.0    1217.4666       0.0000      50.8611     105.1742       4.1880       4.0411       1.0960     157.8348       1.0226
    3566.0    1243.4430       0.0000      50.8611     112.0664       4.2038       3.8951       1.5771     163.9367       1.0226
    3567.0    1264.6134       0.0000      50.8611     120.1027       4.2713       3.6943       2.1400     170.1339       1.0226
    3568.0    1285.8365       0.0000      50.8611     127.0023       4.2216       3.3703       2.5393     176.5485       1.0226
    3569.0    1319.6226       0.0000      50.8611     134.7668       4.1709       2.9593       2.9360     182.6504       1.0226
    3570.0    1332.2668       0.0000      50.8611     141.9399       4.3818       2.6995       3.4484     188.7523       1.0226
    3571.0    1352.3468       0.0000      50.8611     150.3059       4.3365       2.1465       3.7660     194.8542       1.0226
    3572.0    1362.6454       0.0000      50.8611     155.0193       4.4232       1.8654       4.0086     200.9716       1.0226
    3573.0    1374.5499       0.0000      50.8611     163.3047       4.5150       1.2960       4.3241     207.0711       1.0226
    3574.0    1386.8344       0.0000      50.8611     170.0088       4.6259       0.8023       4.5551     213.1730       1.0226
    3575.0    1403.4431       0.0000      50.8611     177.4255       4.6609       0.2091       4.6559     219.2749       1.0226
    3576.0    1412.5616       0.0000      50.8611    -176.1859       4.7198      -0.3130       4.7091     225.3768       1.0226
    3577.0    1424.0048       0.0000      50.8611    -170.2044       4.8620      -0.8258       4.7908     231.4663       1.0226
    3578.0    1437.8834       0.0000      50.8611    -161.9459       4.9434      -1.5300       4.6995     237.5713       1.0308
    3579.0    1443.7886       0.0000      50.8611    -157.4655       4.9092      -1.8795       4.5333     243.6832       1.0201
    3580.0    1458.0595       0.0000      50.8611    -150.1920       5.0598      -2.5128       4.3888     250.1939       1.0226
    3581.0    1454.8556       0.0000      50.8611    -145.4323       5.1754      -2.9332       4.2593     256.2989       1.0251
    3582.0    1464.8438       0.0000      50.8611    -139.1256       5.2414      -3.4272       3.9609     262.4107       1.0226
    3583.0    1471.6937       0.0000      50.8611    -133.8155       5.4481      -3.9280       3.7686     268.5256       1.0308
    3584.0    1470.9729       0.0000      50.8611    -128.5691       5.5412      -4.3297       3.4511     274.6274       1.0226
    3585.0    1478.0624       0.0000      50.8611    -122.8417       5.5950      -4.6982       3.0303     280.7323       1.0290
    3586.0    1480.2632       0.0000      50.8611    -116.0508       5.7259      -5.1424       2.5107     286.8342       1.0226
    3587.0    1479.3433       0.0000      50.8611    -109.8234       5.8447      -5.4971       1.9791     292.9337       1.0226
    3588.0    1480.9932       0.0000      50.8611    -104.2849       5.8778      -5.6954       1.4476     299.0355       1.0226
    3589.0    1485.7891       0.0000      50.8611     -99.0630       5.9024      -5.8279       0.9282     305.1505       1.0226
    3590.0    1486.5221       0.0000      50.8611     -93.2805       6.0105      -6.0005       0.3436     311.2523       1.0226
    3591.0    1477.1533       0.0000      50.8611     -87.4336       6.0349      -6.0287      -0.2697     317.3541       1.0226
    3592.0    1470.7913       0.0000      50.8611     -83.3320       6.1948      -6.1518      -0.7168     323.8771       1.0226
    3593.0    1465.7662       0.0000      50.8611     -76.1896       6.1899      -6.0099      -1.4746     329.9789       1.0226
    3594.0    1452.0375       0.0000      50.8611     -71.9278       6.1216      -5.8185      -1.8957     336.0837       1.0308
    3595.0    1448.1567       0.0000      50.8611     -67.5204       6.3090      -5.8279      -2.4081     342.1956       1.0226
    3596.0    1436.3236       0.0000      50.8611     -63.4832       6.4125      -5.7355      -2.8579     348.2974       1.0226
    3597.0    1425.5422       0.0000      50.8611     -55.5449       6.3125      -5.2014      -3.5652     354.4022       1.0308
    3598.0    1425.5422       0.0000      50.8611     -51.7717       6.2907      -4.9374      -3.8870       0.5148       1.0226
    3599.0    1406.2500       0.0000      50.8611     -47.1722       6.2416      -4.5733      -4.2385       6.6036       1.0226
    3600.0    1379.9453       0.0000      50.8611     -43.0841       6.2812      -4.2854      -4.5821      12.7054       1.0226
    3601.0    1382.2050       0.0000      50.8611     -35.2929       6.2226      -3.5905      -5.0754      18.8072       1.0226
    3602.0    1356.7728       0.0000      50.8611     -31.1548       6.2687      -3.2384      -5.3616      24.8997       1.0308
    3603.0    1348.1938       0.0000      50.8611     -27.0886       6.0475      -2.7496      -5.3807      31.0116       1.0226
    3604.0    1321.6636       0.0000      50.8611     -21.4947       6.0820      -2.2249      -5.6574      37.5215       1.0226
    3605.0    1301.6964       0.0000      50.8611     -15.9647       6.1425      -1.6865      -5.9027      43.6233       1.0226
