~VERSION INFORMATION
VERS.           2.0   :CWLS Log ASCII Standard - VERSION 2.0
WRAP.           NO    :One Line per depth step
PROD.  Schlumberger   :LAS Producer
PROG.  DLIS to ASCII 19C2-270                          :LAS Program name and version
CREA.        2017/09/16 17:42                          :LAS Creation date {YYYY/MM/DD hh:mm}
DLIS_CREA.  2017-Sep-15 20:25                          :DLIS Creation date and time {YYYY-MMM-DD hh:mm}
SOURCE.     BLANK_S2_BV.DLIS                           :DLIS File Name
FILE-ID.     PERFO_Perfo_WPGRT_068LTP                  :File Identification Number
#--------------------------------------------------
~WELL INFORMATION
#MNEM.UNIT      DATA             DESCRIPTION
#---- ------ --------------   -----------------------------
STRT .S         3786.0       :START TIME      
STOP .S         4067.0       :STOP TIME      
STEP .S            1.0       :STEP     
NULL .          -999.25      :NULL VALUE
COMP .        SHELL INTERNATIONAL E P                  :COMPANY
WELL .        WPP TEST 2                               :WELL
FLD  .        WILDCAT                                  :FIELD
LOC  .        NA                                       :LOCATION
CNTY .        HARRIS                                   :COUNTY
STAT .        TEXAS                                    :STATE
CTRY .                                                 :COUNTRY
API  .        NA                                       :API NUMBER
UWI  .                                                 :UNIQUE WELL ID
DATE .        15-Sep-2017                              :LOG DATE {DD-MMM-YYYY}
SRVC .        Schlumberger                             :SERVICE COMPANY
LATI .DEG                                              :LATITUDE
LONG .DEG                                              :LONGITUDE
GDAT .                                                 :GeoDetic Datum
SECT .        NA                                       :Section
RANG .        NA                                       :Range
TOWN .        NA                                       :Township
#-----------------------------------------------------------------------------
~PARAMETER INFORMATION
#MNEM.UNIT    VALUE                      DESCRIPTION
#---- -----   --------------------       ------------------------
U-PHASE_B_COMP_PER_YT.                 0 :Phase B Comparator Period Yt
U-PHASE_A_COMP_PER_XT.                 0 :Phase A Comparator Period Xt
U-MAX_EXC_CUR_LIMIT.MA       240.00000   :Requested CM Current Limit
U-REQ_EXC_FQ.HZ              50          :Requested CM Frequency
U-TILT_Y_OFFSET.           0.19916       :WPTET Tilt Y Offset
U-TILT_Y_GAIN.           1.01796         :WPTET Tilt Y Gain
U-TILT_X_OFFSET.          -1.77103       :WPTET Tilt X Offset
U-TILT_X_GAIN.           1.00000         :WPTET Tilt X Gain
U-TILT_OFFSET_TOL.           0.00100     :WPTET Tilt Offset Calibration Tolerance
U-NO_TILT_CAL_ROTATIONS.                 3 :Number of Rotations for Tilt Calibration
HAZI .DEG        0.00000                 :Hole Azimuth
U-STD_TOL_TILT.           0.01000        :Tilt Standard Deviation Tolerance
U-GUN_POS_TOL.DEG        5.00000         :Gun Position Tolerance
ROT_ANGLE_THRESHOLD.DEG        5.00000   :Rotation Stop Angle Tolerance
STOP_ROT_ANGLE.DEG        0.00000        :Rotation Stop Angle
WITN .        MR. DHRUA ARORA            :Witness's Name
ENGI .        MORRIS MOORE               :Engineer's Name
COUN .        HARRIS                     :County or Rig Name
FN   .        WILDCAT                    :Field Name
WN   .        WPP TEST 2                 :Well Name
CN   .        SHELL INTERNATIONAL E P    :Company Name
CLAB .        County                     :County/Rig Label
SLAB .        State                      :State/Province Label
RUN  .          1                        :RUN NUMBER
PDAT .        GROUND LEVEL               :Permanent Datum
EPD  .                                   :Elevation of Permanent Datum above Mean Sea Level
LMF  .          NA                       :Logging Measured From (Name of Logging Elevation Reference)
APD  .                                   :Elevation of Depth Reference (LMF) above Permanent Datum
#-----------------------------------------------------------------------------
~CURVE INFORMATION
#MNEM.UNIT   API CODE                                  DESCRIPTION
#---- -----  --------                                  -----------------------
TIME .S                                                :TIME {F10.1}
FREQ_EMF_SL.HZ                                         :Electromagnetic Field Frequency {F13.4}
PH_SH_WPPCM_SL.DEG                                     :WPPCM Phase Shift {F13.4}
FREQ_EXC_REQ_SL.HZ                                     :Requested Exciter Frequency {F13.4}
RB_SL.DEG                                              :Relative Bearing {F13.4}
SDEV_SL.DEG                                            :Sonde Deviation {F13.4}
TILX_SL.DEG                                            :X-axis Tilt {F13.4}
TILY_SL.DEG                                            :Y-axis Tilt {F13.4}
ROTA_SL.DEG                                            :Motor Rotation Angle {F13.4}
MSPE_SL.RPM                                            :Motor Speed {F13.4}
#-----------------------------------------------------------------------------
# 
#     TIME    FREQ_EMF_SL  PH_SH_WPPCM_ FREQ_EXC_REQ    RB_SL       SDEV_SL      TILX_SL      TILY_SL      ROTA_SL      MSPE_SL
#                          SL           _SL
~A  
# ...
    3912.0    1425.3954       0.0000      50.8611     -50.3082       6.4033      -4.9231      -4.0844     350.7671       1.0226
    3913.0    1419.0970       0.0000      50.8611     -45.3620       6.3443      -4.5099      -4.4524     357.2761       1.0226
    3914.0    1418.9539       0.0000      50.8611     -40.0867       6.1996      -3.9877      -4.7386       3.3780       1.0226
    3915.0    1411.0924       0.0000      50.8611     -35.2912       6.1989      -3.5765      -5.0560       9.4798       1.0226
    3916.0    1408.2660       0.0000      50.8611     -29.3542       6.1185      -2.9951      -5.3304      15.5824       1.0252
    3917.0    1388.1388       0.0000      50.8611     -22.9050       6.1703      -2.3981      -5.6790      21.6718       1.0226
    3918.0    1374.5701       0.0000      50.8611     -19.5380       5.9852      -1.9985      -5.6381      27.7737       1.0226
    3919.0    1368.5808       0.0000      50.8611     -13.4865       5.9154      -1.3769      -5.7511      33.8886       1.0226
    3920.0    1361.2641       0.0000      50.8611      -7.8798       6.0232      -0.8241      -5.9652      39.9811       1.0146
    3921.0    1342.5863       0.0000      50.8611      -4.1322       5.8969      -0.4244      -5.8814      46.0676       1.0226
    3922.0    1329.7567       0.0000      50.8611       0.8849       5.7091       0.0882      -5.7081      52.1695       1.0226
    3923.0    1312.3826       0.0000      50.8611       5.4378       5.6854       0.5376      -5.6596      58.2976       1.0226
    3924.0    1292.4031       0.0000      50.8611      13.7139       5.7206       1.3544      -5.5563      64.4001       1.0226
    3925.0    1282.5198       0.0000      50.8611      19.1773       5.5355       1.8154      -5.2272      70.8993       1.0226
    3926.0    1276.2169       0.0000      50.8611      23.1491       5.3644       2.1061      -4.9313      76.9987       1.0226
    3927.0    1253.2422       0.0000      50.8611      29.6257       5.1218       2.5288      -4.4503      83.1005       1.0226
    3928.0    1250.1923       0.0000      50.8611      36.5997       5.1243       3.0510      -4.1115      89.2023       1.0226
    3929.0    1241.7499       0.0000      50.8611      42.8472       5.1263       3.4833      -3.7552      95.3041       1.0226
    3930.0    1225.4642       0.0000      50.8611      47.5658       4.7493       3.5024      -3.2022     101.3936       1.0226
    3931.0    1219.8470       0.0000      50.8611      52.3219       4.7031       3.7199      -2.8727     107.4831       1.0226
    3932.0    1214.8773       0.0000      50.8611      63.5536       4.8132       4.3077      -2.1391     113.5849       1.0226
    3933.0    1208.6124       0.0000      50.8611      70.3849       4.6986       4.4242      -1.5764     119.6773       1.0146
    3934.0    1202.4119       0.0000      50.8611      75.9428       4.5616       4.4242      -1.1072     125.7762       1.0226
    3935.0    1199.3866       0.0000      50.8611      80.2423       4.3051       4.2424      -0.7295     131.8657       1.0146
    3936.0    1196.2746       0.0000      50.8611      88.4829       4.2763       4.2731      -0.1141     137.9552       1.0226
    3937.0    1201.3385       0.0000      50.8611      99.4066       4.4254       4.3649       0.7230     144.4651       1.0226
    3938.0    1199.8721       0.0000      50.8611     104.8967       4.2775       4.1335       1.0987     150.5670       1.0226
    3939.0    1206.6471       0.0000      50.8611     110.5567       4.1251       3.8618       1.4473     156.6689       1.0226
    3940.0    1209.2119       0.0000      50.8611     117.8654       4.1081       3.6304       1.9185     162.7708       1.0226
    3941.0    1211.6897       0.0000      50.8611     126.2407       4.3676       3.5214       2.5804     168.8727       1.0226
    3942.0    1216.4792       0.0000      50.8611     135.7119       4.3527       3.0374       3.1140     174.9746       1.0146
    3943.0    1224.8233       0.0000      50.8611     140.8082       4.0540       2.5598       3.1410     181.0547       1.0146
    3944.0    1231.0051       0.0000      50.8611     149.5425       4.2900       2.1728       3.6961     187.1668       1.0226
    3945.0    1239.9812       0.0000      50.8611     154.5199       4.5482       1.9549       4.1050     193.2818       1.0146
    3946.0    1254.5191       0.0000      50.8611     166.4522       4.6034       1.0768       4.4730     199.3713       1.0226
    3947.0    1263.5369       0.0000      50.8611     173.8276       4.5431       0.4858       4.5159     205.4732       1.0226
    3948.0    1271.4738       0.0000      50.8611     175.2548       4.5726       0.3769       4.5568     211.5751       1.0226
    3949.0    1290.7009       0.0000      50.8611     -92.0218       4.8163      -0.2085       4.8098     217.9787       1.0146
    3950.0    1306.2331       0.0000      50.8611    -170.4598       5.0019      -0.8281       4.9325     224.1878       1.0226
    3951.0    1327.3787       0.0000      50.8611    -161.3818       4.8274      -1.5396       4.5742     230.3160       1.0226
    3952.0    1340.0274       0.0000      50.8611    -157.8715       4.8946      -1.8418       4.5333     236.4310       1.0226
    3953.0    1359.3862       0.0000      50.8611    -152.5060       5.1011      -2.3524       4.5236     242.5329       1.0226
    3954.0    1352.7822       0.0000      50.8611    -145.9531       5.2998      -2.9645       4.3892     248.6611       1.0226
    3955.0    1367.1593       0.0000      50.8611    -136.8125       5.3298      -3.6418       3.8823     254.7630       1.0226
    3956.0    1375.3402       0.0000      50.8611    -134.1315       5.1380      -3.6855       3.5734     260.8554       1.0201
    3957.0    1399.3274       0.0000      50.8611    -126.5644       5.6212      -4.5119       3.3455     266.9682       1.0226
    3958.0    1406.2500       0.0000      50.8611    -121.7819       5.7149      -4.8543       3.0066     273.0977       1.0226
    3959.0    1415.4159       0.0000      50.8611    -114.8217       5.7597      -5.2254       2.4148     279.1981       1.0226
    3960.0    1425.3954       0.0000      50.8611    -108.9794       5.7415      -5.4282       1.8638     285.3043       1.0201
    3961.0    1434.9490       0.0000      50.8611    -104.4992       5.9077      -5.7189       1.4764     291.7136       1.0226
    3962.0    1438.0478       0.0000      50.8611     -99.8269       6.0256      -5.9368       1.0266     297.9146       1.0226
    3963.0    1427.5968       0.0000      50.8611     -94.0702       5.9751      -5.9599       0.4230     304.0141       1.0226
    3964.0    1442.9465       0.0000      50.8611     -88.9972       6.0632      -6.0613      -0.1044     310.1159       1.0226
    3965.0    1452.0262       0.0000      50.8611     -83.8372       6.0639      -6.0287      -0.6498     316.2177       1.0226
    3966.0    1439.4331       0.0000      50.8611     -78.9523       6.2875      -6.1703      -1.2028     322.3195       1.0226
    3967.0    1442.3840       0.0000      50.8611     -72.3015       6.1507      -5.8585      -1.8667     328.4221       1.0226
    3968.0    1438.4624       0.0000      50.8611     -67.1088       6.1202      -5.6366      -2.3768     334.5117       1.0226
    3969.0    1446.0537       0.0000      50.8611     -62.5144       6.4259      -5.6978      -2.9610     340.6142       1.0146
    3970.0    1435.8011       0.0000      50.8611     -57.5032       6.4124      -5.4051      -3.4399     346.7036       1.0226
    3971.0    1430.5012       0.0000      50.8611     -53.1686       6.3443      -5.0742      -3.7982     352.8047       1.0226
    3972.0    1428.9878       0.0000      50.8611     -46.5391       6.2248      -4.5139      -4.2771     358.8956       1.0226
    3973.0    1419.0970       0.0000      50.8611     -41.3150       6.2630      -4.1293      -4.6997       4.9967       1.0308
    3974.0    1425.5314       0.0000      50.8611     -36.5218       6.2831      -3.7352      -5.0442      11.5189       1.0226
