~VERSION INFORMATION
VERS.           2.0   :CWLS Log ASCII Standard - VERSION 2.0
WRAP.           NO    :One Line per depth step
PROD.  Schlumberger   :LAS Producer
PROG.  DLIS to ASCII 19C2-270                          :LAS Program name and version
CREA.        2017/09/16 17:42                          :LAS Creation date {YYYY/MM/DD hh:mm}
DLIS_CREA.  2017-Sep-15 20:25                          :DLIS Creation date and time {YYYY-MMM-DD hh:mm}
SOURCE.     BLANK_S2_BV.DLIS                           :DLIS File Name
FILE-ID.     PERFO_Perfo_WPGRT_068LTP                  :File Identification Number
#--------------------------------------------------
~WELL INFORMATION
#MNEM.UNIT      DATA             DESCRIPTION
#---- ------ --------------   -----------------------------
STRT .S         3786.0       :START TIME      
STOP .S         4067.0       :STOP TIME      
STEP .S            1.0       :STEP     
NULL .          -999.25      :NULL VALUE
COMP .        SHELL INTERNATIONAL E P                  :COMPANY
WELL .        WPP TEST 2                               :WELL
FLD  .        WILDCAT                                  :FIELD
LOC  .        NA                                       :LOCATION
CNTY .        HARRIS                                   :COUNTY
STAT .        TEXAS                                    :STATE
CTRY .                                                 :COUNTRY
API  .        NA                                       :API NUMBER
UWI  .                                                 :UNIQUE WELL ID
DATE .        15-Sep-2017                              :LOG DATE {DD-MMM-YYYY}
SRVC .        Schlumberger                             :SERVICE COMPANY
LATI .DEG                                              :LATITUDE
LONG .DEG                                              :LONGITUDE
GDAT .                                                 :GeoDetic Datum
SECT .        NA                                       :Section
RANG .        NA                                       :Range
TOWN .        NA                                       :Township
#-----------------------------------------------------------------------------
~PARAMETER INFORMATION
#MNEM.UNIT    VALUE                      DESCRIPTION
#---- -----   --------------------       ------------------------
U-PHASE_B_COMP_PER_YT.                 0 :Phase B Comparator Period Yt
U-PHASE_A_COMP_PER_XT.                 0 :Phase A Comparator Period Xt
U-MAX_EXC_CUR_LIMIT.MA       240.00000   :Requested CM Current Limit
U-REQ_EXC_FQ.HZ              50          :Requested CM Frequency
U-TILT_Y_OFFSET.           0.19916       :WPTET Tilt Y Offset
U-TILT_Y_GAIN.           1.01796         :WPTET Tilt Y Gain
U-TILT_X_OFFSET.          -1.77103       :WPTET Tilt X Offset
U-TILT_X_GAIN.           1.00000         :WPTET Tilt X Gain
U-TILT_OFFSET_TOL.           0.00100     :WPTET Tilt Offset Calibration Tolerance
U-NO_TILT_CAL_ROTATIONS.                 3 :Number of Rotations for Tilt Calibration
HAZI .DEG        0.00000                 :Hole Azimuth
U-STD_TOL_TILT.           0.01000        :Tilt Standard Deviation Tolerance
U-GUN_POS_TOL.DEG        5.00000         :Gun Position Tolerance
ROT_ANGLE_THRESHOLD.DEG        5.00000   :Rotation Stop Angle Tolerance
STOP_ROT_ANGLE.DEG        0.00000        :Rotation Stop Angle
WITN .        MR. DHRUA ARORA            :Witness's Name
ENGI .        MORRIS MOORE               :Engineer's Name
COUN .        HARRIS                     :County or Rig Name
FN   .        WILDCAT                    :Field Name
WN   .        WPP TEST 2                 :Well Name
CN   .        SHELL INTERNATIONAL E P    :Company Name
CLAB .        County                     :County/Rig Label
SLAB .        State                      :State/Province Label
RUN  .          1                        :RUN NUMBER
PDAT .        GROUND LEVEL               :Permanent Datum
EPD  .                                   :Elevation of Permanent Datum above Mean Sea Level
LMF  .          NA                       :Logging Measured From (Name of Logging Elevation Reference)
APD  .                                   :Elevation of Depth Reference (LMF) above Permanent Datum
#-----------------------------------------------------------------------------
~CURVE INFORMATION
#MNEM.UNIT   API CODE                                  DESCRIPTION
#---- -----  --------                                  -----------------------
TIME .S                                                :TIME {F10.1}
FREQ_EMF_SL.HZ                                         :Electromagnetic Field Frequency {F13.4}
PH_SH_WPPCM_SL.DEG                                     :WPPCM Phase Shift {F13.4}
FREQ_EXC_REQ_SL.HZ                                     :Requested Exciter Frequency {F13.4}
RB_SL.DEG                                              :Relative Bearing {F13.4}
SDEV_SL.DEG                                            :Sonde Deviation {F13.4}
TILX_SL.DEG                                            :X-axis Tilt {F13.4}
TILY_SL.DEG                                            :Y-axis Tilt {F13.4}
ROTA_SL.DEG                                            :Motor Rotation Angle {F13.4}
MSPE_SL.RPM                                            :Motor Speed {F13.4}
#-----------------------------------------------------------------------------
# 
#     TIME    FREQ_EMF_SL  PH_SH_WPPCM_ FREQ_EXC_REQ    RB_SL       SDEV_SL      TILX_SL      TILY_SL      ROTA_SL      MSPE_SL
#                          SL           _SL
~A  
# ...
    3975.0    1397.8628       0.0000      50.8611     -31.4794       6.1837      -3.2246      -5.2701      17.6207       1.0226
    3976.0    1392.8687       0.0000      50.8611     -27.2414       5.9844      -2.7350      -5.3187      23.7225       1.0226
    3977.0    1390.3740       0.0000      50.8611     -21.9243       6.0122      -2.2415      -5.5758      29.8243       1.0226
    3978.0    1381.3850       0.0000      50.8611     -16.8687       6.1468      -1.7806      -5.8814      35.9238       1.0308
    3979.0    1366.5554       0.0000      50.8611     -12.6229       6.0496      -1.3197      -5.9029      42.0287       1.0226
    3980.0    1345.6330       0.0000      50.8611      -5.6115       5.7984      -0.5660      -5.7705      48.1158       1.0334
    3981.0    1334.8055       0.0000      50.8611      -0.6243       5.8556      -0.0609      -5.8543      54.2339       1.0226
    3982.0    1308.5756       0.0000      50.8611       3.9439       5.9432       0.4055      -5.9284      60.3357       1.0226
    3983.0    1297.2786       0.0000      50.8611      10.5887       5.6317       1.0331      -5.5349      66.4375       1.0226
    3984.0    1289.0173       0.0000      50.8611      16.3640       5.4186       1.5246      -5.1981      72.5417       1.0226
    3985.0    1268.6356       0.0000      50.8611      22.8338       5.2757       2.0448      -4.8612      78.6411       1.0226
    3986.0    1266.7898       0.0000      50.8611      27.8630       5.3509       2.4982      -4.7289      85.1385       1.0201
    3987.0    1252.2848       0.0000      50.8611      32.5311       5.2091       2.7984      -4.3900      91.2403       1.0226
    3988.0    1237.3794       0.0000      50.8611      39.3512       5.0204       3.1810      -3.8799      97.3399       1.0308
    3989.0    1225.4642       0.0000      50.8611      45.4312       4.8919       3.4833      -3.4302     103.4448       1.0226
    3990.0    1223.2418       0.0000      50.8611      52.8810       4.9248       3.9251      -2.9686     109.5220       1.0226
    3991.0    1216.9800       0.0000      50.8611      56.9609       4.6649       3.9095      -2.5403     115.6238       1.0226
    3992.0    1201.4360       0.0000      50.8611      63.7229       4.4643       4.0014      -1.9756     121.7256       1.0226
    3993.0    1200.8480       0.0000      50.8611      72.0890       4.4088       4.1947      -1.3546     127.8274       1.0226
    3994.0    1202.8200       0.0000      50.8611      80.7698       4.4856       4.4262      -0.7178     133.9300       1.0226
    3995.0    1203.0052       0.0000      50.8611      86.2105       4.3962       4.3860      -0.2895     140.0312       1.0226
    3996.0    1198.9028       0.0000      50.8611      93.0045       4.2102       4.2043       0.2206     146.1331       1.0226
    3997.0    1195.7908       0.0000      50.8611     101.7870       4.1920       4.1028       0.8554     152.2350       1.0226
    3998.0    1200.8480       0.0000      50.8611     110.4861       4.2295       3.9613       1.4784     158.7449       1.0226
    3999.0    1205.5559       0.0000      50.8611     117.3145       4.3152       3.8332       1.9788     164.8468       1.0226
    4000.0    1205.5559       0.0000      50.8611     122.8584       3.9517       3.3186       2.1424     170.9587       1.0308
    4001.0    1211.1907       0.0000      50.8611     132.2876       4.0548       2.9973       2.7265     177.0637       1.0226
    4002.0    1214.3783       0.0000      50.8611     138.4045       4.2176       2.7984       3.1528     183.1656       1.0226
    4003.0    1225.5763       0.0000      50.8611     148.0463       4.4415       2.3491       3.7661     189.2674       1.0226
    4004.0    1236.2373       0.0000      50.8611     154.4749       4.3027       1.8515       3.8811     195.3801       1.0252
    4005.0    1250.5844       0.0000      50.8611     160.7224       4.3393       1.4308       4.0953     201.4851       1.0226
    4006.0    1257.9507       0.0000      50.8611     168.6423       4.5746       0.8991       4.4847     207.5870       1.0226
    4007.0    1269.1787       0.0000      50.8611     176.7563       4.7047       0.2659       4.6968     213.6889       1.0226
    4008.0    1280.7377       0.0000      50.8611    -178.9936       4.6884      -0.0820       4.6871     219.7908       1.0226
    4009.0    1296.1459       0.0000      50.8611    -172.6274       4.5086      -0.5776       4.4709     225.9035       1.0252
    4010.0    1314.3885       0.0000      50.8611    -166.0600       4.8623      -1.1705       4.7183     232.4042       1.0226
    4011.0    1331.8160       0.0000      50.8611    -158.2376       5.1132      -1.8935       4.7474     238.5061       1.0226
    4012.0    1342.4509       0.0000      50.8611    -152.8437       5.0504      -2.3027       4.4924     244.6066       1.0252
    4013.0    1351.6986       0.0000      50.8611    -148.0991       5.0642      -2.6738       4.2977     250.7216       1.0252
    4014.0    1363.4133       0.0000      50.8611    -141.6768       5.1927      -3.2170       4.0718     256.8266       1.0226
    4015.0    1364.0369       0.0000      50.8611    -134.9887       5.5050      -3.8903       3.8888     262.9284       1.0226
    4016.0    1386.1860       0.0000      50.8611    -128.5139       5.5569      -4.3437       3.4564     269.0056       1.0226
    4017.0    1397.8628       0.0000      50.8611    -123.5441       5.4896      -4.5732       3.0301     275.1229       1.0226
    4018.0    1421.2895       0.0000      50.8611    -119.1035       5.6042      -4.8945       2.7225     281.2231       1.0226
    4019.0    1419.7744       0.0000      50.8611    -112.4598       5.7429      -5.3057       2.1909     287.3242       1.0226
    4020.0    1423.3300       0.0000      50.8611    -110.8616       6.0363      -5.6366       2.1464     290.0561       0.0005
    4021.0    1426.2170       0.0000      50.8611    -109.5289       5.6834      -5.3554       1.8970     290.0561       0.0005
    4022.0    1429.1158       0.0000      50.8611    -110.9336       5.6065      -5.2349       2.0003     290.0561       0.0005
    4023.0    1429.1158       0.0000      50.8611    -109.7033       5.8079      -5.4664       1.9553     290.0561       0.0005
    4024.0    1429.1158       0.0000      50.8611    -109.3995       5.9670      -5.6270       1.9788     290.0561       0.0005
    4025.0    1427.7417       0.0000      50.8611    -108.4772       5.8291      -5.5276       1.8444     290.0561       0.0005
    4026.0    1427.5968       0.0000      50.8611    -109.8958       5.6965      -5.3554       1.9359     290.0561       0.0005
    4027.0    1430.5012       0.0000      50.8611    -110.1508       5.8041      -5.4473       1.9962     290.0561       0.0005
    4028.0    1427.7417       0.0000      50.8611    -108.0927       5.9090      -5.6155       1.8326     290.0561       0.0005
    4029.0    1426.2170       0.0000      50.8611    -109.1098       5.6579      -5.3439       1.8485     290.0561       0.0005
    4030.0    1426.2170       0.0000      50.8611    -109.9628       5.6787      -5.3363       1.9359     290.0561       0.0005
    4031.0    1422.5116       0.0000      50.8611    -110.7960       5.7176      -5.3439       2.0274     290.0561       0.0005
    4032.0    1431.3352       0.0000      50.8611    -110.2734       5.7756      -5.4167       1.9982     290.0561       0.0005
    4033.0    1427.7417       0.0000      50.8611    -108.7645       5.7722      -5.4644       1.8541     290.0561       0.0005
    4034.0    1424.7041       0.0000      50.8611    -108.3728       5.7631      -5.4684       1.8132     290.0561       0.0005
    4035.0    1425.3954       0.0000      50.8611    -110.4787       5.6854      -5.3248       1.9865     290.0561       0.0005
    4036.0    1428.4274       0.0000      50.8611    -109.7921       5.8114      -5.4664       1.9650     290.0561       0.0005
    4037.0    1429.9611       0.0000      50.8611    -109.3645       5.7304      -5.4051       1.8970     290.0561       0.0005
