~VERSION INFORMATION
VERS.           2.0   :CWLS Log ASCII Standard - VERSION 2.0
WRAP.           NO    :One Line per depth step
PROD.  Schlumberger   :LAS Producer
PROG.  DLIS to ASCII 19C2-270                          :LAS Program name and version
CREA.        2017/09/16 17:42                          :LAS Creation date {YYYY/MM/DD hh:mm}
DLIS_CREA.  2017-Sep-15 20:31                          :DLIS Creation date and time {YYYY-MMM-DD hh:mm}
SOURCE.     BLANK_S2_B5.DLIS                           :DLIS File Name
FILE-ID.     PERFO_Perfo_WPGRT_069LTP                  :File Identification Number
#--------------------------------------------------
~WELL INFORMATION
#MNEM.UNIT      DATA             DESCRIPTION
#---- ------ --------------   -----------------------------
STRT .S         4138.0       :START TIME      
STOP .S         4326.0       :STOP TIME      
STEP .S            1.0       :STEP     
NULL .          -999.25      :NULL VALUE
COMP .        SHELL INTERNATIONAL E P                  :COMPANY
WELL .        WPP TEST 2                               :WELL
FLD  .        WILDCAT                                  :FIELD
LOC  .        NA                                       :LOCATION
CNTY .        HARRIS                                   :COUNTY
STAT .        TEXAS                                    :STATE
CTRY .                                                 :COUNTRY
API  .        NA                                       :API NUMBER
UWI  .                                                 :UNIQUE WELL ID
DATE .        15-Sep-2017                              :LOG DATE {DD-MMM-YYYY}
SRVC .        Schlumberger                             :SERVICE COMPANY
LATI .DEG                                              :LATITUDE
LONG .DEG                                              :LONGITUDE
GDAT .                                                 :GeoDetic Datum
SECT .        NA                                       :Section
RANG .        NA                                       :Range
TOWN .        NA                                       :Township
#-----------------------------------------------------------------------------
~PARAMETER INFORMATION
#MNEM.UNIT    VALUE                      DESCRIPTION
#---- -----   --------------------       ------------------------
U-PHASE_B_COMP_PER_YT.                 0 :Phase B Comparator Period Yt
U-PHASE_A_COMP_PER_XT.                 0 :Phase A Comparator Period Xt
U-MAX_EXC_CUR_LIMIT.MA       240.00000   :Requested CM Current Limit
U-REQ_EXC_FQ.HZ              50          :Requested CM Frequency
U-TILT_Y_OFFSET.           0.19916       :WPTET Tilt Y Offset
U-TILT_Y_GAIN.           1.01796         :WPTET Tilt Y Gain
U-TILT_X_OFFSET.          -1.77103       :WPTET Tilt X Offset
U-TILT_X_GAIN.           1.00000         :WPTET Tilt X Gain
U-TILT_OFFSET_TOL.           0.00100     :WPTET Tilt Offset Calibration Tolerance
U-NO_TILT_CAL_ROTATIONS.                 3 :Number of Rotations for Tilt Calibration
HAZI .DEG        0.00000                 :Hole Azimuth
U-STD_TOL_TILT.           0.01000        :Tilt Standard Deviation Tolerance
U-GUN_POS_TOL.DEG        5.00000         :Gun Position Tolerance
ROT_ANGLE_THRESHOLD.DEG        5.00000   :Rotation Stop Angle Tolerance
STOP_ROT_ANGLE.DEG        0.00000        :Rotation Stop Angle
WITN .        MR. DHRUA ARORA            :Witness's Name
ENGI .        MORRIS MOORE               :Engineer's Name
COUN .        HARRIS                     :County or Rig Name
FN   .        WILDCAT                    :Field Name
WN   .        WPP TEST 2                 :Well Name
CN   .        SHELL INTERNATIONAL E P    :Company Name
CLAB .        County                     :County/Rig Label
SLAB .        State                      :State/Province Label
RUN  .          1                        :RUN NUMBER
PDAT .        GROUND LEVEL               :Permanent Datum
EPD  .                                   :Elevation of Permanent Datum above Mean Sea Level
LMF  .          NA                       :Logging Measured From (Name of Logging Elevation Reference)
APD  .                                   :Elevation of Depth Reference (LMF) above Permanent Datum
#-----------------------------------------------------------------------------
~CURVE INFORMATION
#MNEM.UNIT   API CODE                                  DESCRIPTION
#---- -----  --------                                  -----------------------
TIME .S                                                :TIME {F10.1}
FREQ_EMF_SL.HZ                                         :Electromagnetic Field Frequency {F13.4}
PH_SH_WPPCM_SL.DEG                                     :WPPCM Phase Shift {F13.4}
FREQ_EXC_REQ_SL.HZ                                     :Requested Exciter Frequency {F13.4}
RB_SL.DEG                                              :Relative Bearing {F13.4}
SDEV_SL.DEG                                            :Sonde Deviation {F13.4}
TILX_SL.DEG                                            :X-axis Tilt {F13.4}
TILY_SL.DEG                                            :Y-axis Tilt {F13.4}
ROTA_SL.DEG                                            :Motor Rotation Angle {F13.4}
MSPE_SL.RPM                                            :Motor Speed {F13.4}
#-----------------------------------------------------------------------------
# 
#     TIME    FREQ_EMF_SL  PH_SH_WPPCM_ FREQ_EXC_REQ    RB_SL       SDEV_SL      TILX_SL      TILY_SL      ROTA_SL      MSPE_SL
#                          SL           _SL
~A  
# ...
    4264.0    1441.2884       0.0000      50.8611     -43.6237       1.1382      -0.7855      -0.8230     357.9741       1.0226
    4265.0    1432.0265       0.0000      50.8611     -38.7772       1.1296      -0.7052      -0.8795       4.0759       1.0226
    4266.0    1426.6664       0.0000      50.8611     -49.9462       1.1601      -0.8868      -0.7257      10.5739       1.0137
    4267.0    1432.9343       0.0000      50.8611     -43.0946       1.2218      -0.8347      -0.8921      16.6753       1.0226
    4268.0    1420.4546       0.0000      50.8611     -40.7895       1.0416      -0.6803      -0.7885      22.7771       1.0226
    4269.0    1426.6664       0.0000      50.8611     -35.1288       0.9910      -0.5694      -0.8040      28.8789       1.0226
    4270.0    1416.2698       0.0000      50.8611     -38.9797       0.9537      -0.6000      -0.7413      34.9807       1.0226
    4271.0    1406.6868       0.0000      50.8611     -43.1760       0.9388      -0.6401      -0.6848      41.0825       1.0226
    4272.0    1400.6475       0.0000      50.8611     -39.6921       0.9428      -0.6000      -0.7257      47.1843       1.0226
    4273.0    1381.3850       0.0000      50.8611     -32.6119       0.8047      -0.4303      -0.6750      53.2888       1.0226
    4274.0    1376.1917       0.0000      50.8611     -35.9351       0.8112      -0.4767      -0.6532      59.3861       1.0210
    4275.0    1362.2369       0.0000      50.8611     -46.0750       0.8507      -0.6124      -0.5904      65.4775       1.0226
    4276.0    1356.9788       0.0000      50.8611     -39.1913       0.8516      -0.5383      -0.6595      71.5670       1.0226
    4277.0    1322.4366       0.0000      50.8611     -46.3272       0.7450      -0.5383      -0.5150      77.6819       1.0226
    4278.0    1314.2523       0.0000      50.8611     -46.5165       0.7801      -0.5660      -0.5368      84.1917       1.0226
    4279.0    1302.2730       0.0000      50.8611     -45.7615       0.8009      -0.5723      -0.5587      90.2794       1.0050
    4280.0    1287.7748       0.0000      50.8611     -50.6342       0.6821      -0.5259      -0.4332      96.3707       1.0226
    4281.0    1262.6948       0.0000      50.8611     -52.9502       0.8455      -0.6741      -0.5086     102.4725       1.0226
    4282.0    1254.8878       0.0000      50.8611     -55.2117       0.6553      -0.5383      -0.3733     108.5743       1.0226
    4283.0    1247.8639       0.0000      50.8611     -64.8409       0.7477      -0.6741      -0.3168     114.6761       1.0226
    4284.0    1232.4004       0.0000      50.8611     -60.5299       0.6646      -0.5785      -0.3260     120.7779       1.0226
    4285.0    1225.2878       0.0000      50.8611     -57.2327       0.7538      -0.6339      -0.4078     126.8796       1.0226
    4286.0    1214.0538       0.0000      50.8611     -60.9046       0.6760      -0.5909      -0.3260     132.9815       1.0226
    4287.0    1215.5056       0.0000      50.8611     -69.4879       0.7332      -0.6865      -0.2569     139.0711       1.0243
    4288.0    1206.6899       0.0000      50.8611     -67.7676       0.7715      -0.7142      -0.2915     145.1843       1.0137
    4289.0    1199.4229       0.0000      50.8611     -74.3694       0.7548      -0.7267      -0.2034     151.2757       1.0210
    4290.0    1201.9231       0.0000      50.8611     -73.4720       0.8172      -0.7821      -0.2287     157.7733       1.0226
    4291.0    1203.0273       0.0000      50.8611     -69.1426       0.7049      -0.6588      -0.2506     163.8733       1.0137
    4292.0    1200.5090       0.0000      50.8611     -70.1397       0.8581      -0.8070      -0.2915     169.9787       1.0210
    4293.0    1199.1017       0.0000      50.8611     -83.0859       0.5770      -0.5694      -0.0779     176.0813       1.0226
    4294.0    1210.1979       0.0000      50.8611     -69.1777       0.9360      -0.8749      -0.3324     182.1833       1.0154
    4295.0    1215.8291       0.0000      50.8611     -78.0314       0.8729      -0.8534      -0.1815     188.2865       1.0226
    4296.0    1218.5875       0.0000      50.8611     -76.6106       0.9894      -0.9615      -0.2287     194.3884       1.0226
    4297.0    1226.1036       0.0000      50.8611     -72.8053       0.9073      -0.8659      -0.2696     200.4912       1.0226
    4298.0    1227.7604       0.0000      50.8611     -63.3302       0.9377      -0.8347      -0.4234     206.5983       1.0226
    4299.0    1238.9149       0.0000      50.8611     -74.1447       1.0988      -1.0571      -0.2978     212.6950       1.0226
    4300.0    1254.0373       0.0000      50.8611     -71.4804       1.0272      -0.9739      -0.3260     218.8100       1.0226
    4301.0    1271.1180       0.0000      50.8611     -69.1366       1.0489      -0.9801      -0.3733     224.9119       1.0226
    4302.0    1285.4205       0.0000      50.8611     -62.8810       1.2258      -1.0910      -0.5587     231.4219       1.0226
    4303.0    1296.7548       0.0000      50.8611     -64.3422       1.1320      -1.0203      -0.4896     237.5266       1.0154
    4304.0    1319.1838       0.0000      50.8611     -67.4163       1.2393      -1.1436      -0.4769     243.6416       1.0243
    4305.0    1337.7161       0.0000      50.8611     -69.3620       1.2264      -1.1470      -0.4332     249.7545       1.0226
    4306.0    1356.5749       0.0000      50.8611     -64.0133       1.2107      -1.0882      -0.5305     255.8462       1.0243
    4307.0    1362.4849       0.0000      50.8611     -64.4687       1.2000      -1.0820      -0.5178     261.9590       1.0226
    4308.0    1372.8761       0.0000      50.8611     -61.6142       1.3600      -1.1962      -0.6468     268.0617       1.0243
    4309.0    1385.9897       0.0000      50.8611     -61.2910       1.2417      -1.0882      -0.5967     274.1787       1.0317
    4310.0    1386.8344       0.0000      50.8611     -59.2945       1.3862      -1.1900      -0.7096     280.2936       1.0334
    4311.0    1388.9754       0.0000      50.8611     -58.5136       1.3163      -1.1221      -0.6877     286.4072       1.0243
    4312.0    1407.5657       0.0000      50.8611     -61.9433       1.2579      -1.1097      -0.5904     292.5119       1.0226
    4313.0    1409.9471       0.0000      50.8611     -54.1327       1.3352      -1.0820      -0.7822     298.6249       1.0243
    4314.0    1414.7384       0.0000      50.8611     -57.1451       1.3376      -1.1221      -0.7257     305.1477       1.0226
    4315.0    1427.1175       0.0000      50.8611     -53.1200       1.2255      -0.9801      -0.7349     311.2496       1.0226
    4316.0    1437.4286       0.0000      50.8611     -52.3033       1.2582      -0.9954      -0.7695     317.3514       1.0226
    4317.0    1436.3191       0.0000      50.8611     -47.8248       1.1760      -0.8721      -0.7885     319.1960       0.0005
    4318.0    1445.8402       0.0000      50.8611     -52.1348       1.2846      -1.0141      -0.7885     319.1960       0.0005
    4319.0    1441.2884       0.0000      50.8611     -53.1228       1.1673      -0.9338      -0.7004     319.1960       0.0005
    4320.0    1441.2884       0.0000      50.8611     -55.0236       1.1397      -0.9338      -0.6532     319.1960       0.0005
    4321.0    1439.2592       0.0000      50.8611     -52.6338       1.3197      -1.0480      -0.8012     319.1960       0.0005
    4322.0    1438.3401       0.0000      50.8611     -52.0878       1.2934      -1.0203      -0.7948     319.1960       0.0005
    4323.0    1442.4184       0.0000      50.8611     -53.0428       1.3724      -1.0972      -0.8230     319.1960       0.0005
    4324.0    1445.8402       0.0000      50.8611     -52.8815       1.1711      -0.9338      -0.7067     319.1960       0.0005
    4325.0    1443.7886       0.0000      50.8611     -48.6776       1.2891      -0.9677      -0.8513     319.1960       0.0005
    4326.0    1434.9490       0.0000      50.8611     -54.7275       1.2837      -1.0480      -0.7413     319.1960       0.0005
