~VERSION INFORMATION
VERS.           2.0   :CWLS Log ASCII Standard - VERSION 2.0
WRAP.           NO    :One Line per depth step
PROD.  Schlumberger   :LAS Producer
PROG.  DLIS to ASCII 19C2-270                          :LAS Program name and version
CREA.        2017/09/16 17:42                          :LAS Creation date {YYYY/MM/DD hh:mm}
DLIS_CREA.  2017-Sep-15 20:20                          :DLIS Creation date and time {YYYY-MMM-DD hh:mm}
SOURCE.     BLANK_S1_A5.DLIS                           :DLIS File Name
FILE-ID.     PERFO_Perfo_WPGRT_067LTP                  :File Identification Number
#--------------------------------------------------
~WELL INFORMATION
#MNEM.UNIT      DATA             DESCRIPTION
#---- ------ --------------   -----------------------------
STRT .S         3480.0       :START TIME      
STOP .S         3691.0       :STOP TIME      
STEP .S            1.0       :STEP     
NULL .          -999.25      :NULL VALUE
COMP .        SHELL INTERNATIONAL E P                  :COMPANY
WELL .        WPP TEST 2                               :WELL
FLD  .        WILDCAT                                  :FIELD
LOC  .        NA                                       :LOCATION
CNTY .        HARRIS                                   :COUNTY
STAT .        TEXAS                                    :STATE
CTRY .                                                 :COUNTRY
API  .        NA                                       :API NUMBER
UWI  .                                                 :UNIQUE WELL ID
DATE .        15-Sep-2017                              :LOG DATE {DD-MMM-YYYY}
SRVC .        Schlumberger                             :SERVICE COMPANY
LATI .DEG                                              :LATITUDE
LONG .DEG                                              :LONGITUDE
GDAT .                                                 :GeoDetic Datum
SECT .        NA                                       :Section
RANG .        NA                                       :Range
TOWN .        NA                                       :Township
#-----------------------------------------------------------------------------
~PARAMETER INFORMATION
#MNEM.UNIT    VALUE                      DESCRIPTION
#---- -----   --------------------       ------------------------
U-PHASE_B_COMP_PER_YT.                 0 :Phase B Comparator Period Yt
U-PHASE_A_COMP_PER_XT.                 0 :Phase A Comparator Period Xt
U-MAX_EXC_CUR_LIMIT.MA       240.00000   :Requested CM Current Limit
U-REQ_EXC_FQ.HZ              50          :Requested CM Frequency
U-TILT_Y_OFFSET.           0.19916       :WPTET Tilt Y Offset
U-TILT_Y_GAIN.           1.01796         :WPTET Tilt Y Gain
U-TILT_X_OFFSET.          -1.77103       :WPTET Tilt X Offset
U-TILT_X_GAIN.           1.00000         :WPTET Tilt X Gain
U-TILT_OFFSET_TOL.           0.00100     :WPTET Tilt Offset Calibration Tolerance
U-NO_TILT_CAL_ROTATIONS.                 3 :Number of Rotations for Tilt Calibration
HAZI .DEG        0.00000                 :Hole Azimuth
U-STD_TOL_TILT.           0.01000        :Tilt Standard Deviation Tolerance
U-GUN_POS_TOL.DEG        5.00000         :Gun Position Tolerance
ROT_ANGLE_THRESHOLD.DEG        5.00000   :Rotation Stop Angle Tolerance
STOP_ROT_ANGLE.DEG        0.00000        :Rotation Stop Angle
WITN .        MR. DHRUA ARORA            :Witness's Name
ENGI .        MORRIS MOORE               :Engineer's Name
COUN .        HARRIS                     :County or Rig Name
FN   .        WILDCAT                    :Field Name
WN   .        WPP TEST 2                 :Well Name
CN   .        SHELL INTERNATIONAL E P    :Company Name
CLAB .        County                     :County/Rig Label
SLAB .        State                      :State/Province Label
RUN  .          1                        :RUN NUMBER
PDAT .        GROUND LEVEL               :Permanent Datum
EPD  .                                   :Elevation of Permanent Datum above Mean Sea Level
LMF  .          NA                       :Logging Measured From (Name of Logging Elevation Reference)
APD  .                                   :Elevation of Depth Reference (LMF) above Permanent Datum
#-----------------------------------------------------------------------------
~CURVE INFORMATION
#MNEM.UNIT   API CODE                                  DESCRIPTION
#---- -----  --------                                  -----------------------
TIME .S                                                :TIME {F10.1}
FREQ_EMF_SL.HZ                                         :Electromagnetic Field Frequency {F13.4}
PH_SH_WPPCM_SL.DEG                                     :WPPCM Phase Shift {F13.4}
FREQ_EXC_REQ_SL.HZ                                     :Requested Exciter Frequency {F13.4}
RB_SL.DEG                                              :Relative Bearing {F13.4}
SDEV_SL.DEG                                            :Sonde Deviation {F13.4}
TILX_SL.DEG                                            :X-axis Tilt {F13.4}
TILY_SL.DEG                                            :Y-axis Tilt {F13.4}
ROTA_SL.DEG                                            :Motor Rotation Angle {F13.4}
MSPE_SL.RPM                                            :Motor Speed {F13.4}
#-----------------------------------------------------------------------------
# 
#     TIME    FREQ_EMF_SL  PH_SH_WPPCM_ FREQ_EXC_REQ    RB_SL       SDEV_SL      TILX_SL      TILY_SL      ROTA_SL      MSPE_SL
#                          SL           _SL
~A  
    3480.0    1404.7580       0.0000      50.8611     -46.8498       6.4353      -4.6904      -4.3960     357.1395       1.0226
    3481.0    1388.9344       0.0000      50.8611     -41.0712       6.4798      -4.2520      -4.8805       3.2399       1.0226
    3482.0    1384.2968       0.0000      50.8611     -39.7526       6.0467      -3.8623      -4.6447       9.3417       1.0226
    3483.0    1369.9907       0.0000      50.8611     -33.3538       6.0165      -3.3041      -5.0223      15.8393       1.0251
    3484.0    1357.3842       0.0000      50.8611     -26.2177       6.1370      -2.7069      -5.5034      21.9419       1.0226
    3485.0    1341.2441       0.0000      50.8611     -21.6906       6.3890      -2.3574      -5.9340      28.0437       1.0226
    3486.0    1318.7870       0.0000      50.8611     -16.7520       6.0048      -1.7282      -5.7487      34.1455       1.0251
    3487.0    1294.8895       0.0000      50.8611     -13.4505       5.7757      -1.3412      -5.6165      40.2605       1.0226
    3488.0    1254.3905       0.0000      50.8611      -8.6249       5.9488      -0.8900      -5.8809      46.3623       1.0226
    3489.0    1240.7393       0.0000      50.8611       1.4317       5.9237       0.1476      -5.9218      52.4641       1.0226
    3490.0    1226.0965       0.0000      50.8611       3.0074       5.8414       0.3056      -5.8331      58.1579       1.0226
    3491.0    1206.0464       0.0000      50.8611       8.5033       5.4794       0.8090      -5.4190      64.2597       1.0226
    3492.0    1196.4042       0.0000      50.8611      13.5394       5.4680       1.2764      -5.3138      70.3615       1.0226
    3493.0    1178.8176       0.0000      50.8611      20.9247       5.4995       1.9619      -5.1354      76.4664       1.0251
    3494.0    1166.6279       0.0000      50.8611      28.0955       5.2204       2.4559      -4.6039      82.5782       1.0226
    3495.0    1156.9009       0.0000      50.8611      32.4838       5.0608       2.7156      -4.2672      89.0888       1.0226
    3496.0    1149.0278       0.0000      50.8611      35.9420       4.9198       2.8857      -3.9810      95.1782       1.0226
    3497.0    1137.7427       0.0000      50.8611      43.3214       4.9430       3.3891      -3.5939     101.2676       1.0226
    3498.0    1131.2784       0.0000      50.8611      51.7281       4.8820       3.8309      -3.0214     107.3694       1.0226
    3499.0    1130.7460       0.0000      50.8611      58.0061       4.5073       3.8215      -2.3863     113.4712       1.0226
    3500.0    1143.4221       0.0000      50.8611      65.0437       4.5940       4.1643      -1.9366     119.5753       1.0226
    3501.0    1156.9009       0.0000      50.8611      68.8749       4.5959       4.2848      -1.6557     125.6747       1.0226
    3502.0    1160.1570       0.0000      50.8611      78.2336       4.5003       4.4053      -0.9170     131.7766       1.0226
    3503.0    1170.9649       0.0000      50.8611      86.8307       4.3941       4.3865      -0.2437     137.8785       1.0226
    3504.0    1193.2877       0.0000      50.8611      92.7084       4.2185       4.2138       0.1992     143.9804       1.0226
    3505.0    1215.3622       0.0000      50.8611      98.7657       4.3260       4.2754       0.6585     150.0699       1.0226
    3506.0    1223.7067       0.0000      50.8611     106.4742       4.3016       4.1241       1.2187     156.1718       1.0226
    3507.0    1242.6583       0.0000      50.8611     115.6753       4.2100       3.7934       1.8225     162.6824       1.0226
    3508.0    1278.5722       0.0000      50.8611     125.0616       4.2363       3.4679       2.4289     168.7836       1.0226
    3509.0    1301.5208       0.0000      50.8611     129.2906       4.2404       3.2806       2.6838     174.8855       1.0226
    3510.0    1324.7366       0.0000      50.8611     138.7622       4.2904       2.8268       3.2249     180.9883       1.0308
    3511.0    1337.9322       0.0000      50.8611     143.9421       4.2832       2.5200       3.4606     187.0902       1.0226
    3512.0    1357.3842       0.0000      50.8611     153.9684       4.3179       1.8935       3.8791     193.1944       1.0226
    3513.0    1364.5081       0.0000      50.8611     159.6864       4.5061       1.5628       4.2253     199.3070       1.0201
    3514.0    1384.7425       0.0000      50.8611     164.6241       4.4998       1.1919       4.3384     205.3966       1.0226
    3515.0    1393.8003       0.0000      50.8611     172.0428       4.5686       0.6322       4.5237     211.5115       1.0226
    3516.0    1402.6158       0.0000      50.8611      95.2540       4.6469       0.0485       4.6464     217.6134       1.0226
    3517.0    1412.5616       0.0000      50.8611    -172.6042       4.7872      -0.6156       4.7473     223.7153       1.0226
    3518.0    1422.6578       0.0000      50.8611    -167.6032       5.0188      -1.0762       4.9013     229.8172       1.0226
    3519.0    1437.1975       0.0000      50.8611    -162.2571       4.7931      -1.4591       4.5646     236.3271       1.0226
    3520.0    1446.7593       0.0000      50.8611    -154.4752       4.9697      -2.1393       4.4828     242.4290       1.0226
    3521.0    1448.8598       0.0000      50.8611    -147.9268       5.1959      -2.7564       4.4011     248.5441       1.0308
    3522.0    1457.8721       0.0000      50.8611    -142.4082       5.3750      -3.2760       4.2566     254.6591       1.0226
    3523.0    1470.2550       0.0000      50.8611    -137.3654       5.3747      -3.6375       3.9513     260.7610       1.0226
    3524.0    1474.7805       0.0000      50.8611    -131.2870       5.3292      -4.0016       3.5137     266.8758       1.0226
    3525.0    1472.4176       0.0000      50.8611    -123.8375       5.4310      -4.5091       3.0204     272.9776       1.0226
    3526.0    1477.1533       0.0000      50.8611    -118.2876       5.6455      -4.9697       2.6716     279.0794       1.0226
    3527.0    1482.6561       0.0000      50.8611    -113.1506       5.7151      -5.2535       2.2436     285.1944       1.0226
    3528.0    1486.5221       0.0000      50.8611    -107.5172       5.7404      -5.4731       1.7242     291.2962       1.0226
    3529.0    1484.1191       0.0000      50.8611    -102.1987       5.7452      -5.6150       1.2118     297.4118       1.0226
    3530.0    1481.2053       0.0000      50.8611     -96.8717       5.9898      -5.9457       0.7142     303.5136       1.0226
    3531.0    1482.8875       0.0000      50.8611     -92.6333       6.0023      -5.9953       0.2740     310.0234       1.0226
    3532.0    1471.6937       0.0000      50.8611     -85.6135       6.0842      -6.0662      -0.4646     316.1252       1.0226
    3533.0    1463.9429       0.0000      50.8611     -81.8815       6.0195      -5.9577      -0.8491     322.2270       1.0226
    3534.0    1455.7454       0.0000      50.8611     -74.7181       6.1726      -5.9525      -1.6259     328.3443       1.0226
    3535.0    1452.0375       0.0000      50.8611     -70.4812       6.2603      -5.8988      -2.0879     334.4438       1.0201
    3536.0    1450.4424       0.0000      50.8611     -66.6206       6.2563      -5.7407      -2.4777     340.5464       1.0226
    3537.0    1437.8834       0.0000      50.8611     -59.1229       6.2103      -5.3271      -3.1823     346.6491       1.0226
    3538.0    1423.3300       0.0000      50.8611     -54.6800       6.3628      -5.1878      -3.6730     352.7509       1.0226
    3539.0    1409.7296       0.0000      50.8611     -49.7998       6.4296      -4.9066      -4.1445     358.8527       1.0226
    3540.0    1394.4435       0.0000      50.8611     -44.5593       6.3530      -4.4528      -4.5221       4.9516       1.0145
    3541.0    1393.1597       0.0000      50.8611     -38.8422       6.2385      -3.9066      -4.8545      11.0439       1.0226
    3542.0    1371.8680       0.0000      50.8611     -34.8321       6.1490      -3.5076      -5.0441      17.1481       1.0226
