~VERSION INFORMATION
VERS.           2.0   :CWLS Log ASCII Standard - VERSION 2.0
WRAP.           NO    :One Line per depth step
PROD.  Schlumberger   :LAS Producer
PROG.  DLIS to ASCII 19C2-270                          :LAS Program name and version
CREA.        2017/09/16 17:42                          :LAS Creation date {YYYY/MM/DD hh:mm}
DLIS_CREA.  2017-Sep-15 20:31                          :DLIS Creation date and time {YYYY-MMM-DD hh:mm}
SOURCE.     BLANK_S2_B5.DLIS                           :DLIS File Name
FILE-ID.     PERFO_Perfo_WPGRT_069LTP                  :File Identification Number
#--------------------------------------------------
~WELL INFORMATION
#MNEM.UNIT      DATA             DESCRIPTION
#---- ------ --------------   -----------------------------
STRT .S         4138.0       :START TIME      
STOP .S         4326.0       :STOP TIME      
STEP .S            1.0       :STEP     
NULL .          -999.25      :NULL VALUE
COMP .        SHELL INTERNATIONAL E P                  :COMPANY
WELL .        WPP TEST 2                               :WELL
FLD  .        WILDCAT                                  :FIELD
LOC  .        NA                                       :LOCATION
CNTY .        HARRIS                                   :COUNTY
STAT .        TEXAS                                    :STATE
CTRY .                                                 :COUNTRY
API  .        NA                                       :API NUMBER
UWI  .                                                 :UNIQUE WELL ID
DATE .        15-Sep-2017                              :LOG DATE {DD-MMM-YYYY}
SRVC .        Schlumberger                             :SERVICE COMPANY
LATI .DEG                                              :LATITUDE
LONG .DEG                                              :LONGITUDE
GDAT .                                                 :GeoDetic Datum
SECT .        NA                                       :Section
RANG .        NA                                       :Range
TOWN .        NA                                       :Township
#-----------------------------------------------------------------------------
~PARAMETER INFORMATION
#MNEM.UNIT    VALUE                      DESCRIPTION
#---- -----   --------------------       ------------------------
U-PHASE_B_COMP_PER_YT.                 0 :Phase B Comparator Period Yt
U-PHASE_A_COMP_PER_XT.                 0 :Phase A Comparator Period Xt
U-MAX_EXC_CUR_LIMIT.MA       240.00000   :Requested CM Current Limit
U-REQ_EXC_FQ.HZ              50          :Requested CM Frequency
U-TILT_Y_OFFSET.           0.19916       :WPTET Tilt Y Offset
U-TILT_Y_GAIN.           1.01796         :WPTET Tilt Y Gain
U-TILT_X_OFFSET.          -1.77103       :WPTET Tilt X Offset
U-TILT_X_GAIN.           1.00000         :WPTET Tilt X Gain
U-TILT_OFFSET_TOL.           0.00100     :WPTET Tilt Offset Calibration Tolerance
U-NO_TILT_CAL_ROTATIONS.                 3 :Number of Rotations for Tilt Calibration
HAZI .DEG        0.00000                 :Hole Azimuth
U-STD_TOL_TILT.           0.01000        :Tilt Standard Deviation Tolerance
U-GUN_POS_TOL.DEG        5.00000         :Gun Position Tolerance
ROT_ANGLE_THRESHOLD.DEG        5.00000   :Rotation Stop Angle Tolerance
STOP_ROT_ANGLE.DEG        0.00000        :Rotation Stop Angle
WITN .        MR. DHRUA ARORA            :Witness's Name
ENGI .        MORRIS MOORE               :Engineer's Name
COUN .        HARRIS                     :County or Rig Name
FN   .        WILDCAT                    :Field Name
WN   .        WPP TEST 2                 :Well Name
CN   .        SHELL INTERNATIONAL E P    :Company Name
CLAB .        County                     :County/Rig Label
SLAB .        State                      :State/Province Label
RUN  .          1                        :RUN NUMBER
PDAT .        GROUND LEVEL               :Permanent Datum
EPD  .                                   :Elevation of Permanent Datum above Mean Sea Level
LMF  .          NA                       :Logging Measured From (Name of Logging Elevation Reference)
APD  .                                   :Elevation of Depth Reference (LMF) above Permanent Datum
#-----------------------------------------------------------------------------
~CURVE INFORMATION
#MNEM.UNIT   API CODE                                  DESCRIPTION
#---- -----  --------                                  -----------------------
TIME .S                                                :TIME {F10.1}
FREQ_EMF_SL.HZ                                         :Electromagnetic Field Frequency {F13.4}
PH_SH_WPPCM_SL.DEG                                     :WPPCM Phase Shift {F13.4}
FREQ_EXC_REQ_SL.HZ                                     :Requested Exciter Frequency {F13.4}
RB_SL.DEG                                              :Relative Bearing {F13.4}
SDEV_SL.DEG                                            :Sonde Deviation {F13.4}
TILX_SL.DEG                                            :X-axis Tilt {F13.4}
TILY_SL.DEG                                            :Y-axis Tilt {F13.4}
ROTA_SL.DEG                                            :Motor Rotation Angle {F13.4}
MSPE_SL.RPM                                            :Motor Speed {F13.4}
#-----------------------------------------------------------------------------
# 
#     TIME    FREQ_EMF_SL  PH_SH_WPPCM_ FREQ_EXC_REQ    RB_SL       SDEV_SL      TILX_SL      TILY_SL      ROTA_SL      MSPE_SL
#                          SL           _SL
~A  
    4138.0    1437.8834       0.0000      50.8611     -61.2661       1.8824      -1.6505      -0.9048     307.5596       1.0226
    4139.0    1441.7489       0.0000      50.8611     -43.7285       1.4154      -0.9767      -1.0240     311.0007       1.0210
    4140.0    1436.3191       0.0000      50.8611     -51.0400       1.2885      -1.0016      -0.8104     317.0901       1.0226
    4141.0    1445.3835       0.0000      50.8611     -52.9954       1.1664      -0.9275      -0.7032     323.1945       1.0226
    4142.0    1448.8194       0.0000      50.8611     -47.8494       1.1052      -0.8195      -0.7413     329.2963       1.0226
    4143.0    1445.1757       0.0000      50.8611     -41.7927       1.3883      -0.9151      -1.0395     335.3981       1.0226
    4144.0    1446.7593       0.0000      50.8611     -44.1902       0.9942      -0.6928      -0.7131     341.5008       1.0226
    4145.0    1443.3300       0.0000      50.8611     -45.5409       1.2427      -0.8749      -0.8760     348.0211       1.0226
    4146.0    1448.8194       0.0000      50.8611     -60.9225       0.9666      -0.8347      -0.4712     354.1229       1.0226
    4147.0    1435.8605       0.0000      50.8611     -39.5238       1.0018      -0.6373      -0.7695       0.2247       1.0226
    4148.0    1432.4795       0.0000      50.8611     -35.4694       1.2694      -0.7295      -1.0310       6.3265       1.0226
    4149.0    1431.5753       0.0000      50.8611     -36.1560       1.1631      -0.6775      -0.9359      12.4283       1.0226
    4150.0    1406.6868       0.0000      50.8611      -4.8422       1.4083      -0.0660      -1.3914      18.5432       1.0317
    4151.0    1413.2239       0.0000      50.8611     -42.3212       0.9967      -0.6713      -0.7349      24.6450       1.0226
    4152.0    1408.6314       0.0000      50.8611     -20.2861       0.9021      -0.3001      -0.8455      30.7494       1.0226
    4153.0    1387.6857       0.0000      50.8611       2.3982       1.0132      -0.0774      -0.6554      36.8644       1.0226
    4154.0    1380.9652       0.0000      50.8611      46.3215       1.7631       0.6799      -0.4579      42.9617       1.0137
    4155.0    1363.4672       0.0000      50.8611     -32.7753       0.3153      -0.2493      -0.1694      49.0531       1.0210
    4156.0    1371.2324       0.0000      50.8611      10.3407       0.6834       0.1230      -0.6722      55.1427       1.0226
    4157.0    1343.4414       0.0000      50.8611      25.8047       0.3048       0.0483      -0.2639      61.6525       1.0226
    4158.0    1335.5646       0.0000      50.8611     -35.7743       0.7045      -0.4116      -0.5714      67.7419       1.0226
    4159.0    1319.3789       0.0000      50.8611     -51.5380       1.0843      -0.8472      -0.6750      73.8437       1.0226
    4160.0    1300.5994       0.0000      50.8611     -47.6998       0.6970      -0.5134      -0.4706      79.9455       1.0226
    4161.0    1285.7854       0.0000      50.8611     -50.0408       1.0721      -0.8223      -0.6877      86.0473       1.0226
    4162.0    1271.4738       0.0000      50.8611     -49.2609       0.5374      -0.4054      -0.3514      92.1491       1.0226
    4163.0    1256.7858       0.0000      50.8611     -49.2408       0.7397      -0.5598      -0.4833      98.2508       1.0226
    4164.0    1245.9927       0.0000      50.8611     -54.5035       0.7548      -0.6124      -0.4395     104.3658       1.0226
    4165.0    1234.2259       0.0000      50.8611     -56.0099       0.8116      -0.6678      -0.4579     110.4702       1.0226
    4166.0    1223.4876       0.0000      50.8611     -56.9625       0.7712      -0.6464      -0.4205     116.5596       1.0137
    4167.0    1218.7525       0.0000      50.8611     -78.5617       0.5846      -0.5723      -0.1153     122.6770       1.0226
    4168.0    1214.0538       0.0000      50.8611     -61.4345       0.7675      -0.6741      -0.3669     128.7762       1.0226
    4169.0    1206.6899       0.0000      50.8611     -64.6297       0.8049      -0.7267      -0.3451     135.2713       1.0226
    4170.0    1198.4626       0.0000      50.8611     -54.9724       0.8621      -0.7018      -0.4988     141.3609       1.0226
    4171.0    1208.5974       0.0000      50.8611     -71.5988       0.7950      -0.7544      -0.2506     147.4628       1.0226
    4172.0    1203.3442       0.0000      50.8611     -82.3228       0.8031      -0.7946      -0.1089     153.5647       1.0226
    4173.0    1199.7452       0.0000      50.8611     -72.9434       0.9366      -0.8936      -0.2760     159.6796       1.0226
    4174.0    1201.4726       0.0000      50.8611     -72.0242       0.9067      -0.8596      -0.2823     165.7972       1.0226
    4175.0    1209.5544       0.0000      50.8611     -59.5930       0.8656      -0.7454      -0.4360     171.8965       1.0226
    4176.0    1210.1979       0.0000      50.8611     -82.5662       0.9418      -0.9338      -0.1216     177.9992       1.0226
    4177.0    1212.9347       0.0000      50.8611     -81.4709       0.8630      -0.8534      -0.1279     184.1011       1.0226
    4178.0    1231.0586       0.0000      50.8611     -63.1783       0.8282      -0.7391      -0.3733     190.2030       1.0226
    4179.0    1231.3923       0.0000      50.8611     -64.4596       0.9993      -0.8998      -0.4297     196.3179       1.0226
    4180.0    1240.0793       0.0000      50.8611     -70.6533       1.1561      -1.0910      -0.3796     202.4208       1.0226
    4181.0    1250.7677       0.0000      50.8611     -75.6368       1.1237      -1.0882      -0.2788     208.9297       1.0226
    4182.0    1268.4711       0.0000      50.8611     -67.7864       0.9918      -0.9185      -0.3733     215.0297       1.0137
    4183.0    1278.7701       0.0000      50.8611     -69.0729       1.1031      -1.0293      -0.3923     221.1352       1.0226
    4184.0    1297.2786       0.0000      50.8611     -61.0933       1.2988      -1.1346      -0.6278     227.2493       1.0226
    4185.0    1315.9520       0.0000      50.8611     -69.0498       1.1586      -1.0820      -0.4142     233.3512       1.0226
    4186.0    1333.8113       0.0000      50.8611     -71.1975       1.3062      -1.2364      -0.4205     239.4531       1.0226
    4187.0    1344.8065       0.0000      50.8611     -63.7110       1.0416      -0.9338      -0.4614     245.5680       1.0317
    4188.0    1362.0684       0.0000      50.8611     -62.7460       1.1860      -1.0543      -0.5432     251.6699       1.0226
    4189.0    1369.1923       0.0000      50.8611     -63.7265       1.2414      -1.1131      -0.5495     257.7884       1.0226
    4190.0    1386.4112       0.0000      50.8611     -69.0038       1.3252      -1.2364      -0.4741     263.8867       1.0210
    4191.0    1401.0808       0.0000      50.8611     -62.6354       1.2707      -1.1284      -0.5841     269.9874       1.0137
    4192.0    1409.5068       0.0000      50.8611     -62.1000       1.1475      -1.0141      -0.5368     276.0919       1.0226
    4193.0    1420.0107       0.0000      50.8611     -57.1745       1.2403      -1.0418      -0.6722     282.6017       1.0226
    4194.0    1410.3892       0.0000      50.8611     -53.0708       1.3287      -1.0605      -0.7977     288.7166       1.0226
    4195.0    1426.6664       0.0000      50.8611     -50.7226       1.3101      -1.0141      -0.8294     294.8184       1.0226
    4196.0    1436.3191       0.0000      50.8611     -55.1864       1.3104      -1.0757      -0.7476     300.9332       1.0226
    4197.0    1432.0265       0.0000      50.8611     -57.0479       1.1276      -0.9462      -0.6123     307.0350       1.0226
    4198.0    1442.8733       0.0000      50.8611     -49.1132       1.3435      -1.0141      -0.8795     313.1246       1.0226
    4199.0    1449.1111       0.0000      50.8611     -46.4523       1.3055      -0.9462      -0.8985     319.2264       1.0226
    4200.0    1446.2988       0.0000      50.8611     -49.4216       1.2217      -0.9275      -0.7948     325.3282       1.0226
