~VERSION INFORMATION
VERS.           2.0   :CWLS Log ASCII Standard - VERSION 2.0
WRAP.           NO    :One Line per depth step
PROD.  Schlumberger   :LAS Producer
PROG.  DLIS to ASCII 19C2-270                          :LAS Program name and version
CREA.        2017/09/16 17:42                          :LAS Creation date {YYYY/MM/DD hh:mm}
DLIS_CREA.  2017-Sep-15 20:14                          :DLIS Creation date and time {YYYY-MMM-DD hh:mm}
SOURCE.     BLANK_S1_AV.DLIS                           :DLIS File Name
FILE-ID.     PERFO_Perfo_WPGRT_066LTP                  :File Identification Number
#--------------------------------------------------
~WELL INFORMATION
#MNEM.UNIT      DATA             DESCRIPTION
#---- ------ --------------   -----------------------------
STRT .S         3129.0       :START TIME      
STOP .S         3321.0       :STOP TIME      
STEP .S            1.0       :STEP     
NULL .          -999.25      :NULL VALUE
COMP .        SHELL INTERNATIONAL E P                  :COMPANY
WELL .        WPP TEST 2                               :WELL
FLD  .        WILDCAT                                  :FIELD
LOC  .        NA                                       :LOCATION
CNTY .        HARRIS                                   :COUNTY
STAT .        TEXAS                                    :STATE
CTRY .                                                 :COUNTRY
API  .        NA                                       :API NUMBER
UWI  .                                                 :UNIQUE WELL ID
DATE .        15-Sep-2017                              :LOG DATE {DD-MMM-YYYY}
SRVC .        Schlumberger                             :SERVICE COMPANY
LATI .DEG                                              :LATITUDE
LONG .DEG                                              :LONGITUDE
GDAT .                                                 :GeoDetic Datum
SECT .        NA                                       :Section
RANG .        NA                                       :Range
TOWN .        NA                                       :Township
#-----------------------------------------------------------------------------
~PARAMETER INFORMATION
#MNEM.UNIT    VALUE                      DESCRIPTION
#---- -----   --------------------       ------------------------
U-PHASE_B_COMP_PER_YT.                 0 :Phase B Comparator Period Yt
U-PHASE_A_COMP_PER_XT.                 0 :Phase A Comparator Period Xt
U-MAX_EXC_CUR_LIMIT.MA       240.00000   :Requested CM Current Limit
U-REQ_EXC_FQ.HZ              50          :Requested CM Frequency
U-TILT_Y_OFFSET.           0.19916       :WPTET Tilt Y Offset
U-TILT_Y_GAIN.           1.01796         :WPTET Tilt Y Gain
U-TILT_X_OFFSET.          -1.77103       :WPTET Tilt X Offset
U-TILT_X_GAIN.           1.00000         :WPTET Tilt X Gain
U-TILT_OFFSET_TOL.           0.00100     :WPTET Tilt Offset Calibration Tolerance
U-NO_TILT_CAL_ROTATIONS.                 3 :Number of Rotations for Tilt Calibration
HAZI .DEG        0.00000                 :Hole Azimuth
U-STD_TOL_TILT.           0.01000        :Tilt Standard Deviation Tolerance
U-GUN_POS_TOL.DEG        5.00000         :Gun Position Tolerance
ROT_ANGLE_THRESHOLD.DEG        5.00000   :Rotation Stop Angle Tolerance
STOP_ROT_ANGLE.DEG        0.00000        :Rotation Stop Angle
WITN .        MR. DHRUA ARORA            :Witness's Name
ENGI .        MORRIS MOORE               :Engineer's Name
COUN .        HARRIS                     :County or Rig Name
FN   .        WILDCAT                    :Field Name
WN   .        WPP TEST 2                 :Well Name
CN   .        SHELL INTERNATIONAL E P    :Company Name
CLAB .        County                     :County/Rig Label
SLAB .        State                      :State/Province Label
RUN  .          1                        :RUN NUMBER
PDAT .        GROUND LEVEL               :Permanent Datum
EPD  .                                   :Elevation of Permanent Datum above Mean Sea Level
LMF  .          NA                       :Logging Measured From (Name of Logging Elevation Reference)
APD  .                                   :Elevation of Depth Reference (LMF) above Permanent Datum
#-----------------------------------------------------------------------------
~CURVE INFORMATION
#MNEM.UNIT   API CODE                                  DESCRIPTION
#---- -----  --------                                  -----------------------
TIME .S                                                :TIME {F10.1}
FREQ_EMF_SL.HZ                                         :Electromagnetic Field Frequency {F13.4}
PH_SH_WPPCM_SL.DEG                                     :WPPCM Phase Shift {F13.4}
FREQ_EXC_REQ_SL.HZ                                     :Requested Exciter Frequency {F13.4}
RB_SL.DEG                                              :Relative Bearing {F13.4}
SDEV_SL.DEG                                            :Sonde Deviation {F13.4}
TILX_SL.DEG                                            :X-axis Tilt {F13.4}
TILY_SL.DEG                                            :Y-axis Tilt {F13.4}
ROTA_SL.DEG                                            :Motor Rotation Angle {F13.4}
MSPE_SL.RPM                                            :Motor Speed {F13.4}
#-----------------------------------------------------------------------------
# 
#     TIME    FREQ_EMF_SL  PH_SH_WPPCM_ FREQ_EXC_REQ    RB_SL       SDEV_SL      TILX_SL      TILY_SL      ROTA_SL      MSPE_SL
#                          SL           _SL
~A  
# ...
    3255.0    1409.0682       0.0000      50.8611     -47.2714       1.2237      -0.9012      -0.8230     348.9428       1.0226
    3256.0    1394.2209       0.0000      50.8611     -42.6241       1.1008      -0.7399      -0.8098     355.0322       1.0191
    3257.0    1388.6569       0.0000      50.8611     -42.5131       1.1351      -0.7669      -0.8367       1.5420       1.0226
    3258.0    1380.4777       0.0000      50.8611     -38.1471       1.1347      -0.7281      -0.8230       7.6285       1.0226
    3259.0    1361.7791       0.0000      50.8611     -44.7506       1.0109      -0.7136      -0.7141      13.7314       1.0226
    3260.0    1351.3103       0.0000      50.8611     -41.1502       1.0027      -0.6598      -0.7550      19.8339       1.0262
    3261.0    1334.2030       0.0000      50.8611     -43.4625       1.0767      -0.7399      -0.7819      25.9357       1.0226
    3262.0    1323.3188       0.0000      50.8611     -40.6083       1.0416      -0.6859      -0.7817      32.0375       1.0226
    3263.0    1298.0819       0.0000      50.8611     -43.2021       0.8858      -0.6062      -0.6458      38.1290       1.0226
    3264.0    1278.4292       0.0000      50.8611     -43.2035       0.9050      -0.6196      -0.6595      44.2288       1.0226
    3265.0    1261.5991       0.0000      50.8611     -44.9994       0.8949      -0.6331      -0.6323      50.3306       1.0226
    3266.0    1234.2789       0.0000      50.8611     -43.7820       0.9146      -0.6331      -0.6595      56.4345       1.0226
    3267.0    1229.2578       0.0000      50.8611     -48.9572       0.8391      -0.6331      -0.5505      62.5493       1.0226
    3268.0    1210.8969       0.0000      50.8611     -42.3246       0.9438      -0.6327      -0.7000      68.6389       1.0226
    3269.0    1193.7606       0.0000      50.8611     -45.4224       0.8141      -0.5791      -0.5642      75.1466       1.0226
    3270.0    1180.4252       0.0000      50.8611     -45.4007       0.8428      -0.5929      -0.5910      81.2484       1.0226
    3271.0    1172.5227       0.0000      50.8611     -48.5861       0.7909      -0.5929      -0.5233      87.3500       1.0262
    3272.0    1171.8815       0.0000      50.8611     -50.4612       0.7354      -0.5660      -0.4685      93.4658       1.0226
    3273.0    1156.4714       0.0000      50.8611     -60.9643       0.7405      -0.6464      -0.3598      99.5676       1.0226
    3274.0    1155.8552       0.0000      50.8611     -62.3525       0.7175      -0.6329      -0.3326     105.6694       1.0226
    3275.0    1162.1963       0.0000      50.8611     -54.6294       0.9257      -0.7536      -0.5370     111.7588       1.0226
    3276.0    1164.1110       0.0000      50.8611     -67.3576       0.6452      -0.5927      -0.2504     117.8627       1.0226
    3277.0    1173.8281       0.0000      50.8611     -54.3708       0.6049      -0.4720      -0.3465     123.9644       1.0156
    3278.0    1184.3808       0.0000      50.8611     -64.3521       0.7635      -0.6867      -0.3326     130.0540       1.0226
    3279.0    1200.5512       0.0000      50.8611     -59.8433       0.8248      -0.7132      -0.4142     136.1559       1.0226
    3280.0    1211.6029       0.0000      50.8611     -60.7575       0.8482      -0.7401      -0.4142     142.2475       1.0226
    3281.0    1232.8308       0.0000      50.8611     -73.9516       0.8546      -0.8205      -0.2371     148.7524       1.0226
    3282.0    1249.6586       0.0000      50.8611     -71.9160       0.6799      -0.6466      -0.2097     154.8543       1.0226
    3283.0    1273.0079       0.0000      50.8611     -68.5736       0.7804      -0.7271      -0.2778     160.9562       1.0226
    3284.0    1293.3061       0.0000      50.8611     -59.2195       1.0161      -0.8747      -0.4957     167.0467       1.0226
    3285.0    1319.1838       0.0000      50.8611     -71.9681       0.8942      -0.8468      -0.2645     173.1362       1.0226
    3286.0    1330.8328       0.0000      50.8611     -77.6365       0.9093      -0.8878      -0.1962     179.2381       1.0226
    3287.0    1343.5478       0.0000      50.8611     -70.8702       1.0527      -0.9942      -0.3459     185.3551       1.0226
    3288.0    1358.2540       0.0000      50.8611     -63.0385       0.9337      -0.8343      -0.4142     191.4468       1.0156
    3289.0    1371.5009       0.0000      50.8611     -63.9887       1.0333      -0.9273      -0.4548     197.5364       1.0191
    3290.0    1378.6735       0.0000      50.8611     -69.8603       1.0335      -0.9675      -0.3594     203.6494       1.0226
    3291.0    1388.6569       0.0000      50.8611     -74.7895       1.1692      -1.1282      -0.3052     209.7513       1.0226
    3292.0    1397.8628       0.0000      50.8611     -70.7236       1.2240      -1.1549      -0.4007     215.8532       1.0226
    3293.0    1409.0682       0.0000      50.8611     -61.8524       1.0704      -0.9406      -0.5092     222.3601       1.0226
    3294.0    1414.7358       0.0000      50.8611     -68.3028       1.0447      -0.9677      -0.3872     228.4627       1.0191
    3295.0    1424.2866       0.0000      50.8611     -70.0632       1.2573      -1.1818      -0.4279     234.5788       1.0226
    3296.0    1430.0803       0.0000      50.8611     -73.2600       1.2916      -1.2356      -0.3735     240.6807       1.0226
    3297.0    1448.7485       0.0000      50.8611     -64.3621       1.1775      -1.0615      -0.5096     246.7826       1.0226
    3298.0    1456.7462       0.0000      50.8611     -55.4157       1.0591      -0.8735      -0.5914     252.8845       1.0226
    3299.0    1458.7630       0.0000      50.8611     -63.9845       1.1660      -1.0478      -0.5096     258.9995       1.0226
    3300.0    1460.8017       0.0000      50.8611     -62.4271       1.4544      -1.2890      -0.6732     265.0897       1.0226
    3301.0    1460.8017       0.0000      50.8611     -57.9373       1.3964      -1.1820      -0.7411     266.3137       0.0005
    3302.0    1460.7823       0.0000      50.8611     -61.8608       1.3405      -1.1820      -0.6323     266.3137       0.0005
    3303.0    1458.7655       0.0000      50.8611     -63.9086       1.1833      -1.0611      -0.5229     266.3137       0.0005
    3304.0    1461.7983       0.0000      50.8611     -57.0407       1.2385      -1.0348      -0.6728     266.3137       0.0005
    3305.0    1457.7731       0.0000      50.8611     -57.7413       1.3657      -1.1555      -0.7278     266.3137       0.0005
    3306.0    1461.7983       0.0000      50.8611     -63.4577       1.2618      -1.1286      -0.5642     266.3137       0.0005
    3307.0    1457.7538       0.0000      50.8611     -58.8696       1.3027      -1.1149      -0.6732     266.3137       0.0005
    3308.0    1456.7571       0.0000      50.8611     -59.4880       1.1407      -0.9809      -0.5779     266.3137       0.0005
    3309.0    1459.7815       0.0000      50.8611     -63.0890       1.2201      -1.0880      -0.5505     266.3137       0.0005
    3310.0    1463.8235       0.0000      50.8611     -62.9510       1.3583      -1.2089      -0.6188     266.3137       0.0005
    3311.0    1457.7731       0.0000      50.8611     -56.2879       1.2609      -1.0482      -0.7006     266.3137       0.0005
    3312.0    1458.7655       0.0000      50.8611     -54.7998       1.1894      -0.9677      -0.6871     266.3137       0.0005
    3313.0    1461.7983       0.0000      50.8611     -65.6141       1.1361      -1.0346      -0.4687     266.3137       0.0005
    3314.0    1458.7655       0.0000      50.8611     -61.1056       1.3652      -1.1952      -0.6595     266.3137       0.0005
    3315.0    1458.7933       0.0000      50.8611     -59.4822       1.3256      -1.1418      -0.6732     266.3137       0.0005
    3316.0    1463.8235       0.0000      50.8611     -62.1297       1.1146      -0.9811      -0.5235     266.3137       0.0005
    3317.0    1462.8075       0.0000      50.8611     -62.2613       1.1237      -0.9944      -0.5231     266.3137       0.0005
