~VERSION INFORMATION
VERS.           2.0   :CWLS Log ASCII Standard - VERSION 2.0
WRAP.           NO    :One Line per depth step
PROD.  Schlumberger   :LAS Producer
PROG.  DLIS to ASCII 19C2-270                          :LAS Program name and version
CREA.        2018/08/03 10:59                          :LAS Creation date {YYYY/MM/DD hh:mm}
DLIS_CREA.  2018-Aug-03 09:13                          :DLIS Creation date and time {YYYY-MMM-DD hh:mm}
SOURCE.     PERFO_Perfo_073PTP.DLIS                    :DLIS File Name
FILE-ID.     PERFO_Perfo_073PTP                        :File Identification Number
#--------------------------------------------------
~WELL INFORMATION
#MNEM.UNIT      DATA             DESCRIPTION
#---- ------ --------------   -----------------------------
STRT .S            0.0       :START TIME      
STOP .S         1015.0       :STOP TIME      
STEP .S            1.0       :STEP     
NULL .          -999.25      :NULL VALUE
COMP .        SHELL INTERNATIONAL EP                   :COMPANY
WELL .        WPP TEST 4                               :WELL
FLD  .        WILDCAT                                  :FIELD
LOC  .        NA                                       :LOCATION
CNTY .        HARRIS                                   :COUNTY
STAT .        TEXAS                                    :STATE
CTRY .                                                 :COUNTRY
API  .        NA                                       :API NUMBER
UWI  .                                                 :UNIQUE WELL ID
DATE .        02-Aug-2018                              :LOG DATE {DD-MMM-YYYY}
SRVC .        Schlumberger                             :SERVICE COMPANY
LATI .DEG                                              :LATITUDE
LONG .DEG                                              :LONGITUDE
GDAT .                                                 :GeoDetic Datum
SECT .        NA                                       :Section
RANG .        NA                                       :Range
TOWN .        NA                                       :Township
#-----------------------------------------------------------------------------
~PARAMETER INFORMATION
#MNEM.UNIT    VALUE                      DESCRIPTION
#---- -----   --------------------       ------------------------
U-PHASE_B_COMP_PER_YT.                 0 :Phase B Comparator Period Yt
U-PHASE_A_COMP_PER_XT.                 0 :Phase A Comparator Period Xt
U-MAX_EXC_CUR_LIMIT.MA       265.00000   :Requested CM Current Limit
U-REQ_EXC_FQ.HZ              50          :Requested CM Frequency
U-TILT_Y_OFFSET.          -2.06578       :WPTET Tilt Y Offset
U-TILT_Y_GAIN.           1.02173         :WPTET Tilt Y Gain
U-TILT_X_OFFSET.           2.30841       :WPTET Tilt X Offset
U-TILT_X_GAIN.           1.00000         :WPTET Tilt X Gain
U-TILT_OFFSET_TOL.           0.00100     :WPTET Tilt Offset Calibration Tolerance
U-MOT_CUR_LIMIT_REQ.MA        70.00000   :Requested Motor Current Limit
U-MOT_SPD_REQ_WPMS.RPM        1.00000    :Requested Motor Speed
U-STD_TOL_TILT.           0.01000        :Tilt Standard Deviation Tolerance
CWEI .LB/F      29.00000                 :Casing Weight
CSIZ .IN         7.00000                 :Current Casing Size
LCC  .               440                 :Logging Company Code
LUN  .              2134                 :Logging Unit Number
HIDE .                                   :Header Identifier
HID1 .                                   :Header Identifier Line 1
R1   .                                   :Remark Line 1
WITN .        MR. KELLY McCOY            :Witness's Name
ENGI .        MORRIS MOORE               :Engineer's Name
LUL  .        IOWA COLONY                :Logging Unit Location
DATE .        02-Aug-2018                :Date as Month-Day-Year
STAT .        TEXAS                      :State or Province
COUN .        HARRIS                     :County or Rig Name
FN   .        WILDCAT                    :Field Name
WN   .        WPP TEST 4                 :Well Name
CN   .        SHELL INTERNATIONAL EP     :Company Name
CLAB .        County                     :County/Rig Label
SLAB .        State                      :State/Province Label
RUN  .          1                        :RUN NUMBER
PDAT .        GROUND LEVEL               :Permanent Datum
EPD  .                                   :Elevation of Permanent Datum above Mean Sea Level
LMF  .          NA                       :Logging Measured From (Name of Logging Elevation Reference)
APD  .                                   :Elevation of Depth Reference (LMF) above Permanent Datum
#-----------------------------------------------------------------------------
~CURVE INFORMATION
#MNEM.UNIT   API CODE                                  DESCRIPTION
#---- -----  --------                                  -----------------------
TIME .S                                                :TIME {F10.1}
FREQ_EMF_SL.HZ                                         :Electromagnetic Field Frequency {F13.4}
PH_SH_WPPCM_SL.DEG                                     :WPPCM Phase Shift {F13.4}
RB_SL.DEG                                              :Relative Bearing {F13.4}
SDEV_SL.DEG                                            :Sonde Deviation {F13.4}
RTIX_SL.DEG                                            :Raw X-axis Tilt {F13.4}
RTIY_SL.DEG                                            :Raw Y-axis Tilt {F13.4}
TILX_SL.DEG                                            :X-axis Tilt {F13.4}
TILY_SL.DEG                                            :Y-axis Tilt {F13.4}
ROTA_SL.DEG                                            :Motor Rotation Angle {F13.4}
TOD7 .S                                                :Time of Day {I11}
TOJ  .S                                                :Time of Job {F13.4}
#-----------------------------------------------------------------------------
# 
#     TIME    FREQ_EMF_SL  PH_SH_WPPCM_    RB_SL       SDEV_SL      RTIX_SL      RTIY_SL      TILX_SL      TILY_SL      ROTA_SL        TOD7            TOJ
#                          SL
~A  
# ...
     212.0    1336.7396       0.0000    -173.6277      75.4377      -8.4752     105.6383      -6.1668     105.8678     349.6577 1533238293 9999999.9999
     213.0    1341.8416       0.0000    -165.3586      93.1475     -17.0708     102.5857     -14.7624     102.7488     355.7595 1533238294 9999999.9999
     214.0    1336.7396       0.0000    -158.5201    -999.2500     -25.2648      97.5648     -22.9564      97.6189       1.8613 1533238295 9999999.9999
     215.0    1339.2858       0.0000    -152.7267    -999.2500     -33.3383      90.9775     -31.0299      90.8884       7.9631 1533238296 9999999.9999
     216.0    1341.8416       0.0000    -147.7099    -999.2500     -41.1708      83.4262     -38.8624      83.1730      14.0781 1533238297 9999999.9999
     217.0    1339.2858       0.0000    -143.2452    -999.2500     -48.4008      75.1518     -46.0924      74.7189      20.1799 1533238298 9999999.9999
     218.0    1341.8416       0.0000    -138.3568    -999.2500     -55.7112      65.1905     -53.4028      64.5411      26.2817 1533238299 9999999.9999
     219.0    1349.5681       0.0000    -130.5227    -999.2500     -70.3318      53.3413     -68.0234      52.4345      32.7770 1533238300 9999999.9999
     220.0    1352.1635       0.0000    -126.1650    -999.2500     -79.4898      46.5130     -77.1814      45.4578      38.8819 1533238301 9999999.9999
     221.0    1352.1635       0.0000    -121.8049    -999.2500     -87.2822      39.3633     -84.9738      38.1528      44.9837 1533238302 9999999.9999
     222.0    1354.7688       0.0000    -116.8244    -999.2500     -94.3113      31.7317     -92.0029      30.3553      51.0863 1533238303 9999999.9999
     223.0    1362.6454       0.0000    -110.9397    -999.2500    -100.2560      23.8188     -97.9476      22.2706      57.1881 1533238304 9999999.9999
     224.0    1370.6140       0.0000    -104.1322    -999.2500    -104.1120      15.9863    -101.8036      14.2679      63.2907 1533238305 9999999.9999
     225.0    1373.2910       0.0000     -95.6920      78.0156    -105.5580       7.4710    -103.2496       5.5675      69.3925 1533238306 9999999.9999
     226.0    1375.9785       0.0000     -86.8274      77.0465    -105.6383      -1.0042    -103.3299      -3.0918      75.5205 1533238307 9999999.9999
     227.0    1381.3850       0.0000     -78.4816      84.4545    -105.0760      -9.1982    -102.7676     -11.4638      81.6100 1533238308 9999999.9999
     228.0    1389.5751       0.0000     -71.2937    -999.2500    -102.5053     -17.0307    -100.1969     -19.4665      87.7118 1533238309 9999999.9999
     229.0    1392.3268       0.0000     -65.1670    -999.2500     -97.8058     -24.8230     -95.4974     -27.4281      93.8166 1533238310 9999999.9999
     230.0    1392.3268       0.0000     -60.0220    -999.2500     -91.6202     -32.4547     -89.3118     -35.2256      99.9285 1533238311 9999999.9999
     231.0    1400.6475       0.0000     -55.6913    -999.2500     -84.7918     -39.6445     -82.4834     -42.5716     106.4383 1533238312 9999999.9999
     232.0    1411.8976       0.0000     -51.6559    -999.2500     -76.8388     -46.5933     -74.5304     -49.6715     112.5401 1533238313 9999999.9999
     233.0    1406.2500       0.0000     -47.3321    -999.2500     -66.8373     -53.1003     -64.5289     -56.3198     118.6682 1533238314 9999999.9999
     234.0    1417.5908       0.0000     -38.8033    -999.2500     -52.6987     -69.7695     -50.3903     -73.3512     124.7700 1533238315 9999999.9999
     235.0    1423.3300       0.0000     -34.4336    -999.2500     -45.2678     -79.9317     -42.9594     -83.7341     130.8718 1533238316 9999999.9999
     236.0    1423.3300       0.0000     -30.4353    -999.2500     -38.2788     -87.3625     -35.9704     -91.3264     136.9737 1533238317 9999999.9999
     237.0    1429.1158       0.0000     -25.5221    -999.2500     -30.5267     -93.8695     -28.2183     -97.9748     143.0756 1533238318 9999999.9999
     238.0    1429.1158       0.0000     -20.0240    -999.2500     -23.1762     -98.0067     -20.8678    -102.2019     149.1651 1533238319 9999999.9999
     239.0    1437.8834       0.0000     -13.4539      84.7677     -15.7052    -100.1757     -13.3968    -104.4180     155.2670 1533238320 9999999.9999
     240.0    1432.0265       0.0000      -5.3159      76.2253      -7.4710    -100.4970      -5.1626    -104.7463     161.3689 1533238321 9999999.9999
     241.0    1437.8834       0.0000       3.6638      75.9184       1.2452    -100.2962       3.5536    -104.5411     167.4615 1533238322 9999999.9999
     242.0    1440.8298       0.0000      11.2590      81.8930       8.8367     -99.6133      11.1451    -103.8434     173.5481 1533238323 9999999.9999
     243.0    1437.8834       0.0000      18.6897      87.9753      17.0708     -97.0427      19.3792    -101.2169     180.0456 1533238324 9999999.9999
     244.0    1434.9490       0.0000      24.4157    -999.2500      24.5017     -92.4235      26.8101     -96.4974     186.1506 1533238325 9999999.9999
     245.0    1440.8298       0.0000      29.0115    -999.2500      31.3702     -86.7198      33.6786     -90.6698     192.2494 1533238326 9999999.9999
     246.0    1434.9490       0.0000      33.1728    -999.2500      38.1985     -79.7308      40.5069     -83.5289     198.3544 1533238327 9999999.9999
     247.0    1440.8298       0.0000      37.3906    -999.2500      45.1875     -71.0950      47.4959     -74.7055     204.4532 1533238328 9999999.9999
     248.0    1432.0265       0.0000      42.2494    -999.2500      51.2928     -59.0450      53.6012     -62.3937     210.5551 1533238329 9999999.9999
     249.0    1433.4862       0.0000      51.6807    -999.2500      73.3242     -46.8745      75.6327     -49.9587     216.6570 1533238330 9999999.9999
     250.0    1432.0265       0.0000      55.5878    -999.2500      82.1007     -40.0462      84.4091     -42.9820     222.7465 1533238331 9999999.9999
     251.0    1426.2170       0.0000      59.4923    -999.2500      89.2102     -33.2982      91.5186     -36.0874     228.8484 1533238332 9999999.9999
     252.0    1423.3300       0.0000      63.9667    -999.2500      94.8737     -26.3493      97.1821     -28.9876     234.9503 1533238333 9999999.9999
     253.0    1411.8976       0.0000      69.4770    -999.2500      98.6895     -19.0792     100.9979     -21.5595     241.0522 1533238334 9999999.9999
     254.0    1411.8976       0.0000      75.9479      86.5945     100.4167     -11.8090     102.7251     -14.1314     247.1541 1533238335 9999999.9999
     255.0    1406.2500       0.0000      84.3207      77.9677     100.9790      -3.4142     103.2874      -5.5541     253.2560 1533238336 9999999.9999
     256.0    1403.4431       0.0000      93.4018      76.6910     101.4208       5.2618     103.7292       3.3104     259.7659 1533238337 9999999.9999
     257.0    1397.8628       0.0000     101.4970      84.1415     100.5773      13.2148     102.8857      11.4362     265.8677 1533238338 9999999.9999
     258.0    1392.3268       0.0000     108.5197    -999.2500      97.4845      20.8867      99.7929      19.2747     271.9695 1533238339 9999999.9999
     259.0    1386.8344       0.0000     114.5776    -999.2500      92.5038      28.5585      94.8122      27.1132     278.0713 1533238340 9999999.9999
     260.0    1381.3850       0.0000     119.7918    -999.2500      86.1173      36.1902      88.4257      34.9107     284.1731 1533238341 9999999.9999
     261.0    1376.6520       0.0000     124.4377    -999.2500      78.2647      43.6812      80.5732      42.5645     290.2503 1533238342 9999999.9999
     262.0    1373.2910       0.0000     129.0808    -999.2500      68.7252      51.1322      71.0336      50.1773     296.3652 1533238343 9999999.9999
     263.0    1370.6140       0.0000     137.2365    -999.2500      54.5463      65.5118      56.8547      64.8694     302.4670 1533238344 9999999.9999
     264.0    1362.6454       0.0000     141.4369    -999.2500      48.1197      75.6338      50.4281      75.2114     308.5688 1533238345 9999999.9999
