~VERSION INFORMATION
VERS.           2.0   :CWLS Log ASCII Standard - VERSION 2.0
WRAP.           NO    :One Line per depth step
PROD.  Schlumberger   :LAS Producer
PROG.  DLIS to ASCII 19C2-270                          :LAS Program name and version
CREA.        2018/08/03 10:59                          :LAS Creation date {YYYY/MM/DD hh:mm}
DLIS_CREA.  2018-Aug-03 09:18                          :DLIS Creation date and time {YYYY-MMM-DD hh:mm}
SOURCE.     PERFO_Perfo_074PTP.DLIS                    :DLIS File Name
FILE-ID.     PERFO_Perfo_074PTP                        :File Identification Number
#--------------------------------------------------
~WELL INFORMATION
#MNEM.UNIT      DATA             DESCRIPTION
#---- ------ --------------   -----------------------------
STRT .S            0.0       :START TIME      
STOP .S          866.0       :STOP TIME      
STEP .S            1.0       :STEP     
NULL .          -999.25      :NULL VALUE
COMP .        SHELL INTERNATIONAL EP                   :COMPANY
WELL .        WPP TEST 4                               :WELL
FLD  .        WILDCAT                                  :FIELD
LOC  .        NA                                       :LOCATION
CNTY .        HARRIS                                   :COUNTY
STAT .        TEXAS                                    :STATE
CTRY .                                                 :COUNTRY
API  .        NA                                       :API NUMBER
UWI  .                                                 :UNIQUE WELL ID
DATE .        02-Aug-2018                              :LOG DATE {DD-MMM-YYYY}
SRVC .        Schlumberger                             :SERVICE COMPANY
LATI .DEG                                              :LATITUDE
LONG .DEG                                              :LONGITUDE
GDAT .                                                 :GeoDetic Datum
SECT .        NA                                       :Section
RANG .        NA                                       :Range
TOWN .        NA                                       :Township
#-----------------------------------------------------------------------------
~PARAMETER INFORMATION
#MNEM.UNIT    VALUE                      DESCRIPTION
#---- -----   --------------------       ------------------------
U-PHASE_B_COMP_PER_YT.                 0 :Phase B Comparator Period Yt
U-PHASE_A_COMP_PER_XT.                 0 :Phase A Comparator Period Xt
U-MAX_EXC_CUR_LIMIT.MA       265.00000   :Requested CM Current Limit
U-REQ_EXC_FQ.HZ              50          :Requested CM Frequency
U-TILT_Y_OFFSET.          -2.06578       :WPTET Tilt Y Offset
U-TILT_Y_GAIN.           1.02173         :WPTET Tilt Y Gain
U-TILT_X_OFFSET.           2.30841       :WPTET Tilt X Offset
U-TILT_X_GAIN.           1.00000         :WPTET Tilt X Gain
U-TILT_OFFSET_TOL.           0.00100     :WPTET Tilt Offset Calibration Tolerance
U-MOT_CUR_LIMIT_REQ.MA        70.00000   :Requested Motor Current Limit
U-MOT_SPD_REQ_WPMS.RPM        1.00000    :Requested Motor Speed
U-STD_TOL_TILT.           0.01000        :Tilt Standard Deviation Tolerance
CWEI .LB/F      29.00000                 :Casing Weight
CSIZ .IN         7.00000                 :Current Casing Size
LCC  .               440                 :Logging Company Code
LUN  .              2134                 :Logging Unit Number
HIDE .                                   :Header Identifier
HID1 .                                   :Header Identifier Line 1
R1   .                                   :Remark Line 1
WITN .        MR. KELLY McCOY            :Witness's Name
ENGI .        MORRIS MOORE               :Engineer's Name
LUL  .        IOWA COLONY                :Logging Unit Location
DATE .        02-Aug-2018                :Date as Month-Day-Year
STAT .        TEXAS                      :State or Province
COUN .        HARRIS                     :County or Rig Name
FN   .        WILDCAT                    :Field Name
WN   .        WPP TEST 4                 :Well Name
CN   .        SHELL INTERNATIONAL EP     :Company Name
CLAB .        County                     :County/Rig Label
SLAB .        State                      :State/Province Label
RUN  .          1                        :RUN NUMBER
PDAT .        GROUND LEVEL               :Permanent Datum
EPD  .                                   :Elevation of Permanent Datum above Mean Sea Level
LMF  .          NA                       :Logging Measured From (Name of Logging Elevation Reference)
APD  .                                   :Elevation of Depth Reference (LMF) above Permanent Datum
#-----------------------------------------------------------------------------
~CURVE INFORMATION
#MNEM.UNIT   API CODE                                  DESCRIPTION
#---- -----  --------                                  -----------------------
TIME .S                                                :TIME {F10.1}
FREQ_EMF_SL.HZ                                         :Electromagnetic Field Frequency {F13.4}
PH_SH_WPPCM_SL.DEG                                     :WPPCM Phase Shift {F13.4}
RB_SL.DEG                                              :Relative Bearing {F13.4}
SDEV_SL.DEG                                            :Sonde Deviation {F13.4}
RTIX_SL.DEG                                            :Raw X-axis Tilt {F13.4}
RTIY_SL.DEG                                            :Raw Y-axis Tilt {F13.4}
TILX_SL.DEG                                            :X-axis Tilt {F13.4}
TILY_SL.DEG                                            :Y-axis Tilt {F13.4}
ROTA_SL.DEG                                            :Motor Rotation Angle {F13.4}
TOD7 .S                                                :Time of Day {I11}
TOJ  .S                                                :Time of Job {F13.4}
#-----------------------------------------------------------------------------
# 
#     TIME    FREQ_EMF_SL  PH_SH_WPPCM_    RB_SL       SDEV_SL      RTIX_SL      RTIY_SL      TILX_SL      TILY_SL      ROTA_SL        TOD7            TOJ
#                          SL
~A  
# ...
     583.0     648.0415       0.0000     -61.0214    -999.2500     -93.1867     -30.8882     -90.8783     -33.6251     256.4758 1533239982 9999999.9999
     584.0     645.6611       0.0000     -56.6334    -999.2500     -86.4788     -38.0378     -84.1704     -40.9301     262.5776 1533239983 9999999.9999
     585.0     646.8491       0.0000     -52.5610    -999.2500     -78.6463     -45.0268     -76.3379     -48.0709     268.6794 1533239984 9999999.9999
     586.0     655.9001       0.0000     -48.3933    -999.2500     -69.3277     -51.6543     -67.0192     -54.8424     274.7813 1533239985 9999999.9999
     587.0     669.6429       0.0000     -39.5928    -999.2500     -53.8635     -67.7210     -51.5551     -71.2582     280.8831 1533239986 9999999.9999
     588.0     691.3717       0.0000     -35.4438    -999.2500     -47.0352     -77.6020     -44.7268     -81.3539     286.9849 1533239987 9999999.9999
     589.0     718.2073       0.0000     -31.3997    -999.2500     -39.9257     -85.7157     -37.6173     -89.6438     293.4916 1533239988 9999999.9999
     590.0     759.3143       0.0000     -27.0494    -999.2500     -32.8162     -92.1022     -30.5078     -96.1691     299.5995 1533239989 9999999.9999
     591.0     799.9147       0.0000     -21.7436    -999.2500     -25.3452     -96.9623     -23.0368    -101.1348     305.6983 1533239990 9999999.9999
     592.0     848.1604       0.0000     -15.7501    -999.2500     -18.1955     -99.6937     -15.8871    -103.9255     311.7878 1533239991 9999999.9999
     593.0     903.7596       0.0000      -8.1666      77.5808     -10.2827    -100.5773      -7.9743    -104.8284     317.8896 1533239992 9999999.9999
     594.0     964.5062       0.0000       0.6835      75.4335      -1.6468    -100.3363       0.6616    -104.5821     323.9914 1533239993 9999999.9999
     595.0    1037.0575       0.0000      10.1274      80.2718       7.6718     -99.7740       9.9802    -104.0076     330.0932 1533239994 9999999.9999
     596.0    1110.7820       0.0000      17.0784     100.1574      15.1830     -97.7657      17.4914    -101.9556     336.1950 1533239995 9999999.9999
     597.0    1197.8279       0.0000      22.9210    -999.2500      22.4532     -93.7892      24.7616     -97.8927     342.2968 1533239996 9999999.9999
     598.0    1290.1376       0.0000      27.8537    -999.2500      29.5627     -88.3265      31.8711     -92.3114     348.3986 1533239997 9999999.9999
     599.0    1409.0682       0.0000      32.0721    -999.2500      36.3508     -81.6588      38.6592     -85.4988     354.5004 1533239998 9999999.9999
     600.0    1538.5668       0.0000      36.1483    -999.2500      43.1390     -73.6255      45.4474     -77.2910       0.6022 1533239999 9999999.9999
     601.0    1666.1730       0.0000      40.6857    -999.2500      49.7263     -63.0617      52.0347     -66.4976       7.0997 1533240000 9999999.9999
     602.0    1798.2737       0.0000      50.5581    -999.2500      70.6130     -48.7222      72.9214     -51.8465      13.2046 1533240001 9999999.9999
     603.0    1964.0363       0.0000      54.4135    -999.2500      79.6505     -42.1348      81.9589     -45.1161      19.2916 1533240002 9999999.9999
     604.0    2105.1646       0.0000      58.2066    -999.2500      87.0412     -35.4672      89.3496     -38.3036      25.3934 1533240003 9999999.9999
     605.0    2218.0601       0.0000      62.5565    -999.2500      93.2670     -28.4380      95.5754     -31.1217      31.4953 1533240004 9999999.9999
     606.0    2268.1450       0.0000      67.3847    -999.2500      97.6050     -21.6900      99.9134     -24.2270      37.5971 1533240005 9999999.9999
     607.0    2320.5444       0.0000      74.2175    -999.2500     100.1757     -13.6567     102.4841     -16.0192      43.7120 1533240006 9999999.9999
     608.0    2359.4797       0.0000      82.2166      79.2970     100.8987      -5.4627     103.2071      -7.6471      49.8138 1533240007 9999999.9999
     609.0    2375.4224       0.0000      91.1256      76.4370     101.3003       3.0928     103.6087       1.0943      55.9156 1533240008 9999999.9999
     610.0    2399.7441       0.0000      99.5545      80.6070     101.0593      11.2467     103.3677       9.4252      62.0174 1533240009 9999999.9999
     611.0    2407.9622       0.0000     106.7826      83.3375      98.6493      18.8783     100.9577      17.2227      68.1192 1533240010 9999999.9999
     612.0    2407.9622       0.0000     113.0485    -999.2500      93.9498      26.5100      96.2582      25.0202      74.2210 1533240011 9999999.9999
     613.0    2424.5691       0.0000     118.2696    -999.2500      88.0855      33.8605      90.3939      32.5304      80.7308 1533240012 9999999.9999
     614.0    2416.2371       0.0000     122.9363    -999.2500      80.9358      41.2110      83.2442      40.0406      86.8326 1533240013 9999999.9999
     615.0    2416.2371       0.0000     127.3339    -999.2500      72.4607      48.4008      74.7691      47.3867      92.9344 1533240014 9999999.9999
     616.0    2407.9622       0.0000     131.8091    -999.2500      61.8165      54.4660      64.1249      53.5836      99.0238 1533240015 9999999.9999
     617.0    2407.9622       0.0000     139.8805    -999.2500      50.6903      71.8983      52.9987      71.3947     105.1256 1533240016 9999999.9999
     618.0    2375.4224       0.0000     143.7173    -999.2500      44.1030      80.9358      46.4114      80.6286     111.2273 1533240017 9999999.9999
     619.0    2359.4797       0.0000     147.8221    -999.2500      36.6722      88.9290      38.9806      88.7954     117.3291 1533240018 9999999.9999
     620.0    2335.9634       0.0000     152.3442    -999.2500      29.1208      95.6770      31.4292      95.6900     123.4309 1533240019 9999999.9999
     621.0    2290.3093       0.0000     158.1812    -999.2500      20.8063     101.1798      23.1147     101.3124     129.5327 1533240020 9999999.9999
     622.0    2246.4058       0.0000     164.7078      83.2962      13.0140     104.6743      15.3224     104.8828     135.6346 1533240021 9999999.9999
     623.0    2156.8252       0.0000     172.6897      75.8779       4.7798     105.6383       7.0882     105.8678     141.7365 1533240022 9999999.9999
     624.0    2038.0435       0.0000    -178.8490      73.8849      -3.4142     105.9195      -1.1058     106.1551     147.8415 1533240023 9999999.9999
     625.0    1885.0536       0.0000    -170.5712      77.9566     -11.5278     105.0358      -9.2194     105.2522     154.3453 1533240024 9999999.9999
     626.0    1749.0671       0.0000    -163.0974      93.2085     -19.6415     101.2200     -17.3331     101.3534     160.4511 1533240025 9999999.9999
     627.0    1616.3793       0.0000    -156.5854    -999.2500     -27.8355      95.6368     -25.5271      95.6490     166.5530 1533240026 9999999.9999
     628.0    1489.6716       0.0000    -151.1617    -999.2500     -35.7082      88.8085     -33.3998      88.6723     172.6549 1533240027 9999999.9999
     629.0    1365.2913       0.0000    -146.3593    -999.2500     -43.3800      81.1768     -41.0716      80.8748     178.7568 1533240028 9999999.9999
     630.0    1260.0807       0.0000    -141.9559    -999.2500     -50.4493      72.6213     -48.1409      72.1334     184.8587 1533240029 9999999.9999
     631.0    1166.0448       0.0000    -134.5764    -999.2500     -60.8525      58.0007     -58.5441      57.1951     190.9606 1533240030 9999999.9999
     632.0    1083.3976       0.0000    -128.8059    -999.2500     -73.9870      50.7305     -71.6786      49.7670     197.0625 1533240031 9999999.9999
     633.0    1021.9840       0.0000    -124.5405    -999.2500     -82.5023      43.8218     -80.1939      42.7082     203.1644 1533240032 9999999.9999
     634.0     954.0366       0.0000    -119.9772    -999.2500     -90.1340      36.4713     -87.8256      35.1980     209.2663 1533240033 9999999.9999
     635.0     900.2881       0.0000    -114.7178    -999.2500     -96.7615      28.7593     -94.4531      27.3184     215.3813 1533240034 9999999.9999
