~VERSION INFORMATION
VERS.           2.0   :CWLS Log ASCII Standard - VERSION 2.0
WRAP.           NO    :One Line per depth step
PROD.  Schlumberger   :LAS Producer
PROG.  DLIS to ASCII 19C2-270                          :LAS Program name and version
CREA.        2018/08/03 10:59                          :LAS Creation date {YYYY/MM/DD hh:mm}
DLIS_CREA.  2018-Aug-03 09:18                          :DLIS Creation date and time {YYYY-MMM-DD hh:mm}
SOURCE.     PERFO_Perfo_074PTP.DLIS                    :DLIS File Name
FILE-ID.     PERFO_Perfo_074PTP                        :File Identification Number
#--------------------------------------------------
~WELL INFORMATION
#MNEM.UNIT      DATA             DESCRIPTION
#---- ------ --------------   -----------------------------
STRT .S            0.0       :START TIME      
STOP .S          866.0       :STOP TIME      
STEP .S            1.0       :STEP     
NULL .          -999.25      :NULL VALUE
COMP .        SHELL INTERNATIONAL EP                   :COMPANY
WELL .        WPP TEST 4                               :WELL
FLD  .        WILDCAT                                  :FIELD
LOC  .        NA                                       :LOCATION
CNTY .        HARRIS                                   :COUNTY
STAT .        TEXAS                                    :STATE
CTRY .                                                 :COUNTRY
API  .        NA                                       :API NUMBER
UWI  .                                                 :UNIQUE WELL ID
DATE .        02-Aug-2018                              :LOG DATE {DD-MMM-YYYY}
SRVC .        Schlumberger                             :SERVICE COMPANY
LATI .DEG                                              :LATITUDE
LONG .DEG                                              :LONGITUDE
GDAT .                                                 :GeoDetic Datum
SECT .        NA                                       :Section
RANG .        NA                                       :Range
TOWN .        NA                                       :Township
#-----------------------------------------------------------------------------
~PARAMETER INFORMATION
#MNEM.UNIT    VALUE                      DESCRIPTION
#---- -----   --------------------       ------------------------
U-PHASE_B_COMP_PER_YT.                 0 :Phase B Comparator Period Yt
U-PHASE_A_COMP_PER_XT.                 0 :Phase A Comparator Period Xt
U-MAX_EXC_CUR_LIMIT.MA       265.00000   :Requested CM Current Limit
U-REQ_EXC_FQ.HZ              50          :Requested CM Frequency
U-TILT_Y_OFFSET.          -2.06578       :WPTET Tilt Y Offset
U-TILT_Y_GAIN.           1.02173         :WPTET Tilt Y Gain
U-TILT_X_OFFSET.           2.30841       :WPTET Tilt X Offset
U-TILT_X_GAIN.           1.00000         :WPTET Tilt X Gain
U-TILT_OFFSET_TOL.           0.00100     :WPTET Tilt Offset Calibration Tolerance
U-MOT_CUR_LIMIT_REQ.MA        70.00000   :Requested Motor Current Limit
U-MOT_SPD_REQ_WPMS.RPM        1.00000    :Requested Motor Speed
U-STD_TOL_TILT.           0.01000        :Tilt Standard Deviation Tolerance
CWEI .LB/F      29.00000                 :Casing Weight
CSIZ .IN         7.00000                 :Current Casing Size
LCC  .               440                 :Logging Company Code
LUN  .              2134                 :Logging Unit Number
HIDE .                                   :Header Identifier
HID1 .                                   :Header Identifier Line 1
R1   .                                   :Remark Line 1
WITN .        MR. KELLY McCOY            :Witness's Name
ENGI .        MORRIS MOORE               :Engineer's Name
LUL  .        IOWA COLONY                :Logging Unit Location
DATE .        02-Aug-2018                :Date as Month-Day-Year
STAT .        TEXAS                      :State or Province
COUN .        HARRIS                     :County or Rig Name
FN   .        WILDCAT                    :Field Name
WN   .        WPP TEST 4                 :Well Name
CN   .        SHELL INTERNATIONAL EP     :Company Name
CLAB .        County                     :County/Rig Label
SLAB .        State                      :State/Province Label
RUN  .          1                        :RUN NUMBER
PDAT .        GROUND LEVEL               :Permanent Datum
EPD  .                                   :Elevation of Permanent Datum above Mean Sea Level
LMF  .          NA                       :Logging Measured From (Name of Logging Elevation Reference)
APD  .                                   :Elevation of Depth Reference (LMF) above Permanent Datum
#-----------------------------------------------------------------------------
~CURVE INFORMATION
#MNEM.UNIT   API CODE                                  DESCRIPTION
#---- -----  --------                                  -----------------------
TIME .S                                                :TIME {F10.1}
FREQ_EMF_SL.HZ                                         :Electromagnetic Field Frequency {F13.4}
PH_SH_WPPCM_SL.DEG                                     :WPPCM Phase Shift {F13.4}
RB_SL.DEG                                              :Relative Bearing {F13.4}
SDEV_SL.DEG                                            :Sonde Deviation {F13.4}
RTIX_SL.DEG                                            :Raw X-axis Tilt {F13.4}
RTIY_SL.DEG                                            :Raw Y-axis Tilt {F13.4}
TILX_SL.DEG                                            :X-axis Tilt {F13.4}
TILY_SL.DEG                                            :Y-axis Tilt {F13.4}
ROTA_SL.DEG                                            :Motor Rotation Angle {F13.4}
TOD7 .S                                                :Time of Day {I11}
TOJ  .S                                                :Time of Job {F13.4}
#-----------------------------------------------------------------------------
# 
#     TIME    FREQ_EMF_SL  PH_SH_WPPCM_    RB_SL       SDEV_SL      RTIX_SL      RTIY_SL      TILX_SL      TILY_SL      ROTA_SL        TOD7            TOJ
#                          SL
~A  
# ...
     212.0       0.0000       0.0000    -151.4767    -999.2500     -35.2262      89.3708     -32.9178      89.2468     140.3803 1533239611 9999999.9999
     213.0       0.0000       0.0000    -146.5997    -999.2500     -42.9783      81.5383     -40.6699      81.2442     146.4822 1533239612 9999999.9999
     214.0       0.0000       0.0000    -142.1897    -999.2500     -50.0878      73.1033     -47.7794      72.6259     152.9767 1533239613 9999999.9999
     215.0       0.0000       0.0000    -136.9489    -999.2500     -57.2375      61.8968     -54.9291      61.1759     159.1078 1533239614 9999999.9999
     216.0       0.0000       0.0000    -129.3994    -999.2500     -72.7418      51.6543     -70.4334      50.7109     165.2067 1533239615 9999999.9999
     217.0       0.0000       0.0000    -125.3269    -999.2500     -80.9760      45.1072     -78.6676      44.0214     171.3147 1533239616 9999999.9999
     218.0       0.0000       0.0000    -120.5900    -999.2500     -89.3307      37.4353     -87.0223      36.1829     177.4135 1533239617 9999999.9999
     219.0       0.0000       0.0000    -115.6990    -999.2500     -95.6368      30.1250     -93.3284      28.7138     183.5124 1533239618 9999999.9999
     220.0       0.0000       0.0000    -108.8514    -999.2500    -101.7020      21.2883     -99.3936      19.6851     189.6173 1533239619 9999999.9999
     221.0       0.0000       0.0000    -101.7991      85.6440    -104.8752      13.5362    -102.5667      11.7645     195.7192 1533239620 9999999.9999
     222.0       0.0000       0.0000     -93.6448      77.3784    -105.4375       5.5028    -103.1291       3.5566     201.8211 1533239621 9999999.9999
     223.0       0.0000       0.0000     -84.8633      77.8138    -105.5178      -2.8920    -103.2094      -5.0206     207.9230 1533239622 9999999.9999
     224.0       0.0000       0.0000     -76.5521      86.1036    -104.5137     -11.2065    -102.2053     -13.5158     214.0249 1533239623 9999999.9999
     225.0       0.0000       0.0000     -70.0818    -999.2500    -101.7422     -18.4767     -99.4338     -20.9439     220.1268 1533239624 9999999.9999
     226.0       0.0000       0.0000     -63.9949    -999.2500     -96.5607     -26.4698     -94.2523     -29.1107     226.6337 1533239625 9999999.9999
     227.0       0.0000       0.0000     -58.8752    -999.2500     -90.1340     -34.3023     -87.8256     -37.1134     232.7356 1533239626 9999999.9999
     228.0       0.0000       0.0000     -54.8995    -999.2500     -83.3458     -41.0102     -81.0374     -43.9670     238.8375 1533239627 9999999.9999
     229.0       0.0000       0.0000     -50.7768    -999.2500     -74.6698     -47.9590     -72.3614     -51.0668     244.9424 1533239628 9999999.9999
     230.0       0.0000       0.0000     -46.2379    -999.2500     -64.1863     -54.3857     -61.8779     -57.6331     251.0443 1533239629 9999999.9999
     231.0       0.0000       0.0000     -37.7804    -999.2500     -51.0518     -72.2598     -48.7434     -75.8956     257.1462 1533239630 9999999.9999
     232.0       0.0000       0.0000     -33.4846    -999.2500     -43.5808     -81.8597     -41.2724     -85.7040     263.2480 1533239631 9999999.9999
     233.0       0.0000       0.0000     -29.3501    -999.2500     -36.4713     -89.0093     -34.1629     -93.0090     269.3376 1533239632 9999999.9999
     234.0       0.0000       0.0000     -24.5410    -999.2500     -29.1208     -94.7933     -26.8124     -98.9187     275.4271 1533239633 9999999.9999
     235.0       0.0000       0.0000     -18.8331    -999.2500     -21.7302     -98.6493     -19.4218    -102.8585     281.5289 1533239634 9999999.9999
     236.0    1608.9817       0.0000     -12.1416      82.3198     -14.3395    -100.0953     -12.0311    -104.3359     287.5252 1533239635 9999999.9999
     237.0    2124.2446       0.0000      -3.8753      75.8037      -6.0652    -100.4568      -3.7568    -104.7053     293.6301 1533239636 9999999.9999
     238.0    2239.2517       0.0000       5.2666      76.4711       2.8117    -100.2560       5.1201    -104.5001     300.1214 1533239637 9999999.9999
     239.0    2305.3279       0.0000      13.2443      87.7356      10.9253     -99.2117      13.2337    -103.4330     306.2232 1533239638 9999999.9999
     240.0    2335.9634       0.0000      19.6743    -999.2500      18.2758     -96.3197      20.5842    -100.4782     312.3127 1533239639 9999999.9999
     241.0    2367.4243       0.0000      25.1745    -999.2500      25.5862     -91.4595      27.8946     -95.5124     318.4175 1533239640 9999999.9999
     242.0    2383.4746       0.0000      29.6925    -999.2500      32.4547     -85.4747      34.7631     -89.3976     324.5193 1533239641 9999999.9999
     243.0    2399.7441       0.0000      33.8477    -999.2500      39.3232     -78.3652      41.6316     -82.1336     330.6212 1533239642 9999999.9999
     244.0    2407.9622       0.0000      38.3411    -999.2500      46.5933     -68.7653      48.9017     -72.3252     336.7106 1533239643 9999999.9999
     245.0    2416.2371       0.0000      46.5914    -999.2500      56.5547     -50.8912      58.8631     -54.0627     342.8254 1533239644 9999999.9999
     246.0    2416.2371       0.0000      52.5670    -999.2500      75.3527     -45.3482      77.6611     -48.3992     348.9149 1533239645 9999999.9999
     247.0    2416.2371       0.0000      56.2953    -999.2500      83.6270     -38.8010      85.9354     -41.7098     355.0167 1533239646 9999999.9999
     248.0    2391.5815       0.0000      60.3514    -999.2500      90.3750     -31.8923      92.6834     -34.6510       1.1185 1533239647 9999999.9999
     249.0    2391.5815       0.0000      64.9038    -999.2500      95.6770     -25.0238      97.9854     -27.6333       7.2203 1533239648 9999999.9999
     250.0    2375.4224       0.0000      70.4811    -999.2500      99.1715     -17.8742     101.4799     -20.3283      13.7178 1533239649 9999999.9999
     251.0    2351.5886       0.0000      77.3720      87.2183     100.6175     -10.3228     102.9259     -12.6129      19.8196 1533239650 9999999.9999
     252.0    2328.2285       0.0000      85.8626      77.2776     101.0593      -1.9280     103.3677      -4.0357      25.9214 1533239651 9999999.9999
     253.0    2282.8735       0.0000      94.9091      77.2488     101.3405       6.7078     103.6489       4.7878      32.0202 1533239652 9999999.9999
     254.0    2239.2517       0.0000     102.5881      88.7947     100.3363      14.3395     102.6447      12.5853      38.1343 1533239653 9999999.9999
     255.0    2156.8252       0.0000     109.5723    -999.2500      96.8820      22.1318      99.1904      20.5469      44.2269 1533239654 9999999.9999
     256.0    2026.2969       0.0000     115.6480    -999.2500      91.3390      30.0447      93.6474      28.6317      50.3287 1533239655 9999999.9999
     257.0    1890.1210       0.0000     120.6128    -999.2500      84.7918      37.4755      87.1002      36.2240      56.4436 1533239656 9999999.9999
     258.0    1762.2180       0.0000     124.9848    -999.2500      77.2405      44.5850      79.5489      43.4879      62.5454 1533239657 9999999.9999
     259.0    1638.9860       0.0000     129.3102    -999.2500      68.1628      51.4535      70.4712      50.5057      68.6226 1533239658 9999999.9999
     260.0    1518.6285       0.0000     137.2425    -999.2500      54.5865      65.5922      56.8949      64.9515      74.7244 1533239659 9999999.9999
     261.0    1378.6765       0.0000     142.1112    -999.2500      46.9147      77.0798      49.2231      76.6888      80.8394 1533239660 9999999.9999
     262.0    1264.6134       0.0000     145.5580    -999.2500      40.7290      84.5910      43.0374      84.3631      87.3754 1533239661 9999999.9999
     263.0    1171.8750       0.0000     149.7542    -999.2500      33.3383      91.9013      35.6467      91.8323      93.4903 1533239662 9999999.9999
     264.0    1083.3976       0.0000     154.6897    -999.2500      25.5862      98.3280      27.8946      98.3986      99.5921 1533239663 9999999.9999
