~VERSION INFORMATION
VERS.           2.0   :CWLS Log ASCII Standard - VERSION 2.0
WRAP.           NO    :One Line per depth step
PROD.  Schlumberger   :LAS Producer
PROG.  DLIS to ASCII 19C2-270                          :LAS Program name and version
CREA.        2018/08/03 10:59                          :LAS Creation date {YYYY/MM/DD hh:mm}
DLIS_CREA.  2018-Aug-03 09:22                          :DLIS Creation date and time {YYYY-MMM-DD hh:mm}
SOURCE.     PERFO_Perfo_075PTP.DLIS                    :DLIS File Name
FILE-ID.     PERFO_Perfo_075PTP                        :File Identification Number
#--------------------------------------------------
~WELL INFORMATION
#MNEM.UNIT      DATA             DESCRIPTION
#---- ------ --------------   -----------------------------
STRT .S            0.0       :START TIME      
STOP .S          907.0       :STOP TIME      
STEP .S            1.0       :STEP     
NULL .          -999.25      :NULL VALUE
COMP .        SHELL INTERNATIONAL EP                   :COMPANY
WELL .        WPP TEST 4                               :WELL
FLD  .        WILDCAT                                  :FIELD
LOC  .        NA                                       :LOCATION
CNTY .        HARRIS                                   :COUNTY
STAT .        TEXAS                                    :STATE
CTRY .                                                 :COUNTRY
API  .        NA                                       :API NUMBER
UWI  .                                                 :UNIQUE WELL ID
DATE .        02-Aug-2018                              :LOG DATE {DD-MMM-YYYY}
SRVC .        Schlumberger                             :SERVICE COMPANY
LATI .DEG                                              :LATITUDE
LONG .DEG                                              :LONGITUDE
GDAT .                                                 :GeoDetic Datum
SECT .        NA                                       :Section
RANG .        NA                                       :Range
TOWN .        NA                                       :Township
#-----------------------------------------------------------------------------
~PARAMETER INFORMATION
#MNEM.UNIT    VALUE                      DESCRIPTION
#---- -----   --------------------       ------------------------
U-PHASE_B_COMP_PER_YT.                 0 :Phase B Comparator Period Yt
U-PHASE_A_COMP_PER_XT.                 0 :Phase A Comparator Period Xt
U-MAX_EXC_CUR_LIMIT.MA       265.00000   :Requested CM Current Limit
U-REQ_EXC_FQ.HZ              50          :Requested CM Frequency
U-TILT_Y_OFFSET.          -2.06578       :WPTET Tilt Y Offset
U-TILT_Y_GAIN.           1.02173         :WPTET Tilt Y Gain
U-TILT_X_OFFSET.           2.30841       :WPTET Tilt X Offset
U-TILT_X_GAIN.           1.00000         :WPTET Tilt X Gain
U-TILT_OFFSET_TOL.           0.00100     :WPTET Tilt Offset Calibration Tolerance
U-MOT_CUR_LIMIT_REQ.MA        70.00000   :Requested Motor Current Limit
U-MOT_SPD_REQ_WPMS.RPM        1.00000    :Requested Motor Speed
U-STD_TOL_TILT.           0.01000        :Tilt Standard Deviation Tolerance
CWEI .LB/F      29.00000                 :Casing Weight
CSIZ .IN         7.00000                 :Current Casing Size
LCC  .               440                 :Logging Company Code
LUN  .              2134                 :Logging Unit Number
HIDE .                                   :Header Identifier
HID1 .                                   :Header Identifier Line 1
R1   .                                   :Remark Line 1
WITN .        MR. KELLY McCOY            :Witness's Name
ENGI .        MORRIS MOORE               :Engineer's Name
LUL  .        IOWA COLONY                :Logging Unit Location
DATE .        02-Aug-2018                :Date as Month-Day-Year
STAT .        TEXAS                      :State or Province
COUN .        HARRIS                     :County or Rig Name
FN   .        WILDCAT                    :Field Name
WN   .        WPP TEST 4                 :Well Name
CN   .        SHELL INTERNATIONAL EP     :Company Name
CLAB .        County                     :County/Rig Label
SLAB .        State                      :State/Province Label
RUN  .          1                        :RUN NUMBER
PDAT .        GROUND LEVEL               :Permanent Datum
EPD  .                                   :Elevation of Permanent Datum above Mean Sea Level
LMF  .          NA                       :Logging Measured From (Name of Logging Elevation Reference)
APD  .                                   :Elevation of Depth Reference (LMF) above Permanent Datum
#-----------------------------------------------------------------------------
~CURVE INFORMATION
#MNEM.UNIT   API CODE                                  DESCRIPTION
#---- -----  --------                                  -----------------------
TIME .S                                                :TIME {F10.1}
FREQ_EMF_SL.HZ                                         :Electromagnetic Field Frequency {F13.4}
PH_SH_WPPCM_SL.DEG                                     :WPPCM Phase Shift {F13.4}
RB_SL.DEG                                              :Relative Bearing {F13.4}
SDEV_SL.DEG                                            :Sonde Deviation {F13.4}
RTIX_SL.DEG                                            :Raw X-axis Tilt {F13.4}
RTIY_SL.DEG                                            :Raw Y-axis Tilt {F13.4}
TILX_SL.DEG                                            :X-axis Tilt {F13.4}
TILY_SL.DEG                                            :Y-axis Tilt {F13.4}
ROTA_SL.DEG                                            :Motor Rotation Angle {F13.4}
TOD7 .S                                                :Time of Day {I11}
TOJ  .S                                                :Time of Job {F13.4}
#-----------------------------------------------------------------------------
# 
#     TIME    FREQ_EMF_SL  PH_SH_WPPCM_    RB_SL       SDEV_SL      RTIX_SL      RTIY_SL      TILX_SL      TILY_SL      ROTA_SL        TOD7            TOJ
#                          SL
~A  
# ...
     318.0    2467.1052       0.0000      51.0313    -999.2500      71.7778     -47.9590      74.0862     -51.0668      62.6504 1533240655 9999999.9999
     319.0    2467.1052       0.0000      54.8525    -999.2500      80.7350     -41.3717      83.0434     -44.3363      68.7398 1533240656 9999999.9999
     320.0    2467.1052       0.0000      59.0352    -999.2500      88.5273     -34.0613      90.8357     -36.8672      74.8416 1533240657 9999999.9999
     321.0    2467.1052       0.0000      63.4436    -999.2500      94.3113     -27.1125      96.6197     -29.7674      80.9434 1533240658 9999999.9999
     322.0    2484.5405       0.0000      68.5580    -999.2500      98.2878     -20.2038     100.5962     -22.7086      87.0452 1533240659 9999999.9999
     323.0    2467.1052       0.0000      75.1104    -999.2500     100.3765     -12.6927     102.6849     -15.0342      93.1600 1533240660 9999999.9999
     324.0    2467.1052       0.0000      83.4903      78.3452     101.0192      -4.2175     103.3276      -6.3749      99.2618 1533240661 9999999.9999
     325.0    2467.1052       0.0000      92.3496      76.4695     101.4208       4.2577     103.7292       2.2844     105.3767 1533240662 9999999.9999
     326.0    2484.5405       0.0000     100.6697      82.3783     100.7782      12.3713     103.0866      10.5743     111.8865 1533240663 9999999.9999
     327.0    2484.5405       0.0000     107.6260      85.7357      98.1272      19.8423     100.4356      18.2077     117.9883 1533240664 9999999.9999
     328.0    2467.1052       0.0000     113.5128    -999.2500      93.7490      27.1125      96.0574      25.6358     124.0786 1533240665 9999999.9999
     329.0    2407.9622       0.0000     118.9324    -999.2500      87.3625      34.8647      89.6709      33.5564     130.1682 1533240666 9999999.9999
     330.0    2351.5886       0.0000     123.5689    -999.2500      79.8915      42.2553      82.1999      41.1076     136.2701 1533240667 9999999.9999
     331.0    2176.8577       0.0000     127.8595    -999.2500      71.3762      49.2443      73.6846      48.2485     142.3597 1533240668 9999999.9999
     332.0    1840.6414       0.0000     133.8398    -999.2500      57.7195      57.1170      60.0279      56.2922     148.4616 1533240669 9999999.9999
     333.0    1518.6285       0.0000     140.6693    -999.2500      49.4050      73.7862      51.7134      73.3235     154.5635 1533240670 9999999.9999
     334.0    1326.6509       0.0000     144.3376    -999.2500      42.9783      82.3015      45.2867      82.0239     160.6654 1533240671 9999999.9999
     335.0    1167.9817       0.0000     148.3713    -999.2500      35.7082      89.8528      38.0166      89.7393     166.7673 1533240672 9999999.9999
     336.0    1019.0217       0.0000     153.0656    -999.2500      27.9962      96.6812      30.3046      96.7160     172.8823 1533240673 9999999.9999
     337.0     903.7596       0.0000     158.6968    -999.2500      20.1235     101.7422      22.4319     101.8870     178.9842 1533240674 9999999.9999
     338.0     802.6541       0.0000     165.4067      86.1258      12.2508     104.8752      14.5592     105.0880     185.4942 1533240675 9999999.9999
     339.0     713.1085       0.0000     173.5045      75.4012       3.9765     105.7187       6.2849     105.9499     191.5961 1533240676 9999999.9999
     340.0     643.2982       0.0000    -177.9297      73.9333      -4.2978     105.9597      -1.9894     106.1961     197.6980 1533240677 9999999.9999
     341.0     581.0950       0.0000    -169.8103      79.6679     -12.3312     104.2727     -10.0228     104.4724     203.8005 1533240678 9999999.9999
     342.0     521.6061       0.0000    -162.3123     103.1004     -20.5653     100.6577     -18.2569     100.7789     209.9024 1533240679 9999999.9999
     343.0     475.7274       0.0000    -155.9420    -999.2500     -28.7192      94.9138     -26.4108      94.9103     216.0043 1533240680 9999999.9999
     344.0     434.5643       0.0000    -150.2804    -999.2500     -37.0738      87.4830     -34.7654      87.3180     222.1062 1533240681 9999999.9999
     345.0     408.3188       0.0000    -145.5400    -999.2500     -44.7055      79.6103     -42.3971      79.2743     228.2081 1533240682 9999999.9999
     346.0     387.3967       0.0000    -141.0367    -999.2500     -51.8552      70.7335     -49.5468      70.2046     234.3100 1533240683 9999999.9999
     347.0     375.2001       0.0000    -132.9479    -999.2500     -65.2708      56.8358     -62.9624      56.0049     240.4119 1533240684 9999999.9999
     348.0     375.4005       0.0000    -128.3286    -999.2500     -74.9510      49.9673     -72.6426      48.9872     246.5138 1533240685 9999999.9999
     349.0     377.8211       0.0000    -124.1644    -999.2500     -83.3057      43.2193     -80.9973      42.0926     252.6157 1533240686 9999999.9999
     350.0     391.4950       0.0000    -119.5365    -999.2500     -90.7767      35.7885     -88.4683      34.5003     259.1256 1533240687 9999999.9999
     351.0     412.8743       0.0000    -114.2758    -999.2500     -97.2033      28.1568     -94.8949      26.7028     265.2274 1533240688 9999999.9999
     352.0     443.0529       0.0000    -107.7234    -999.2500    -102.5455      19.9628    -100.2371      18.3308     271.3292 1533240689 9999999.9999
     353.0     482.5841       0.0000    -100.3812      82.3201    -105.1965      12.0902    -102.8881      10.2871     277.4310 1533240690 9999999.9999
     354.0     534.2896       0.0000     -91.7985      76.7898    -105.6383       3.7355    -103.3299       1.7509     283.5328 1533240691 9999999.9999
     355.0     593.8556       0.0000     -83.0826      78.8137    -105.4375      -4.6192    -103.1291      -6.7853     289.6346 1533240692 9999999.9999
     356.0     669.0057       0.0000     -74.6344      92.1129    -104.0317     -13.2550    -101.7233     -15.6088     295.7364 1533240693 9999999.9999
     357.0     748.8019       0.0000     -68.1037    -999.2500    -100.4167     -20.9268     -98.1083     -23.4473     301.8413 1533240694 9999999.9999
     358.0     845.1021       0.0000     -62.4222    -999.2500     -94.9138     -28.7593     -92.6054     -31.4500     307.9400 1533240695 9999999.9999
     359.0     950.1689       0.0000     -57.7335    -999.2500     -88.4068     -36.1902     -86.0984     -39.0423     314.0418 1533240696 9999999.9999
     360.0    1085.0695       0.0000     -53.6350    -999.2500     -80.8153     -43.1792     -78.5069     -46.1831     320.1436 1533240697 9999999.9999
     361.0    1237.8961       0.0000     -49.5205    -999.2500     -71.8983     -49.9673     -69.5899     -53.1188     326.2454 1533240698 9999999.9999
     362.0    1389.5751       0.0000     -43.7310    -999.2500     -57.2777     -55.5907     -54.9693     -58.8643     332.7552 1533240699 9999999.9999
     363.0    1710.7665       0.0000     -36.5494    -999.2500     -49.0033     -75.3125     -46.6949     -79.0146     338.8447 1533240700 9999999.9999
     364.0    2074.1150       0.0000     -32.4602    -999.2500     -41.7733     -83.8680     -39.4649     -87.7560     344.9597 1533240701 9999999.9999
     365.0    2268.1450       0.0000     -28.2608    -999.2500     -34.7040     -90.6562     -32.3956     -94.6917     351.0615 1533240702 9999999.9999
     366.0    2359.4797       0.0000     -23.2707    -999.2500     -27.3535     -95.9983     -25.0451    -100.1499     357.1633 1533240703 9999999.9999
     367.0    2441.4063       0.0000     -17.3564    -999.2500     -20.0030     -99.2518     -17.6946    -103.4741       3.2651 1533240704 9999999.9999
     368.0    2484.5405       0.0000      -9.5646      78.7778     -11.6885    -100.4568      -9.3801    -104.7053       9.3669 1533240705 9999999.9999
     369.0    2467.1052       0.0000      -0.9353      75.3650      -3.2133    -100.4167      -0.9049    -104.6642      15.4687 1533240706 9999999.9999
     370.0    2467.1052       0.0000       8.0226      78.1794       5.5430    -100.0150       7.8514    -104.2538      21.5705 1533240707 9999999.9999
