~VERSION INFORMATION
VERS.           2.0   :CWLS Log ASCII Standard - VERSION 2.0
WRAP.           NO    :One Line per depth step
PROD.  Schlumberger   :LAS Producer
PROG.  DLIS to ASCII 19C2-270                          :LAS Program name and version
CREA.        2018/08/03 10:59                          :LAS Creation date {YYYY/MM/DD hh:mm}
DLIS_CREA.  2018-Aug-03 09:13                          :DLIS Creation date and time {YYYY-MMM-DD hh:mm}
SOURCE.     PERFO_Perfo_073PTP.DLIS                    :DLIS File Name
FILE-ID.     PERFO_Perfo_073PTP                        :File Identification Number
#--------------------------------------------------
~WELL INFORMATION
#MNEM.UNIT      DATA             DESCRIPTION
#---- ------ --------------   -----------------------------
STRT .S            0.0       :START TIME      
STOP .S         1015.0       :STOP TIME      
STEP .S            1.0       :STEP     
NULL .          -999.25      :NULL VALUE
COMP .        SHELL INTERNATIONAL EP                   :COMPANY
WELL .        WPP TEST 4                               :WELL
FLD  .        WILDCAT                                  :FIELD
LOC  .        NA                                       :LOCATION
CNTY .        HARRIS                                   :COUNTY
STAT .        TEXAS                                    :STATE
CTRY .                                                 :COUNTRY
API  .        NA                                       :API NUMBER
UWI  .                                                 :UNIQUE WELL ID
DATE .        02-Aug-2018                              :LOG DATE {DD-MMM-YYYY}
SRVC .        Schlumberger                             :SERVICE COMPANY
LATI .DEG                                              :LATITUDE
LONG .DEG                                              :LONGITUDE
GDAT .                                                 :GeoDetic Datum
SECT .        NA                                       :Section
RANG .        NA                                       :Range
TOWN .        NA                                       :Township
#-----------------------------------------------------------------------------
~PARAMETER INFORMATION
#MNEM.UNIT    VALUE                      DESCRIPTION
#---- -----   --------------------       ------------------------
U-PHASE_B_COMP_PER_YT.                 0 :Phase B Comparator Period Yt
U-PHASE_A_COMP_PER_XT.                 0 :Phase A Comparator Period Xt
U-MAX_EXC_CUR_LIMIT.MA       265.00000   :Requested CM Current Limit
U-REQ_EXC_FQ.HZ              50          :Requested CM Frequency
U-TILT_Y_OFFSET.          -2.06578       :WPTET Tilt Y Offset
U-TILT_Y_GAIN.           1.02173         :WPTET Tilt Y Gain
U-TILT_X_OFFSET.           2.30841       :WPTET Tilt X Offset
U-TILT_X_GAIN.           1.00000         :WPTET Tilt X Gain
U-TILT_OFFSET_TOL.           0.00100     :WPTET Tilt Offset Calibration Tolerance
U-MOT_CUR_LIMIT_REQ.MA        70.00000   :Requested Motor Current Limit
U-MOT_SPD_REQ_WPMS.RPM        1.00000    :Requested Motor Speed
U-STD_TOL_TILT.           0.01000        :Tilt Standard Deviation Tolerance
CWEI .LB/F      29.00000                 :Casing Weight
CSIZ .IN         7.00000                 :Current Casing Size
LCC  .               440                 :Logging Company Code
LUN  .              2134                 :Logging Unit Number
HIDE .                                   :Header Identifier
HID1 .                                   :Header Identifier Line 1
R1   .                                   :Remark Line 1
WITN .        MR. KELLY McCOY            :Witness's Name
ENGI .        MORRIS MOORE               :Engineer's Name
LUL  .        IOWA COLONY                :Logging Unit Location
DATE .        02-Aug-2018                :Date as Month-Day-Year
STAT .        TEXAS                      :State or Province
COUN .        HARRIS                     :County or Rig Name
FN   .        WILDCAT                    :Field Name
WN   .        WPP TEST 4                 :Well Name
CN   .        SHELL INTERNATIONAL EP     :Company Name
CLAB .        County                     :County/Rig Label
SLAB .        State                      :State/Province Label
RUN  .          1                        :RUN NUMBER
PDAT .        GROUND LEVEL               :Permanent Datum
EPD  .                                   :Elevation of Permanent Datum above Mean Sea Level
LMF  .          NA                       :Logging Measured From (Name of Logging Elevation Reference)
APD  .                                   :Elevation of Depth Reference (LMF) above Permanent Datum
#-----------------------------------------------------------------------------
~CURVE INFORMATION
#MNEM.UNIT   API CODE                                  DESCRIPTION
#---- -----  --------                                  -----------------------
TIME .S                                                :TIME {F10.1}
FREQ_EMF_SL.HZ                                         :Electromagnetic Field Frequency {F13.4}
PH_SH_WPPCM_SL.DEG                                     :WPPCM Phase Shift {F13.4}
RB_SL.DEG                                              :Relative Bearing {F13.4}
SDEV_SL.DEG                                            :Sonde Deviation {F13.4}
RTIX_SL.DEG                                            :Raw X-axis Tilt {F13.4}
RTIY_SL.DEG                                            :Raw Y-axis Tilt {F13.4}
TILX_SL.DEG                                            :X-axis Tilt {F13.4}
TILY_SL.DEG                                            :Y-axis Tilt {F13.4}
ROTA_SL.DEG                                            :Motor Rotation Angle {F13.4}
TOD7 .S                                                :Time of Day {I11}
TOJ  .S                                                :Time of Job {F13.4}
#-----------------------------------------------------------------------------
# 
#     TIME    FREQ_EMF_SL  PH_SH_WPPCM_    RB_SL       SDEV_SL      RTIX_SL      RTIY_SL      TILX_SL      TILY_SL      ROTA_SL        TOD7            TOJ
#                          SL
~A  
# ...
     848.0       0.0000       0.0000      39.0564    -999.2500      47.1557     -65.9938      49.4641     -69.4935     291.5629 1533238929 9999999.9999
     849.0       0.0000       0.0000      36.1970    -999.2500      43.0587     -72.8623      45.3671     -76.5112     297.6656 1533238930 9999999.9999
     850.0       0.0000       0.0000      40.9315    -999.2500      50.0878     -62.5797      52.3962     -66.0051     303.7674 1533238931 9999999.9999
     851.0       0.0000       0.0000      50.5739    -999.2500      70.6130     -48.6820      72.9214     -51.8055     309.8445 1533238932 9999999.9999
     852.0       0.0000       0.0000      54.4048    -999.2500      79.8112     -42.1750      82.1196     -45.1571     315.9462 1533238933 9999999.9999
     853.0       0.0000       0.0000      58.1831    -999.2500      87.0010     -35.5073      89.3094     -38.3446     322.0357 1533238934 9999999.9999
     854.0       0.0000       0.0000      62.7683    -999.2500      93.5482     -28.1167      95.8566     -30.7933     328.1375 1533238935 9999999.9999
     855.0       0.0000       0.0000      68.0200    -999.2500      97.8862     -20.8867     100.1946     -23.4063     334.2393 1533238936 9999999.9999
     856.0       0.0000       0.0000      74.2221    -999.2500     100.0953     -13.6567     102.4037     -16.0192     340.3411 1533238937 9999999.9999
     857.0       0.0000       0.0000      82.2179      79.3460     100.8585      -5.4627     103.1669      -7.6471     346.4429 1533238938 9999999.9999
     858.0       0.0000       0.0000      91.1678      76.4405     101.3003       3.1330     103.6087       1.1353     352.5578 1533238939 9999999.9999
     859.0       0.0000       0.0000      99.7131      80.8891     100.9790      11.4073     103.2874       9.5894     358.6726 1533238940 9999999.9999
     860.0       0.0000       0.0000     107.0295      83.5422      98.4887      19.1595     100.7971      17.5100       5.1956 1533238941 9999999.9999
     861.0       0.0000       0.0000     113.2287    -999.2500      93.7088      26.7510      96.0172      25.2664      11.2975 1533238942 9999999.9999
     862.0       0.0000       0.0000     118.4563    -999.2500      87.6838      34.1417      89.9922      32.8177      17.3993 1533238943 9999999.9999
     863.0       0.0000       0.0000     122.2759    -999.2500      81.9400      40.1265      84.2484      38.9326      23.4765 1533238944 9999999.9999
     864.0       0.0000       0.0000     126.8767    -999.2500      73.3042      47.6377      75.6126      46.6069      29.5783 1533238945 9999999.9999
     865.0       0.0000       0.0000     128.7578    -999.2500      69.2473      50.5698      71.5557      49.6028      35.6932 1533238946 9999999.9999
     866.0       0.0000       0.0000     136.9825    -999.2500      54.8877      64.9194      57.1962      64.2641      41.7951 1533238947 9999999.9999
     867.0       0.0000       0.0000     141.4584    -999.2500      48.0795      75.6740      50.3879      75.2524      47.8969 1533238948 9999999.9999
     868.0       0.0000       0.0000     145.3786    -999.2500      41.0503      84.1893      43.3587      83.9528      53.9863 1533238949 9999999.9999
     869.0       0.0000       0.0000     149.3978    -999.2500      33.9408      91.3792      36.2492      91.2988      60.1053 1533238950 9999999.9999
     870.0       0.0000       0.0000     154.1647    -999.2500      26.3493      97.8460      28.6577      97.9061      66.2071 1533238951 9999999.9999
     871.0       0.0000       0.0000     160.2455    -999.2500      18.1955     102.5857      20.5039     102.7488      72.3089 1533238952 9999999.9999
     872.0       0.0000       0.0000     166.9878      81.6605      10.5638     105.1965      12.8722     105.4163      78.8156 1533238953 9999999.9999
     873.0       0.0000       0.0000     175.1505      74.7439       2.3698     105.7588       4.6782     105.9909      84.9204 1533238954 9999999.9999
     874.0       0.0000       0.0000    -176.3054      74.2621      -5.8643     105.9195      -3.5559     106.1551      91.0191 1533238955 9999999.9999
     875.0       0.0000       0.0000    -168.3998      81.4252     -13.7772     104.1923     -11.4688     104.3904      97.1209 1533238956 9999999.9999
     876.0       0.0000       0.0000    -161.0740      86.5802     -22.0515      99.7740     -19.7431      99.8760     103.2227 1533238957 9999999.9999
     877.0       0.0000       0.0000    -154.9107    -999.2500     -30.1652      93.6687     -27.8568      93.6380     109.3245 1533238958 9999999.9999
     878.0       0.0000       0.0000    -149.4155    -999.2500     -38.4395      86.2479     -36.1311      86.0560     115.4393 1533238959 9999999.9999
     879.0       0.0000       0.0000    -144.7497    -999.2500     -45.9908      78.1242     -43.6824      77.7558     121.5288 1533238960 9999999.9999
     880.0       0.0000       0.0000    -140.1043    -999.2500     -53.2610      68.8457     -50.9526      68.2757     127.6182 1533238961 9999999.9999
     881.0       0.0000       0.0000    -132.1013    -999.2500     -66.8775      55.5505     -64.5691      54.6917     133.7086 1533238962 9999999.9999
     882.0       0.0000       0.0000    -127.6313    -999.2500     -76.4773      48.8828     -74.1689      47.8791     139.8136 1533238963 9999999.9999
     883.0    2232.1428       0.0000    -123.4358    -999.2500     -84.5508      42.0143     -82.2424      40.8614     145.8327 1533238964 9999999.9999
     884.0    1414.7384       0.0000    -118.8014    -999.2500     -91.8612      34.6638     -89.5527      33.3512     151.9346 1533238965 9999999.9999
     885.0    1400.6475       0.0000    -113.2587    -999.2500     -98.2878      26.7912     -95.9794      25.3075     158.4414 1533238966 9999999.9999
     886.0    1403.4431       0.0000    -106.5154    -999.2500    -103.0677      18.5972    -100.7593      16.9355     164.5433 1533238967 9999999.9999
     887.0    1403.4431       0.0000     -99.0939      80.7153    -105.2768      10.8048    -102.9684       8.9738     170.6584 1533238968 9999999.9999
     888.0    1411.8976       0.0000     -90.5760      76.7627    -105.5580       2.5707    -103.2496       0.5607     176.7603 1533238969 9999999.9999
     889.0    1414.7384       0.0000     -81.9772      79.7262    -105.3170      -5.7037    -103.0086      -7.8934     182.8622 1533238970 9999999.9999
     890.0    1411.8976       0.0000     -74.2358      92.4786    -103.7907     -13.6968    -101.4823     -16.0602     188.9671 1533238971 9999999.9999
     891.0    1420.4546       0.0000     -67.2602    -999.2500     -99.7740     -22.0113     -97.4656     -24.5554     195.0690 1533238972 9999999.9999
     892.0    1423.3300       0.0000     -61.8356    -999.2500     -94.1105     -29.6430     -91.8021     -32.3528     201.1709 1533238973 9999999.9999
     893.0    1429.1158       0.0000     -57.2032    -999.2500     -87.4428     -37.0738     -85.1344     -39.9451     207.2604 1533238974 9999999.9999
     894.0    1426.2170       0.0000     -53.1246    -999.2500     -79.8112     -44.0628     -77.5028     -47.0860     213.3623 1533238975 9999999.9999
     895.0    1440.8298       0.0000     -49.0605    -999.2500     -70.8942     -50.6903     -68.5858     -53.8575     219.4642 1533238976 9999999.9999
     896.0    1434.9490       0.0000     -40.0437    -999.2500     -53.4217     -64.3872     -51.1133     -67.8519     225.5661 1533238977 9999999.9999
     897.0    1443.7886       0.0000     -35.9893    -999.2500     -47.9992     -76.4372     -45.6908     -80.1637     232.0730 1533238978 9999999.9999
     898.0    1443.7886       0.0000     -31.9344    -999.2500     -40.8495     -84.6312     -38.5411     -88.5357     238.1749 1533238979 9999999.9999
     899.0    1446.7593       0.0000     -27.6438    -999.2500     -33.7400     -91.2988     -31.4316     -95.3483     244.2768 1533238980 9999999.9999
     900.0    1446.7593       0.0000     -22.6286    -999.2500     -26.5100     -96.2795     -24.2016    -100.4372     250.3695 1533238981 9999999.9999
