~VERSION INFORMATION
VERS.           2.0   :CWLS Log ASCII Standard - VERSION 2.0
WRAP.           NO    :One Line per depth step
PROD.  Schlumberger   :LAS Producer
PROG.  DLIS to ASCII 19C2-270                          :LAS Program name and version
CREA.        2018/08/03 10:59                          :LAS Creation date {YYYY/MM/DD hh:mm}
DLIS_CREA.  2018-Aug-03 09:13                          :DLIS Creation date and time {YYYY-MMM-DD hh:mm}
SOURCE.     PERFO_Perfo_073PTP.DLIS                    :DLIS File Name
FILE-ID.     PERFO_Perfo_073PTP                        :File Identification Number
#--------------------------------------------------
~WELL INFORMATION
#MNEM.UNIT      DATA             DESCRIPTION
#---- ------ --------------   -----------------------------
STRT .S            0.0       :START TIME      
STOP .S         1015.0       :STOP TIME      
STEP .S            1.0       :STEP     
NULL .          -999.25      :NULL VALUE
COMP .        SHELL INTERNATIONAL EP                   :COMPANY
WELL .        WPP TEST 4                               :WELL
FLD  .        WILDCAT                                  :FIELD
LOC  .        NA                                       :LOCATION
CNTY .        HARRIS                                   :COUNTY
STAT .        TEXAS                                    :STATE
CTRY .                                                 :COUNTRY
API  .        NA                                       :API NUMBER
UWI  .                                                 :UNIQUE WELL ID
DATE .        02-Aug-2018                              :LOG DATE {DD-MMM-YYYY}
SRVC .        Schlumberger                             :SERVICE COMPANY
LATI .DEG                                              :LATITUDE
LONG .DEG                                              :LONGITUDE
GDAT .                                                 :GeoDetic Datum
SECT .        NA                                       :Section
RANG .        NA                                       :Range
TOWN .        NA                                       :Township
#-----------------------------------------------------------------------------
~PARAMETER INFORMATION
#MNEM.UNIT    VALUE                      DESCRIPTION
#---- -----   --------------------       ------------------------
U-PHASE_B_COMP_PER_YT.                 0 :Phase B Comparator Period Yt
U-PHASE_A_COMP_PER_XT.                 0 :Phase A Comparator Period Xt
U-MAX_EXC_CUR_LIMIT.MA       265.00000   :Requested CM Current Limit
U-REQ_EXC_FQ.HZ              50          :Requested CM Frequency
U-TILT_Y_OFFSET.          -2.06578       :WPTET Tilt Y Offset
U-TILT_Y_GAIN.           1.02173         :WPTET Tilt Y Gain
U-TILT_X_OFFSET.           2.30841       :WPTET Tilt X Offset
U-TILT_X_GAIN.           1.00000         :WPTET Tilt X Gain
U-TILT_OFFSET_TOL.           0.00100     :WPTET Tilt Offset Calibration Tolerance
U-MOT_CUR_LIMIT_REQ.MA        70.00000   :Requested Motor Current Limit
U-MOT_SPD_REQ_WPMS.RPM        1.00000    :Requested Motor Speed
U-STD_TOL_TILT.           0.01000        :Tilt Standard Deviation Tolerance
CWEI .LB/F      29.00000                 :Casing Weight
CSIZ .IN         7.00000                 :Current Casing Size
LCC  .               440                 :Logging Company Code
LUN  .              2134                 :Logging Unit Number
HIDE .                                   :Header Identifier
HID1 .                                   :Header Identifier Line 1
R1   .                                   :Remark Line 1
WITN .        MR. KELLY McCOY            :Witness's Name
ENGI .        MORRIS MOORE               :Engineer's Name
LUL  .        IOWA COLONY                :Logging Unit Location
DATE .        02-Aug-2018                :Date as Month-Day-Year
STAT .        TEXAS                      :State or Province
COUN .        HARRIS                     :County or Rig Name
FN   .        WILDCAT                    :Field Name
WN   .        WPP TEST 4                 :Well Name
CN   .        SHELL INTERNATIONAL EP     :Company Name
CLAB .        County                     :County/Rig Label
SLAB .        State                      :State/Province Label
RUN  .          1                        :RUN NUMBER
PDAT .        GROUND LEVEL               :Permanent Datum
EPD  .                                   :Elevation of Permanent Datum above Mean Sea Level
LMF  .          NA                       :Logging Measured From (Name of Logging Elevation Reference)
APD  .                                   :Elevation of Depth Reference (LMF) above Permanent Datum
#-----------------------------------------------------------------------------
~CURVE INFORMATION
#MNEM.UNIT   API CODE                                  DESCRIPTION
#---- -----  --------                                  -----------------------
TIME .S                                                :TIME {F10.1}
FREQ_EMF_SL.HZ                                         :Electromagnetic Field Frequency {F13.4}
PH_SH_WPPCM_SL.DEG                                     :WPPCM Phase Shift {F13.4}
RB_SL.DEG                                              :Relative Bearing {F13.4}
SDEV_SL.DEG                                            :Sonde Deviation {F13.4}
RTIX_SL.DEG                                            :Raw X-axis Tilt {F13.4}
RTIY_SL.DEG                                            :Raw Y-axis Tilt {F13.4}
TILX_SL.DEG                                            :X-axis Tilt {F13.4}
TILY_SL.DEG                                            :Y-axis Tilt {F13.4}
ROTA_SL.DEG                                            :Motor Rotation Angle {F13.4}
TOD7 .S                                                :Time of Day {I11}
TOJ  .S                                                :Time of Job {F13.4}
#-----------------------------------------------------------------------------
# 
#     TIME    FREQ_EMF_SL  PH_SH_WPPCM_    RB_SL       SDEV_SL      RTIX_SL      RTIY_SL      TILX_SL      TILY_SL      ROTA_SL        TOD7            TOJ
#                          SL
~A  
# ...
     583.0    1365.2913       0.0000     -97.3003      79.1064    -105.3973       9.0375    -103.0889       7.1681     106.1412 1533238664 9999999.9999
     584.0    1365.2913       0.0000     -88.5956      76.9449    -105.4375       0.6828    -103.1291      -1.3681     112.2430 1533238665 9999999.9999
     585.0    1373.2910       0.0000     -79.9964      81.9610    -105.1162      -7.6718    -102.8078      -9.9043     118.3448 1533238666 9999999.9999
     586.0    1375.9785       0.0000     -72.6531      84.7301    -103.1480     -15.4642    -100.8396     -17.8659     124.4466 1533238667 9999999.9999
     587.0    1381.3850       0.0000     -66.3216    -999.2500     -98.8502     -23.2565     -96.5418     -25.8276     130.5484 1533238668 9999999.9999
     588.0    1378.6765       0.0000     -60.6860    -999.2500     -92.6645     -31.4103     -90.3561     -34.1586     136.6503 1533238669 9999999.9999
     589.0    1395.0892       0.0000     -56.3230    -999.2500     -85.8763     -38.5600     -83.5679     -41.4636     142.7522 1533238670 9999999.9999
     590.0    1392.3268       0.0000     -52.3294    -999.2500     -78.0438     -45.3883     -75.7354     -48.4403     148.8418 1533238671 9999999.9999
     591.0    1397.8628       0.0000     -48.0924    -999.2500     -68.5243     -52.0158     -66.2159     -55.2118     154.9569 1533238672 9999999.9999
     592.0    1400.6475       0.0000     -39.3279    -999.2500     -53.4618     -68.3637     -51.1534     -71.9148     161.0618 1533238673 9999999.9999
     593.0    1400.6475       0.0000     -35.1255    -999.2500     -46.4728     -78.2848     -44.1644     -82.0515     167.1607 1533238674 9999999.9999
     594.0    1406.2500       0.0000     -31.0725    -999.2500     -39.3633     -86.2780     -37.0549     -90.2184     173.6737 1533238675 9999999.9999
     595.0    1417.5908       0.0000     -26.6846    -999.2500     -32.2538     -92.6243     -29.9454     -96.7026     179.7603 1533238676 9999999.9999
     596.0    1414.7384       0.0000     -21.3384    -999.2500     -24.8230     -97.2435     -22.5146    -101.4221     185.8498 1533238677 9999999.9999
     597.0    1417.5908       0.0000     -15.1178      86.4733     -17.5127     -99.6535     -15.2043    -103.8845     191.9517 1533238678 9999999.9999
     598.0    1426.2170       0.0000      -7.6776      77.4203      -9.8007    -100.4568      -7.4923    -104.7053     198.0536 1533238679 9999999.9999
     599.0    1426.2170       0.0000       1.6369      75.5907      -0.7230    -100.2560       1.5854    -104.5001     204.1555 1533238680 9999999.9999
     600.0    1429.1158       0.0000      10.5181      80.8218       8.0735     -99.6937      10.3819    -103.9255     210.2574 1533238681 9999999.9999
     601.0    1429.1158       0.0000      17.5953      83.3657      15.7855     -97.4845      18.0939    -101.6683     216.3725 1533238682 9999999.9999
     602.0    1434.9490       0.0000      23.2720    -999.2500      22.9352     -93.3473      25.2436     -97.4413     222.4744 1533238683 9999999.9999
     603.0    1434.9490       0.0000      28.1115    -999.2500      29.9643     -87.8043      32.2727     -91.7779     228.5763 1533238684 9999999.9999
     604.0    1440.8298       0.0000      32.3665    -999.2500      36.8328     -81.0162      39.1412     -84.8422     234.6782 1533238685 9999999.9999
     605.0    1437.8834       0.0000      36.4550    -999.2500      43.5808     -72.7418      45.8892     -76.3881     240.7932 1533238686 9999999.9999
     606.0    1437.8834       0.0000      41.1278    -999.2500      50.1682     -61.8567      52.4766     -65.2664     247.2908 1533238687 9999999.9999
     607.0    1434.9490       0.0000      50.8822    -999.2500      71.2958     -48.1598      73.6042     -51.2720     253.3927 1533238688 9999999.9999
     608.0    1440.8298       0.0000      54.6418    -999.2500      80.1727     -41.7332      82.4811     -44.7057     259.4946 1533238689 9999999.9999
     609.0    1437.8834       0.0000      58.4890    -999.2500      87.4830     -34.9852      89.7914     -37.8111     265.5995 1533238690 9999999.9999
     610.0    1432.0265       0.0000      62.7403    -999.2500      93.5482     -28.1568      95.8566     -30.8344     271.6982 1533238691 9999999.9999
     611.0    1432.0265       0.0000      67.8886    -999.2500      97.8862     -21.0473     100.1946     -23.5704     277.8000 1533238692 9999999.9999
     612.0    1432.0265       0.0000      74.7479    -999.2500     100.0953     -13.0943     102.4037     -15.4446     283.9150 1533238693 9999999.9999
     613.0    1426.2170       0.0000      82.8355      78.9720     100.8183      -4.8602     103.1267      -7.0315     290.0168 1533238694 9999999.9999
     614.0    1417.5908       0.0000      91.7997      76.6302     101.1798       3.7355     103.4882       1.7509     296.1186 1533238695 9999999.9999
     615.0    1420.4546       0.0000     100.2288      81.7934     100.7782      11.9295     103.0866      10.1229     302.2336 1533238696 9999999.9999
     616.0    1414.7384       0.0000     107.4180      84.9322      98.2878      19.6013     100.5962      17.9614     308.3361 1533238697 9999999.9999
     617.0    1414.7384       0.0000     113.8077    -999.2500      93.3072      27.5142      95.6156      26.0462     314.4378 1533238698 9999999.9999
     618.0    1406.2500       0.0000     118.8010    -999.2500      87.4027      34.6638      89.7111      33.3512     320.9354 1533238699 9999999.9999
     619.0    1406.2500       0.0000     123.4770    -999.2500      79.9718      42.0947      82.2802      40.9435     327.0372 1533238700 9999999.9999
     620.0    1397.8628       0.0000     127.9294    -999.2500      71.1352      49.3247      73.4436      48.3306     333.1390 1533238701 9999999.9999
     621.0    1397.8628       0.0000     132.9203    -999.2500      58.5630      55.1890      60.8714      54.3223     339.2408 1533238702 9999999.9999
     622.0    1389.5751       0.0000     140.4289    -999.2500      49.8067      73.2238      52.1151      72.7490     345.3426 1533238703 9999999.9999
     623.0    1384.1044       0.0000     144.4266    -999.2500      42.7775      82.2212      45.0859      81.9418     351.4444 1533238704 9999999.9999
     624.0    1378.6765       0.0000     148.5327    -999.2500      35.4270      90.0135      37.7354      89.9035     357.5462 1533238705 9999999.9999
     625.0    1373.2910       0.0000     153.3666    -999.2500      27.5543      96.8017      29.8627      96.8391       3.6612 1533238706 9999999.9999
     626.0    1373.2910       0.0000     159.0490    -999.2500      19.6817     101.9028      21.9901     102.0511       9.7630 1533238707 9999999.9999
     627.0    1365.2913       0.0000     165.7874      85.0073      11.8492     104.8350      14.1576     105.0470      15.8780 1533238708 9999999.9999
     628.0    1365.2913       0.0000     173.9585      75.3000       3.5347     105.6383       5.8431     105.8678      21.9798 1533238709 9999999.9999
     629.0    1365.2913       0.0000    -177.3467      74.1002      -4.8602     105.8793      -2.5518     106.1140      28.0816 1533238710 9999999.9999
     630.0    1360.0098       0.0000    -169.2460      79.8908     -12.8935     104.5137     -10.5851     104.7187      34.1966 1533238711 9999999.9999
     631.0    1352.1635       0.0000    -162.0050      82.8040     -20.9268     100.4970     -18.6184     100.6147      40.6941 1533238712 9999999.9999
     632.0    1346.9828       0.0000    -155.7134    -999.2500     -29.0405      94.5523     -26.7321      94.5409      46.8091 1533238713 9999999.9999
     633.0    1344.4073       0.0000    -150.3062    -999.2500     -37.0337      87.5232     -34.7253      87.3590      52.9109 1533238714 9999999.9999
     634.0    1349.5681       0.0000    -145.5641    -999.2500     -44.6653      79.6505     -42.3569      79.3153      59.0135 1533238715 9999999.9999
     635.0    1349.5681       0.0000    -141.0870    -999.2500     -51.7347      70.7335     -49.4263      70.2046      65.1285 1533238716 9999999.9999
