~VERSION INFORMATION
VERS.           2.0   :CWLS Log ASCII Standard - VERSION 2.0
WRAP.           NO    :One Line per depth step
PROD.  Schlumberger   :LAS Producer
PROG.  DLIS to ASCII 19C2-270                          :LAS Program name and version
CREA.        2018/08/03 10:59                          :LAS Creation date {YYYY/MM/DD hh:mm}
DLIS_CREA.  2018-Aug-03 09:13                          :DLIS Creation date and time {YYYY-MMM-DD hh:mm}
SOURCE.     PERFO_Perfo_073PTP.DLIS                    :DLIS File Name
FILE-ID.     PERFO_Perfo_073PTP                        :File Identification Number
#--------------------------------------------------
~WELL INFORMATION
#MNEM.UNIT      DATA             DESCRIPTION
#---- ------ --------------   -----------------------------
STRT .S            0.0       :START TIME      
STOP .S         1015.0       :STOP TIME      
STEP .S            1.0       :STEP     
NULL .          -999.25      :NULL VALUE
COMP .        SHELL INTERNATIONAL EP                   :COMPANY
WELL .        WPP TEST 4                               :WELL
FLD  .        WILDCAT                                  :FIELD
LOC  .        NA                                       :LOCATION
CNTY .        HARRIS                                   :COUNTY
STAT .        TEXAS                                    :STATE
CTRY .                                                 :COUNTRY
API  .        NA                                       :API NUMBER
UWI  .                                                 :UNIQUE WELL ID
DATE .        02-Aug-2018                              :LOG DATE {DD-MMM-YYYY}
SRVC .        Schlumberger                             :SERVICE COMPANY
LATI .DEG                                              :LATITUDE
LONG .DEG                                              :LONGITUDE
GDAT .                                                 :GeoDetic Datum
SECT .        NA                                       :Section
RANG .        NA                                       :Range
TOWN .        NA                                       :Township
#-----------------------------------------------------------------------------
~PARAMETER INFORMATION
#MNEM.UNIT    VALUE                      DESCRIPTION
#---- -----   --------------------       ------------------------
U-PHASE_B_COMP_PER_YT.                 0 :Phase B Comparator Period Yt
U-PHASE_A_COMP_PER_XT.                 0 :Phase A Comparator Period Xt
U-MAX_EXC_CUR_LIMIT.MA       265.00000   :Requested CM Current Limit
U-REQ_EXC_FQ.HZ              50          :Requested CM Frequency
U-TILT_Y_OFFSET.          -2.06578       :WPTET Tilt Y Offset
U-TILT_Y_GAIN.           1.02173         :WPTET Tilt Y Gain
U-TILT_X_OFFSET.           2.30841       :WPTET Tilt X Offset
U-TILT_X_GAIN.           1.00000         :WPTET Tilt X Gain
U-TILT_OFFSET_TOL.           0.00100     :WPTET Tilt Offset Calibration Tolerance
U-MOT_CUR_LIMIT_REQ.MA        70.00000   :Requested Motor Current Limit
U-MOT_SPD_REQ_WPMS.RPM        1.00000    :Requested Motor Speed
U-STD_TOL_TILT.           0.01000        :Tilt Standard Deviation Tolerance
CWEI .LB/F      29.00000                 :Casing Weight
CSIZ .IN         7.00000                 :Current Casing Size
LCC  .               440                 :Logging Company Code
LUN  .              2134                 :Logging Unit Number
HIDE .                                   :Header Identifier
HID1 .                                   :Header Identifier Line 1
R1   .                                   :Remark Line 1
WITN .        MR. KELLY McCOY            :Witness's Name
ENGI .        MORRIS MOORE               :Engineer's Name
LUL  .        IOWA COLONY                :Logging Unit Location
DATE .        02-Aug-2018                :Date as Month-Day-Year
STAT .        TEXAS                      :State or Province
COUN .        HARRIS                     :County or Rig Name
FN   .        WILDCAT                    :Field Name
WN   .        WPP TEST 4                 :Well Name
CN   .        SHELL INTERNATIONAL EP     :Company Name
CLAB .        County                     :County/Rig Label
SLAB .        State                      :State/Province Label
RUN  .          1                        :RUN NUMBER
PDAT .        GROUND LEVEL               :Permanent Datum
EPD  .                                   :Elevation of Permanent Datum above Mean Sea Level
LMF  .          NA                       :Logging Measured From (Name of Logging Elevation Reference)
APD  .                                   :Elevation of Depth Reference (LMF) above Permanent Datum
#-----------------------------------------------------------------------------
~CURVE INFORMATION
#MNEM.UNIT   API CODE                                  DESCRIPTION
#---- -----  --------                                  -----------------------
TIME .S                                                :TIME {F10.1}
FREQ_EMF_SL.HZ                                         :Electromagnetic Field Frequency {F13.4}
PH_SH_WPPCM_SL.DEG                                     :WPPCM Phase Shift {F13.4}
RB_SL.DEG                                              :Relative Bearing {F13.4}
SDEV_SL.DEG                                            :Sonde Deviation {F13.4}
RTIX_SL.DEG                                            :Raw X-axis Tilt {F13.4}
RTIY_SL.DEG                                            :Raw Y-axis Tilt {F13.4}
TILX_SL.DEG                                            :X-axis Tilt {F13.4}
TILY_SL.DEG                                            :Y-axis Tilt {F13.4}
ROTA_SL.DEG                                            :Motor Rotation Angle {F13.4}
TOD7 .S                                                :Time of Day {I11}
TOJ  .S                                                :Time of Job {F13.4}
#-----------------------------------------------------------------------------
# 
#     TIME    FREQ_EMF_SL  PH_SH_WPPCM_    RB_SL       SDEV_SL      RTIX_SL      RTIY_SL      TILX_SL      TILY_SL      ROTA_SL        TOD7            TOJ
#                          SL
~A  
# ...
     901.0    1449.7422       0.0000     -16.6096    -999.2500     -19.1595     -99.4125     -16.8511    -103.6382     256.4713 1533238982 9999999.9999
     902.0    1449.7422       0.0000      -9.3219      78.6830     -11.4475    -100.3765      -9.1391    -104.6232     262.5863 1533238983 9999999.9999
     903.0    1449.7422       0.0000       0.2686      75.4203      -2.0485    -100.3363       0.2599    -104.5821     268.6881 1533238984 9999999.9999
     904.0    1449.7422       0.0000       9.0985      79.1963       6.6275     -99.8543       8.9359    -104.0897     274.8031 1533238985 9999999.9999
     905.0    1449.7422       0.0000      16.1693      91.0903      14.1387     -98.2477      16.4471    -102.4481     280.9049 1533238986 9999999.9999
     906.0    1443.7886       0.0000      22.2207    -999.2500      21.5293     -94.2712      23.8377     -98.3852     287.0067 1533238987 9999999.9999
     907.0    1443.7886       0.0000      27.2432    -999.2500      28.6388     -88.8487      30.9472     -92.8449     293.1085 1533238988 9999999.9999
     908.0    1446.7593       0.0000      31.5408    -999.2500      35.4672     -82.5425      37.7756     -86.4017     299.2103 1533238989 9999999.9999
     909.0    1443.7886       0.0000      35.6822    -999.2500      42.3357     -74.4288      44.6441     -78.1117     305.7047 1533238990 9999999.9999
     910.0    1437.8834       0.0000      39.9553    -999.2500      48.5213     -64.2667      50.8297     -67.7288     311.8227 1533238991 9999999.9999
     911.0    1434.9490       0.0000      50.1797    -999.2500      69.6892     -49.3247      71.9976     -52.4621     317.9214 1533238992 9999999.9999
     912.0    1437.8834       0.0000      54.0663    -999.2500      78.8070     -42.7373      81.1154     -45.7317     324.0233 1533238993 9999999.9999
     913.0    1429.1158       0.0000      57.8791    -999.2500      86.4788     -36.0295      88.7872     -38.8781     330.1281 1533238994 9999999.9999
     914.0    1432.0265       0.0000      62.1380    -999.2500      92.6645     -29.0807      94.9729     -31.7783     336.2299 1533238995 9999999.9999
     915.0    1420.4546       0.0000      67.3921    -999.2500      97.4845     -21.6900      99.7929     -24.2270     342.3318 1533238996 9999999.9999
     916.0    1420.4546       0.0000      73.4511    -999.2500      99.9347     -14.5002     102.2431     -16.8810     348.4211 1533238997 9999999.9999
     917.0    1414.7384       0.0000      81.4451      80.1130     100.7380      -6.2258     103.0464      -8.4269     354.5361 1533238998 9999999.9999
     918.0    1409.0682       0.0000      90.3233      76.5959     101.0995       2.3297     103.4079       0.3145       0.6509 1533238999 9999999.9999
     919.0    1406.2500       0.0000      98.9881      80.0096     101.0995      10.6843     103.4079       8.8507       6.7528 1533239000 9999999.9999
     920.0    1400.6475       0.0000     106.3460      97.4443      98.7297      18.3963     101.0381      16.7303      12.8677 1533239001 9999999.9999
     921.0    1397.8628       0.0000     112.7786    -999.2500      94.3515      26.1485      96.6599      24.6509      19.3776 1533239002 9999999.9999
     922.0    1397.8628       0.0000     118.0019    -999.2500      88.5273      33.4588      90.8357      32.1200      25.4794 1533239003 9999999.9999
     923.0    1386.8344       0.0000     122.6215    -999.2500      81.3777      40.6888      83.6861      39.5071      31.5944 1533239004 9999999.9999
     924.0    1384.1044       0.0000     126.8854    -999.2500      73.3845      47.6778      75.6929      46.6480      37.6962 1533239005 9999999.9999
     925.0    1378.6765       0.0000     131.4478    -999.2500      63.3027      54.4258      65.6111      53.5426      43.7865 1533239006 9999999.9999
     926.0    1378.6765       0.0000     139.4543    -999.2500      51.3732      70.8942      53.6816      70.3687      49.8883 1533239007 9999999.9999
     927.0    1370.6140       0.0000     143.6926    -999.2500      44.1432      80.8555      46.4516      80.5465      55.9902 1533239008 9999999.9999
     928.0    1367.9475       0.0000     147.5234    -999.2500      37.1943      88.1658      39.5027      88.0156      62.0920 1533239009 9999999.9999
     929.0    1373.2910       0.0000     151.9110    -999.2500      29.8037      95.1147      32.1121      95.1155      68.1938 1533239010 9999999.9999
     930.0    1362.6454       0.0000     157.6235    -999.2500      21.5293     100.8585      23.8377     100.9841      74.3087 1533239011 9999999.9999
     931.0    1365.2913       0.0000     164.0570    -999.2500      13.7370     104.4333      16.0454     104.6366      80.4105 1533239012 9999999.9999
     932.0    1362.6454       0.0000     171.6369      76.5636       5.8242     105.5580       8.1326     105.7857      86.5254 1533239013 9999999.9999
     933.0    1354.7688       0.0000    -179.7688      73.8876      -2.5305     105.8793      -0.2221     106.1140      93.0229 1533239014 9999999.9999
     934.0    1360.0098       0.0000    -171.5234      76.9281     -10.5638     105.3170      -8.2554     105.5395      99.1246 1533239015 9999999.9999
     935.0    1360.0098       0.0000    -164.1157      94.1804     -18.4767     101.7422     -16.1683     101.8870     105.2264 1533239016 9999999.9999
     936.0    1360.0098       0.0000    -157.4196    -999.2500     -26.7108      96.5205     -24.4024      96.5518     111.3414 1533239017 9999999.9999
     937.0    1357.3842       0.0000    -151.7923    -999.2500     -34.7442      89.6922     -32.4358      89.5751     117.4562 1533239018 9999999.9999
     938.0    1365.2913       0.0000    -146.9174    -999.2500     -42.4562      82.0605     -40.1478      81.7777     123.5580 1533239019 9999999.9999
     939.0    1370.6140       0.0000    -142.1824    -999.2500     -50.0477      72.9427     -47.7393      72.4617     129.6598 1533239020 9999999.9999
     940.0    1367.9475       0.0000    -136.9433    -999.2500     -57.3178      61.9772     -55.0094      61.2580     135.7617 1533239021 9999999.9999
     941.0    1370.6140       0.0000    -129.4911    -999.2500     -72.5008      51.7748     -70.1924      50.8340     141.8636 1533239022 9999999.9999
     942.0    1375.9785       0.0000    -125.1727    -999.2500     -81.3375      44.8662     -79.0291      43.7752     147.9655 1533239023 9999999.9999
     943.0    1375.9785       0.0000    -120.7203    -999.2500     -89.0093      37.6362     -86.7009      36.3881     154.0674 1533239024 9999999.9999
     944.0    1386.8344       0.0000    -115.7264    -999.2500     -95.5565      30.1652     -93.2481      28.7548     160.1693 1533239025 9999999.9999
     945.0    1384.1044       0.0000    -109.5297    -999.2500    -101.3405      22.0917     -99.0321      20.5059     166.6792 1533239026 9999999.9999
     946.0    1389.5751       0.0000    -102.3011      88.7256    -104.6743      14.0583    -102.3659      12.2980     172.7911 1533239027 9999999.9999
     947.0    1395.0892       0.0000     -94.1072      77.3923    -105.5580       5.9447    -103.2496       4.0080     178.8961 1533239028 9999999.9999
     948.0    1400.6475       0.0000     -85.4905      77.6569    -105.4375      -2.2895    -103.1291      -4.4050     184.9980 1533239029 9999999.9999
     949.0    1406.2500       0.0000     -77.1239      86.4762    -104.7145     -10.6040    -102.4061     -12.9002     191.0999 1533239030 9999999.9999
     950.0    1403.4431       0.0000     -70.0775    -999.2500    -101.8225     -18.4767     -99.5141     -20.9439     197.2048 1533239031 9999999.9999
     951.0    1409.0682       0.0000     -63.9091    -999.2500     -96.5205     -26.5903     -94.2121     -29.2338     203.3037 1533239032 9999999.9999
     952.0    1420.4546       0.0000     -58.9962    -999.2500     -90.1742     -34.1015     -87.8658     -36.9082     209.4056 1533239033 9999999.9999
     953.0    1420.4546       0.0000     -54.8414    -999.2500     -83.1048     -41.0905     -80.7964     -44.0491     215.5075 1533239034 9999999.9999
