~VERSION INFORMATION
VERS.           2.0   :CWLS Log ASCII Standard - VERSION 2.0
WRAP.           NO    :One Line per depth step
PROD.  Schlumberger   :LAS Producer
PROG.  DLIS to ASCII 19C2-270                          :LAS Program name and version
CREA.        2018/08/03 10:59                          :LAS Creation date {YYYY/MM/DD hh:mm}
DLIS_CREA.  2018-Aug-03 09:18                          :DLIS Creation date and time {YYYY-MMM-DD hh:mm}
SOURCE.     PERFO_Perfo_074PTP.DLIS                    :DLIS File Name
FILE-ID.     PERFO_Perfo_074PTP                        :File Identification Number
#--------------------------------------------------
~WELL INFORMATION
#MNEM.UNIT      DATA             DESCRIPTION
#---- ------ --------------   -----------------------------
STRT .S            0.0       :START TIME      
STOP .S          866.0       :STOP TIME      
STEP .S            1.0       :STEP     
NULL .          -999.25      :NULL VALUE
COMP .        SHELL INTERNATIONAL EP                   :COMPANY
WELL .        WPP TEST 4                               :WELL
FLD  .        WILDCAT                                  :FIELD
LOC  .        NA                                       :LOCATION
CNTY .        HARRIS                                   :COUNTY
STAT .        TEXAS                                    :STATE
CTRY .                                                 :COUNTRY
API  .        NA                                       :API NUMBER
UWI  .                                                 :UNIQUE WELL ID
DATE .        02-Aug-2018                              :LOG DATE {DD-MMM-YYYY}
SRVC .        Schlumberger                             :SERVICE COMPANY
LATI .DEG                                              :LATITUDE
LONG .DEG                                              :LONGITUDE
GDAT .                                                 :GeoDetic Datum
SECT .        NA                                       :Section
RANG .        NA                                       :Range
TOWN .        NA                                       :Township
#-----------------------------------------------------------------------------
~PARAMETER INFORMATION
#MNEM.UNIT    VALUE                      DESCRIPTION
#---- -----   --------------------       ------------------------
U-PHASE_B_COMP_PER_YT.                 0 :Phase B Comparator Period Yt
U-PHASE_A_COMP_PER_XT.                 0 :Phase A Comparator Period Xt
U-MAX_EXC_CUR_LIMIT.MA       265.00000   :Requested CM Current Limit
U-REQ_EXC_FQ.HZ              50          :Requested CM Frequency
U-TILT_Y_OFFSET.          -2.06578       :WPTET Tilt Y Offset
U-TILT_Y_GAIN.           1.02173         :WPTET Tilt Y Gain
U-TILT_X_OFFSET.           2.30841       :WPTET Tilt X Offset
U-TILT_X_GAIN.           1.00000         :WPTET Tilt X Gain
U-TILT_OFFSET_TOL.           0.00100     :WPTET Tilt Offset Calibration Tolerance
U-MOT_CUR_LIMIT_REQ.MA        70.00000   :Requested Motor Current Limit
U-MOT_SPD_REQ_WPMS.RPM        1.00000    :Requested Motor Speed
U-STD_TOL_TILT.           0.01000        :Tilt Standard Deviation Tolerance
CWEI .LB/F      29.00000                 :Casing Weight
CSIZ .IN         7.00000                 :Current Casing Size
LCC  .               440                 :Logging Company Code
LUN  .              2134                 :Logging Unit Number
HIDE .                                   :Header Identifier
HID1 .                                   :Header Identifier Line 1
R1   .                                   :Remark Line 1
WITN .        MR. KELLY McCOY            :Witness's Name
ENGI .        MORRIS MOORE               :Engineer's Name
LUL  .        IOWA COLONY                :Logging Unit Location
DATE .        02-Aug-2018                :Date as Month-Day-Year
STAT .        TEXAS                      :State or Province
COUN .        HARRIS                     :County or Rig Name
FN   .        WILDCAT                    :Field Name
WN   .        WPP TEST 4                 :Well Name
CN   .        SHELL INTERNATIONAL EP     :Company Name
CLAB .        County                     :County/Rig Label
SLAB .        State                      :State/Province Label
RUN  .          1                        :RUN NUMBER
PDAT .        GROUND LEVEL               :Permanent Datum
EPD  .                                   :Elevation of Permanent Datum above Mean Sea Level
LMF  .          NA                       :Logging Measured From (Name of Logging Elevation Reference)
APD  .                                   :Elevation of Depth Reference (LMF) above Permanent Datum
#-----------------------------------------------------------------------------
~CURVE INFORMATION
#MNEM.UNIT   API CODE                                  DESCRIPTION
#---- -----  --------                                  -----------------------
TIME .S                                                :TIME {F10.1}
FREQ_EMF_SL.HZ                                         :Electromagnetic Field Frequency {F13.4}
PH_SH_WPPCM_SL.DEG                                     :WPPCM Phase Shift {F13.4}
RB_SL.DEG                                              :Relative Bearing {F13.4}
SDEV_SL.DEG                                            :Sonde Deviation {F13.4}
RTIX_SL.DEG                                            :Raw X-axis Tilt {F13.4}
RTIY_SL.DEG                                            :Raw Y-axis Tilt {F13.4}
TILX_SL.DEG                                            :X-axis Tilt {F13.4}
TILY_SL.DEG                                            :Y-axis Tilt {F13.4}
ROTA_SL.DEG                                            :Motor Rotation Angle {F13.4}
TOD7 .S                                                :Time of Day {I11}
TOJ  .S                                                :Time of Job {F13.4}
#-----------------------------------------------------------------------------
# 
#     TIME    FREQ_EMF_SL  PH_SH_WPPCM_    RB_SL       SDEV_SL      RTIX_SL      RTIY_SL      TILX_SL      TILY_SL      ROTA_SL        TOD7            TOJ
#                          SL
~A  
# ...
     265.0    1008.7877       0.0000     160.8321    -999.2500      17.4725     103.0275      19.7809     103.2002     105.6939 1533239664 9999999.9999
     266.0     938.7516       0.0000     167.7968      80.3724       9.7203     105.2768      12.0287     105.4984     111.8087 1533239665 9999999.9999
     267.0     877.8090       0.0000     176.3093      74.3456       1.2452     105.8392       3.5536     106.0730     117.9105 1533239666 9999999.9999
     268.0     823.3314       0.0000    -174.5688      74.8933      -7.5513     105.7990      -5.2429     106.0319     124.0123 1533239667 9999999.9999
     269.0     770.9704       0.0000    -166.7843      86.8935     -15.5043     103.3890     -13.1959     103.5696     130.1149 1533239668 9999999.9999
     270.0     736.2565       0.0000    -159.7487    -999.2500     -23.6983      98.6092     -21.3899      98.6859     136.2168 1533239669 9999999.9999
     271.0     702.4226       0.0000    -153.8177    -999.2500     -31.7317      92.4235     -29.4233      92.3658     142.3187 1533239670 9999999.9999
     272.0     674.1371       0.0000    -148.6593    -999.2500     -39.6445      85.0328     -37.3361      84.8146     148.4206 1533239671 9999999.9999
     273.0     653.4619       0.0000    -144.1851    -999.2500     -46.9147      77.0798     -44.6063      76.6888     154.5225 1533239672 9999999.9999
     274.0     638.0444       0.0000    -139.5313    -999.2500     -54.1045      67.6808     -51.7961      67.0856     161.0325 1533239673 9999999.9999
     275.0     632.3067       0.0000    -131.5041    -999.2500     -68.2030      54.7472     -65.8946      53.8709     167.1344 1533239674 9999999.9999
     276.0     635.7369       0.0000    -126.9992    -999.2500     -77.6823      47.8385     -75.3739      46.8121     173.2363 1533239675 9999999.9999
     277.0     639.7861       0.0000    -122.7240    -999.2500     -85.7558      40.8495     -83.4474      39.6713     179.3382 1533239676 9999999.9999
     278.0     654.0698       0.0000    -117.9202    -999.2500     -93.1063      33.3383     -90.7979      31.9969     185.4400 1533239677 9999999.9999
     279.0     677.3844       0.0000    -112.2406    -999.2500     -99.1715      25.4657     -96.8631      23.9532     191.5419 1533239678 9999999.9999
     280.0     710.9454       0.0000    -105.1754    -999.2500    -103.7505      17.1110    -101.4421      15.4170     197.6438 1533239679 9999999.9999
     281.0     742.4763       0.0000     -97.2192      79.0046    -105.4375       8.9572    -103.1291       7.0860     203.7589 1533239680 9999999.9999
     282.0     784.7377       0.0000     -88.5107      76.8329    -105.5580       0.6025    -103.2496      -1.4502     209.8608 1533239681 9999999.9999
     283.0     829.1569       0.0000     -80.1140      81.6899    -105.1965      -7.5513    -102.8881      -9.7812     215.9627 1533239682 9999999.9999
     284.0     885.5479       0.0000     -72.6147      84.6239    -103.1882     -15.5043    -100.8798     -17.9070     222.0646 1533239683 9999999.9999
     285.0     947.6078       0.0000     -66.2904    -999.2500     -98.8502     -23.2967     -96.5418     -25.8686     228.1665 1533239684 9999999.9999
     286.0    1014.6104       0.0000     -61.0740    -999.2500     -93.1465     -30.8078     -90.8381     -33.5430     234.6649 1533239685 9999999.9999
     287.0    1086.7465       0.0000     -56.5880    -999.2500     -86.4387     -38.1182     -84.1302     -41.0121     240.7545 1533239686 9999999.9999
     288.0    1169.9252       0.0000     -52.5872    -999.2500     -78.5660     -44.9465     -76.2576     -47.9888     246.8564 1533239687 9999999.9999
     289.0    1266.8918       0.0000     -48.2708    -999.2500     -69.0867     -51.8552     -66.7783     -55.0476     252.9583 1533239688 9999999.9999
     290.0    1375.9785       0.0000     -39.6290    -999.2500     -53.9037     -67.6005     -51.5953     -71.1350     259.0602 1533239689 9999999.9999
     291.0    1508.8519       0.0000     -35.3717    -999.2500     -46.9147     -77.8028     -44.6063     -81.5591     265.1620 1533239690 9999999.9999
     292.0    1646.6628       0.0000     -31.0489    -999.2500     -39.3232     -86.2378     -37.0148     -90.1773     271.2638 1533239691 9999999.9999
     293.0    1784.5813       0.0000     -26.6547    -999.2500     -32.2137     -92.5842     -29.9053     -96.6615     277.3532 1533239692 9999999.9999
     294.0    1931.6620       0.0000     -21.3384    -999.2500     -24.8230     -97.2435     -22.5146    -101.4221     283.4550 1533239693 9999999.9999
     295.0    2055.9211       0.0000     -15.1653      86.4795     -17.5528     -99.8142     -15.2444    -104.0486     289.5569 1533239694 9999999.9999
     296.0    2163.4614       0.0000      -7.5577      77.3006      -9.6802    -100.4970      -7.3718    -104.7463     295.6340 1533239695 9999999.9999
     297.0    2246.4058       0.0000       1.5132      75.4949      -0.8435    -100.3363       1.4649    -104.5821     301.7358 1533239696 9999999.9999
     298.0    2290.3093       0.0000      10.1309      80.1564       7.6718     -99.8543       9.9802    -104.0897     308.2457 1533239697 9999999.9999
     299.0    2328.2285       0.0000      17.0784     100.2305      15.1830     -97.7657      17.4914    -101.9556     314.3351 1533239698 9999999.9999
     300.0    2359.4797       0.0000      23.0437    -999.2500      22.6138     -93.7490      24.9222     -97.8517     320.4369 1533239699 9999999.9999
     301.0    2383.4746       0.0000      27.9064    -999.2500      29.6430     -88.2863      31.9514     -92.2703     326.5387 1533239700 9999999.9999
     302.0    2407.9622       0.0000      32.1667    -999.2500      36.5115     -81.5383      38.8199     -85.3757     332.6405 1533239701 9999999.9999
     303.0    2399.7441       0.0000      36.2555    -999.2500      43.3398     -73.5050      45.6482     -77.1678     338.7423 1533239702 9999999.9999
     304.0    2424.5691       0.0000      41.1269    -999.2500      50.2887     -62.0575      52.5971     -65.4716     344.8441 1533239703 9999999.9999
     305.0    2416.2371       0.0000      50.8603    -999.2500      71.2557     -48.2000      73.5641     -51.3130     350.9460 1533239704 9999999.9999
     306.0    2416.2371       0.0000      54.7815    -999.2500      80.5342     -41.4922      82.8426     -44.4595     357.0478 1533239705 9999999.9999
     307.0    2416.2371       0.0000      58.5837    -999.2500      87.7240     -34.8245      90.0324     -37.6469       3.1496 1533239706 9999999.9999
     308.0    2399.7441       0.0000      62.9002    -999.2500      93.7490     -27.9158      96.0574     -30.5881       9.2575 1533239707 9999999.9999
     309.0    2383.4746       0.0000      68.0099    -999.2500      98.0468     -20.8867     100.3552     -23.4063      15.3540 1533239708 9999999.9999
     310.0    2367.4243       0.0000      74.4424    -999.2500     100.1757     -13.4157     102.4841     -15.7729      21.8769 1533239709 9999999.9999
     311.0    2335.9634       0.0000      82.5052      79.1432     100.8585      -5.1815     103.1669      -7.3599      27.9787 1533239710 9999999.9999
     312.0    2312.9111       0.0000      91.2100      76.4442     101.3003       3.1732     103.6087       1.1763      34.0682 1533239711 9999999.9999
     313.0    2260.8521       0.0000      99.5514      80.7196     100.9790      11.2467     103.2874       9.4252      40.1700 1533239712 9999999.9999
     314.0    2197.2656       0.0000     106.7459     102.7873      98.6493      18.8382     100.9577      17.1817      46.2849 1533239713 9999999.9999
     315.0    2080.2515       0.0000     112.9915    -999.2500      94.1105      26.4297      96.4189      24.9381      52.3867 1533239714 9999999.9999
     316.0    1945.0208       0.0000     118.4498    -999.2500      87.9349      34.1316      90.2433      32.8074      58.4885 1533239715 9999999.9999
     317.0    1807.5192       0.0000     123.2118    -999.2500      80.3735      41.6528      82.6819      40.4921      64.5903 1533239716 9999999.9999
