~VERSION INFORMATION
VERS.           2.0   :CWLS Log ASCII Standard - VERSION 2.0
WRAP.           NO    :One Line per depth step
PROD.  Schlumberger   :LAS Producer
PROG.  DLIS to ASCII 19C2-270                          :LAS Program name and version
CREA.        2018/08/03 10:59                          :LAS Creation date {YYYY/MM/DD hh:mm}
DLIS_CREA.  2018-Aug-03 09:13                          :DLIS Creation date and time {YYYY-MMM-DD hh:mm}
SOURCE.     PERFO_Perfo_073PTP.DLIS                    :DLIS File Name
FILE-ID.     PERFO_Perfo_073PTP                        :File Identification Number
#--------------------------------------------------
~WELL INFORMATION
#MNEM.UNIT      DATA             DESCRIPTION
#---- ------ --------------   -----------------------------
STRT .S            0.0       :START TIME      
STOP .S         1015.0       :STOP TIME      
STEP .S            1.0       :STEP     
NULL .          -999.25      :NULL VALUE
COMP .        SHELL INTERNATIONAL EP                   :COMPANY
WELL .        WPP TEST 4                               :WELL
FLD  .        WILDCAT                                  :FIELD
LOC  .        NA                                       :LOCATION
CNTY .        HARRIS                                   :COUNTY
STAT .        TEXAS                                    :STATE
CTRY .                                                 :COUNTRY
API  .        NA                                       :API NUMBER
UWI  .                                                 :UNIQUE WELL ID
DATE .        02-Aug-2018                              :LOG DATE {DD-MMM-YYYY}
SRVC .        Schlumberger                             :SERVICE COMPANY
LATI .DEG                                              :LATITUDE
LONG .DEG                                              :LONGITUDE
GDAT .                                                 :GeoDetic Datum
SECT .        NA                                       :Section
RANG .        NA                                       :Range
TOWN .        NA                                       :Township
#-----------------------------------------------------------------------------
~PARAMETER INFORMATION
#MNEM.UNIT    VALUE                      DESCRIPTION
#---- -----   --------------------       ------------------------
U-PHASE_B_COMP_PER_YT.                 0 :Phase B Comparator Period Yt
U-PHASE_A_COMP_PER_XT.                 0 :Phase A Comparator Period Xt
U-MAX_EXC_CUR_LIMIT.MA       265.00000   :Requested CM Current Limit
U-REQ_EXC_FQ.HZ              50          :Requested CM Frequency
U-TILT_Y_OFFSET.          -2.06578       :WPTET Tilt Y Offset
U-TILT_Y_GAIN.           1.02173         :WPTET Tilt Y Gain
U-TILT_X_OFFSET.           2.30841       :WPTET Tilt X Offset
U-TILT_X_GAIN.           1.00000         :WPTET Tilt X Gain
U-TILT_OFFSET_TOL.           0.00100     :WPTET Tilt Offset Calibration Tolerance
U-MOT_CUR_LIMIT_REQ.MA        70.00000   :Requested Motor Current Limit
U-MOT_SPD_REQ_WPMS.RPM        1.00000    :Requested Motor Speed
U-STD_TOL_TILT.           0.01000        :Tilt Standard Deviation Tolerance
CWEI .LB/F      29.00000                 :Casing Weight
CSIZ .IN         7.00000                 :Current Casing Size
LCC  .               440                 :Logging Company Code
LUN  .              2134                 :Logging Unit Number
HIDE .                                   :Header Identifier
HID1 .                                   :Header Identifier Line 1
R1   .                                   :Remark Line 1
WITN .        MR. KELLY McCOY            :Witness's Name
ENGI .        MORRIS MOORE               :Engineer's Name
LUL  .        IOWA COLONY                :Logging Unit Location
DATE .        02-Aug-2018                :Date as Month-Day-Year
STAT .        TEXAS                      :State or Province
COUN .        HARRIS                     :County or Rig Name
FN   .        WILDCAT                    :Field Name
WN   .        WPP TEST 4                 :Well Name
CN   .        SHELL INTERNATIONAL EP     :Company Name
CLAB .        County                     :County/Rig Label
SLAB .        State                      :State/Province Label
RUN  .          1                        :RUN NUMBER
PDAT .        GROUND LEVEL               :Permanent Datum
EPD  .                                   :Elevation of Permanent Datum above Mean Sea Level
LMF  .          NA                       :Logging Measured From (Name of Logging Elevation Reference)
APD  .                                   :Elevation of Depth Reference (LMF) above Permanent Datum
#-----------------------------------------------------------------------------
~CURVE INFORMATION
#MNEM.UNIT   API CODE                                  DESCRIPTION
#---- -----  --------                                  -----------------------
TIME .S                                                :TIME {F10.1}
FREQ_EMF_SL.HZ                                         :Electromagnetic Field Frequency {F13.4}
PH_SH_WPPCM_SL.DEG                                     :WPPCM Phase Shift {F13.4}
RB_SL.DEG                                              :Relative Bearing {F13.4}
SDEV_SL.DEG                                            :Sonde Deviation {F13.4}
RTIX_SL.DEG                                            :Raw X-axis Tilt {F13.4}
RTIY_SL.DEG                                            :Raw Y-axis Tilt {F13.4}
TILX_SL.DEG                                            :X-axis Tilt {F13.4}
TILY_SL.DEG                                            :Y-axis Tilt {F13.4}
ROTA_SL.DEG                                            :Motor Rotation Angle {F13.4}
TOD7 .S                                                :Time of Day {I11}
TOJ  .S                                                :Time of Job {F13.4}
#-----------------------------------------------------------------------------
# 
#     TIME    FREQ_EMF_SL  PH_SH_WPPCM_    RB_SL       SDEV_SL      RTIX_SL      RTIY_SL      TILX_SL      TILY_SL      ROTA_SL        TOD7            TOJ
#                          SL
~A  
# ...
     106.0    1370.6140       0.0000     -97.5892      79.2550    -105.4375       9.3187    -103.1291       7.4554      59.0741 1533238187 9999999.9999
     107.0    1373.2910       0.0000     -88.9739      76.7492    -105.5982       1.0443    -103.2897      -0.9988      65.1760 1533238188 9999999.9999
     108.0    1375.9785       0.0000     -80.2737      81.4417    -105.2367      -7.3907    -102.9283      -9.6170      71.2777 1533238189 9999999.9999
     109.0    1384.1044       0.0000     -72.7575      84.1335    -103.2283     -15.3437    -100.9199     -17.7428      77.3795 1533238190 9999999.9999
     110.0    1392.3268       0.0000     -66.4119    -999.2500     -98.9305     -23.1360     -96.6221     -25.7045      83.9024 1533238191 9999999.9999
     111.0    1395.0892       0.0000     -61.0223    -999.2500     -93.0260     -30.8882     -90.7176     -33.6251      90.0072 1533238192 9999999.9999
     112.0    1400.6475       0.0000     -56.6296    -999.2500     -86.3985     -38.0378     -84.0901     -40.9301      96.1059 1533238193 9999999.9999
     113.0    1409.0682       0.0000     -52.5836    -999.2500     -78.6865     -44.9867     -76.3781     -48.0299     102.2341 1533238194 9999999.9999
     114.0    1411.8976       0.0000     -48.1993    -999.2500     -68.8858     -51.9355     -66.5774     -55.1297     108.3367 1533238195 9999999.9999
     115.0    1420.4546       0.0000     -39.5499    -999.2500     -53.8233     -67.8817     -51.5149     -71.4223     114.4385 1533238196 9999999.9999
     116.0    1418.3055       0.0000     -35.2232    -999.2500     -46.6636     -78.2045     -44.3552     -81.9694     120.5403 1533238197 9999999.9999
     117.0    1426.2170       0.0000     -30.9788    -999.2500     -39.2027     -86.4788     -36.8943     -90.4236     126.6421 1533238198 9999999.9999
     118.0    1429.1158       0.0000     -26.5763    -999.2500     -32.0932     -92.7047     -29.7848     -96.7847     132.7440 1533238199 9999999.9999
     119.0    1432.0265       0.0000     -21.2153    -999.2500     -24.6623     -97.3640     -22.3539    -101.5452     138.8459 1533238200 9999999.9999
     120.0    1432.0265       0.0000     -15.0536      85.4142     -17.4323     -99.8142     -15.1239    -104.0486     144.9508 1533238201 9999999.9999
     121.0    1432.0265       0.0000      -7.1943      77.0465      -9.3187    -100.5372      -7.0103    -104.7873     151.0527 1533238202 9999999.9999
     122.0    1432.0265       0.0000       1.7207      75.4762      -0.6427    -100.3765       1.6657    -104.6232     157.5596 1533238203 9999999.9999
     123.0    1437.8834       0.0000      10.2494      80.2799       7.7923     -99.8543      10.1007    -104.0897     163.6615 1533238204 9999999.9999
     124.0    1437.8834       0.0000      17.3897     105.2942      15.5445     -97.6050      17.8529    -101.7915     169.7634 1533238205 9999999.9999
     125.0    1434.9490       0.0000      23.1309    -999.2500      22.7343     -93.6285      25.0427     -97.7286     175.8653 1533238206 9999999.9999
     126.0    1434.9490       0.0000      28.1137    -999.2500      29.9643     -87.9650      32.2727     -91.9420     181.9803 1533238207 9999999.9999
     127.0    1434.9490       0.0000      32.3806    -999.2500      36.8730     -81.2170      39.1814     -85.0474     188.0822 1533238208 9999999.9999
     128.0    1440.0922       0.0000      36.6189    -999.2500      43.8921     -72.5711      46.2005     -76.2137     194.1841 1533238209 9999999.9999
     129.0    1432.0265       0.0000      41.4867    -999.2500      50.6903     -61.1738      52.9987     -64.5687     200.2860 1533238210 9999999.9999
     130.0    1429.1158       0.0000      51.0207    -999.2500      71.8180     -47.9992      74.1264     -51.1078     206.3879 1533238211 9999999.9999
     131.0    1423.3300       0.0000      54.8943    -999.2500      80.7752     -41.2913      83.0836     -44.2543     212.4898 1533238212 9999999.9999
     132.0    1426.2170       0.0000      58.6783    -999.2500      87.9650     -34.6638      90.2734     -37.4828     218.5948 1533238213 9999999.9999
     133.0    1423.3300       0.0000      63.0910    -999.2500      93.9097     -27.6347      96.2181     -30.3009     224.6967 1533238214 9999999.9999
     134.0    1417.5908       0.0000      68.3021    -999.2500      98.1272     -20.5252     100.4356     -23.0369     230.7986 1533238215 9999999.9999
     135.0    1406.2500       0.0000      74.4799    -999.2500     100.1757     -13.3755     102.4841     -15.7319     237.3054 1533238216 9999999.9999
     136.0    1409.0682       0.0000      82.3783      79.0835     100.9790      -5.3020     103.2874      -7.4830     243.3950 1533238217 9999999.9999
     137.0    1403.4431       0.0000      91.2103      76.4038     101.3405       3.1732     103.6489       1.1763     249.4969 1533238218 9999999.9999
     138.0    1392.3268       0.0000      99.8295      81.1959     100.8585      11.5278     103.1669       9.7125     255.5988 1533238219 9999999.9999
     139.0    1392.3268       0.0000     107.0981      83.6752      98.4083      19.2398     100.7167      17.5921     261.7137 1533238220 9999999.9999
     140.0    1384.1044       0.0000     113.4471    -999.2500      93.6687      27.0322      95.9771      25.5537     267.8216 1533238221 9999999.9999
     141.0    1381.3850       0.0000     119.0379    -999.2500      87.0813      35.0253      89.3897      33.7206     273.9173 1533238222 9999999.9999
     142.0    1375.9785       0.0000     123.6519    -999.2500      79.6103      42.3758      81.9187      41.2308     280.0352 1533238223 9999999.9999
     143.0    1373.2910       0.0000     128.0116    -999.2500      70.9343      49.4452      73.2427      48.4537     286.1340 1533238224 9999999.9999
     144.0    1365.2913       0.0000     133.4637    -999.2500      57.5187      55.8718      59.8271      55.0200     292.2389 1533238225 9999999.9999
     145.0    1367.9475       0.0000     140.5246    -999.2500      49.6058      73.3443      51.9142      72.8721     298.3407 1533238226 9999999.9999
     146.0    1365.2913       0.0000     144.2993    -999.2500      43.0185      82.0203      45.3269      81.7366     304.4425 1533238227 9999999.9999
     147.0    1354.7688       0.0000     148.1868    -999.2500      36.0295      89.4110      38.3379      89.2879     310.9492 1533238228 9999999.9999
     148.0    1349.5681       0.0000     152.7095    -999.2500      28.5585      96.0385      30.8669      96.0594     317.0510 1533238229 9999999.9999
     149.0    1349.5681       0.0000     158.1698    -999.2500      20.8063     101.3405      23.1147     101.4766     323.1528 1533238230 9999999.9999
     150.0    1344.4073       0.0000     164.6360      83.7168      13.0943     104.6342      15.4027     104.8418     329.2546 1533238231 9999999.9999
     151.0    1341.8416       0.0000     172.5629      75.8037       4.9003     105.7588       7.2087     105.9909     335.3564 1533238232 9999999.9999
     152.0    1341.8416       0.0000    -179.0154      73.7097      -3.2535     106.0802      -0.9451     106.3192     341.4613 1533238233 9999999.9999
     153.0    1344.4073       0.0000    -170.3733      78.1666     -11.7287     104.9957      -9.4203     105.2112     347.5600 1533238234 9999999.9999
     154.0    1339.2858       0.0000    -162.8565      96.2179     -19.9227     101.0593     -17.6143     101.1893     353.6618 1533238235 9999999.9999
     155.0    1339.2858       0.0000    -156.3758    -999.2500     -28.1167      95.5163     -25.8083      95.5259     359.7667 1533238236 9999999.9999
     156.0    1341.8416       0.0000    -150.9544    -999.2500     -36.0295      88.6077     -33.7211      88.4671       5.8685 1533238237 9999999.9999
     157.0    1341.8416       0.0000    -146.2010    -999.2500     -43.6210      80.7752     -41.3126      80.4644      11.9704 1533238238 9999999.9999
     158.0    1341.8416       0.0000    -141.6429    -999.2500     -50.9313      71.9787     -48.6229      71.4768      18.0853 1533238239 9999999.9999
