~VERSION INFORMATION
VERS.           2.0   :CWLS Log ASCII Standard - VERSION 2.0
WRAP.           NO    :One Line per depth step
PROD.  Schlumberger   :LAS Producer
PROG.  DLIS to ASCII 19C2-270                          :LAS Program name and version
CREA.        2018/08/03 10:59                          :LAS Creation date {YYYY/MM/DD hh:mm}
DLIS_CREA.  2018-Aug-03 09:22                          :DLIS Creation date and time {YYYY-MMM-DD hh:mm}
SOURCE.     PERFO_Perfo_075PTP.DLIS                    :DLIS File Name
FILE-ID.     PERFO_Perfo_075PTP                        :File Identification Number
#--------------------------------------------------
~WELL INFORMATION
#MNEM.UNIT      DATA             DESCRIPTION
#---- ------ --------------   -----------------------------
STRT .S            0.0       :START TIME      
STOP .S          907.0       :STOP TIME      
STEP .S            1.0       :STEP     
NULL .          -999.25      :NULL VALUE
COMP .        SHELL INTERNATIONAL EP                   :COMPANY
WELL .        WPP TEST 4                               :WELL
FLD  .        WILDCAT                                  :FIELD
LOC  .        NA                                       :LOCATION
CNTY .        HARRIS                                   :COUNTY
STAT .        TEXAS                                    :STATE
CTRY .                                                 :COUNTRY
API  .        NA                                       :API NUMBER
UWI  .                                                 :UNIQUE WELL ID
DATE .        02-Aug-2018                              :LOG DATE {DD-MMM-YYYY}
SRVC .        Schlumberger                             :SERVICE COMPANY
LATI .DEG                                              :LATITUDE
LONG .DEG                                              :LONGITUDE
GDAT .                                                 :GeoDetic Datum
SECT .        NA                                       :Section
RANG .        NA                                       :Range
TOWN .        NA                                       :Township
#-----------------------------------------------------------------------------
~PARAMETER INFORMATION
#MNEM.UNIT    VALUE                      DESCRIPTION
#---- -----   --------------------       ------------------------
U-PHASE_B_COMP_PER_YT.                 0 :Phase B Comparator Period Yt
U-PHASE_A_COMP_PER_XT.                 0 :Phase A Comparator Period Xt
U-MAX_EXC_CUR_LIMIT.MA       265.00000   :Requested CM Current Limit
U-REQ_EXC_FQ.HZ              50          :Requested CM Frequency
U-TILT_Y_OFFSET.          -2.06578       :WPTET Tilt Y Offset
U-TILT_Y_GAIN.           1.02173         :WPTET Tilt Y Gain
U-TILT_X_OFFSET.           2.30841       :WPTET Tilt X Offset
U-TILT_X_GAIN.           1.00000         :WPTET Tilt X Gain
U-TILT_OFFSET_TOL.           0.00100     :WPTET Tilt Offset Calibration Tolerance
U-MOT_CUR_LIMIT_REQ.MA        70.00000   :Requested Motor Current Limit
U-MOT_SPD_REQ_WPMS.RPM        1.00000    :Requested Motor Speed
U-STD_TOL_TILT.           0.01000        :Tilt Standard Deviation Tolerance
CWEI .LB/F      29.00000                 :Casing Weight
CSIZ .IN         7.00000                 :Current Casing Size
LCC  .               440                 :Logging Company Code
LUN  .              2134                 :Logging Unit Number
HIDE .                                   :Header Identifier
HID1 .                                   :Header Identifier Line 1
R1   .                                   :Remark Line 1
WITN .        MR. KELLY McCOY            :Witness's Name
ENGI .        MORRIS MOORE               :Engineer's Name
LUL  .        IOWA COLONY                :Logging Unit Location
DATE .        02-Aug-2018                :Date as Month-Day-Year
STAT .        TEXAS                      :State or Province
COUN .        HARRIS                     :County or Rig Name
FN   .        WILDCAT                    :Field Name
WN   .        WPP TEST 4                 :Well Name
CN   .        SHELL INTERNATIONAL EP     :Company Name
CLAB .        County                     :County/Rig Label
SLAB .        State                      :State/Province Label
RUN  .          1                        :RUN NUMBER
PDAT .        GROUND LEVEL               :Permanent Datum
EPD  .                                   :Elevation of Permanent Datum above Mean Sea Level
LMF  .          NA                       :Logging Measured From (Name of Logging Elevation Reference)
APD  .                                   :Elevation of Depth Reference (LMF) above Permanent Datum
#-----------------------------------------------------------------------------
~CURVE INFORMATION
#MNEM.UNIT   API CODE                                  DESCRIPTION
#---- -----  --------                                  -----------------------
TIME .S                                                :TIME {F10.1}
FREQ_EMF_SL.HZ                                         :Electromagnetic Field Frequency {F13.4}
PH_SH_WPPCM_SL.DEG                                     :WPPCM Phase Shift {F13.4}
RB_SL.DEG                                              :Relative Bearing {F13.4}
SDEV_SL.DEG                                            :Sonde Deviation {F13.4}
RTIX_SL.DEG                                            :Raw X-axis Tilt {F13.4}
RTIY_SL.DEG                                            :Raw Y-axis Tilt {F13.4}
TILX_SL.DEG                                            :X-axis Tilt {F13.4}
TILY_SL.DEG                                            :Y-axis Tilt {F13.4}
ROTA_SL.DEG                                            :Motor Rotation Angle {F13.4}
TOD7 .S                                                :Time of Day {I11}
TOJ  .S                                                :Time of Job {F13.4}
#-----------------------------------------------------------------------------
# 
#     TIME    FREQ_EMF_SL  PH_SH_WPPCM_    RB_SL       SDEV_SL      RTIX_SL      RTIY_SL      TILX_SL      TILY_SL      ROTA_SL        TOD7            TOJ
#                          SL
~A  
# ...
     530.0     528.6654       0.0000    -108.8575    -999.2500    -101.8225      21.2883     -99.5141      19.6851     283.2596 1533240867 9999999.9999
     531.0     436.9951       0.0000    -101.6842      85.1258    -104.9555      13.4157    -102.6471      11.6414     289.3614 1533240868 9999999.9999
     532.0     360.5769       0.0000     -93.4375      77.1548    -105.5982       5.3020    -103.2897       3.3514     295.8712 1533240869 9999999.9999
     533.0     292.9688       0.0000     -84.6569      77.9899    -105.4375      -3.0928    -103.1291      -5.2258     301.9730 1533240870 9999999.9999
     534.0     241.2920       0.0000     -76.4729      90.4775    -104.5538     -11.2868    -102.2454     -13.5978     308.0755 1533240871 9999999.9999
     535.0     201.8734       0.0000     -69.4488    -999.2500    -101.4610     -19.2398     -99.1526     -21.7236     314.1905 1533240872 9999999.9999
     536.0     167.8503       0.0000     -63.7105    -999.2500     -96.4000     -26.8715     -94.0916     -29.5211     320.2923 1533240873 9999999.9999
     537.0     145.2138       0.0000     -58.8005    -999.2500     -89.9733     -34.4228     -87.6649     -37.2365     326.3941 1533240874 9999999.9999
     538.0     131.7948       0.0000     -54.3594    -999.2500     -82.2613     -41.9340     -79.9529     -44.9109     332.4959 1533240875 9999999.9999
     539.0     129.4174       0.0000     -50.3080    -999.2500     -73.7460     -48.7623     -71.4376     -51.8876     338.5977 1533240876 9999999.9999
     540.0     135.0865       0.0000     -45.4817    -999.2500     -62.3387     -55.1488     -60.0303     -58.4128     344.6995 1533240877 9999999.9999
     541.0     152.4225       0.0000     -37.2964    -999.2500     -50.2887     -73.5853     -47.9803     -77.2499     350.8013 1533240878 9999999.9999
     542.0     178.5941       0.0000     -33.2544    -999.2500     -43.1792     -82.4220     -40.8708     -86.2786     356.9031 1533240879 9999999.9999
     543.0     216.5460       0.0000     -29.1058    -999.2500     -36.0697     -89.4110     -33.7613     -93.4194       2.9956 1533240880 9999999.9999
     544.0     267.0433       0.0000     -24.2567    -999.2500     -28.7192     -95.0745     -26.4108     -99.2060       9.4901 1533240881 9999999.9999
     545.0     328.7167       0.0000     -18.6324    -999.2500     -21.4892     -98.7698     -19.1808    -102.9816      15.5950 1533240882 9999999.9999
     546.0     407.6087       0.0000     -11.6880      81.2191     -13.8575    -100.3363     -11.5491    -104.5821      21.6938 1533240883 9999999.9999
     547.0     491.3522       0.0000      -3.1744      75.5500      -5.3823    -100.5372      -3.0739    -104.7873      27.7956 1533240884 9999999.9999
     548.0     599.9360       0.0000       5.7577      76.6695       3.2937    -100.2560       5.6021    -104.5001      33.8974 1533240885 9999999.9999
     549.0     720.4149       0.0000      13.5440      85.3681      11.2467     -99.1313      13.5551    -103.3510      39.9869 1533240886 9999999.9999
     550.0     872.3636       0.0000      20.4879    -999.2500      19.2800     -95.8778      21.5884    -100.0268      46.0949 1533240887 9999999.9999
     551.0    1054.1604       0.0000      25.7905    -999.2500      26.4698     -90.8972      28.7782     -94.9379      52.1906 1533240888 9999999.9999
     552.0    1246.6755       0.0000      30.3133    -999.2500      33.4588     -84.7115      35.7672     -88.6178      58.2924 1533240889 9999999.9999
     553.0    1559.0355       0.0000      34.4102    -999.2500      40.2872     -77.4012      42.5956     -81.1487      64.3942 1533240890 9999999.9999
     554.0    1910.6658       0.0000      38.5685    -999.2500      46.9950     -68.4038      49.3034     -71.9558      70.4836 1533240891 9999999.9999
     555.0    2225.0791       0.0000      48.6102    -999.2500      61.8165     -49.3247      64.1249     -52.4621      76.5885 1533240892 9999999.9999
     556.0    2375.4224       0.0000      52.6954    -999.2500      75.9150     -45.1875      78.2234     -48.2351      83.0828 1533240893 9999999.9999
     557.0    2449.9128       0.0000      56.4381    -999.2500      84.1090     -38.5600      86.4174     -41.4636      89.1846 1533240894 9999999.9999
     558.0    2475.7922       0.0000      60.5211    -999.2500      90.8168     -31.6112      93.1252     -34.3638      95.2864 1533240895 9999999.9999
     559.0    2475.7922       0.0000      65.1021    -999.2500      95.9180     -24.7427      98.2264     -27.3460     101.3882 1533240896 9999999.9999
     560.0    2467.1052       0.0000      70.7233    -999.2500      99.2117     -17.5930     101.5201     -20.0410     107.4900 1533240897 9999999.9999
     561.0    2484.5405       0.0000      77.8390      85.3527     100.6978      -9.8408     103.0062     -12.1204     113.5918 1533240898 9999999.9999
     562.0    2475.7922       0.0000      87.0340      76.7125     101.3003      -0.8033     103.6087      -2.8866     119.6936 1533240899 9999999.9999
     563.0    2475.7922       0.0000      95.7043      77.4469     101.4610       7.4710     103.7694       5.5675     125.8085 1533240900 9999999.9999
     564.0    2475.7922       0.0000     103.5110      89.3366     100.1355      15.3035     102.4439      13.5702     131.9134 1533240901 9999999.9999
     565.0    2484.5405       0.0000     109.6921    -999.2500      96.5205      22.2925      98.8289      20.7111     138.0123 1533240902 9999999.9999
     566.0    2484.5405       0.0000     116.0203    -999.2500      91.0578      30.5668      93.3662      29.1652     144.1017 1533240903 9999999.9999
     567.0    2467.1052       0.0000     120.8424    -999.2500      84.3902      37.8370      86.6986      36.5933     150.2066 1533240904 9999999.9999
     568.0    2475.7922       0.0000     125.2534    -999.2500      76.7183      45.0268      79.0267      43.9394     156.7135 1533240905 9999999.9999
     569.0    2484.5405       0.0000     129.6759    -999.2500      67.3997      52.0158      69.7081      51.0802     162.8154 1533240906 9999999.9999
     570.0    2475.7922       0.0000     137.6521    -999.2500      54.1045      66.6767      56.4129      66.0596     168.9173 1533240907 9999999.9999
     571.0    2467.1052       0.0000     141.9062    -999.2500      47.3163      76.7585      49.6247      76.3605     175.0068 1533240908 9999999.9999
     572.0    2475.7922       0.0000     145.6970    -999.2500      40.4880      84.9927      42.7964      84.7735     181.1087 1533240909 9999999.9999
     573.0    2467.1052       0.0000     149.9204    -999.2500      33.0572      92.2227      35.3656      92.1606     187.2106 1533240910 9999999.9999
     574.0    2484.5405       0.0000     155.3576    -999.2500      24.6222      99.0510      26.9306      99.1373     193.3125 1533240911 9999999.9999
     575.0    2484.5405       0.0000     161.3977    -999.2500      16.7897     103.3890      19.0981     103.5696     199.4144 1533240912 9999999.9999
     576.0    2475.7922       0.0000     168.5376      79.4366       8.9572     105.3170      11.2656     105.5395     205.5163 1533240913 9999999.9999
     577.0    2467.1052       0.0000     177.0575      74.1499       0.5222     105.8793       2.8306     106.1140     211.6182 1533240914 9999999.9999
     578.0    2467.1052       0.0000    -174.5265      74.8645      -7.5915     105.8392      -5.2831     106.0730     217.7362 1533240915 9999999.9999
     579.0    2467.1052       0.0000    -166.7799      86.5639     -15.5043     103.4693     -13.1959     103.6517     223.8381 1533240916 9999999.9999
     580.0    2424.5691       0.0000    -159.6469    -999.2500     -23.8188      98.6493     -21.5104      98.7269     230.3326 1533240917 9999999.9999
     581.0    2282.8735       0.0000    -153.6516    -999.2500     -31.9727      92.2628     -29.6643      92.2017     236.4476 1533240918 9999999.9999
     582.0    2003.2051       0.0000    -148.6360    -999.2500     -39.6847      85.0328     -37.3763      84.8146     242.5503 1533240919 9999999.9999
