~VERSION INFORMATION
VERS.           2.0   :CWLS Log ASCII Standard - VERSION 2.0
WRAP.           NO    :One Line per depth step
PROD.  Schlumberger   :LAS Producer
PROG.  DLIS to ASCII 19C2-270                          :LAS Program name and version
CREA.        2018/08/03 10:59                          :LAS Creation date {YYYY/MM/DD hh:mm}
DLIS_CREA.  2018-Aug-03 09:18                          :DLIS Creation date and time {YYYY-MMM-DD hh:mm}
SOURCE.     PERFO_Perfo_074PTP.DLIS                    :DLIS File Name
FILE-ID.     PERFO_Perfo_074PTP                        :File Identification Number
#--------------------------------------------------
~WELL INFORMATION
#MNEM.UNIT      DATA             DESCRIPTION
#---- ------ --------------   -----------------------------
STRT .S            0.0       :START TIME      
STOP .S          866.0       :STOP TIME      
STEP .S            1.0       :STEP     
NULL .          -999.25      :NULL VALUE
COMP .        SHELL INTERNATIONAL EP                   :COMPANY
WELL .        WPP TEST 4                               :WELL
FLD  .        WILDCAT                                  :FIELD
LOC  .        NA                                       :LOCATION
CNTY .        HARRIS                                   :COUNTY
STAT .        TEXAS                                    :STATE
CTRY .                                                 :COUNTRY
API  .        NA                                       :API NUMBER
UWI  .                                                 :UNIQUE WELL ID
DATE .        02-Aug-2018                              :LOG DATE {DD-MMM-YYYY}
SRVC .        Schlumberger                             :SERVICE COMPANY
LATI .DEG                                              :LATITUDE
LONG .DEG                                              :LONGITUDE
GDAT .                                                 :GeoDetic Datum
SECT .        NA                                       :Section
RANG .        NA                                       :Range
TOWN .        NA                                       :Township
#-----------------------------------------------------------------------------
~PARAMETER INFORMATION
#MNEM.UNIT    VALUE                      DESCRIPTION
#---- -----   --------------------       ------------------------
U-PHASE_B_COMP_PER_YT.                 0 :Phase B Comparator Period Yt
U-PHASE_A_COMP_PER_XT.                 0 :Phase A Comparator Period Xt
U-MAX_EXC_CUR_LIMIT.MA       265.00000   :Requested CM Current Limit
U-REQ_EXC_FQ.HZ              50          :Requested CM Frequency
U-TILT_Y_OFFSET.          -2.06578       :WPTET Tilt Y Offset
U-TILT_Y_GAIN.           1.02173         :WPTET Tilt Y Gain
U-TILT_X_OFFSET.           2.30841       :WPTET Tilt X Offset
U-TILT_X_GAIN.           1.00000         :WPTET Tilt X Gain
U-TILT_OFFSET_TOL.           0.00100     :WPTET Tilt Offset Calibration Tolerance
U-MOT_CUR_LIMIT_REQ.MA        70.00000   :Requested Motor Current Limit
U-MOT_SPD_REQ_WPMS.RPM        1.00000    :Requested Motor Speed
U-STD_TOL_TILT.           0.01000        :Tilt Standard Deviation Tolerance
CWEI .LB/F      29.00000                 :Casing Weight
CSIZ .IN         7.00000                 :Current Casing Size
LCC  .               440                 :Logging Company Code
LUN  .              2134                 :Logging Unit Number
HIDE .                                   :Header Identifier
HID1 .                                   :Header Identifier Line 1
R1   .                                   :Remark Line 1
WITN .        MR. KELLY McCOY            :Witness's Name
ENGI .        MORRIS MOORE               :Engineer's Name
LUL  .        IOWA COLONY                :Logging Unit Location
DATE .        02-Aug-2018                :Date as Month-Day-Year
STAT .        TEXAS                      :State or Province
COUN .        HARRIS                     :County or Rig Name
FN   .        WILDCAT                    :Field Name
WN   .        WPP TEST 4                 :Well Name
CN   .        SHELL INTERNATIONAL EP     :Company Name
CLAB .        County                     :County/Rig Label
SLAB .        State                      :State/Province Label
RUN  .          1                        :RUN NUMBER
PDAT .        GROUND LEVEL               :Permanent Datum
EPD  .                                   :Elevation of Permanent Datum above Mean Sea Level
LMF  .          NA                       :Logging Measured From (Name of Logging Elevation Reference)
APD  .                                   :Elevation of Depth Reference (LMF) above Permanent Datum
#-----------------------------------------------------------------------------
~CURVE INFORMATION
#MNEM.UNIT   API CODE                                  DESCRIPTION
#---- -----  --------                                  -----------------------
TIME .S                                                :TIME {F10.1}
FREQ_EMF_SL.HZ                                         :Electromagnetic Field Frequency {F13.4}
PH_SH_WPPCM_SL.DEG                                     :WPPCM Phase Shift {F13.4}
RB_SL.DEG                                              :Relative Bearing {F13.4}
SDEV_SL.DEG                                            :Sonde Deviation {F13.4}
RTIX_SL.DEG                                            :Raw X-axis Tilt {F13.4}
RTIY_SL.DEG                                            :Raw Y-axis Tilt {F13.4}
TILX_SL.DEG                                            :X-axis Tilt {F13.4}
TILY_SL.DEG                                            :Y-axis Tilt {F13.4}
ROTA_SL.DEG                                            :Motor Rotation Angle {F13.4}
TOD7 .S                                                :Time of Day {I11}
TOJ  .S                                                :Time of Job {F13.4}
#-----------------------------------------------------------------------------
# 
#     TIME    FREQ_EMF_SL  PH_SH_WPPCM_    RB_SL       SDEV_SL      RTIX_SL      RTIY_SL      TILX_SL      TILY_SL      ROTA_SL        TOD7            TOJ
#                          SL
~A  
# ...
     795.0    2312.9111       0.0000     139.1183    -999.2500      51.8953      70.0908      54.2037      69.5479     116.9717 1533240194 9999999.9999
     796.0    2335.9634       0.0000     142.9642    -999.2500      45.4687      79.2890      47.7771      78.9460     123.0735 1533240195 9999999.9999
     797.0    2375.4224       0.0000     146.8494    -999.2500      38.3993      87.0813      40.7077      86.9076     129.1753 1533240196 9999999.9999
     798.0    2399.7441       0.0000     151.3800    -999.2500      30.6472      94.5122      32.9556      94.4999     135.2903 1533240197 9999999.9999
     799.0    2416.2371       0.0000     156.5408    -999.2500      22.9753     100.0953      25.2837     100.2043     141.3922 1533240198 9999999.9999
     800.0    2432.9585       0.0000     163.4475    -999.2500      14.4198     104.2325      16.7282     104.4314     147.4941 1533240199 9999999.9999
     801.0    2441.4063       0.0000     170.9932      77.0322       6.4668     105.5178       8.7752     105.7447     153.6091 1533240200 9999999.9999
     802.0    2432.9585       0.0000     179.5621      73.8507      -1.8878     105.9195       0.4206     106.1551     159.7110 1533240201 9999999.9999
     803.0    2449.9128       0.0000    -172.0834      76.3943     -10.0015     105.4777      -7.6931     105.7036     165.8129 1533240202 9999999.9999
     804.0    2424.5691       0.0000    -164.4611      90.0960     -18.0750     102.1037     -15.7666     102.2563     171.9286 1533240203 9999999.9999
     805.0    2441.4063       0.0000    -157.7563    -999.2500     -26.2690      96.7615     -23.9606      96.7981     178.0305 1533240204 9999999.9999
     806.0    2416.2371       0.0000    -152.1906    -999.2500     -34.1417      90.2143     -31.8333      90.1087     184.5281 1533240205 9999999.9999
     807.0    2407.9622       0.0000    -147.2857    -999.2500     -41.8537      82.6630     -39.5453      82.3933     190.6300 1533240206 9999999.9999
     808.0    2375.4224       0.0000    -142.7804    -999.2500     -49.1640      74.3083     -46.8556      73.8571     196.7450 1533240207 9999999.9999
     809.0    2351.5886       0.0000    -137.7671    -999.2500     -56.3940      63.8248     -54.0856      63.1458     202.8469 1533240208 9999999.9999
     810.0    2335.9634       0.0000    -130.0591    -999.2500     -71.2557      52.6183     -68.9473      51.6958     208.9365 1533240209 9999999.9999
     811.0    2260.8521       0.0000    -125.7425    -999.2500     -80.3735      45.8302     -78.0651      44.7601     215.0384 1533240210 9999999.9999
     812.0    2197.2656       0.0000    -121.0263    -999.2500     -88.4872      38.1182     -86.1787      36.8806     221.1403 1533240211 9999999.9999
     813.0    2068.0146       0.0000    -115.9544    -999.2500     -95.3155      30.4865     -93.0071      29.0831     227.2422 1533240212 9999999.9999
     814.0    1905.4878       0.0000    -109.8621    -999.2500    -101.0995      22.4933     -98.7911      20.9163     233.3441 1533240213 9999999.9999
     815.0    1744.7272       0.0000    -102.8071      84.0209    -104.6342      14.5805    -102.3258      12.8315     239.4460 1533240214 9999999.9999
     816.0    1608.9817       0.0000     -94.6104      77.4792    -105.6383       6.4267    -103.3299       4.5005     245.5611 1533240215 9999999.9999
     817.0    1474.0566       0.0000     -85.9503      77.5007    -105.4375      -1.8477    -103.1291      -3.9536     251.6630 1533240216 9999999.9999
     818.0    1346.9828       0.0000     -77.4303      85.8083    -104.8350     -10.2827    -102.5266     -12.5719     258.1729 1533240217 9999999.9999
     819.0    1229.2395       0.0000     -70.3791    -999.2500    -101.9832     -18.1152     -99.6748     -20.5745     264.2747 1533240218 9999999.9999
     820.0    1132.2463       0.0000     -64.3573    -999.2500     -97.1230     -25.9477     -94.8146     -28.5772     270.3765 1533240219 9999999.9999
     821.0    1057.3308       0.0000     -59.3448    -999.2500     -90.7767     -33.5392     -88.4683     -36.3337     276.4914 1533240220 9999999.9999
     822.0     982.0181       0.0000     -55.0866    -999.2500     -83.7073     -40.6888     -81.3989     -43.6387     282.5932 1533240221 9999999.9999
     823.0     916.7209       0.0000     -51.0787    -999.2500     -75.4732     -47.5172     -73.1647     -50.6154     288.6950 1533240222 9999999.9999
     824.0     852.2727       0.0000     -46.3530    -999.2500     -64.4976     -54.2852     -62.1892     -57.5305     294.7968 1533240223 9999999.9999
     825.0     798.0988       0.0000     -37.8075    -999.2500     -51.0920     -72.1795     -48.7836     -75.8135     300.8987 1533240224 9999999.9999
     826.0     748.0053       0.0000     -33.7313    -999.2500     -44.0227     -81.4178     -41.7143     -85.2526     307.0005 1533240225 9999999.9999
     827.0     703.1250       0.0000     -29.6681    -999.2500     -36.9935     -88.6077     -34.6851     -92.5986     313.0900 1533240226 9999999.9999
     828.0     669.6429       0.0000     -24.9396    -999.2500     -29.6832     -94.4720     -27.3748     -98.5904     319.1795 1533240227 9999999.9999
     829.0     642.7103       0.0000     -19.3323    -999.2500     -22.3327     -98.3682     -20.0243    -102.5712     325.2944 1533240228 9999999.9999
     830.0     617.8603       0.0000     -12.6870      83.0934     -14.9018    -100.1757     -12.5934    -104.4180     331.3839 1533240229 9999999.9999
     831.0     604.0593       0.0000      -4.4538      75.8851      -6.6275    -100.5372      -4.3191    -104.7873     337.8937 1533240230 9999999.9999
     832.0     594.3575       0.0000       4.6520      76.2079       2.2092    -100.2962       4.5176    -104.5411     343.9955 1533240231 9999999.9999
     833.0     595.8687       0.0000      12.7156      85.2615      10.3630     -99.3322      12.6714    -103.5562     350.0974 1533240232 9999999.9999
     834.0     607.1891       0.0000      19.2508    -999.2500      17.7537     -96.6410      20.0621    -100.8065     356.1992 1533240233 9999999.9999
     835.0     622.7856       0.0000      24.8132    -999.2500      25.0640     -91.9817      27.3724     -96.0460       2.2887 1533240234 9999999.9999
     836.0     645.2168       0.0000      29.5729    -999.2500      32.2639     -85.7659      34.5723     -89.6951       8.3905 1533240235 9999999.9999
     837.0     676.0817       0.0000      33.8139    -999.2500      39.2830     -78.5660      41.5914     -82.3388      14.4923 1533240236 9999999.9999
     838.0     720.4149       0.0000      38.0639    -999.2500      46.1917     -69.4482      48.5001     -73.0229      20.6073 1533240237 9999999.9999
     839.0     765.9314       0.0000      43.7799    -999.2500      50.6502     -53.1807      52.9586     -56.4019      26.7091 1533240238 9999999.9999
     840.0     817.5872       0.0000      52.2793    -999.2500      74.7903     -45.8703      77.0987     -48.9327      32.8109 1533240239 9999999.9999
     841.0     870.2042       0.0000      56.0476    -999.2500      83.1852     -39.2428      85.4936     -42.1612      38.9128 1533240240 9999999.9999
     842.0     932.5266       0.0000      60.0545    -999.2500      89.9733     -32.3743      92.2817     -35.1435      45.0154 1533240241 9999999.9999
     843.0    1003.0314       0.0000      64.6169    -999.2500      95.4360     -25.4255      97.7444     -28.0437      51.5252 1533240242 9999999.9999
     844.0    1078.4126       0.0000      70.1066    -999.2500      99.0510     -18.3160     101.3594     -20.7797      57.6148 1533240243 9999999.9999
     845.0    1164.1143       0.0000      76.8240      84.2121     100.6577     -10.8852     102.9661     -13.1875      63.7042 1533240244 9999999.9999
     846.0    1264.6134       0.0000      85.5279      77.3896     101.0593      -2.2493     103.3677      -4.3640      69.8060 1533240245 9999999.9999
     847.0    1389.5751       0.0000      94.3662      77.0133     101.3807       6.1857     103.6891       4.2543      75.9239 1533240246 9999999.9999
