~VERSION INFORMATION
VERS.           2.0   :CWLS Log ASCII Standard - VERSION 2.0
WRAP.           NO    :One Line per depth step
PROD.  Schlumberger   :LAS Producer
PROG.  DLIS to ASCII 19C2-270                          :LAS Program name and version
CREA.        2018/08/03 10:59                          :LAS Creation date {YYYY/MM/DD hh:mm}
DLIS_CREA.  2018-Aug-03 09:18                          :DLIS Creation date and time {YYYY-MMM-DD hh:mm}
SOURCE.     PERFO_Perfo_074PTP.DLIS                    :DLIS File Name
FILE-ID.     PERFO_Perfo_074PTP                        :File Identification Number
#--------------------------------------------------
~WELL INFORMATION
#MNEM.UNIT      DATA             DESCRIPTION
#---- ------ --------------   -----------------------------
STRT .S            0.0       :START TIME      
STOP .S          866.0       :STOP TIME      
STEP .S            1.0       :STEP     
NULL .          -999.25      :NULL VALUE
COMP .        SHELL INTERNATIONAL EP                   :COMPANY
WELL .        WPP TEST 4                               :WELL
FLD  .        WILDCAT                                  :FIELD
LOC  .        NA                                       :LOCATION
CNTY .        HARRIS                                   :COUNTY
STAT .        TEXAS                                    :STATE
CTRY .                                                 :COUNTRY
API  .        NA                                       :API NUMBER
UWI  .                                                 :UNIQUE WELL ID
DATE .        02-Aug-2018                              :LOG DATE {DD-MMM-YYYY}
SRVC .        Schlumberger                             :SERVICE COMPANY
LATI .DEG                                              :LATITUDE
LONG .DEG                                              :LONGITUDE
GDAT .                                                 :GeoDetic Datum
SECT .        NA                                       :Section
RANG .        NA                                       :Range
TOWN .        NA                                       :Township
#-----------------------------------------------------------------------------
~PARAMETER INFORMATION
#MNEM.UNIT    VALUE                      DESCRIPTION
#---- -----   --------------------       ------------------------
U-PHASE_B_COMP_PER_YT.                 0 :Phase B Comparator Period Yt
U-PHASE_A_COMP_PER_XT.                 0 :Phase A Comparator Period Xt
U-MAX_EXC_CUR_LIMIT.MA       265.00000   :Requested CM Current Limit
U-REQ_EXC_FQ.HZ              50          :Requested CM Frequency
U-TILT_Y_OFFSET.          -2.06578       :WPTET Tilt Y Offset
U-TILT_Y_GAIN.           1.02173         :WPTET Tilt Y Gain
U-TILT_X_OFFSET.           2.30841       :WPTET Tilt X Offset
U-TILT_X_GAIN.           1.00000         :WPTET Tilt X Gain
U-TILT_OFFSET_TOL.           0.00100     :WPTET Tilt Offset Calibration Tolerance
U-MOT_CUR_LIMIT_REQ.MA        70.00000   :Requested Motor Current Limit
U-MOT_SPD_REQ_WPMS.RPM        1.00000    :Requested Motor Speed
U-STD_TOL_TILT.           0.01000        :Tilt Standard Deviation Tolerance
CWEI .LB/F      29.00000                 :Casing Weight
CSIZ .IN         7.00000                 :Current Casing Size
LCC  .               440                 :Logging Company Code
LUN  .              2134                 :Logging Unit Number
HIDE .                                   :Header Identifier
HID1 .                                   :Header Identifier Line 1
R1   .                                   :Remark Line 1
WITN .        MR. KELLY McCOY            :Witness's Name
ENGI .        MORRIS MOORE               :Engineer's Name
LUL  .        IOWA COLONY                :Logging Unit Location
DATE .        02-Aug-2018                :Date as Month-Day-Year
STAT .        TEXAS                      :State or Province
COUN .        HARRIS                     :County or Rig Name
FN   .        WILDCAT                    :Field Name
WN   .        WPP TEST 4                 :Well Name
CN   .        SHELL INTERNATIONAL EP     :Company Name
CLAB .        County                     :County/Rig Label
SLAB .        State                      :State/Province Label
RUN  .          1                        :RUN NUMBER
PDAT .        GROUND LEVEL               :Permanent Datum
EPD  .                                   :Elevation of Permanent Datum above Mean Sea Level
LMF  .          NA                       :Logging Measured From (Name of Logging Elevation Reference)
APD  .                                   :Elevation of Depth Reference (LMF) above Permanent Datum
#-----------------------------------------------------------------------------
~CURVE INFORMATION
#MNEM.UNIT   API CODE                                  DESCRIPTION
#---- -----  --------                                  -----------------------
TIME .S                                                :TIME {F10.1}
FREQ_EMF_SL.HZ                                         :Electromagnetic Field Frequency {F13.4}
PH_SH_WPPCM_SL.DEG                                     :WPPCM Phase Shift {F13.4}
RB_SL.DEG                                              :Relative Bearing {F13.4}
SDEV_SL.DEG                                            :Sonde Deviation {F13.4}
RTIX_SL.DEG                                            :Raw X-axis Tilt {F13.4}
RTIY_SL.DEG                                            :Raw Y-axis Tilt {F13.4}
TILX_SL.DEG                                            :X-axis Tilt {F13.4}
TILY_SL.DEG                                            :Y-axis Tilt {F13.4}
ROTA_SL.DEG                                            :Motor Rotation Angle {F13.4}
TOD7 .S                                                :Time of Day {I11}
TOJ  .S                                                :Time of Job {F13.4}
#-----------------------------------------------------------------------------
# 
#     TIME    FREQ_EMF_SL  PH_SH_WPPCM_    RB_SL       SDEV_SL      RTIX_SL      RTIY_SL      TILX_SL      TILY_SL      ROTA_SL        TOD7            TOJ
#                          SL
~A  
# ...
     159.0     997.3405       0.0000    -118.2156    -999.2500     -92.5842      33.7802     -90.2757      32.4483     175.2023 1533239558 9999999.9999
     160.0    1065.3409       0.0000    -112.5817    -999.2500     -98.8502      25.9075     -96.5418      24.4046     181.3173 1533239559 9999999.9999
     161.0    1143.2927       0.0000    -105.8361    -999.2500    -103.5095      17.8340    -101.2011      16.1557     187.4192 1533239560 9999999.9999
     162.0    1237.8961       0.0000     -98.2010      79.8155    -105.3572       9.9212    -103.0488       8.0709     193.5341 1533239561 9999999.9999
     163.0    1339.2858       0.0000     -89.6487      76.8354    -105.4777       1.6870    -103.1693      -0.3421     199.6491 1533239562 9999999.9999
     164.0    1467.9019       0.0000     -81.0831      80.6008    -105.2367      -6.5873    -102.9283      -8.7962     205.7510 1533239563 9999999.9999
     165.0    1598.0114       0.0000     -73.5100      98.6133    -103.5095     -14.5002    -101.2011     -16.8810     212.2486 1533239564 9999999.9999
     166.0    1753.4288       0.0000     -66.9244    -999.2500     -99.4527     -22.4532     -97.1442     -25.0068     218.3504 1533239565 9999999.9999
     167.0    1910.6658       0.0000     -61.5720    -999.2500     -93.7088     -30.0447     -91.4004     -32.7632     224.4523 1533239566 9999999.9999
     168.0    2038.0435       0.0000     -56.9872    -999.2500     -87.0412     -37.4353     -84.7327     -40.3145     230.5674 1533239567 9999999.9999
     169.0    2143.6738       0.0000     -52.9760    -999.2500     -79.4497     -44.3038     -77.1413     -47.3322     236.6693 1533239568 9999999.9999
     170.0    2225.0791       0.0000     -48.8302    -999.2500     -70.2515     -50.9715     -67.9431     -54.1447     242.7712 1533239569 9999999.9999
     171.0    2282.8735       0.0000     -39.5190    -999.2500     -53.6225     -67.6005     -51.3141     -71.1350     248.8731 1533239570 9999999.9999
     172.0    2328.2285       0.0000     -35.5894    -999.2500     -47.3163     -77.4413     -45.0079     -81.1897     254.9750 1533239571 9999999.9999
     173.0    2359.4797       0.0000     -31.5618    -999.2500     -40.2068     -85.5952     -37.8984     -89.5207     261.0768 1533239572 9999999.9999
     174.0       0.0000       0.0000     -27.1303    -999.2500     -32.9367     -92.0620     -30.6283     -96.1280     267.2478 1533239573 9999999.9999
     175.0       0.0000       0.0000     -21.9002    -999.2500     -25.5460     -96.8820     -23.2376    -101.0527     273.3759 1533239574 9999999.9999
     176.0       0.0000       0.0000     -15.8185    -999.2500     -18.2758     -99.6133     -15.9674    -103.8434     279.4777 1533239575 9999999.9999
     177.0       0.0000       0.0000      -8.0829      77.6250     -10.2023    -100.4970      -7.8939    -104.7463     285.9753 1533239576 9999999.9999
     178.0       0.0000       0.0000       0.8913      75.3623      -1.4460    -100.4167       0.8624    -104.6642     292.0771 1533239577 9999999.9999
     179.0       0.0000       0.0000       9.4586      79.4536       6.9890     -99.8945       9.2974    -104.1307     298.1789 1533239578 9999999.9999
     180.0       0.0000       0.0000      16.6258      94.8551      14.6608     -98.0067      16.9692    -102.2019     304.2806 1533239579 9999999.9999
     181.0       0.0000       0.0000      22.5378    -999.2500      21.9310     -94.2712      24.2394     -98.3852     310.3824 1533239580 9999999.9999
     182.0       0.0000       0.0000      27.4851    -999.2500      29.0003     -88.7282      31.3087     -92.7218     316.4904 1533239581 9999999.9999
     183.0       0.0000       0.0000      32.1503    -999.2500      36.4713     -81.3777      38.7797     -85.2115     322.5992 1533239582 9999999.9999
     184.0       0.0000       0.0000      36.2037    -999.2500      43.2193     -73.4648      45.5277     -77.1268     328.6888 1533239583 9999999.9999
     185.0       0.0000       0.0000      40.7734    -999.2500      49.6058     -62.4592      51.9142     -65.8820     334.7914 1533239584 9999999.9999
     186.0       0.0000       0.0000      50.5705    -999.2500      71.0147     -48.8427      73.3231     -51.9697     340.8809 1533239585 9999999.9999
     187.0       0.0000       0.0000      54.4655    -999.2500      79.8513     -42.0545      82.1597     -45.0340     346.9704 1533239586 9999999.9999
     188.0       0.0000       0.0000      58.2535    -999.2500      87.1215     -35.3868      89.4299     -38.2215     353.0722 1533239587 9999999.9999
     189.0       0.0000       0.0000      62.5222    -999.2500      93.4277     -28.4782      95.7361     -31.1627     359.5952 1533239588 9999999.9999
     190.0       0.0000       0.0000      67.7651    -999.2500      97.7657     -21.2080     100.0741     -23.7346       5.6847 1533239589 9999999.9999
     191.0       0.0000       0.0000      73.8887    -999.2500     100.0552     -14.0182     102.3636     -16.3885      11.7865 1533239590 9999999.9999
     192.0       0.0000       0.0000      81.6885      79.8559     100.7782      -5.9848     103.0866      -8.1806      17.8883 1533239591 9999999.9999
     193.0       0.0000       0.0000      89.4373      76.5635     101.1397       1.4862     103.4481      -0.5473      24.0033 1533239592 9999999.9999
     194.0       0.0000       0.0000      98.9053      79.9899     101.0593      10.6040     103.3677       8.7686      30.1183 1533239593 9999999.9999
     195.0       0.0000       0.0000     106.6273      96.6579      98.6594      18.7076     100.9678      17.0483      36.2201 1533239594 9999999.9999
     196.0       0.0000       0.0000     112.9646    -999.2500      94.2310      26.3895      96.5394      24.8971      42.3219 1533239595 9999999.9999
     197.0       0.0000       0.0000     118.1895    -999.2500      88.2462      33.7400      90.5546      32.4073      48.4244 1533239596 9999999.9999
     198.0       0.0000       0.0000     122.8715    -999.2500      80.8957      41.0905      83.2041      39.9175      54.5169 1533239597 9999999.9999
     199.0       0.0000       0.0000     127.1172    -999.2500      72.8623      48.0393      75.1707      47.0173      60.6196 1533239598 9999999.9999
     200.0       0.0000       0.0000     131.9994    -999.2500      62.1378      55.1890      64.4462      54.3223      66.7214 1533239599 9999999.9999
     201.0       0.0000       0.0000     139.5125    -999.2500      51.2527      70.9745      53.5611      70.4508      73.2413 1533239600 9999999.9999
     202.0       0.0000       0.0000     143.6431    -999.2500      44.2235      80.6948      46.5319      80.3823      79.3431 1533239601 9999999.9999
     203.0       0.0000       0.0000     147.5032    -999.2500      37.2345      88.2863      39.5429      88.1388      85.4325 1533239602 9999999.9999
     204.0       0.0000       0.0000     152.0145    -999.2500      29.6430      95.1950      31.9514      95.1975      91.5605 1533239603 9999999.9999
     205.0       0.0000       0.0000     157.2581    -999.2500      22.0113     100.6175      24.3197     100.7379      97.6623 1533239604 9999999.9999
     206.0       0.0000       0.0000     163.7740      87.3330      14.0583     104.2727      16.3667     104.4724     103.7772 1533239605 9999999.9999
     207.0       0.0000       0.0000     171.9447      76.1999       5.5129     105.7086       7.8213     105.9396     109.8790 1533239606 9999999.9999
     208.0       0.0000       0.0000    -179.2670      73.8611      -3.0125     105.9195      -0.7041     106.1551     115.9814 1533239607 9999999.9999
     209.0       0.0000       0.0000    -170.9666      77.5061     -11.1262     105.1563      -8.8178     105.3753     122.0863 1533239608 9999999.9999
     210.0       0.0000       0.0000    -163.6865      90.7474     -18.9587     101.6217     -16.6503     101.7638     128.1757 1533239609 9999999.9999
     211.0       0.0000       0.0000    -156.9432    -999.2500     -27.3535      95.9582     -25.0451      95.9773     134.2908 1533239610 9999999.9999
