~VERSION INFORMATION
VERS.           2.0   :CWLS Log ASCII Standard - VERSION 2.0
WRAP.           NO    :One Line per depth step
PROD.  Schlumberger   :LAS Producer
PROG.  DLIS to ASCII 19C2-270                          :LAS Program name and version
CREA.        2018/08/03 10:59                          :LAS Creation date {YYYY/MM/DD hh:mm}
DLIS_CREA.  2018-Aug-03 09:13                          :DLIS Creation date and time {YYYY-MMM-DD hh:mm}
SOURCE.     PERFO_Perfo_073PTP.DLIS                    :DLIS File Name
FILE-ID.     PERFO_Perfo_073PTP                        :File Identification Number
#--------------------------------------------------
~WELL INFORMATION
#MNEM.UNIT      DATA             DESCRIPTION
#---- ------ --------------   -----------------------------
STRT .S            0.0       :START TIME      
STOP .S         1015.0       :STOP TIME      
STEP .S            1.0       :STEP     
NULL .          -999.25      :NULL VALUE
COMP .        SHELL INTERNATIONAL EP                   :COMPANY
WELL .        WPP TEST 4                               :WELL
FLD  .        WILDCAT                                  :FIELD
LOC  .        NA                                       :LOCATION
CNTY .        HARRIS                                   :COUNTY
STAT .        TEXAS                                    :STATE
CTRY .                                                 :COUNTRY
API  .        NA                                       :API NUMBER
UWI  .                                                 :UNIQUE WELL ID
DATE .        02-Aug-2018                              :LOG DATE {DD-MMM-YYYY}
SRVC .        Schlumberger                             :SERVICE COMPANY
LATI .DEG                                              :LATITUDE
LONG .DEG                                              :LONGITUDE
GDAT .                                                 :GeoDetic Datum
SECT .        NA                                       :Section
RANG .        NA                                       :Range
TOWN .        NA                                       :Township
#-----------------------------------------------------------------------------
~PARAMETER INFORMATION
#MNEM.UNIT    VALUE                      DESCRIPTION
#---- -----   --------------------       ------------------------
U-PHASE_B_COMP_PER_YT.                 0 :Phase B Comparator Period Yt
U-PHASE_A_COMP_PER_XT.                 0 :Phase A Comparator Period Xt
U-MAX_EXC_CUR_LIMIT.MA       265.00000   :Requested CM Current Limit
U-REQ_EXC_FQ.HZ              50          :Requested CM Frequency
U-TILT_Y_OFFSET.          -2.06578       :WPTET Tilt Y Offset
U-TILT_Y_GAIN.           1.02173         :WPTET Tilt Y Gain
U-TILT_X_OFFSET.           2.30841       :WPTET Tilt X Offset
U-TILT_X_GAIN.           1.00000         :WPTET Tilt X Gain
U-TILT_OFFSET_TOL.           0.00100     :WPTET Tilt Offset Calibration Tolerance
U-MOT_CUR_LIMIT_REQ.MA        70.00000   :Requested Motor Current Limit
U-MOT_SPD_REQ_WPMS.RPM        1.00000    :Requested Motor Speed
U-STD_TOL_TILT.           0.01000        :Tilt Standard Deviation Tolerance
CWEI .LB/F      29.00000                 :Casing Weight
CSIZ .IN         7.00000                 :Current Casing Size
LCC  .               440                 :Logging Company Code
LUN  .              2134                 :Logging Unit Number
HIDE .                                   :Header Identifier
HID1 .                                   :Header Identifier Line 1
R1   .                                   :Remark Line 1
WITN .        MR. KELLY McCOY            :Witness's Name
ENGI .        MORRIS MOORE               :Engineer's Name
LUL  .        IOWA COLONY                :Logging Unit Location
DATE .        02-Aug-2018                :Date as Month-Day-Year
STAT .        TEXAS                      :State or Province
COUN .        HARRIS                     :County or Rig Name
FN   .        WILDCAT                    :Field Name
WN   .        WPP TEST 4                 :Well Name
CN   .        SHELL INTERNATIONAL EP     :Company Name
CLAB .        County                     :County/Rig Label
SLAB .        State                      :State/Province Label
RUN  .          1                        :RUN NUMBER
PDAT .        GROUND LEVEL               :Permanent Datum
EPD  .                                   :Elevation of Permanent Datum above Mean Sea Level
LMF  .          NA                       :Logging Measured From (Name of Logging Elevation Reference)
APD  .                                   :Elevation of Depth Reference (LMF) above Permanent Datum
#-----------------------------------------------------------------------------
~CURVE INFORMATION
#MNEM.UNIT   API CODE                                  DESCRIPTION
#---- -----  --------                                  -----------------------
TIME .S                                                :TIME {F10.1}
FREQ_EMF_SL.HZ                                         :Electromagnetic Field Frequency {F13.4}
PH_SH_WPPCM_SL.DEG                                     :WPPCM Phase Shift {F13.4}
RB_SL.DEG                                              :Relative Bearing {F13.4}
SDEV_SL.DEG                                            :Sonde Deviation {F13.4}
RTIX_SL.DEG                                            :Raw X-axis Tilt {F13.4}
RTIY_SL.DEG                                            :Raw Y-axis Tilt {F13.4}
TILX_SL.DEG                                            :X-axis Tilt {F13.4}
TILY_SL.DEG                                            :Y-axis Tilt {F13.4}
ROTA_SL.DEG                                            :Motor Rotation Angle {F13.4}
TOD7 .S                                                :Time of Day {I11}
TOJ  .S                                                :Time of Job {F13.4}
#-----------------------------------------------------------------------------
# 
#     TIME    FREQ_EMF_SL  PH_SH_WPPCM_    RB_SL       SDEV_SL      RTIX_SL      RTIY_SL      TILX_SL      TILY_SL      ROTA_SL        TOD7            TOJ
#                          SL
~A  
# ...
      53.0    1409.0682       0.0000     -54.8214    -999.2500     -83.1048     -41.1307     -80.7964     -44.0901      94.4847 1533238134 9999999.9999
      54.0    1406.2500       0.0000     -50.7731    -999.2500     -74.7502     -47.9992     -72.4417     -51.1078     100.5865 1533238135 9999999.9999
      55.0    1414.7384       0.0000     -46.1904    -999.2500     -64.1060     -54.4660     -61.7976     -57.7152     106.6882 1533238136 9999999.9999
      56.0    1414.7384       0.0000     -37.3907    -999.2500     -50.3690     -73.0632     -48.0606     -76.7164     112.8031 1533238137 9999999.9999
      57.0    1426.2170       0.0000     -33.4213    -999.2500     -43.4603     -81.8597     -41.1519     -85.7040     118.9049 1533238138 9999999.9999
      58.0    1432.0265       0.0000     -29.3276    -999.2500     -36.4312     -89.1298     -34.1228     -93.1322     124.9820 1533238139 9999999.9999
      59.0    1426.2170       0.0000     -24.5662    -999.2500     -29.1610     -94.7130     -26.8526     -98.8366     131.0839 1533238140 9999999.9999
      60.0    1429.1158       0.0000     -18.8708    -999.2500     -21.7703     -98.6895     -19.4619    -102.8995     137.1858 1533238141 9999999.9999
      61.0    1437.8834       0.0000     -12.1547      81.8824     -14.3395    -100.3363     -12.0311    -104.5821     143.2877 1533238142 9999999.9999
      62.0    1434.9490       0.0000      -3.7529      75.6865      -5.9447    -100.5372      -3.6363    -104.7873     149.7976 1533238143 9999999.9999
      63.0    1440.8298       0.0000       5.2276      76.3681       2.7715    -100.3363       5.0799    -104.5821     155.8995 1533238144 9999999.9999
      64.0    1440.8298       0.0000      13.1299      87.1372      10.8048     -99.2117      13.1132    -103.4330     162.0014 1533238145 9999999.9999
      65.0    1437.8834       0.0000      19.7106    -999.2500      18.3160     -96.3598      20.6244    -100.5192     168.1033 1533238146 9999999.9999
      66.0    1440.8298       0.0000      25.0929    -999.2500      25.4657     -91.6202      27.7741     -95.6766     174.2052 1533238147 9999999.9999
      67.0    1434.9490       0.0000      29.6920    -999.2500      32.4547     -85.5952      34.7631     -89.5207     180.2948 1533238148 9999999.9999
      68.0    1437.8834       0.0000      34.0854    -999.2500      39.7248     -77.9233      42.0332     -81.6822     186.3967 1533238149 9999999.9999
      69.0    1429.1158       0.0000      38.3518    -999.2500      46.6335     -68.8055      48.9419     -72.3662     192.4986 1533238150 9999999.9999
      70.0    1432.0265       0.0000      46.3265    -999.2500      56.0727     -51.2125      58.3811     -54.3910     198.6005 1533238151 9999999.9999
      71.0    1429.1158       0.0000      52.5487    -999.2500      75.5133     -45.4285      77.8217     -48.4813     204.7024 1533238152 9999999.9999
      72.0    1426.2170       0.0000      56.3179    -999.2500      83.6672     -38.7608      85.9756     -41.6688     210.8043 1533238153 9999999.9999
      73.0    1420.4546       0.0000      60.2988    -999.2500      90.4553     -31.9727      92.7637     -34.7331     216.8939 1533238154 9999999.9999
      74.0    1420.4546       0.0000      64.9017    -999.2500      95.7172     -25.0238      98.0256     -27.6333     223.4038 1533238155 9999999.9999
      75.0    1414.7384       0.0000      70.5160    -999.2500      99.1715     -17.8340     101.4799     -20.2873     229.5057 1533238156 9999999.9999
      76.0    1406.2500       0.0000      77.4463      86.5711     100.6978     -10.2425     103.0062     -12.5308     235.6107 1533238157 9999999.9999
      77.0    1406.2500       0.0000      86.0281      77.0995     101.1798      -1.7673     103.4882      -3.8715     241.7095 1533238158 9999999.9999
      78.0    1395.0892       0.0000      95.0362      77.2112     101.4208       6.8283     103.7292       4.9109     247.7990 1533238159 9999999.9999
      79.0    1397.8628       0.0000     102.8594      86.5495     100.2962      14.6207     102.6046      12.8726     253.9009 1533238160 9999999.9999
      80.0    1389.5751       0.0000     110.2700    -999.2500      96.4402      22.9753      98.7486      21.4087     260.0028 1533238161 9999999.9999
      81.0    1384.1044       0.0000     116.0456    -999.2500      90.8972      30.6070      93.2056      29.2062     266.1046 1533238162 9999999.9999
      82.0    1375.9785       0.0000     120.9679    -999.2500      84.2295      38.0378      86.5379      36.7985     271.8114 1533238163 9999999.9999
      83.0    1375.9785       0.0000     125.4584    -999.2500      76.2363      45.3482      78.5447      44.2677     277.9132 1533238164 9999999.9999
      84.0    1378.6765       0.0000     129.9169    -999.2500      66.7972      52.3372      69.1056      51.4085     284.0150 1533238165 9999999.9999
      85.0    1367.9475       0.0000     138.2043    -999.2500      53.2208      67.8415      55.5292      67.2497     290.1300 1533238166 9999999.9999
      86.0    1362.6454       0.0000     142.1896    -999.2500      46.7942      77.3208      49.1026      76.9350     296.6398 1533238167 9999999.9999
      87.0    1360.0098       0.0000     145.8254    -999.2500      40.2470      85.1533      42.5554      84.9377     302.7416 1533238168 9999999.9999
      88.0    1354.7688       0.0000     149.9443    -999.2500      33.0170      92.2628      35.3254      92.2017     308.8434 1533238169 9999999.9999
      89.0    1354.7688       0.0000     154.8320    -999.2500      25.3853      98.4083      27.6937      98.4807     314.9452 1533238170 9999999.9999
      90.0    1346.9828       0.0000     160.6967    -999.2500      17.6332     102.9873      19.9416     103.1592     321.0470 1533238171 9999999.9999
      91.0    1339.2858       0.0000     167.7921      80.2447       9.7203     105.3572      12.0287     105.5805     327.1488 1533238172 9999999.9999
      92.0    1346.9828       0.0000     176.6828      74.2223       0.8837     105.8793       3.1921     106.1140     333.2506 1533238173 9999999.9999
      93.0    1344.4073       0.0000    -174.9796      74.6683      -7.1497     105.8793      -4.8413     106.1140     339.3524 1533238174 9999999.9999
      94.0    1341.8416       0.0000    -167.0856      85.5364     -15.1830     103.4693     -12.8746     103.6517     345.4542 1533238175 9999999.9999
      95.0    1336.7396       0.0000    -159.8426    -999.2500     -23.5778      98.7297     -21.2694      98.8090     351.5560 1533238176 9999999.9999
      96.0    1336.7396       0.0000    -153.9287    -999.2500     -31.5710      92.5440     -29.2626      92.4889     357.6456 1533238177 9999999.9999
      97.0    1346.9828       0.0000    -148.7012    -999.2500     -39.5642      84.9123     -37.2558      84.6915       3.7605 1533238178 9999999.9999
      98.0    1344.4073       0.0000    -144.2284    -999.2500     -46.8343      77.1200     -44.5259      76.7298      10.2611 1533238179 9999999.9999
      99.0    1346.9828       0.0000    -139.4882    -999.2500     -54.1045      67.4800     -51.7961      66.8804      16.3598 1533238180 9999999.9999
     100.0    1346.9828       0.0000    -131.5876    -999.2500     -67.9620      54.8275     -65.6536      53.9530      22.4617 1533238181 9999999.9999
     101.0    1354.7688       0.0000    -127.0832    -999.2500     -77.6020      47.9992     -75.2936      46.9763      28.5765 1533238182 9999999.9999
     102.0    1357.3842       0.0000    -122.7261    -999.2500     -85.7157      40.8495     -83.4072      39.6713      34.6661 1533238183 9999999.9999
     103.0    1362.6454       0.0000    -118.0812    -999.2500     -92.7448      33.5793     -90.4364      32.2431      40.7687 1533238184 9999999.9999
     104.0    1365.2913       0.0000    -111.9860    -999.2500     -99.2920      25.1443     -96.9836      23.6249      46.8705 1533238185 9999999.9999
     105.0    1365.2913       0.0000    -105.3215    -999.2500    -103.6702      17.2717    -101.3618      15.5812      52.9723 1533238186 9999999.9999
