~VERSION INFORMATION
VERS.           2.0   :CWLS Log ASCII Standard - VERSION 2.0
WRAP.           NO    :One Line per depth step
PROD.  Schlumberger   :LAS Producer
PROG.  DLIS to ASCII 19C2-270                          :LAS Program name and version
CREA.        2018/08/03 10:59                          :LAS Creation date {YYYY/MM/DD hh:mm}
DLIS_CREA.  2018-Aug-03 09:13                          :DLIS Creation date and time {YYYY-MMM-DD hh:mm}
SOURCE.     PERFO_Perfo_073PTP.DLIS                    :DLIS File Name
FILE-ID.     PERFO_Perfo_073PTP                        :File Identification Number
#--------------------------------------------------
~WELL INFORMATION
#MNEM.UNIT      DATA             DESCRIPTION
#---- ------ --------------   -----------------------------
STRT .S            0.0       :START TIME      
STOP .S         1015.0       :STOP TIME      
STEP .S            1.0       :STEP     
NULL .          -999.25      :NULL VALUE
COMP .        SHELL INTERNATIONAL EP                   :COMPANY
WELL .        WPP TEST 4                               :WELL
FLD  .        WILDCAT                                  :FIELD
LOC  .        NA                                       :LOCATION
CNTY .        HARRIS                                   :COUNTY
STAT .        TEXAS                                    :STATE
CTRY .                                                 :COUNTRY
API  .        NA                                       :API NUMBER
UWI  .                                                 :UNIQUE WELL ID
DATE .        02-Aug-2018                              :LOG DATE {DD-MMM-YYYY}
SRVC .        Schlumberger                             :SERVICE COMPANY
LATI .DEG                                              :LATITUDE
LONG .DEG                                              :LONGITUDE
GDAT .                                                 :GeoDetic Datum
SECT .        NA                                       :Section
RANG .        NA                                       :Range
TOWN .        NA                                       :Township
#-----------------------------------------------------------------------------
~PARAMETER INFORMATION
#MNEM.UNIT    VALUE                      DESCRIPTION
#---- -----   --------------------       ------------------------
U-PHASE_B_COMP_PER_YT.                 0 :Phase B Comparator Period Yt
U-PHASE_A_COMP_PER_XT.                 0 :Phase A Comparator Period Xt
U-MAX_EXC_CUR_LIMIT.MA       265.00000   :Requested CM Current Limit
U-REQ_EXC_FQ.HZ              50          :Requested CM Frequency
U-TILT_Y_OFFSET.          -2.06578       :WPTET Tilt Y Offset
U-TILT_Y_GAIN.           1.02173         :WPTET Tilt Y Gain
U-TILT_X_OFFSET.           2.30841       :WPTET Tilt X Offset
U-TILT_X_GAIN.           1.00000         :WPTET Tilt X Gain
U-TILT_OFFSET_TOL.           0.00100     :WPTET Tilt Offset Calibration Tolerance
U-MOT_CUR_LIMIT_REQ.MA        70.00000   :Requested Motor Current Limit
U-MOT_SPD_REQ_WPMS.RPM        1.00000    :Requested Motor Speed
U-STD_TOL_TILT.           0.01000        :Tilt Standard Deviation Tolerance
CWEI .LB/F      29.00000                 :Casing Weight
CSIZ .IN         7.00000                 :Current Casing Size
LCC  .               440                 :Logging Company Code
LUN  .              2134                 :Logging Unit Number
HIDE .                                   :Header Identifier
HID1 .                                   :Header Identifier Line 1
R1   .                                   :Remark Line 1
WITN .        MR. KELLY McCOY            :Witness's Name
ENGI .        MORRIS MOORE               :Engineer's Name
LUL  .        IOWA COLONY                :Logging Unit Location
DATE .        02-Aug-2018                :Date as Month-Day-Year
STAT .        TEXAS                      :State or Province
COUN .        HARRIS                     :County or Rig Name
FN   .        WILDCAT                    :Field Name
WN   .        WPP TEST 4                 :Well Name
CN   .        SHELL INTERNATIONAL EP     :Company Name
CLAB .        County                     :County/Rig Label
SLAB .        State                      :State/Province Label
RUN  .          1                        :RUN NUMBER
PDAT .        GROUND LEVEL               :Permanent Datum
EPD  .                                   :Elevation of Permanent Datum above Mean Sea Level
LMF  .          NA                       :Logging Measured From (Name of Logging Elevation Reference)
APD  .                                   :Elevation of Depth Reference (LMF) above Permanent Datum
#-----------------------------------------------------------------------------
~CURVE INFORMATION
#MNEM.UNIT   API CODE                                  DESCRIPTION
#---- -----  --------                                  -----------------------
TIME .S                                                :TIME {F10.1}
FREQ_EMF_SL.HZ                                         :Electromagnetic Field Frequency {F13.4}
PH_SH_WPPCM_SL.DEG                                     :WPPCM Phase Shift {F13.4}
RB_SL.DEG                                              :Relative Bearing {F13.4}
SDEV_SL.DEG                                            :Sonde Deviation {F13.4}
RTIX_SL.DEG                                            :Raw X-axis Tilt {F13.4}
RTIY_SL.DEG                                            :Raw Y-axis Tilt {F13.4}
TILX_SL.DEG                                            :X-axis Tilt {F13.4}
TILY_SL.DEG                                            :Y-axis Tilt {F13.4}
ROTA_SL.DEG                                            :Motor Rotation Angle {F13.4}
TOD7 .S                                                :Time of Day {I11}
TOJ  .S                                                :Time of Job {F13.4}
#-----------------------------------------------------------------------------
# 
#     TIME    FREQ_EMF_SL  PH_SH_WPPCM_    RB_SL       SDEV_SL      RTIX_SL      RTIY_SL      TILX_SL      TILY_SL      ROTA_SL        TOD7            TOJ
#                          SL
~A  
# ...
     424.0    1443.7886       0.0000      25.4303    -999.2500      25.9477     -91.2988      28.2561     -95.3483     210.1492 1533238505 9999999.9999
     425.0    1434.9490       0.0000      30.0160    -999.2500      32.9768     -85.1533      35.2852     -89.0693     216.6591 1533238506 9999999.9999
     426.0    1437.8834       0.0000      34.0882    -999.2500      39.7248     -77.8832      42.0332     -81.6411     222.7610 1533238507 9999999.9999
     427.0    1434.9490       0.0000      38.3625    -999.2500      46.6737     -68.8457      48.9821     -72.4073     228.8660 1533238508 9999999.9999
     428.0    1432.0265       0.0000      46.3447    -999.2500      56.7555     -51.7347      59.0639     -54.9245     234.9648 1533238509 9999999.9999
     429.0    1429.1158       0.0000      52.4920    -999.2500      75.4732     -45.5490      77.7816     -48.6044     241.0544 1533238510 9999999.9999
     430.0    1426.2170       0.0000      56.2329    -999.2500      83.6672     -38.9215      85.9756     -41.8329     247.1563 1533238511 9999999.9999
     431.0    1420.4546       0.0000      60.5984    -999.2500      90.8168     -31.4907      93.1252     -34.2407     253.2582 1533238512 9999999.9999
     432.0    1414.7384       0.0000      65.2146    -999.2500      96.0787     -24.5820      98.3871     -27.1819     259.3730 1533238513 9999999.9999
     433.0    1411.8976       0.0000      70.9265    -999.2500      99.3322     -17.3520     101.6406     -19.7948     265.4748 1533238514 9999999.9999
     434.0    1409.0682       0.0000      78.0341      84.7630     100.7380      -9.6400     103.0464     -11.9152     271.5898 1533238515 9999999.9999
     435.0    1403.4431       0.0000      86.6982      76.8320     101.2602      -1.1247     103.5686      -3.2149     277.6916 1533238516 9999999.9999
     436.0    1397.8628       0.0000      95.7866      77.5285     101.4208       7.5513     103.7292       5.6496     283.7934 1533238517 9999999.9999
     437.0    1397.8628       0.0000     103.3911      88.4479     100.0552      15.1830     102.3636      13.4471     290.3032 1533238518 9999999.9999
     438.0    1389.5751       0.0000     110.3679    -999.2500      96.3598      23.0958      98.6682      21.5319     296.4050 1533238519 9999999.9999
     439.0    1384.1044       0.0000     116.1035    -999.2500      90.8972      30.6873      93.2056      29.2883     302.5200 1533238520 9999999.9999
     440.0    1375.9785       0.0000     120.8170    -999.2500      84.4303      37.7968      86.7387      36.5523     308.6094 1533238521 9999999.9999
     441.0    1370.6140       0.0000     125.3196    -999.2500      76.4372      45.1072      78.7456      44.0214     314.6990 1533238522 9999999.9999
     442.0    1370.6140       0.0000     129.8471    -999.2500      66.9980      52.2568      69.3064      51.3264     320.8140 1533238523 9999999.9999
     443.0    1362.6454       0.0000     138.3218    -999.2500      53.1003      68.2030      55.4087      67.6191     326.9158 1533238524 9999999.9999
     444.0    1360.0098       0.0000     142.4008    -999.2500      46.4327      77.8430      48.7411      77.4685     333.0176 1533238525 9999999.9999
     445.0    1354.7688       0.0000     146.1537    -999.2500      39.6445      85.6755      41.9529      85.4712     339.1194 1533238526 9999999.9999
     446.0    1354.7688       0.0000     150.3057    -999.2500      32.4145      92.7850      34.7229      92.7352     345.2212 1533238527 9999999.9999
     447.0    1346.9828       0.0000     155.2802    -999.2500      24.7427      98.8502      27.0511      98.9321     351.3230 1533238528 9999999.9999
     448.0    1344.4073       0.0000     161.3306    -999.2500      16.8700     103.3488      19.1784     103.5285     357.4248 1533238529 9999999.9999
     449.0    1341.8416       0.0000     168.6095      79.1776       8.8768     105.4375      11.1852     105.6626       3.9377 1533238530 9999999.9999
     450.0    1344.4073       0.0000     176.8486      74.1473       0.7230     105.9195       3.0314     106.1551      10.0364 1533238531 9999999.9999
     451.0    1339.2858       0.0000    -174.5677      74.8500      -7.5513     105.8392      -5.2429     106.0730      16.1383 1533238532 9999999.9999
     452.0    1339.2858       0.0000    -166.7865      87.0713     -15.5043     103.3488     -13.1959     103.5285      22.2401 1533238533 9999999.9999
     453.0    1336.7396       0.0000    -159.6218    -999.2500     -23.8590      98.4887     -21.5506      98.5628      28.3419 1533238534 9999999.9999
     454.0    1339.2858       0.0000    -153.7346    -999.2500     -31.8522      92.3432     -29.5438      92.2837      34.4437 1533238535 9999999.9999
     455.0    1344.4073       0.0000    -148.2598    -999.2500     -40.2872      84.3902     -37.9788      84.1579      40.5455 1533238536 9999999.9999
     456.0    1344.4073       0.0000    -143.6350    -999.2500     -47.7983      75.9953     -45.4899      75.5807      46.6736 1533238537 9999999.9999
     457.0    1349.5681       0.0000    -138.9274    -999.2500     -54.8677      66.2750     -52.5593      65.6492      52.7754 1533238538 9999999.9999
     458.0    1346.9828       0.0000    -131.0345    -999.2500     -69.0465      53.9840     -66.7381      53.0911      58.8772 1533238539 9999999.9999
     459.0    1360.0098       0.0000    -126.6685    -999.2500     -78.4053      47.3163     -76.0969      46.2786      64.9790 1533238540 9999999.9999
     460.0    1357.3842       0.0000    -122.4052    -999.2500     -86.2378      40.3273     -83.9294      39.1378      71.0808 1533238541 9999999.9999
     461.0    1362.6454       0.0000    -117.5941    -999.2500     -93.3875      32.8563     -91.0791      31.5044      77.5937 1533238542 9999999.9999
     462.0    1365.2913       0.0000    -111.9568    -999.2500     -99.3723      25.1042     -97.0639      23.5838      83.6933 1533238543 9999999.9999
     463.0    1378.6765       0.0000    -105.1754    -999.2500    -103.7505      17.1110    -101.4421      15.4170      89.7951 1533238544 9999999.9999
     464.0    1378.6765       0.0000     -97.3450      78.9906    -105.5178       9.0777    -103.2094       7.2091      95.8968 1533238545 9999999.9999
     465.0    1381.3850       0.0000     -88.7209      76.7305    -105.6383       0.8033    -103.3299      -1.2450     101.9986 1533238546 9999999.9999
     466.0    1389.5751       0.0000     -79.9901      81.7125    -105.2768      -7.6718    -102.9684      -9.9043     108.1004 1533238547 9999999.9999
     467.0    1395.0892       0.0000     -72.2288      84.4476    -102.9873     -15.9462    -100.6789     -18.3584     114.2022 1533238548 9999999.9999
     468.0    1400.6475       0.0000     -65.9318    -999.2500     -98.5288     -23.7787     -96.2204     -26.3611     120.3040 1533238549 9999999.9999
     469.0    1403.4431       0.0000     -60.6603    -999.2500     -92.5842     -31.4505     -90.2757     -34.1996     126.3935 1533238550 9999999.9999
     470.0    1411.8976       0.0000     -56.2332    -999.2500     -85.7960     -38.7207     -83.4876     -41.6277     132.4954 1533238551 9999999.9999
     471.0    1417.5908       0.0000     -52.1918    -999.2500     -77.9233     -45.6695     -75.6149     -48.7276     138.5849 1533238552 9999999.9999
     472.0    1420.4546       0.0000     -47.9406    -999.2500     -68.2833     -52.2970     -65.9749     -55.4990     144.6868 1533238553 9999999.9999
     473.0    1429.1158       0.0000     -39.1195    -999.2500     -53.1003     -68.7653     -50.7919     -72.3252     151.1967 1533238554 9999999.9999
     474.0    1429.1158       0.0000     -35.0564    -999.2500     -46.3523     -78.4455     -44.0439     -82.2157     157.2863 1533238555 9999999.9999
     475.0    1429.1158       0.0000     -30.9789    -999.2500     -39.2027     -86.5190     -36.8943     -90.4646     163.3882 1533238556 9999999.9999
     476.0    1434.9490       0.0000     -26.4133    -999.2500     -31.8522     -92.8252     -29.5438     -96.9078     169.4901 1533238557 9999999.9999
