~VERSION INFORMATION
VERS.           2.0   :CWLS Log ASCII Standard - VERSION 2.0
WRAP.           NO    :One Line per depth step
PROD.  Schlumberger   :LAS Producer
PROG.  DLIS to ASCII 19C2-270                          :LAS Program name and version
CREA.        2018/08/03 10:59                          :LAS Creation date {YYYY/MM/DD hh:mm}
DLIS_CREA.  2018-Aug-03 09:22                          :DLIS Creation date and time {YYYY-MMM-DD hh:mm}
SOURCE.     PERFO_Perfo_075PTP.DLIS                    :DLIS File Name
FILE-ID.     PERFO_Perfo_075PTP                        :File Identification Number
#--------------------------------------------------
~WELL INFORMATION
#MNEM.UNIT      DATA             DESCRIPTION
#---- ------ --------------   -----------------------------
STRT .S            0.0       :START TIME      
STOP .S          907.0       :STOP TIME      
STEP .S            1.0       :STEP     
NULL .          -999.25      :NULL VALUE
COMP .        SHELL INTERNATIONAL EP                   :COMPANY
WELL .        WPP TEST 4                               :WELL
FLD  .        WILDCAT                                  :FIELD
LOC  .        NA                                       :LOCATION
CNTY .        HARRIS                                   :COUNTY
STAT .        TEXAS                                    :STATE
CTRY .                                                 :COUNTRY
API  .        NA                                       :API NUMBER
UWI  .                                                 :UNIQUE WELL ID
DATE .        02-Aug-2018                              :LOG DATE {DD-MMM-YYYY}
SRVC .        Schlumberger                             :SERVICE COMPANY
LATI .DEG                                              :LATITUDE
LONG .DEG                                              :LONGITUDE
GDAT .                                                 :GeoDetic Datum
SECT .        NA                                       :Section
RANG .        NA                                       :Range
TOWN .        NA                                       :Township
#-----------------------------------------------------------------------------
~PARAMETER INFORMATION
#MNEM.UNIT    VALUE                      DESCRIPTION
#---- -----   --------------------       ------------------------
U-PHASE_B_COMP_PER_YT.                 0 :Phase B Comparator Period Yt
U-PHASE_A_COMP_PER_XT.                 0 :Phase A Comparator Period Xt
U-MAX_EXC_CUR_LIMIT.MA       265.00000   :Requested CM Current Limit
U-REQ_EXC_FQ.HZ              50          :Requested CM Frequency
U-TILT_Y_OFFSET.          -2.06578       :WPTET Tilt Y Offset
U-TILT_Y_GAIN.           1.02173         :WPTET Tilt Y Gain
U-TILT_X_OFFSET.           2.30841       :WPTET Tilt X Offset
U-TILT_X_GAIN.           1.00000         :WPTET Tilt X Gain
U-TILT_OFFSET_TOL.           0.00100     :WPTET Tilt Offset Calibration Tolerance
U-MOT_CUR_LIMIT_REQ.MA        70.00000   :Requested Motor Current Limit
U-MOT_SPD_REQ_WPMS.RPM        1.00000    :Requested Motor Speed
U-STD_TOL_TILT.           0.01000        :Tilt Standard Deviation Tolerance
CWEI .LB/F      29.00000                 :Casing Weight
CSIZ .IN         7.00000                 :Current Casing Size
LCC  .               440                 :Logging Company Code
LUN  .              2134                 :Logging Unit Number
HIDE .                                   :Header Identifier
HID1 .                                   :Header Identifier Line 1
R1   .                                   :Remark Line 1
WITN .        MR. KELLY McCOY            :Witness's Name
ENGI .        MORRIS MOORE               :Engineer's Name
LUL  .        IOWA COLONY                :Logging Unit Location
DATE .        02-Aug-2018                :Date as Month-Day-Year
STAT .        TEXAS                      :State or Province
COUN .        HARRIS                     :County or Rig Name
FN   .        WILDCAT                    :Field Name
WN   .        WPP TEST 4                 :Well Name
CN   .        SHELL INTERNATIONAL EP     :Company Name
CLAB .        County                     :County/Rig Label
SLAB .        State                      :State/Province Label
RUN  .          1                        :RUN NUMBER
PDAT .        GROUND LEVEL               :Permanent Datum
EPD  .                                   :Elevation of Permanent Datum above Mean Sea Level
LMF  .          NA                       :Logging Measured From (Name of Logging Elevation Reference)
APD  .                                   :Elevation of Depth Reference (LMF) above Permanent Datum
#-----------------------------------------------------------------------------
~CURVE INFORMATION
#MNEM.UNIT   API CODE                                  DESCRIPTION
#---- -----  --------                                  -----------------------
TIME .S                                                :TIME {F10.1}
FREQ_EMF_SL.HZ                                         :Electromagnetic Field Frequency {F13.4}
PH_SH_WPPCM_SL.DEG                                     :WPPCM Phase Shift {F13.4}
RB_SL.DEG                                              :Relative Bearing {F13.4}
SDEV_SL.DEG                                            :Sonde Deviation {F13.4}
RTIX_SL.DEG                                            :Raw X-axis Tilt {F13.4}
RTIY_SL.DEG                                            :Raw Y-axis Tilt {F13.4}
TILX_SL.DEG                                            :X-axis Tilt {F13.4}
TILY_SL.DEG                                            :Y-axis Tilt {F13.4}
ROTA_SL.DEG                                            :Motor Rotation Angle {F13.4}
TOD7 .S                                                :Time of Day {I11}
TOJ  .S                                                :Time of Job {F13.4}
#-----------------------------------------------------------------------------
# 
#     TIME    FREQ_EMF_SL  PH_SH_WPPCM_    RB_SL       SDEV_SL      RTIX_SL      RTIY_SL      TILX_SL      TILY_SL      ROTA_SL        TOD7            TOJ
#                          SL
~A  
# ...
     742.0    1694.2772       0.0000     102.2842      86.2148     100.5372      14.0182     102.8456      12.2570     143.8232 1533241079 9999999.9999
     743.0    2038.0435       0.0000     108.9893    -999.2500      97.0427      21.4490      99.3511      19.8492     149.9251 1533241080 9999999.9999
     744.0    2305.3279       0.0000     115.4831    -999.2500      91.7808      29.8037      94.0892      28.3854     156.0270 1533241081 9999999.9999
     745.0    2407.9622       0.0000     120.3833    -999.2500      85.1533      37.1140      87.4617      35.8546     162.1289 1533241082 9999999.9999
     746.0    2475.7922       0.0000     124.8045    -999.2500      77.6823      44.3038      79.9907      43.2007     168.2308 1533241083 9999999.9999
     747.0    2467.1052       0.0000     129.2423    -999.2500      68.3637      51.3732      70.6721      50.4236     174.3235 1533241084 9999999.9999
     748.0    2484.5405       0.0000     137.4121    -999.2500      54.3857      66.0340      56.6941      65.4030     180.4254 1533241085 9999999.9999
     749.0    2475.7922       0.0000     141.5273    -999.2500      47.9992      75.9552      50.3076      75.5397     186.9322 1533241086 9999999.9999
     750.0    2467.1052       0.0000     145.2184    -999.2500      41.2913      83.4262      43.5997      83.1730     193.0341 1533241087 9999999.9999
     751.0    2475.7922       0.0000     149.5632    -999.2500      33.6597      91.6603      35.9681      91.5861     199.1360 1533241088 9999999.9999
     752.0    2484.5405       0.0000     154.3581    -999.2500      26.0682      98.0067      28.3766      98.0703     205.2510 1533241089 9999999.9999
     753.0    2475.7922       0.0000     160.2336    -999.2500      18.1955     102.7463      20.5039     102.9129     211.3529 1533241090 9999999.9999
     754.0    2484.5405       0.0000     167.0649      81.5401      10.4835     105.1965      12.7919     105.4163     217.4548 1533241091 9999999.9999
     755.0    2480.1587       0.0000     175.7265      74.4059       1.8075     105.9195       4.1159     106.1551     223.5567 1533241092 9999999.9999
     756.0    2467.1052       0.0000    -175.3106      74.5661      -6.8283     105.8793      -4.5199     106.1140     229.6717 1533241093 9999999.9999
     757.0    2484.5405       0.0000    -167.4907      83.7081     -14.7412     103.7907     -12.4328     103.9800     235.7775 1533241094 9999999.9999
     758.0    2475.7922       0.0000    -160.2557    -999.2500     -23.0557      99.1715     -20.7473      99.2604     241.8794 1533241095 9999999.9999
     759.0    2484.5405       0.0000    -154.1784    -999.2500     -31.2095      92.8653     -28.9011      92.8173     247.9813 1533241096 9999999.9999
     760.0    2467.1052       0.0000    -149.0865    -999.2500     -38.9617      85.7157     -36.6533      85.5122     254.0832 1533241097 9999999.9999
     761.0    2475.7922       0.0000    -144.5491    -999.2500     -46.3122      77.7225     -44.0038      77.3454     260.5899 1533241098 9999999.9999
     762.0    2475.7922       0.0000    -139.9189    -999.2500     -53.5020      68.4038     -51.1936      67.8243     266.6924 1533241099 9999999.9999
     763.0    2467.1052       0.0000    -131.8445    -999.2500     -67.4800      55.2292     -65.1716      54.3634     272.7943 1533241100 9999999.9999
     764.0    2484.5405       0.0000    -127.3911    -999.2500     -76.9192      48.4812     -74.6108      47.4687     278.9092 1533241101 9999999.9999
     765.0    2475.7922       0.0000    -123.1826    -999.2500     -85.1132      41.6127     -82.8048      40.4510     285.0110 1533241102 9999999.9999
     766.0    2475.7922       0.0000    -118.4029    -999.2500     -92.3833      34.0613     -90.0749      32.7356     291.1159 1533241103 9999999.9999
     767.0    2473.6147       0.0000    -112.6990    -999.2500     -98.7799      26.0581     -96.4715      24.5585     297.2177 1533241104 9999999.9999
     768.0    2441.4063       0.0000    -105.8361    -999.2500    -103.5095      17.8340    -101.2011      16.1557     303.3195 1533241105 9999999.9999
     769.0    2367.4243       0.0000     -98.2063      79.6132    -105.5178       9.9212    -103.2094       8.0709     309.4213 1533241106 9999999.9999
     770.0    2124.2446       0.0000     -89.5219      76.6785    -105.6383       1.5665    -103.3299      -0.4652     315.5231 1533241107 9999999.9999
     771.0    1826.2988       0.0000     -80.7948      80.7114    -105.3572      -6.8685    -103.0488      -9.0835     321.6249 1533241108 9999999.9999
     772.0    1464.8438       0.0000     -73.2162     101.1391    -103.5095     -14.8215    -101.2011     -17.2093     327.7267 1533241109 9999999.9999
     773.0    1244.4691       0.0000     -66.6786    -999.2500     -99.2920     -22.7745     -96.9836     -25.3351     333.8285 1533241110 9999999.9999
     774.0    1054.1604       0.0000     -61.3082    -999.2500     -93.5080     -30.4463     -91.1996     -33.1736     340.3352 1533241111 9999999.9999
     775.0     895.7007       0.0000     -56.8008    -999.2500     -86.8002     -37.7567     -84.4918     -40.6428     346.4370 1533241112 9999999.9999
     776.0     768.4426       0.0000     -52.6650    -999.2500     -78.9275     -44.8662     -76.6191     -47.9068     352.5388 1533241113 9999999.9999
     777.0     666.4692       0.0000     -48.5718    -999.2500     -69.7695     -51.4133     -67.4611     -54.5962     358.6406 1533241114 9999999.9999
     778.0     567.0363       0.0000     -39.6793    -999.2500     -53.9438     -67.3997     -51.6354     -70.9299       4.7455 1533241115 9999999.9999
     779.0     478.6419       0.0000     -35.6144    -999.2500     -47.3565     -77.3610     -45.0481     -81.1076      10.8473 1533241116 9999999.9999
     780.0     399.7300       0.0000     -31.2830    -999.2500     -39.7248     -86.0370     -37.4164     -89.9721      16.9492 1533241117 9999999.9999
     781.0     339.8381       0.0000     -26.8405    -999.2500     -32.4948     -92.3833     -30.1864     -96.4563      23.0479 1533241118 9999999.9999
     782.0     291.2697       0.0000     -21.8169    -999.2500     -25.4255     -97.0828     -23.1171    -101.2579      29.1528 1533241119 9999999.9999
     783.0     249.0701       0.0000     -15.6394      88.0891     -18.0750     -99.6937     -15.7666    -103.9255      35.2422 1533241120 9999999.9999
     784.0     222.3672       0.0000      -8.1278      77.5064     -10.2425    -100.6175      -7.9341    -104.8694      41.3703 1533241121 9999999.9999
     785.0     201.2954       0.0000       0.8912      75.4034      -1.4460    -100.3765       0.8624    -104.6232      47.4752 1533241122 9999999.9999
     786.0     192.7426       0.0000       9.6590      79.5801       7.1898     -99.9347       9.4982    -104.1717      53.9665 1533241123 9999999.9999
     787.0     193.5384       0.0000      16.8779      93.4837      14.9420     -98.0067      17.2504    -102.2019      60.0845 1533241124 9999999.9999
     788.0     201.0652       0.0000      22.7226    -999.2500      22.1720     -94.1908      24.4804     -98.3031      66.1863 1533241125 9999999.9999
     789.0     219.5893       0.0000      27.6192    -999.2500      29.2012     -88.6880      31.5096     -92.6807      72.2881 1533241126 9999999.9999
     790.0     248.9819       0.0000      31.9022    -999.2500      36.0697     -81.9802      38.3781     -85.8271      78.3930 1533241127 9999999.9999
     791.0     285.0122       0.0000      36.0295    -999.2500      42.9783     -74.0272      45.2867     -77.7013      84.4917 1533241128 9999999.9999
     792.0     340.0024       0.0000      40.9261    -999.2500      50.1682     -62.7403      52.4766     -66.1693      90.5935 1533241129 9999999.9999
     793.0     401.5562       0.0000      50.7408    -999.2500      71.0950     -48.4410      73.4034     -51.5593      96.6953 1533241130 9999999.9999
     794.0     480.9337       0.0000      54.5637    -999.2500      80.1727     -41.8938      82.4811     -44.8699     102.7970 1533241131 9999999.9999
