~VERSION INFORMATION
VERS.           2.0   :CWLS Log ASCII Standard - VERSION 2.0
WRAP.           NO    :One Line per depth step
PROD.  Schlumberger   :LAS Producer
PROG.  DLIS to ASCII 19C2-270                          :LAS Program name and version
CREA.        2018/08/03 10:59                          :LAS Creation date {YYYY/MM/DD hh:mm}
DLIS_CREA.  2018-Aug-03 09:22                          :DLIS Creation date and time {YYYY-MMM-DD hh:mm}
SOURCE.     PERFO_Perfo_075PTP.DLIS                    :DLIS File Name
FILE-ID.     PERFO_Perfo_075PTP                        :File Identification Number
#--------------------------------------------------
~WELL INFORMATION
#MNEM.UNIT      DATA             DESCRIPTION
#---- ------ --------------   -----------------------------
STRT .S            0.0       :START TIME      
STOP .S          907.0       :STOP TIME      
STEP .S            1.0       :STEP     
NULL .          -999.25      :NULL VALUE
COMP .        SHELL INTERNATIONAL EP                   :COMPANY
WELL .        WPP TEST 4                               :WELL
FLD  .        WILDCAT                                  :FIELD
LOC  .        NA                                       :LOCATION
CNTY .        HARRIS                                   :COUNTY
STAT .        TEXAS                                    :STATE
CTRY .                                                 :COUNTRY
API  .        NA                                       :API NUMBER
UWI  .                                                 :UNIQUE WELL ID
DATE .        02-Aug-2018                              :LOG DATE {DD-MMM-YYYY}
SRVC .        Schlumberger                             :SERVICE COMPANY
LATI .DEG                                              :LATITUDE
LONG .DEG                                              :LONGITUDE
GDAT .                                                 :GeoDetic Datum
SECT .        NA                                       :Section
RANG .        NA                                       :Range
TOWN .        NA                                       :Township
#-----------------------------------------------------------------------------
~PARAMETER INFORMATION
#MNEM.UNIT    VALUE                      DESCRIPTION
#---- -----   --------------------       ------------------------
U-PHASE_B_COMP_PER_YT.                 0 :Phase B Comparator Period Yt
U-PHASE_A_COMP_PER_XT.                 0 :Phase A Comparator Period Xt
U-MAX_EXC_CUR_LIMIT.MA       265.00000   :Requested CM Current Limit
U-REQ_EXC_FQ.HZ              50          :Requested CM Frequency
U-TILT_Y_OFFSET.          -2.06578       :WPTET Tilt Y Offset
U-TILT_Y_GAIN.           1.02173         :WPTET Tilt Y Gain
U-TILT_X_OFFSET.           2.30841       :WPTET Tilt X Offset
U-TILT_X_GAIN.           1.00000         :WPTET Tilt X Gain
U-TILT_OFFSET_TOL.           0.00100     :WPTET Tilt Offset Calibration Tolerance
U-MOT_CUR_LIMIT_REQ.MA        70.00000   :Requested Motor Current Limit
U-MOT_SPD_REQ_WPMS.RPM        1.00000    :Requested Motor Speed
U-STD_TOL_TILT.           0.01000        :Tilt Standard Deviation Tolerance
CWEI .LB/F      29.00000                 :Casing Weight
CSIZ .IN         7.00000                 :Current Casing Size
LCC  .               440                 :Logging Company Code
LUN  .              2134                 :Logging Unit Number
HIDE .                                   :Header Identifier
HID1 .                                   :Header Identifier Line 1
R1   .                                   :Remark Line 1
WITN .        MR. KELLY McCOY            :Witness's Name
ENGI .        MORRIS MOORE               :Engineer's Name
LUL  .        IOWA COLONY                :Logging Unit Location
DATE .        02-Aug-2018                :Date as Month-Day-Year
STAT .        TEXAS                      :State or Province
COUN .        HARRIS                     :County or Rig Name
FN   .        WILDCAT                    :Field Name
WN   .        WPP TEST 4                 :Well Name
CN   .        SHELL INTERNATIONAL EP     :Company Name
CLAB .        County                     :County/Rig Label
SLAB .        State                      :State/Province Label
RUN  .          1                        :RUN NUMBER
PDAT .        GROUND LEVEL               :Permanent Datum
EPD  .                                   :Elevation of Permanent Datum above Mean Sea Level
LMF  .          NA                       :Logging Measured From (Name of Logging Elevation Reference)
APD  .                                   :Elevation of Depth Reference (LMF) above Permanent Datum
#-----------------------------------------------------------------------------
~CURVE INFORMATION
#MNEM.UNIT   API CODE                                  DESCRIPTION
#---- -----  --------                                  -----------------------
TIME .S                                                :TIME {F10.1}
FREQ_EMF_SL.HZ                                         :Electromagnetic Field Frequency {F13.4}
PH_SH_WPPCM_SL.DEG                                     :WPPCM Phase Shift {F13.4}
RB_SL.DEG                                              :Relative Bearing {F13.4}
SDEV_SL.DEG                                            :Sonde Deviation {F13.4}
RTIX_SL.DEG                                            :Raw X-axis Tilt {F13.4}
RTIY_SL.DEG                                            :Raw Y-axis Tilt {F13.4}
TILX_SL.DEG                                            :X-axis Tilt {F13.4}
TILY_SL.DEG                                            :Y-axis Tilt {F13.4}
ROTA_SL.DEG                                            :Motor Rotation Angle {F13.4}
TOD7 .S                                                :Time of Day {I11}
TOJ  .S                                                :Time of Job {F13.4}
#-----------------------------------------------------------------------------
# 
#     TIME    FREQ_EMF_SL  PH_SH_WPPCM_    RB_SL       SDEV_SL      RTIX_SL      RTIY_SL      TILX_SL      TILY_SL      ROTA_SL        TOD7            TOJ
#                          SL
~A  
# ...
     689.0    2475.7922       0.0000     138.7725    -999.2500      52.4577      69.3277      54.7661      68.7682     178.7428 1533241026 9999999.9999
     690.0    2467.1052       0.0000     142.6794    -999.2500      45.9507      78.5258      48.2591      78.1662     184.8447 1533241027 9999999.9999
     691.0    2475.7922       0.0000     146.6694    -999.2500      38.7207      86.7198      41.0291      86.5382     190.9466 1533241028 9999999.9999
     692.0    2475.7922       0.0000     150.9144    -999.2500      31.4103      93.7088      33.7187      93.6791     197.0616 1533241029 9999999.9999
     693.0    2467.1052       0.0000     156.0154    -999.2500      23.6983      99.6535      26.0067      99.7529     203.1635 1533241030 9999999.9999
     694.0    2484.5405       0.0000     162.4940    -999.2500      15.5043     103.9112      17.8127     104.1031     209.2784 1533241031 9999999.9999
     695.0    2475.7922       0.0000     170.3455      77.3470       7.1095     105.6383       9.4179     105.8678     215.3803 1533241032 9999999.9999
     696.0    2467.1052       0.0000     178.6007      73.9040      -0.9640     105.9195       1.3444     106.1551     221.4822 1533241033 9999999.9999
     697.0    2467.1052       0.0000    -172.3661      76.1887      -9.7203     105.5178      -7.4119     105.7447     227.5973 1533241034 9999999.9999
     698.0    2449.9128       0.0000    -164.8133      93.2249     -17.6733     102.3848     -15.3649     102.5436     233.6992 1533241035 9999999.9999
     699.0    2383.4746       0.0000    -157.8127    -999.2500     -26.1887      96.9222     -23.8803      96.9622     239.7888 1533241036 9999999.9999
     700.0    2225.0791       0.0000    -152.1638    -999.2500     -34.1818      90.3348     -31.8734      90.2318     245.9038 1533241037 9999999.9999
     701.0    1860.1190       0.0000    -147.5662    -999.2500     -41.4118      83.2655     -39.1034      83.0088     252.4138 1533241038 9999999.9999
     702.0    1458.7655       0.0000    -142.9991    -999.2500     -48.8427      74.8305     -46.5343      74.3906     258.5156 1533241039 9999999.9999
     703.0    1326.6509       0.0000    -137.9491    -999.2500     -56.3137      64.4273     -54.0053      63.7614     264.6182 1533241040 9999999.9999
     704.0    1370.6140       0.0000    -130.2163    -999.2500     -71.0147      52.8995     -68.7063      51.9831     270.7332 1533241041 9999999.9999
     705.0    1357.3842       0.0000    -125.8411    -999.2500     -80.1727      45.9908     -77.8643      44.9243     276.8350 1533241042 9999999.9999
     706.0    1349.5681       0.0000    -121.5266    -999.2500     -87.8043      38.9215     -85.4959      37.7014     282.9399 1533241043 9999999.9999
     707.0    1414.7384       0.0000    -116.2682    -999.2500     -95.1147      30.9283     -92.8063      29.5345     289.0518 1533241044 9999999.9999
     708.0    1397.8628       0.0000    -110.1240    -999.2500    -100.8585      22.8147     -98.5501      21.2446     295.1536 1533241045 9999999.9999
     709.0    1403.4431       0.0000    -102.9608      84.6419    -104.5940      14.7412    -102.2856      12.9957     301.2554 1533241046 9999999.9999
     710.0    1409.0682       0.0000     -95.1520      77.7329    -105.5982       6.9488    -103.2897       5.0340     307.3572 1533241047 9999999.9999
     711.0    2111.4866       0.0000     -86.4084      77.1964    -105.5982      -1.4058    -103.2897      -3.5022     313.4590 1533241048 9999999.9999
     712.0       0.0000       0.0000     -77.7399      87.0407    -104.9153      -9.9613    -102.6069     -12.2435     319.6561 1533241049 9999999.9999
     713.0       0.0000       0.0000     -70.5761    -999.2500    -102.1840     -17.8742     -99.8756     -20.3283     326.1659 1533241050 9999999.9999
     714.0       0.0000       0.0000     -64.5274    -999.2500     -97.3238     -25.7067     -95.0154     -28.3310     332.2870 1533241051 9999999.9999
     715.0       0.0000       0.0000     -59.4705    -999.2500     -91.0578     -33.3383     -88.7494     -36.1285     338.3827 1533241052 9999999.9999
     716.0       0.0000       0.0000     -55.2333    -999.2500     -84.0688     -40.4478     -81.7604     -43.3924     344.4845 1533241053 9999999.9999
     717.0       0.0000       0.0000     -51.2531    -999.2500     -75.8748     -47.2360     -73.5664     -50.3281     350.5863 1533241054 9999999.9999
     718.0       0.0000       0.0000     -46.7220    -999.2500     -65.3913     -53.8635     -63.0829     -57.0996     356.6881 1533241055 9999999.9999
     719.0       0.0000       0.0000     -37.9656    -999.2500     -51.3330     -71.7377     -49.0246     -75.3621       2.7777 1533241056 9999999.9999
     720.0       0.0000       0.0000     -33.7745    -999.2500     -44.1030     -81.3777     -41.7946     -85.2115       8.8795 1533241057 9999999.9999
     721.0       0.0000       0.0000     -29.6938    -999.2500     -37.0337     -88.6478     -34.7253     -92.6397      14.9945 1533241058 9999999.9999
     722.0       0.0000       0.0000     -24.1076    -999.2500     -28.4782     -95.5967     -26.1698     -99.7395      21.0963 1533241059 9999999.9999
     723.0       0.0000       0.0000     -19.0415    -999.2500     -21.9712     -98.6493     -19.6628    -102.8585      27.1981 1533241060 9999999.9999
     724.0       0.0000       0.0000     -12.6507      82.9406     -14.8617    -100.2158     -12.5533    -104.4590      33.2876 1533241061 9999999.9999
     725.0       0.0000       0.0000      -4.1631      75.9267      -6.3463    -100.4167      -4.0379    -104.6642      39.7852 1533241062 9999999.9999
     726.0       0.0000       0.0000       4.8993      76.2487       2.4502    -100.3363       4.7586    -104.5821      45.8747 1533241063 9999999.9999
     727.0       0.0000       0.0000      12.6452      84.7396      10.2827     -99.4527      12.5911    -103.6793      51.9897 1533241064 9999999.9999
     728.0       0.0000       0.0000      19.2166    -999.2500      17.7135     -96.6410      20.0219    -100.8065      58.0946 1533241065 9999999.9999
     729.0       0.0000       0.0000      24.7590    -999.2500      24.9837     -92.1022      27.2921     -96.1691      64.1934 1533241066 9999999.9999
     730.0       0.0000       0.0000      29.4409    -999.2500      32.0530     -85.9968      34.3614     -89.9311      70.2952 1533241067 9999999.9999
     731.0       0.0000       0.0000      33.8608    -999.2500      39.3633     -78.4857      41.6717     -82.2567      76.3846 1533241068 9999999.9999
     732.0       0.0000       0.0000      38.0629    -999.2500      46.2318     -69.5687      48.5402     -73.1460      82.5026 1533241069 9999999.9999
     733.0       0.0000       0.0000      43.7524    -999.2500      50.2887     -52.8593      52.5971     -56.0736      88.6013 1533241070 9999999.9999
     734.0       0.0000       0.0000      52.3099    -999.2500      74.9108     -45.8302      77.2192     -48.8917      94.7031 1533241071 9999999.9999
     735.0       0.0000       0.0000      56.0533    -999.2500      83.3458     -39.2428      85.6542     -42.1612     100.8218 1533241072 9999999.9999
     736.0       0.0000       0.0000      60.0271    -999.2500      90.0938     -32.4145      92.4022     -35.1846     106.9021 1533241073 9999999.9999
     737.0       0.0000       0.0000      64.6959    -999.2500      95.6368     -25.3050      97.9452     -27.9206     113.4058 1533241074 9999999.9999
     738.0       0.0000       0.0000      70.1758    -999.2500      99.0510     -18.2357     101.3594     -20.6977     119.5076 1533241075 9999999.9999
     739.0       0.0000       0.0000      77.0596      83.7243     100.6175     -10.6442     102.9259     -12.9412     125.6224 1533241076 9999999.9999
     740.0       0.0000       0.0000      85.6930      77.2058     101.1798      -2.0887     103.4882      -4.1998     131.7373 1533241077 9999999.9999
     741.0    2003.2051       0.0000      94.3669      76.9711     101.4208       6.1857     103.7292       4.2543     137.7337 1533241078 9999999.9999
