~VERSION INFORMATION
VERS.           2.0   :CWLS Log ASCII Standard - VERSION 2.0
WRAP.           NO    :One Line per depth step
PROD.  Schlumberger   :LAS Producer
PROG.  DLIS to ASCII 19C2-270                          :LAS Program name and version
CREA.        2018/08/03 10:59                          :LAS Creation date {YYYY/MM/DD hh:mm}
DLIS_CREA.  2018-Aug-03 09:22                          :DLIS Creation date and time {YYYY-MMM-DD hh:mm}
SOURCE.     PERFO_Perfo_075PTP.DLIS                    :DLIS File Name
FILE-ID.     PERFO_Perfo_075PTP                        :File Identification Number
#--------------------------------------------------
~WELL INFORMATION
#MNEM.UNIT      DATA             DESCRIPTION
#---- ------ --------------   -----------------------------
STRT .S            0.0       :START TIME      
STOP .S          907.0       :STOP TIME      
STEP .S            1.0       :STEP     
NULL .          -999.25      :NULL VALUE
COMP .        SHELL INTERNATIONAL EP                   :COMPANY
WELL .        WPP TEST 4                               :WELL
FLD  .        WILDCAT                                  :FIELD
LOC  .        NA                                       :LOCATION
CNTY .        HARRIS                                   :COUNTY
STAT .        TEXAS                                    :STATE
CTRY .                                                 :COUNTRY
API  .        NA                                       :API NUMBER
UWI  .                                                 :UNIQUE WELL ID
DATE .        02-Aug-2018                              :LOG DATE {DD-MMM-YYYY}
SRVC .        Schlumberger                             :SERVICE COMPANY
LATI .DEG                                              :LATITUDE
LONG .DEG                                              :LONGITUDE
GDAT .                                                 :GeoDetic Datum
SECT .        NA                                       :Section
RANG .        NA                                       :Range
TOWN .        NA                                       :Township
#-----------------------------------------------------------------------------
~PARAMETER INFORMATION
#MNEM.UNIT    VALUE                      DESCRIPTION
#---- -----   --------------------       ------------------------
U-PHASE_B_COMP_PER_YT.                 0 :Phase B Comparator Period Yt
U-PHASE_A_COMP_PER_XT.                 0 :Phase A Comparator Period Xt
U-MAX_EXC_CUR_LIMIT.MA       265.00000   :Requested CM Current Limit
U-REQ_EXC_FQ.HZ              50          :Requested CM Frequency
U-TILT_Y_OFFSET.          -2.06578       :WPTET Tilt Y Offset
U-TILT_Y_GAIN.           1.02173         :WPTET Tilt Y Gain
U-TILT_X_OFFSET.           2.30841       :WPTET Tilt X Offset
U-TILT_X_GAIN.           1.00000         :WPTET Tilt X Gain
U-TILT_OFFSET_TOL.           0.00100     :WPTET Tilt Offset Calibration Tolerance
U-MOT_CUR_LIMIT_REQ.MA        70.00000   :Requested Motor Current Limit
U-MOT_SPD_REQ_WPMS.RPM        1.00000    :Requested Motor Speed
U-STD_TOL_TILT.           0.01000        :Tilt Standard Deviation Tolerance
CWEI .LB/F      29.00000                 :Casing Weight
CSIZ .IN         7.00000                 :Current Casing Size
LCC  .               440                 :Logging Company Code
LUN  .              2134                 :Logging Unit Number
HIDE .                                   :Header Identifier
HID1 .                                   :Header Identifier Line 1
R1   .                                   :Remark Line 1
WITN .        MR. KELLY McCOY            :Witness's Name
ENGI .        MORRIS MOORE               :Engineer's Name
LUL  .        IOWA COLONY                :Logging Unit Location
DATE .        02-Aug-2018                :Date as Month-Day-Year
STAT .        TEXAS                      :State or Province
COUN .        HARRIS                     :County or Rig Name
FN   .        WILDCAT                    :Field Name
WN   .        WPP TEST 4                 :Well Name
CN   .        SHELL INTERNATIONAL EP     :Company Name
CLAB .        County                     :County/Rig Label
SLAB .        State                      :State/Province Label
RUN  .          1                        :RUN NUMBER
PDAT .        GROUND LEVEL               :Permanent Datum
EPD  .                                   :Elevation of Permanent Datum above Mean Sea Level
LMF  .          NA                       :Logging Measured From (Name of Logging Elevation Reference)
APD  .                                   :Elevation of Depth Reference (LMF) above Permanent Datum
#-----------------------------------------------------------------------------
~CURVE INFORMATION
#MNEM.UNIT   API CODE                                  DESCRIPTION
#---- -----  --------                                  -----------------------
TIME .S                                                :TIME {F10.1}
FREQ_EMF_SL.HZ                                         :Electromagnetic Field Frequency {F13.4}
PH_SH_WPPCM_SL.DEG                                     :WPPCM Phase Shift {F13.4}
RB_SL.DEG                                              :Relative Bearing {F13.4}
SDEV_SL.DEG                                            :Sonde Deviation {F13.4}
RTIX_SL.DEG                                            :Raw X-axis Tilt {F13.4}
RTIY_SL.DEG                                            :Raw Y-axis Tilt {F13.4}
TILX_SL.DEG                                            :X-axis Tilt {F13.4}
TILY_SL.DEG                                            :Y-axis Tilt {F13.4}
ROTA_SL.DEG                                            :Motor Rotation Angle {F13.4}
TOD7 .S                                                :Time of Day {I11}
TOJ  .S                                                :Time of Job {F13.4}
#-----------------------------------------------------------------------------
# 
#     TIME    FREQ_EMF_SL  PH_SH_WPPCM_    RB_SL       SDEV_SL      RTIX_SL      RTIY_SL      TILX_SL      TILY_SL      ROTA_SL        TOD7            TOJ
#                          SL
~A  
       0.0    2055.9211       0.0000     -69.7141    -999.2500    -101.5815     -18.9185     -99.2731     -21.3953     273.6683 1533240338 9999999.9999
       1.0    2204.1536       0.0000     -65.7230    -999.2500     -98.3682     -24.0598     -96.0598     -26.6484     278.1442 1533240338 9999999.9999
       2.0    2312.9111       0.0000     -60.4039    -999.2500     -92.3833     -31.8522     -90.0749     -34.6100     284.2460 1533240339 9999999.9999
       3.0    2407.9622       0.0000     -56.0882    -999.2500     -85.4747     -38.9617     -83.1663     -41.8740     290.3478 1533240340 9999999.9999
       4.0    2449.9128       0.0000     -52.0420    -999.2500     -77.5618     -45.9105     -75.2534     -48.9738     296.4496 1533240341 9999999.9999
       5.0    2475.7922       0.0000     -47.4437    -999.2500     -67.0783     -52.9397     -64.7699     -56.1557     302.5515 1533240342 9999999.9999
       6.0    2475.7922       0.0000     -38.7202    -999.2500     -52.5380     -69.8900     -50.2296     -73.4743     308.6533 1533240343 9999999.9999
       7.0    2484.5405       0.0000     -34.6310    -999.2500     -45.6293     -79.6103     -43.3209     -83.4058     314.7551 1533240344 9999999.9999
       8.0    2475.7922       0.0000     -30.5780    -999.2500     -38.5198     -87.1617     -36.2114     -91.1212     320.8569 1533240345 9999999.9999
       9.0    2480.1587       0.0000     -26.1489    -999.2500     -31.4505     -93.2067     -29.1421     -97.2977     326.9587 1533240346 9999999.9999
      10.0    2475.7922       0.0000     -20.7103    -999.2500     -24.0197     -97.7255     -21.7113    -101.9146     332.6525 1533240347 9999999.9999
      11.0    2475.7922       0.0000     -14.2386 -483251.4612     -16.5487     -99.9748     -14.2403    -104.2128     339.1498 1533240348 9999999.9999
      12.0    2467.1052       0.0000      -6.3793      76.6773      -8.5153    -100.4970      -6.2069    -104.7463     345.2647 1533240349 9999999.9999
      13.0    2475.7922       0.0000       2.7153      75.5839       0.3213    -100.4167       2.6297    -104.6642     351.3665 1533240350 9999999.9999
      14.0    2467.1052       0.0000      11.1085      81.4807       8.6760     -99.7338      10.9844    -103.9666     357.4683 1533240351 9999999.9999
      15.0    2475.7922       0.0000      17.8075      84.9497      16.0265     -97.4845      18.3349    -101.6683       3.5701 1533240352 9999999.9999
      16.0    2475.7922       0.0000      23.5108    -999.2500      23.2565     -93.1867      25.5649     -97.2771       9.6597 1533240353 9999999.9999
      17.0    2467.1052       0.0000      28.5459    -999.2500      30.6371     -87.3926      32.9455     -91.3572      15.7746 1533240354 9999999.9999
      18.0    2467.1052       0.0000      32.8568    -999.2500      37.6763     -80.4137      39.9847     -84.2266      21.8895 1533240355 9999999.9999
      19.0    2467.1052       0.0000      37.0348    -999.2500      44.5448     -71.6172      46.8532     -75.2390      27.9914 1533240356 9999999.9999
      20.0    2467.1052       0.0000      41.8698    -999.2500      50.9715     -60.0492      53.2799     -63.4196      34.0932 1533240357 9999999.9999
      21.0    2467.1052       0.0000      51.3798    -999.2500      72.6615     -47.3967      74.9699     -50.4922      40.1950 1533240358 9999999.9999
      22.0    2484.5405       0.0000      55.1825    -999.2500      81.2973     -40.7692      83.6057     -43.7207      46.2845 1533240359 9999999.9999
      23.0    2467.1052       0.0000      59.0354    -999.2500      88.4872     -34.0613      90.7956     -36.8672      52.3864 1533240360 9999999.9999
      24.0    2449.9128       0.0000      63.5298    -999.2500      94.3113     -26.9920      96.6197     -29.6442      58.8962 1533240361 9999999.9999
      25.0    2391.5815       0.0000      68.6171    -999.2500      98.4083     -20.1235     100.7167     -22.6265      64.9980 1533240362 9999999.9999
      26.0    2335.9634       0.0000      75.1126    -999.2500     100.3363     -12.6927     102.6447     -15.0342      71.0998 1533240363 9999999.9999
      27.0    2246.4058       0.0000      83.4087      78.4371     100.9790      -4.2978     103.2874      -6.4570      77.2016 1533240364 9999999.9999
      28.0    1921.1066       0.0000      92.4335      76.5249     101.3807       4.3380     103.6891       2.3665      83.3034 1533240365 9999999.9999
      29.0    1534.3699       0.0000     100.9476      82.8598     100.7380      12.6525     103.0464      10.8616      89.4182 1533240366 9999999.9999
      30.0    1309.3575       0.0000     108.1818      88.4388      97.8058      20.4850     100.1142      18.8643      95.5200 1533240367 9999999.9999
      31.0    1145.1547       0.0000     114.2891    -999.2500      92.9858      28.1568      95.2942      26.7028     101.6218 1533240368 9999999.9999
      32.0     998.7571       0.0000     119.2997    -999.2500      86.7198      35.4270      89.0282      34.1309     107.7235 1533240369 9999999.9999
      33.0     873.4471       0.0000     123.8668    -999.2500      79.2890      42.7373      81.5974      41.6001     113.8253 1533240370 9999999.9999
      34.0     771.8167       0.0000     128.2759    -999.2500      70.4523      49.8870      72.7607      48.9051     119.9271 1533240371 9999999.9999
      35.0     681.9835       0.0000     134.3126    -999.2500      56.7555      57.6793      59.0639      56.8668     126.0289 1533240372 9999999.9999
      36.0     600.4483       0.0000     140.6667    -999.2500      49.3648      73.6657      51.6732      73.2004     132.5388 1533240373 9999999.9999
      37.0     535.1027       0.0000     144.5077    -999.2500      42.6570      82.5827      44.9654      82.3112     138.6407 1533240374 9999999.9999
      38.0     474.7637       0.0000     148.5096    -999.2500      35.4672      90.0135      37.7756      89.9035     144.7426 1533240375 9999999.9999
      39.0     420.5293       0.0000     153.1510    -999.2500      27.8757      96.6410      30.1841      96.6750     150.8445 1533240376 9999999.9999
      40.0     382.3409       0.0000     158.8676    -999.2500      19.9227     101.6618      22.2311     101.8049     156.9594 1533240377 9999999.9999
      41.0     348.9454       0.0000     165.5252      85.9998      12.1303     104.7948      14.4387     105.0060     163.0613 1533240378 9999999.9999
      42.0     325.8225       0.0000     174.0334      75.0041       3.4543     105.8793       5.7627     106.1140     169.1632 1533240379 9999999.9999
      43.0     309.7467       0.0000    -177.3878      74.0520      -4.8200     105.9195      -2.5116     106.1551     175.2651 1533240380 9999999.9999
      44.0     305.4409       0.0000    -169.3584      79.5940     -12.7730     104.6342     -10.4646     104.8418     181.3547 1533240381 9999999.9999
      45.0     310.2935       0.0000    -161.9418      82.6609     -21.0072     100.3765     -18.6988     100.4916     187.4566 1533240382 9999999.9999
      46.0     322.3865       0.0000    -155.5642    -999.2500     -29.2413      94.5523     -26.9329      94.5409     193.5585 1533240383 9999999.9999
      47.0     348.2541       0.0000    -150.2571    -999.2500     -37.1140      87.5633     -34.8056      87.4001     199.6604 1533240384 9999999.9999
      48.0     377.8211       0.0000    -145.6125    -999.2500     -44.5850      79.7308     -42.2766      79.3974     206.1703 1533240385 9999999.9999
      49.0     417.0374       0.0000    -141.0367    -999.2500     -51.8552      70.7335     -49.5468      70.2046     212.2722 1533240386 9999999.9999
      50.0     470.0034       0.0000    -133.0371    -999.2500     -65.0298      56.9162     -62.7214      56.0870     218.3741 1533240387 9999999.9999
      51.0     531.4626       0.0000    -128.3521    -999.2500     -74.9108      50.0075     -72.6024      49.0282     224.4760 1533240388 9999999.9999
      52.0     606.6652       0.0000    -124.1374    -999.2500     -83.3860      43.1792     -81.0776      42.0516     230.5779 1533240389 9999999.9999
