~VERSION INFORMATION
VERS.           2.0   :CWLS Log ASCII Standard - VERSION 2.0
WRAP.           NO    :One Line per depth step
PROD.  Schlumberger   :LAS Producer
PROG.  DLIS to ASCII 19C2-270                          :LAS Program name and version
CREA.        2018/08/03 10:59                          :LAS Creation date {YYYY/MM/DD hh:mm}
DLIS_CREA.  2018-Aug-03 09:18                          :DLIS Creation date and time {YYYY-MMM-DD hh:mm}
SOURCE.     PERFO_Perfo_074PTP.DLIS                    :DLIS File Name
FILE-ID.     PERFO_Perfo_074PTP                        :File Identification Number
#--------------------------------------------------
~WELL INFORMATION
#MNEM.UNIT      DATA             DESCRIPTION
#---- ------ --------------   -----------------------------
STRT .S            0.0       :START TIME      
STOP .S          866.0       :STOP TIME      
STEP .S            1.0       :STEP     
NULL .          -999.25      :NULL VALUE
COMP .        SHELL INTERNATIONAL EP                   :COMPANY
WELL .        WPP TEST 4                               :WELL
FLD  .        WILDCAT                                  :FIELD
LOC  .        NA                                       :LOCATION
CNTY .        HARRIS                                   :COUNTY
STAT .        TEXAS                                    :STATE
CTRY .                                                 :COUNTRY
API  .        NA                                       :API NUMBER
UWI  .                                                 :UNIQUE WELL ID
DATE .        02-Aug-2018                              :LOG DATE {DD-MMM-YYYY}
SRVC .        Schlumberger                             :SERVICE COMPANY
LATI .DEG                                              :LATITUDE
LONG .DEG                                              :LONGITUDE
GDAT .                                                 :GeoDetic Datum
SECT .        NA                                       :Section
RANG .        NA                                       :Range
TOWN .        NA                                       :Township
#-----------------------------------------------------------------------------
~PARAMETER INFORMATION
#MNEM.UNIT    VALUE                      DESCRIPTION
#---- -----   --------------------       ------------------------
U-PHASE_B_COMP_PER_YT.                 0 :Phase B Comparator Period Yt
U-PHASE_A_COMP_PER_XT.                 0 :Phase A Comparator Period Xt
U-MAX_EXC_CUR_LIMIT.MA       265.00000   :Requested CM Current Limit
U-REQ_EXC_FQ.HZ              50          :Requested CM Frequency
U-TILT_Y_OFFSET.          -2.06578       :WPTET Tilt Y Offset
U-TILT_Y_GAIN.           1.02173         :WPTET Tilt Y Gain
U-TILT_X_OFFSET.           2.30841       :WPTET Tilt X Offset
U-TILT_X_GAIN.           1.00000         :WPTET Tilt X Gain
U-TILT_OFFSET_TOL.           0.00100     :WPTET Tilt Offset Calibration Tolerance
U-MOT_CUR_LIMIT_REQ.MA        70.00000   :Requested Motor Current Limit
U-MOT_SPD_REQ_WPMS.RPM        1.00000    :Requested Motor Speed
U-STD_TOL_TILT.           0.01000        :Tilt Standard Deviation Tolerance
CWEI .LB/F      29.00000                 :Casing Weight
CSIZ .IN         7.00000                 :Current Casing Size
LCC  .               440                 :Logging Company Code
LUN  .              2134                 :Logging Unit Number
HIDE .                                   :Header Identifier
HID1 .                                   :Header Identifier Line 1
R1   .                                   :Remark Line 1
WITN .        MR. KELLY McCOY            :Witness's Name
ENGI .        MORRIS MOORE               :Engineer's Name
LUL  .        IOWA COLONY                :Logging Unit Location
DATE .        02-Aug-2018                :Date as Month-Day-Year
STAT .        TEXAS                      :State or Province
COUN .        HARRIS                     :County or Rig Name
FN   .        WILDCAT                    :Field Name
WN   .        WPP TEST 4                 :Well Name
CN   .        SHELL INTERNATIONAL EP     :Company Name
CLAB .        County                     :County/Rig Label
SLAB .        State                      :State/Province Label
RUN  .          1                        :RUN NUMBER
PDAT .        GROUND LEVEL               :Permanent Datum
EPD  .                                   :Elevation of Permanent Datum above Mean Sea Level
LMF  .          NA                       :Logging Measured From (Name of Logging Elevation Reference)
APD  .                                   :Elevation of Depth Reference (LMF) above Permanent Datum
#-----------------------------------------------------------------------------
~CURVE INFORMATION
#MNEM.UNIT   API CODE                                  DESCRIPTION
#---- -----  --------                                  -----------------------
TIME .S                                                :TIME {F10.1}
FREQ_EMF_SL.HZ                                         :Electromagnetic Field Frequency {F13.4}
PH_SH_WPPCM_SL.DEG                                     :WPPCM Phase Shift {F13.4}
RB_SL.DEG                                              :Relative Bearing {F13.4}
SDEV_SL.DEG                                            :Sonde Deviation {F13.4}
RTIX_SL.DEG                                            :Raw X-axis Tilt {F13.4}
RTIY_SL.DEG                                            :Raw Y-axis Tilt {F13.4}
TILX_SL.DEG                                            :X-axis Tilt {F13.4}
TILY_SL.DEG                                            :Y-axis Tilt {F13.4}
ROTA_SL.DEG                                            :Motor Rotation Angle {F13.4}
TOD7 .S                                                :Time of Day {I11}
TOJ  .S                                                :Time of Job {F13.4}
#-----------------------------------------------------------------------------
# 
#     TIME    FREQ_EMF_SL  PH_SH_WPPCM_    RB_SL       SDEV_SL      RTIX_SL      RTIY_SL      TILX_SL      TILY_SL      ROTA_SL        TOD7            TOJ
#                          SL
~A  
# ...
     477.0    1088.4288       0.0000      15.4835      92.6414      13.3755     -98.4083      15.6839    -102.6123     325.9977 1533239876 9999999.9999
     478.0    1175.7943       0.0000      21.5815    -999.2500      20.6858     -94.9138      22.9942     -99.0418     332.0964 1533239877 9999999.9999
     479.0    1271.4738       0.0000      26.7960    -999.2500      27.9560     -89.6922      30.2644     -93.7067     338.1859 1533239878 9999999.9999
     480.0    1384.1044       0.0000      30.7716    -999.2500      34.1818     -83.2253      36.4902     -87.0994     344.7088 1533239879 9999999.9999
     481.0    1512.0968       0.0000      35.2233    -999.2500      41.6127     -75.5535      43.9211     -79.2608     350.7860 1533239880 9999999.9999
     482.0    1642.8153       0.0000      39.5110    -999.2500      48.2803     -66.0340      50.5887     -69.5345     356.8878 1533239881 9999999.9999
     483.0    1771.0958       0.0000      49.3446    -999.2500      67.8013     -50.6903      70.1097     -53.8575       2.9903 1533239882 9999999.9999
     484.0    1931.6620       0.0000      53.6149    -999.2500      77.8430     -43.5407      80.1514     -46.5525       9.0922 1533239883 9999999.9999
     485.0    2080.2515       0.0000      57.3923    -999.2500      85.6353     -36.8730      87.9437     -39.7399      15.2071 1533239884 9999999.9999
     486.0    2197.2656       0.0000      61.8186    -999.2500      92.4637     -29.5627      94.7721     -32.2708      21.3089 1533239885 9999999.9999
     487.0    2268.1450       0.0000      66.7061    -999.2500      97.1632     -22.5737      99.4716     -25.1299      27.4108 1533239886 9999999.9999
     488.0    2312.9111       0.0000      72.9070    -999.2500      99.8142     -15.1027     102.1226     -17.4966      33.5003 1533239887 9999999.9999
     489.0    2335.9634       0.0000      80.5893      80.8069     100.8183      -7.0693     103.1267      -9.2887      39.6152 1533239888 9999999.9999
     490.0    2367.4243       0.0000      89.3528      76.5270     101.1798       1.4058     103.4882      -0.6294      45.7170 1533239889 9999999.9999
     491.0    2391.5815       0.0000      98.0162      78.9168     101.3405       9.7203     103.6489       7.8657      51.8188 1533239890 9999999.9999
     492.0    2399.7441       0.0000     105.1522      93.4446      99.4125      17.0708     101.7209      15.3760      58.3164 1533239891 9999999.9999
     493.0    2416.2371       0.0000     111.7182    -999.2500      95.2753      24.7828      97.5837      23.2555      64.4182 1533239892 9999999.9999
     494.0    2416.2371       0.0000     117.2152    -999.2500      89.5717      32.2940      91.8801      30.9299      70.5200 1533239893 9999999.9999
     495.0    2416.2371       0.0000     122.0194    -999.2500      82.5425      39.7248      84.8509      38.5222      76.6218 1533239894 9999999.9999
     496.0    2424.5691       0.0000     126.3764    -999.2500      74.3485      46.8343      76.6569      45.7861      82.7236 1533239895 9999999.9999
     497.0    2416.2371       0.0000     130.9276    -999.2500      64.4273      53.7028      66.7357      52.8039      88.8253 1533239896 9999999.9999
     498.0    2391.5815       0.0000     139.2209    -999.2500      51.7347      70.3318      54.0431      69.7942      94.9271 1533239897 9999999.9999
     499.0    2375.4224       0.0000     143.1102    -999.2500      45.1875      79.5300      47.4959      79.1922     101.0289 1533239898 9999999.9999
     500.0    2359.4797       0.0000     146.9166    -999.2500      38.2788      87.2018      40.5872      87.0307     107.1307 1533239899 9999999.9999
     501.0    2335.9634       0.0000     151.4871    -999.2500      30.4865      94.4318      32.7949      94.4178     113.2325 1533239900 9999999.9999
     502.0    2297.7942       0.0000     156.6625    -999.2500      22.8147     100.1355      25.1231     100.2454     119.3474 1533239901 9999999.9999
     503.0    2260.8521       0.0000     163.0953    -999.2500      14.8215     104.0718      17.1299     104.2672     125.4492 1533239902 9999999.9999
     504.0    2170.1389       0.0000     170.8689      77.0176       6.5873     105.5982       8.8957     105.8267     131.9591 1533239903 9999999.9999
     505.0    2061.9502       0.0000     179.2275      73.8219      -1.5665     105.9597       0.7419     106.1961     138.0610 1533239904 9999999.9999
     506.0    1921.1066       0.0000    -172.3270      76.2573      -9.7605     105.4777      -7.4521     105.7036     144.1629 1533239905 9999999.9999
     507.0    1780.0632       0.0000    -164.7440      89.9935     -17.7537     102.3045     -15.4453     102.4615     150.2648 1533239906 9999999.9999
     508.0    1646.6628       0.0000    -157.9063    -999.2500     -26.0682      96.9623     -23.7598      97.0033     156.3667 1533239907 9999999.9999
     509.0    1515.3556       0.0000    -152.2171    -999.2500     -34.1015      90.3750     -31.7931      90.2728     162.4686 1533239908 9999999.9999
     510.0    1384.1044       0.0000    -147.0181    -999.2500     -42.2955      82.2613     -39.9871      81.9829     168.5581 1533239909 9999999.9999
     511.0    1276.0889       0.0000    -142.4765    -999.2500     -49.6058      73.5853     -47.2974      73.1184     174.6600 1533239910 9999999.9999
     512.0    1183.7122       0.0000    -137.4590    -999.2500     -56.7555      63.1420     -54.4471      62.4481     180.7619 1533239911 9999999.9999
     513.0    1107.2834       0.0000    -129.7786    -999.2500     -71.8983      52.2167     -69.5899      51.2854     186.8638 1533239912 9999999.9999
     514.0    1032.4890       0.0000    -125.5095    -999.2500     -80.7350      45.4285     -78.4266      44.3498     192.9657 1533239913 9999999.9999
     515.0     969.8276       0.0000    -121.1480    -999.2500     -88.4470      38.3190     -86.1386      37.0858     199.0676 1533239914 9999999.9999
     516.0     909.6055       0.0000    -116.0116    -999.2500     -95.2753      30.5668     -92.9669      29.1652     205.5937 1533239915 9999999.9999
     517.0     856.4251       0.0000    -109.8925    -999.2500    -101.0192      22.5335     -98.7108      20.9573     211.6926 1533239916 9999999.9999
     518.0     804.4908       0.0000    -102.8052      84.3901    -104.5940      14.5805    -102.2856      12.8315     217.7944 1533239917 9999999.9999
     519.0     760.1351       0.0000     -94.7326      77.6964    -105.4777       6.5472    -103.1693       4.6236     223.8963 1533239918 9999999.9999
     520.0     727.1199       0.0000     -85.9908      77.4034    -105.5178      -1.8075    -103.2094      -3.9126     230.0114 1533239919 9999999.9999
     521.0     695.4748       0.0000     -77.5849      88.0381    -104.8752     -10.1220    -102.5667     -12.4077     236.1133 1533239920 9999999.9999
     522.0     669.6429       0.0000     -70.1785    -999.2500    -101.8627     -18.3562     -99.5543     -20.8208     242.2152 1533239921 9999999.9999
     523.0     653.4619       0.0000     -64.1078    -999.2500     -96.6812     -26.3092     -94.3727     -28.9466     248.3171 1533239922 9999999.9999
     524.0     645.0688       0.0000     -59.1694    -999.2500     -90.4152     -33.8203     -88.1068     -36.6209     254.4321 1533239923 9999999.9999
     525.0     642.1233       0.0000     -54.9714    -999.2500     -83.5065     -40.8897     -81.1981     -43.8439     260.5339 1533239924 9999999.9999
     526.0     645.6611       0.0000     -50.9934    -999.2500     -75.2322     -47.6377     -72.9238     -50.7385     266.6357 1533239925 9999999.9999
     527.0     654.6788       0.0000     -46.6635    -999.2500     -64.7487     -53.5422     -62.4403     -56.7713     272.7375 1533239926 9999999.9999
     528.0     678.0377       0.0000     -37.9994    -999.2500     -51.4133     -71.7377     -49.1049     -75.3621     279.2473 1533239927 9999999.9999
     529.0     701.0219       0.0000     -33.8739    -999.2500     -44.2637     -80.9760     -41.9553     -84.8012     285.3491 1533239928 9999999.9999
