~VERSION INFORMATION
VERS.           2.0   :CWLS Log ASCII Standard - VERSION 2.0
WRAP.           NO    :One Line per depth step
PROD.  Schlumberger   :LAS Producer
PROG.  DLIS to ASCII 19C2-270                          :LAS Program name and version
CREA.        2018/08/03 10:59                          :LAS Creation date {YYYY/MM/DD hh:mm}
DLIS_CREA.  2018-Aug-03 09:18                          :DLIS Creation date and time {YYYY-MMM-DD hh:mm}
SOURCE.     PERFO_Perfo_074PTP.DLIS                    :DLIS File Name
FILE-ID.     PERFO_Perfo_074PTP                        :File Identification Number
#--------------------------------------------------
~WELL INFORMATION
#MNEM.UNIT      DATA             DESCRIPTION
#---- ------ --------------   -----------------------------
STRT .S            0.0       :START TIME      
STOP .S          866.0       :STOP TIME      
STEP .S            1.0       :STEP     
NULL .          -999.25      :NULL VALUE
COMP .        SHELL INTERNATIONAL EP                   :COMPANY
WELL .        WPP TEST 4                               :WELL
FLD  .        WILDCAT                                  :FIELD
LOC  .        NA                                       :LOCATION
CNTY .        HARRIS                                   :COUNTY
STAT .        TEXAS                                    :STATE
CTRY .                                                 :COUNTRY
API  .        NA                                       :API NUMBER
UWI  .                                                 :UNIQUE WELL ID
DATE .        02-Aug-2018                              :LOG DATE {DD-MMM-YYYY}
SRVC .        Schlumberger                             :SERVICE COMPANY
LATI .DEG                                              :LATITUDE
LONG .DEG                                              :LONGITUDE
GDAT .                                                 :GeoDetic Datum
SECT .        NA                                       :Section
RANG .        NA                                       :Range
TOWN .        NA                                       :Township
#-----------------------------------------------------------------------------
~PARAMETER INFORMATION
#MNEM.UNIT    VALUE                      DESCRIPTION
#---- -----   --------------------       ------------------------
U-PHASE_B_COMP_PER_YT.                 0 :Phase B Comparator Period Yt
U-PHASE_A_COMP_PER_XT.                 0 :Phase A Comparator Period Xt
U-MAX_EXC_CUR_LIMIT.MA       265.00000   :Requested CM Current Limit
U-REQ_EXC_FQ.HZ              50          :Requested CM Frequency
U-TILT_Y_OFFSET.          -2.06578       :WPTET Tilt Y Offset
U-TILT_Y_GAIN.           1.02173         :WPTET Tilt Y Gain
U-TILT_X_OFFSET.           2.30841       :WPTET Tilt X Offset
U-TILT_X_GAIN.           1.00000         :WPTET Tilt X Gain
U-TILT_OFFSET_TOL.           0.00100     :WPTET Tilt Offset Calibration Tolerance
U-MOT_CUR_LIMIT_REQ.MA        70.00000   :Requested Motor Current Limit
U-MOT_SPD_REQ_WPMS.RPM        1.00000    :Requested Motor Speed
U-STD_TOL_TILT.           0.01000        :Tilt Standard Deviation Tolerance
CWEI .LB/F      29.00000                 :Casing Weight
CSIZ .IN         7.00000                 :Current Casing Size
LCC  .               440                 :Logging Company Code
LUN  .              2134                 :Logging Unit Number
HIDE .                                   :Header Identifier
HID1 .                                   :Header Identifier Line 1
R1   .                                   :Remark Line 1
WITN .        MR. KELLY McCOY            :Witness's Name
ENGI .        MORRIS MOORE               :Engineer's Name
LUL  .        IOWA COLONY                :Logging Unit Location
DATE .        02-Aug-2018                :Date as Month-Day-Year
STAT .        TEXAS                      :State or Province
COUN .        HARRIS                     :County or Rig Name
FN   .        WILDCAT                    :Field Name
WN   .        WPP TEST 4                 :Well Name
CN   .        SHELL INTERNATIONAL EP     :Company Name
CLAB .        County                     :County/Rig Label
SLAB .        State                      :State/Province Label
RUN  .          1                        :RUN NUMBER
PDAT .        GROUND LEVEL               :Permanent Datum
EPD  .                                   :Elevation of Permanent Datum above Mean Sea Level
LMF  .          NA                       :Logging Measured From (Name of Logging Elevation Reference)
APD  .                                   :Elevation of Depth Reference (LMF) above Permanent Datum
#-----------------------------------------------------------------------------
~CURVE INFORMATION
#MNEM.UNIT   API CODE                                  DESCRIPTION
#---- -----  --------                                  -----------------------
TIME .S                                                :TIME {F10.1}
FREQ_EMF_SL.HZ                                         :Electromagnetic Field Frequency {F13.4}
PH_SH_WPPCM_SL.DEG                                     :WPPCM Phase Shift {F13.4}
RB_SL.DEG                                              :Relative Bearing {F13.4}
SDEV_SL.DEG                                            :Sonde Deviation {F13.4}
RTIX_SL.DEG                                            :Raw X-axis Tilt {F13.4}
RTIY_SL.DEG                                            :Raw Y-axis Tilt {F13.4}
TILX_SL.DEG                                            :X-axis Tilt {F13.4}
TILY_SL.DEG                                            :Y-axis Tilt {F13.4}
ROTA_SL.DEG                                            :Motor Rotation Angle {F13.4}
TOD7 .S                                                :Time of Day {I11}
TOJ  .S                                                :Time of Job {F13.4}
#-----------------------------------------------------------------------------
# 
#     TIME    FREQ_EMF_SL  PH_SH_WPPCM_    RB_SL       SDEV_SL      RTIX_SL      RTIY_SL      TILX_SL      TILY_SL      ROTA_SL        TOD7            TOJ
#                          SL
~A  
# ...
     424.0       0.0000       0.0000      51.3633    -999.2500      72.6615     -47.4368      74.9699     -50.5333       1.4102 1533239823 9999999.9999
     425.0       0.0000       0.0000      55.4276    -999.2500      81.7392     -40.3273      84.0476     -43.2693       7.5120 1533239824 9999999.9999
     426.0       0.0000       0.0000      59.3005    -999.2500      88.7683     -33.6195      91.0767     -36.4157      13.6015 1533239825 9999999.9999
     427.0       0.0000       0.0000      63.7167    -999.2500      94.6327     -26.7108      96.9411     -29.3570      19.7033 1533239826 9999999.9999
     428.0       0.0000       0.0000      69.0436    -999.2500      98.5690     -19.6013     100.8774     -22.0930      25.7805 1533239827 9999999.9999
     429.0       0.0000       0.0000      75.6904      87.3744     100.2158     -12.0902     102.5242     -14.4186      31.9085 1533239828 9999999.9999
     430.0       0.0000       0.0000      83.6134      78.2321     101.0593      -4.0970     103.3677      -6.2518      38.0103 1533239829 9999999.9999
     431.0       0.0000       0.0000      93.1480      76.7537     101.3003       5.0208     103.6087       3.0641      44.5179 1533239830 9999999.9999
     432.0       0.0000       0.0000     100.7879      82.6192     100.7380      12.4918     103.0464      10.6975      50.6359 1533239831 9999999.9999
     433.0       0.0000       0.0000     107.5711    -999.2500      97.7657      19.8022     100.0741      18.1666      56.7254 1533239832 9999999.9999
     434.0       0.0000       0.0000     114.0492    -999.2500      93.1465      27.8355      95.4549      26.3745      62.8148 1533239833 9999999.9999
     435.0       0.0000       0.0000     119.0640    -999.2500      87.0813      35.0655      89.3897      33.7616      68.9166 1533239834 9999999.9999
     436.0       0.0000       0.0000     123.7569    -999.2500      79.6505      42.5767      81.9589      41.4360      75.0184 1533239835 9999999.9999
     437.0       0.0000       0.0000     128.3944    -999.2500      70.1310      50.0477      72.4394      49.0693      81.1202 1533239836 9999999.9999
     438.0       0.0000       0.0000     134.2871    -999.2500      56.7957      57.6392      59.1041      56.8257      87.2220 1533239837 9999999.9999
     439.0       0.0000       0.0000     140.8047    -999.2500      49.1640      74.0673      51.4724      73.6108      93.3507 1533239838 9999999.9999
     440.0       0.0000       0.0000     144.6426    -999.2500      42.4160      82.9040      44.7244      82.6395      99.4525 1533239839 9999999.9999
     441.0       0.0000       0.0000     148.6021    -999.2500      35.3065      90.0938      37.6149      89.9855     105.5543 1533239840 9999999.9999
     442.0       0.0000       0.0000     153.5535    -999.2500      27.2732      97.0025      29.5816      97.0443     111.6692 1533239841 9999999.9999
     443.0       0.0000       0.0000     159.1037    -999.2500      19.6013     102.0635      21.9097     102.2153     118.1790 1533239842 9999999.9999
     444.0       0.0000       0.0000     166.0099      84.1826      11.6082     104.9153      13.9166     105.1291     124.2808 1533239843 9999999.9999
     445.0       0.0000       0.0000     174.2016      75.0718       3.2937     105.7588       5.6021     105.9909     130.3958 1533239844 9999999.9999
     446.0       0.0000       0.0000    -177.0550      74.1504      -5.1413     105.8793      -2.8329     106.1140     136.4977 1533239845 9999999.9999
     447.0       0.0000       0.0000    -168.9746      80.3132     -13.1747     104.4333     -10.8663     104.6366     142.5996 1533239846 9999999.9999
     448.0    1569.4755       0.0000    -161.7368      83.6311     -21.2482     100.2962     -18.9398     100.4095     148.6302 1533239847 9999999.9999
     449.0    1580.9443       0.0000    -155.2542    -999.2500     -29.6731      94.2611     -27.3647      94.2434     154.7321 1533239848 9999999.9999
     450.0    1452.7377       0.0000    -149.9477    -999.2500     -37.5960      87.0010     -35.2876      86.8255     160.8216 1533239849 9999999.9999
     451.0    1336.7396       0.0000    -145.2594    -999.2500     -45.1473      79.0078     -42.8389      78.6587     166.9235 1533239850 9999999.9999
     452.0    1240.0793       0.0000    -140.6954    -999.2500     -52.3773      70.0507     -50.0689      69.5069     173.0517 1533239851 9999999.9999
     453.0    1152.6639       0.0000    -132.5052    -999.2500     -66.0340      56.1128     -63.7256      55.2662     179.1536 1533239852 9999999.9999
     454.0    1076.7611       0.0000    -128.1932    -999.2500     -75.2723      49.7665     -72.9639      48.7820     185.2555 1533239853 9999999.9999
     455.0    1008.7877       0.0000    -123.9289    -999.2500     -83.6270      42.8177     -81.3186      41.6822     191.3574 1533239854 9999999.9999
     456.0     946.3324       0.0000    -119.2489    -999.2500     -91.2185      35.3467     -88.9101      34.0489     197.8804 1533239855 9999999.9999
     457.0     885.5479       0.0000    -113.8570    -999.2500     -97.5648      27.5945     -95.2564      26.1283     203.9823 1533239856 9999999.9999
     458.0     834.0747       0.0000    -107.4075    -999.2500    -102.7062      19.6013    -100.3978      17.9614     210.0873 1533239857 9999999.9999
     459.0     785.6145       0.0000    -100.0199      81.8524    -105.1965      11.7287    -102.8881       9.9177     216.1861 1533239858 9999999.9999
     460.0     748.0053       0.0000     -91.5879      76.7633    -105.6383       3.5347    -103.3299       1.5457     222.2880 1533239859 9999999.9999
     461.0     709.5106       0.0000     -82.7554      79.1179    -105.3572      -4.9405    -103.0488      -7.1136     227.9849 1533239860 9999999.9999
     462.0     681.9835       0.0000     -74.4203      91.6271    -103.8308     -13.4960    -101.5224     -15.8550     234.0838 1533239861 9999999.9999
     463.0     660.8318       0.0000     -67.7549    -999.2500    -100.2158     -21.3687     -97.9074     -23.8987     240.1857 1533239862 9999999.9999
     464.0     647.4448       0.0000     -62.2892    -999.2500     -94.6728     -28.9602     -92.3644     -31.6552     246.2876 1533239863 9999999.9999
     465.0     638.6240       0.0000     -57.5611    -999.2500     -88.0052     -36.4713     -85.6968     -39.3295     252.3895 1533239864 9999999.9999
     466.0     641.5374       0.0000     -53.4909    -999.2500     -80.4940     -43.4202     -78.1856     -46.4293     258.4913 1533239865 9999999.9999
     467.0     645.0688       0.0000     -49.4153    -999.2500     -71.6573     -50.1280     -69.3489     -53.2829     264.5931 1533239866 9999999.9999
     468.0     662.7003       0.0000     -42.2314    -999.2500     -55.8317     -59.0048     -53.5233     -62.3526     271.1030 1533239867 9999999.9999
     469.0     681.3227       0.0000     -36.3372    -999.2500     -48.6017     -75.6338     -46.2933     -79.3429     277.2048 1533239868 9999999.9999
     470.0     709.5106       0.0000     -32.3917    -999.2500     -41.6528     -83.9885     -39.3444     -87.8791     283.3066 1533239869 9999999.9999
     471.0     744.8358       0.0000     -28.1342    -999.2500     -34.5032     -90.8168     -32.1948     -94.8558     289.4084 1533239870 9999999.9999
     472.0     784.7377       0.0000     -23.1457    -999.2500     -27.1928     -95.9983     -24.8844    -100.1499     295.5102 1533239871 9999999.9999
     473.0     837.0536       0.0000     -17.2488    -999.2500     -19.8825     -99.2518     -17.5741    -103.4741     301.6120 1533239872 9999999.9999
     474.0     891.1597       0.0000      -9.6443      78.8460     -11.7688    -100.4568      -9.4604    -104.7053     307.6892 1533239873 9999999.9999
     475.0     951.4547       0.0000      -0.8936      75.4036      -3.1732    -100.3765      -0.8648    -104.6232     313.7910 1533239874 9999999.9999
     476.0    1016.0765       0.0000       8.0629      78.2066       5.5832    -100.0150       7.8916    -104.2538     319.8928 1533239875 9999999.9999
