~VERSION INFORMATION
VERS.           2.0   :CWLS Log ASCII Standard - VERSION 2.0
WRAP.           NO    :One Line per depth step
PROD.  Schlumberger   :LAS Producer
PROG.  DLIS to ASCII 19C2-270                          :LAS Program name and version
CREA.        2018/08/03 10:59                          :LAS Creation date {YYYY/MM/DD hh:mm}
DLIS_CREA.  2018-Aug-03 09:13                          :DLIS Creation date and time {YYYY-MMM-DD hh:mm}
SOURCE.     PERFO_Perfo_073PTP.DLIS                    :DLIS File Name
FILE-ID.     PERFO_Perfo_073PTP                        :File Identification Number
#--------------------------------------------------
~WELL INFORMATION
#MNEM.UNIT      DATA             DESCRIPTION
#---- ------ --------------   -----------------------------
STRT .S            0.0       :START TIME      
STOP .S         1015.0       :STOP TIME      
STEP .S            1.0       :STEP     
NULL .          -999.25      :NULL VALUE
COMP .        SHELL INTERNATIONAL EP                   :COMPANY
WELL .        WPP TEST 4                               :WELL
FLD  .        WILDCAT                                  :FIELD
LOC  .        NA                                       :LOCATION
CNTY .        HARRIS                                   :COUNTY
STAT .        TEXAS                                    :STATE
CTRY .                                                 :COUNTRY
API  .        NA                                       :API NUMBER
UWI  .                                                 :UNIQUE WELL ID
DATE .        02-Aug-2018                              :LOG DATE {DD-MMM-YYYY}
SRVC .        Schlumberger                             :SERVICE COMPANY
LATI .DEG                                              :LATITUDE
LONG .DEG                                              :LONGITUDE
GDAT .                                                 :GeoDetic Datum
SECT .        NA                                       :Section
RANG .        NA                                       :Range
TOWN .        NA                                       :Township
#-----------------------------------------------------------------------------
~PARAMETER INFORMATION
#MNEM.UNIT    VALUE                      DESCRIPTION
#---- -----   --------------------       ------------------------
U-PHASE_B_COMP_PER_YT.                 0 :Phase B Comparator Period Yt
U-PHASE_A_COMP_PER_XT.                 0 :Phase A Comparator Period Xt
U-MAX_EXC_CUR_LIMIT.MA       265.00000   :Requested CM Current Limit
U-REQ_EXC_FQ.HZ              50          :Requested CM Frequency
U-TILT_Y_OFFSET.          -2.06578       :WPTET Tilt Y Offset
U-TILT_Y_GAIN.           1.02173         :WPTET Tilt Y Gain
U-TILT_X_OFFSET.           2.30841       :WPTET Tilt X Offset
U-TILT_X_GAIN.           1.00000         :WPTET Tilt X Gain
U-TILT_OFFSET_TOL.           0.00100     :WPTET Tilt Offset Calibration Tolerance
U-MOT_CUR_LIMIT_REQ.MA        70.00000   :Requested Motor Current Limit
U-MOT_SPD_REQ_WPMS.RPM        1.00000    :Requested Motor Speed
U-STD_TOL_TILT.           0.01000        :Tilt Standard Deviation Tolerance
CWEI .LB/F      29.00000                 :Casing Weight
CSIZ .IN         7.00000                 :Current Casing Size
LCC  .               440                 :Logging Company Code
LUN  .              2134                 :Logging Unit Number
HIDE .                                   :Header Identifier
HID1 .                                   :Header Identifier Line 1
R1   .                                   :Remark Line 1
WITN .        MR. KELLY McCOY            :Witness's Name
ENGI .        MORRIS MOORE               :Engineer's Name
LUL  .        IOWA COLONY                :Logging Unit Location
DATE .        02-Aug-2018                :Date as Month-Day-Year
STAT .        TEXAS                      :State or Province
COUN .        HARRIS                     :County or Rig Name
FN   .        WILDCAT                    :Field Name
WN   .        WPP TEST 4                 :Well Name
CN   .        SHELL INTERNATIONAL EP     :Company Name
CLAB .        County                     :County/Rig Label
SLAB .        State                      :State/Province Label
RUN  .          1                        :RUN NUMBER
PDAT .        GROUND LEVEL               :Permanent Datum
EPD  .                                   :Elevation of Permanent Datum above Mean Sea Level
LMF  .          NA                       :Logging Measured From (Name of Logging Elevation Reference)
APD  .                                   :Elevation of Depth Reference (LMF) above Permanent Datum
#-----------------------------------------------------------------------------
~CURVE INFORMATION
#MNEM.UNIT   API CODE                                  DESCRIPTION
#---- -----  --------                                  -----------------------
TIME .S                                                :TIME {F10.1}
FREQ_EMF_SL.HZ                                         :Electromagnetic Field Frequency {F13.4}
PH_SH_WPPCM_SL.DEG                                     :WPPCM Phase Shift {F13.4}
RB_SL.DEG                                              :Relative Bearing {F13.4}
SDEV_SL.DEG                                            :Sonde Deviation {F13.4}
RTIX_SL.DEG                                            :Raw X-axis Tilt {F13.4}
RTIY_SL.DEG                                            :Raw Y-axis Tilt {F13.4}
TILX_SL.DEG                                            :X-axis Tilt {F13.4}
TILY_SL.DEG                                            :Y-axis Tilt {F13.4}
ROTA_SL.DEG                                            :Motor Rotation Angle {F13.4}
TOD7 .S                                                :Time of Day {I11}
TOJ  .S                                                :Time of Job {F13.4}
#-----------------------------------------------------------------------------
# 
#     TIME    FREQ_EMF_SL  PH_SH_WPPCM_    RB_SL       SDEV_SL      RTIX_SL      RTIY_SL      TILX_SL      TILY_SL      ROTA_SL        TOD7            TOJ
#                          SL
~A  
# ...
     265.0    1362.6454       0.0000     145.2451    -999.2500      41.2913      83.9082      43.5997      83.6655     314.6706 1533238346 9999999.9999
     266.0    1357.3842       0.0000     149.2803    -999.2500      34.1417      91.1382      36.4501      91.0526     320.7724 1533238347 9999999.9999
     267.0    1349.5681       0.0000     154.0341    -999.2500      26.5502      97.6050      28.8586      97.6599     326.8742 1533238348 9999999.9999
     268.0    1349.5681       0.0000     159.7874    -999.2500      18.7578     102.3447      21.0662     102.5025     333.3840 1533238349 9999999.9999
     269.0    1341.8416       0.0000     166.6107      82.5416      10.9655     105.0760      13.2739     105.2932     339.4858 1533238350 9999999.9999
     270.0    1334.2030       0.0000     174.6950      74.8494       2.8117     105.7990       5.1201     106.0319     345.5876 1533238351 9999999.9999
     271.0    1346.9828       0.0000    -176.7206      74.1307      -5.4627     105.9597      -3.1543     106.1961     351.6894 1533238352 9999999.9999
     272.0    1339.2858       0.0000    -168.8589      80.5108     -13.2952     104.3932     -10.9868     104.5956     357.7912 1533238353 9999999.9999
     273.0    1336.7396       0.0000    -161.5070      84.4694     -21.5293     100.0552     -19.2209     100.1633       3.8930 1533238354 9999999.9999
     274.0    1336.7396       0.0000    -154.9671    -999.2500     -30.0848      93.7490     -27.7764      93.7201       9.9948 1533238355 9999999.9999
     275.0    1339.2858       0.0000    -149.5166    -999.2500     -38.2788      86.3985     -35.9704      86.2099      16.1098 1533238356 9999999.9999
     276.0    1341.8416       0.0000    -145.0827    -999.2500     -45.4285      78.6463     -43.1201      78.2893      22.1869 1533238357 9999999.9999
     277.0    1341.8416       0.0000    -140.4573    -999.2500     -52.6987      69.4883     -50.3903      68.9323      28.2887 1533238358 9999999.9999
     278.0       0.0000       0.0000    -132.5773    -999.2500     -65.9135      56.2333     -63.6051      55.3893      34.4860 1533238359 9999999.9999
     279.0       0.0000       0.0000    -127.8586    -999.2500     -75.8748      49.2042     -73.5664      48.2075      40.5939 1533238360 9999999.9999
     280.0       0.0000       0.0000    -123.5599    -999.2500     -84.3098      42.2152     -82.0014      41.0666      47.0976 1533238361 9999999.9999
     281.0       0.0000       0.0000    -118.9341    -999.2500     -91.5398      34.8647     -89.2314      33.5564      53.1872 1533238362 9999999.9999
     282.0       0.0000       0.0000    -113.5262    -999.2500     -97.8862      27.1527     -95.5778      25.6768      59.2890 1533238363 9999999.9999
     283.0       0.0000       0.0000    -106.9483    -999.2500    -102.9472      19.0792    -100.6388      17.4279      65.3662 1533238364 9999999.9999
     284.0       0.0000       0.0000     -99.3370      80.9598    -105.2768      11.0458    -102.9684       9.2200      71.4810 1533238365 9999999.9999
     285.0       0.0000       0.0000     -90.7871      76.6929    -105.6383       2.7715    -103.3299       0.7659      77.5828 1533238366 9999999.9999
     286.0       0.0000       0.0000     -81.5660      79.9541    -105.3973      -6.1053    -103.0889      -8.3038      83.6722 1533238367 9999999.9999
     287.0       0.0000       0.0000     -73.8379      93.6513    -103.5898     -14.1387    -101.2814     -16.5116      89.7872 1533238368 9999999.9999
     288.0       0.0000       0.0000     -67.3583    -999.2500     -99.7338     -21.8908     -97.4254     -24.4322      95.9021 1533238369 9999999.9999
     289.0       0.0000       0.0000     -61.6753    -999.2500     -94.0302     -29.8840     -91.7218     -32.5991     102.0039 1533238370 9999999.9999
     290.0       0.0000       0.0000     -57.1013    -999.2500     -87.1215     -37.2345     -84.8131     -40.1093     108.1188 1533238371 9999999.9999
     291.0       0.0000       0.0000     -53.1063    -999.2500     -79.8112     -44.1030     -77.5028     -47.1270     114.2206 1533238372 9999999.9999
     292.0       0.0000       0.0000     -48.9690    -999.2500     -70.6532     -50.8108     -68.3447     -53.9806     120.7304 1533238373 9999999.9999
     293.0       0.0000       0.0000     -40.7434    -999.2500     -55.1488     -64.2265     -52.8404     -67.6877     126.8331 1533238374 9999999.9999
     294.0       0.0000       0.0000     -35.9232    -999.2500     -47.8787     -76.5577     -45.5703     -80.2868     132.9350 1533238375 9999999.9999
     295.0       0.0000       0.0000     -31.9100    -999.2500     -40.8093     -84.7918     -38.5009     -88.6999     139.0369 1533238376 9999999.9999
     296.0       0.0000       0.0000     -27.6215    -999.2500     -33.6998     -91.4193     -31.3914     -95.4714     145.1388 1533238377 9999999.9999
     297.0       0.0000       0.0000     -22.4858    -999.2500     -26.3092     -96.5205     -24.0008    -100.6834     151.2407 1533238378 9999999.9999
     298.0       0.0000       0.0000     -15.9630    -999.2500     -18.4365     -99.5732     -16.1281    -103.8024     157.3426 1533238379 9999999.9999
     299.0       0.0000       0.0000      -8.4454      77.8674     -10.5638    -100.4970      -8.2554    -104.7463     163.4445 1533238380 9999999.9999
     300.0       0.0000       0.0000       0.4762      75.3844      -1.8477    -100.3765       0.4607    -104.6232     169.5464 1533238381 9999999.9999
     301.0       0.0000       0.0000       9.2230      79.1390       6.7480     -99.9748       9.0564    -104.2128     175.6483 1533238382 9999999.9999
     302.0       0.0000       0.0000      16.4162      91.3633      14.4198     -98.1272      16.7282    -102.3250     181.7502 1533238383 9999999.9999
     303.0       0.0000       0.0000      22.5105    -999.2500      21.8908     -94.3515      24.1992     -98.4673     187.8651 1533238384 9999999.9999
     304.0       0.0000       0.0000      27.3792    -999.2500      28.8397     -88.8487      31.1481     -92.8449     194.3750 1533238385 9999999.9999
     305.0       0.0000       0.0000      31.7091    -999.2500      35.7483     -82.3015      38.0567     -86.1555     200.4769 1533238386 9999999.9999
     306.0       0.0000       0.0000      35.8248    -999.2500      42.6168     -74.3485      44.9252     -78.0297     206.5788 1533238387 9999999.9999
     307.0       0.0000       0.0000      40.3211    -999.2500      49.4050     -64.1863      51.7134     -67.6467     212.6807 1533238388 9999999.9999
     308.0       0.0000       0.0000      50.2016    -999.2500      69.7293     -49.2845      72.0377     -52.4211     218.7888 1533238389 9999999.9999
     309.0       0.0000       0.0000      54.0503    -999.2500      78.8472     -42.7775      81.1556     -45.7727     224.8814 1533238390 9999999.9999
     310.0       0.0000       0.0000      58.1354    -999.2500      86.8002     -35.5877      89.1086     -38.4267     230.9741 1533238391 9999999.9999
     311.0       0.0000       0.0000      62.3137    -999.2500      93.1063     -28.7995      95.4147     -31.4910     237.0760 1533238392 9999999.9999
     312.0       0.0000       0.0000      67.3548    -999.2500      97.5648     -21.7302      99.8732     -24.2681     243.1685 1533238393 9999999.9999
     313.0       0.0000       0.0000      73.5942    -999.2500     100.0150     -14.3395     102.3234     -16.7168     249.2674 1533238394 9999999.9999
     314.0       0.0000       0.0000      81.2794      80.1504     100.8183      -6.3865     103.1267      -8.5910     255.3693 1533238395 9999999.9999
     315.0       0.0000       0.0000      90.1548      76.2716     101.4208       2.1690     103.7292       0.1503     261.4711 1533238396 9999999.9999
     316.0       0.0000       0.0000      98.4908      79.8993     100.8585      10.2023     103.1669       8.3582     267.9818 1533238397 9999999.9999
     317.0       0.0000       0.0000     106.6458      94.2200      99.4928      18.6775     101.8012      17.0175     274.1105 1533238398 9999999.9999
