~VERSION INFORMATION
VERS.           2.0   :CWLS Log ASCII Standard - VERSION 2.0
WRAP.           NO    :One Line per depth step
PROD.  Schlumberger   :LAS Producer
PROG.  DLIS to ASCII 19C2-270                          :LAS Program name and version
CREA.        2018/08/03 10:59                          :LAS Creation date {YYYY/MM/DD hh:mm}
DLIS_CREA.  2018-Aug-03 09:18                          :DLIS Creation date and time {YYYY-MMM-DD hh:mm}
SOURCE.     PERFO_Perfo_074PTP.DLIS                    :DLIS File Name
FILE-ID.     PERFO_Perfo_074PTP                        :File Identification Number
#--------------------------------------------------
~WELL INFORMATION
#MNEM.UNIT      DATA             DESCRIPTION
#---- ------ --------------   -----------------------------
STRT .S            0.0       :START TIME      
STOP .S          866.0       :STOP TIME      
STEP .S            1.0       :STEP     
NULL .          -999.25      :NULL VALUE
COMP .        SHELL INTERNATIONAL EP                   :COMPANY
WELL .        WPP TEST 4                               :WELL
FLD  .        WILDCAT                                  :FIELD
LOC  .        NA                                       :LOCATION
CNTY .        HARRIS                                   :COUNTY
STAT .        TEXAS                                    :STATE
CTRY .                                                 :COUNTRY
API  .        NA                                       :API NUMBER
UWI  .                                                 :UNIQUE WELL ID
DATE .        02-Aug-2018                              :LOG DATE {DD-MMM-YYYY}
SRVC .        Schlumberger                             :SERVICE COMPANY
LATI .DEG                                              :LATITUDE
LONG .DEG                                              :LONGITUDE
GDAT .                                                 :GeoDetic Datum
SECT .        NA                                       :Section
RANG .        NA                                       :Range
TOWN .        NA                                       :Township
#-----------------------------------------------------------------------------
~PARAMETER INFORMATION
#MNEM.UNIT    VALUE                      DESCRIPTION
#---- -----   --------------------       ------------------------
U-PHASE_B_COMP_PER_YT.                 0 :Phase B Comparator Period Yt
U-PHASE_A_COMP_PER_XT.                 0 :Phase A Comparator Period Xt
U-MAX_EXC_CUR_LIMIT.MA       265.00000   :Requested CM Current Limit
U-REQ_EXC_FQ.HZ              50          :Requested CM Frequency
U-TILT_Y_OFFSET.          -2.06578       :WPTET Tilt Y Offset
U-TILT_Y_GAIN.           1.02173         :WPTET Tilt Y Gain
U-TILT_X_OFFSET.           2.30841       :WPTET Tilt X Offset
U-TILT_X_GAIN.           1.00000         :WPTET Tilt X Gain
U-TILT_OFFSET_TOL.           0.00100     :WPTET Tilt Offset Calibration Tolerance
U-MOT_CUR_LIMIT_REQ.MA        70.00000   :Requested Motor Current Limit
U-MOT_SPD_REQ_WPMS.RPM        1.00000    :Requested Motor Speed
U-STD_TOL_TILT.           0.01000        :Tilt Standard Deviation Tolerance
CWEI .LB/F      29.00000                 :Casing Weight
CSIZ .IN         7.00000                 :Current Casing Size
LCC  .               440                 :Logging Company Code
LUN  .              2134                 :Logging Unit Number
HIDE .                                   :Header Identifier
HID1 .                                   :Header Identifier Line 1
R1   .                                   :Remark Line 1
WITN .        MR. KELLY McCOY            :Witness's Name
ENGI .        MORRIS MOORE               :Engineer's Name
LUL  .        IOWA COLONY                :Logging Unit Location
DATE .        02-Aug-2018                :Date as Month-Day-Year
STAT .        TEXAS                      :State or Province
COUN .        HARRIS                     :County or Rig Name
FN   .        WILDCAT                    :Field Name
WN   .        WPP TEST 4                 :Well Name
CN   .        SHELL INTERNATIONAL EP     :Company Name
CLAB .        County                     :County/Rig Label
SLAB .        State                      :State/Province Label
RUN  .          1                        :RUN NUMBER
PDAT .        GROUND LEVEL               :Permanent Datum
EPD  .                                   :Elevation of Permanent Datum above Mean Sea Level
LMF  .          NA                       :Logging Measured From (Name of Logging Elevation Reference)
APD  .                                   :Elevation of Depth Reference (LMF) above Permanent Datum
#-----------------------------------------------------------------------------
~CURVE INFORMATION
#MNEM.UNIT   API CODE                                  DESCRIPTION
#---- -----  --------                                  -----------------------
TIME .S                                                :TIME {F10.1}
FREQ_EMF_SL.HZ                                         :Electromagnetic Field Frequency {F13.4}
PH_SH_WPPCM_SL.DEG                                     :WPPCM Phase Shift {F13.4}
RB_SL.DEG                                              :Relative Bearing {F13.4}
SDEV_SL.DEG                                            :Sonde Deviation {F13.4}
RTIX_SL.DEG                                            :Raw X-axis Tilt {F13.4}
RTIY_SL.DEG                                            :Raw Y-axis Tilt {F13.4}
TILX_SL.DEG                                            :X-axis Tilt {F13.4}
TILY_SL.DEG                                            :Y-axis Tilt {F13.4}
ROTA_SL.DEG                                            :Motor Rotation Angle {F13.4}
TOD7 .S                                                :Time of Day {I11}
TOJ  .S                                                :Time of Job {F13.4}
#-----------------------------------------------------------------------------
# 
#     TIME    FREQ_EMF_SL  PH_SH_WPPCM_    RB_SL       SDEV_SL      RTIX_SL      RTIY_SL      TILX_SL      TILY_SL      ROTA_SL        TOD7            TOJ
#                          SL
~A  
# ...
     530.0     733.1856       0.0000     -29.7895    -999.2500     -37.1943     -88.4470     -34.8859     -92.4345     291.4509 1533239929 9999999.9999
     531.0     772.6648       0.0000     -25.1077    -999.2500     -29.9242     -94.3113     -27.6158     -98.4262     297.5527 1533239930 9999999.9999
     532.0     814.7451       0.0000     -19.5984    -999.2500     -22.6540     -98.2477     -20.3456    -102.4481     303.6545 1533239931 9999999.9999
     533.0     872.3636       0.0000     -12.9923      83.7903     -15.2232    -100.1355     -12.9148    -104.3769     309.7440 1533239932 9999999.9999
     534.0     932.5266       0.0000      -4.0395      75.8914      -6.2258    -100.4167      -3.9174    -104.6642     315.8459 1533239933 9999999.9999
     535.0     995.9278       0.0000       5.1017      76.4529       2.6510    -100.2158       4.9594    -104.4590     321.9477 1533239934 9999999.9999
     536.0    1063.7292       0.0000      13.0558      86.6394      10.7245     -99.2518      13.0329    -103.4741     328.0495 1533239935 9999999.9999
     537.0    1141.4368       0.0000      19.6743    -999.2500      18.2758     -96.3197      20.5842    -100.4782     334.1513 1533239936 9999999.9999
     538.0    1231.3923       0.0000      25.0636    -999.2500      25.4255     -91.6202      27.7339     -95.6766     340.2408 1533239937 9999999.9999
     539.0    1339.2858       0.0000      29.6666    -999.2500      32.4145     -85.7558      34.7229     -89.6849     346.3426 1533239938 9999999.9999
     540.0    1464.8438       0.0000      33.8399    -999.2500      39.3232     -78.4857      41.6316     -82.2567     352.8524 1533239939 9999999.9999
     541.0    1594.3877       0.0000      37.9119    -999.2500      45.9507     -69.7695      48.2591     -73.3512     358.9419 1533239940 9999999.9999
     542.0    1723.3456       0.0000      43.7143    -999.2500      50.3690     -53.0602      52.6774     -56.2788       5.0568 1533239941 9999999.9999
     543.0    1880.0134       0.0000      52.2141    -999.2500      74.6698     -45.9908      76.9782     -49.0559      11.1586 1533239942 9999999.9999
     544.0    2020.4741       0.0000      55.9981    -999.2500      82.9843     -39.3232      85.2927     -42.2433      17.2604 1533239943 9999999.9999
     545.0    2163.4614       0.0000      59.9789    -999.2500      89.9733     -32.4948      92.2817     -35.2666      23.3754 1533239944 9999999.9999
     546.0    2246.4058       0.0000      64.9296    -999.2500      95.7573     -24.9837      98.0657     -27.5923      29.4772 1533239945 9999999.9999
     547.0    2305.3279       0.0000      70.4190    -999.2500      99.0510     -17.9545     101.3594     -20.4104      35.5790 1533239946 9999999.9999
     548.0    2328.2285       0.0000      77.5659      86.2948     100.6577     -10.1220     102.9661     -12.4077      41.6808 1533239947 9999999.9999
     549.0    2367.4243       0.0000      86.0720      77.2123     101.0593      -1.7272     103.3677      -3.8305      47.7826 1533239948 9999999.9999
     550.0    2391.5815       0.0000      94.9944      77.1951     101.4208       6.7882     103.7292       4.8699      53.8875 1533239949 9999999.9999
     551.0    2407.9622       0.0000     102.7424      85.6812     100.2962      14.5002     102.6046      12.7494      59.9894 1533239950 9999999.9999
     552.0    2407.9622       0.0000     109.6413    -999.2500      96.8820      22.2122      99.1904      20.6290      66.4961 1533239951 9999999.9999
     553.0    2407.9622       0.0000     115.4230    -999.2500      91.7407      29.7233      94.0491      28.3034      72.5979 1533239952 9999999.9999
     554.0    2424.5691       0.0000     120.3841    -999.2500      85.1132      37.1140      87.4216      35.8546      78.7128 1533239953 9999999.9999
     555.0    2416.2371       0.0000     124.8247    -999.2500      77.4413      44.3038      79.7497      43.2007      84.8146 1533239954 9999999.9999
     556.0    2416.2371       0.0000     129.1855    -999.2500      68.4038      51.2527      70.7122      50.3005      90.9164 1533239955 9999999.9999
     557.0    2407.9622       0.0000     137.4703    -999.2500      54.2652      66.1143      56.5736      65.4850      97.0182 1533239956 9999999.9999
     558.0    2385.4961       0.0000     141.6510    -999.2500      47.7481      76.1259      50.0565      75.7141     103.1261 1533239957 9999999.9999
     559.0    2367.4243       0.0000     145.4941    -999.2500      40.8495      84.5107      43.1579      84.2811     109.2248 1533239958 9999999.9999
     560.0    2359.4797       0.0000     149.5884    -999.2500      33.6195      91.5800      35.9279      91.5040     115.3266 1533239959 9999999.9999
     561.0    2320.5444       0.0000     154.6920    -999.2500      25.5862      98.2878      27.8946      98.3576     121.4284 1533239960 9999999.9999
     562.0    2275.4854       0.0000     160.5932    -999.2500      17.7537     102.9873      20.0621     103.1592     127.5302 1533239961 9999999.9999
     563.0    2218.0601       0.0000     167.9114      80.1621       9.5998     105.3170      11.9082     105.5395     133.6320 1533239962 9999999.9999
     564.0    2111.4866       0.0000     176.0610      74.4472       1.4862     105.7990       3.7946     106.0319     140.1265 1533239963 9999999.9999
     565.0    1975.0703       0.0000    -175.2288      74.6336      -6.9087     105.8392      -4.6003     106.0730     146.2346 1533239964 9999999.9999
     566.0    1831.0547       0.0000    -167.3774      84.0385     -14.8617     103.7505     -12.5533     103.9389     152.3303 1533239965 9999999.9999
     567.0    1694.2772       0.0000    -160.2621    -999.2500     -23.0557      99.0510     -20.7473      99.1373     158.4322 1533239966 9999999.9999
     568.0    1565.9799       0.0000    -154.2617    -999.2500     -31.0890      92.9858     -28.7806      92.9404     164.5341 1533239967 9999999.9999
     569.0    1437.8834       0.0000    -149.0822    -999.2500     -38.9617      85.5952     -36.6533      85.3891     170.6391 1533239968 9999999.9999
     570.0    1320.4225       0.0000    -144.3741    -999.2500     -46.6034      77.4212     -44.2950      77.0376     176.7440 1533239969 9999999.9999
     571.0    1216.4792       0.0000    -139.4552    -999.2500     -54.1447      67.3997     -51.8363      66.7983     182.8559 1533239970 9999999.9999
     572.0    1128.6116       0.0000    -131.5696    -999.2500     -68.0423      54.8275     -65.7339      53.9530     188.9462 1533239971 9999999.9999
     573.0    1055.7433       0.0000    -126.9992    -999.2500     -77.6823      47.8385     -75.3739      46.8121     195.0481 1533239972 9999999.9999
     574.0     994.5190       0.0000    -122.7689    -999.2500     -85.7558      40.9298     -83.4474      39.7533     201.1500 1533239973 9999999.9999
     575.0     930.0595       0.0000    -118.1905    -999.2500     -93.0662      33.7400     -90.7578      32.4073     207.2650 1533239974 9999999.9999
     576.0     872.3636       0.0000    -112.3376    -999.2500     -99.1715      25.5862     -96.8631      24.0763     213.7719 1533239975 9999999.9999
     577.0     827.2059       0.0000    -105.5005    -999.2500    -103.5095      17.4725    -101.2011      15.7863     219.8737 1533239976 9999999.9999
     578.0     780.3829       0.0000     -97.9160      79.5427    -105.3973       9.6400    -103.0889       7.7837     225.9787 1533239977 9999999.9999
     579.0     739.3533       0.0000     -89.2693      76.8507    -105.4777       1.3255    -103.1693      -0.7115     232.0775 1533239978 9999999.9999
     580.0     710.2273       0.0000     -80.5129      81.0585    -105.3170      -7.1497    -103.0086      -9.3708     238.1794 1533239979 9999999.9999
     581.0     682.6456       0.0000     -73.1152      83.4640    -103.3488     -14.9420    -101.0404     -17.3324     244.2720 1533239980 9999999.9999
     582.0     663.0128       0.0000     -66.4980    -999.2500     -99.1113     -23.0155     -96.8028     -25.5813     250.3739 1533239981 9999999.9999
