~VERSION INFORMATION
VERS.           2.0   :CWLS Log ASCII Standard - VERSION 2.0
WRAP.           NO    :One Line per depth step
PROD.  Schlumberger   :LAS Producer
PROG.  DLIS to ASCII 19C2-270                          :LAS Program name and version
CREA.        2018/08/03 10:59                          :LAS Creation date {YYYY/MM/DD hh:mm}
DLIS_CREA.  2018-Aug-03 09:13                          :DLIS Creation date and time {YYYY-MMM-DD hh:mm}
SOURCE.     PERFO_Perfo_073PTP.DLIS                    :DLIS File Name
FILE-ID.     PERFO_Perfo_073PTP                        :File Identification Number
#--------------------------------------------------
~WELL INFORMATION
#MNEM.UNIT      DATA             DESCRIPTION
#---- ------ --------------   -----------------------------
STRT .S            0.0       :START TIME      
STOP .S         1015.0       :STOP TIME      
STEP .S            1.0       :STEP     
NULL .          -999.25      :NULL VALUE
COMP .        SHELL INTERNATIONAL EP                   :COMPANY
WELL .        WPP TEST 4                               :WELL
FLD  .        WILDCAT                                  :FIELD
LOC  .        NA                                       :LOCATION
CNTY .        HARRIS                                   :COUNTY
STAT .        TEXAS                                    :STATE
CTRY .                                                 :COUNTRY
API  .        NA                                       :API NUMBER
UWI  .                                                 :UNIQUE WELL ID
DATE .        02-Aug-2018                              :LOG DATE {DD-MMM-YYYY}
SRVC .        Schlumberger                             :SERVICE COMPANY
LATI .DEG                                              :LATITUDE
LONG .DEG                                              :LONGITUDE
GDAT .                                                 :GeoDetic Datum
SECT .        NA                                       :Section
RANG .        NA                                       :Range
TOWN .        NA                                       :Township
#-----------------------------------------------------------------------------
~PARAMETER INFORMATION
#MNEM.UNIT    VALUE                      DESCRIPTION
#---- -----   --------------------       ------------------------
U-PHASE_B_COMP_PER_YT.                 0 :Phase B Comparator Period Yt
U-PHASE_A_COMP_PER_XT.                 0 :Phase A Comparator Period Xt
U-MAX_EXC_CUR_LIMIT.MA       265.00000   :Requested CM Current Limit
U-REQ_EXC_FQ.HZ              50          :Requested CM Frequency
U-TILT_Y_OFFSET.          -2.06578       :WPTET Tilt Y Offset
U-TILT_Y_GAIN.           1.02173         :WPTET Tilt Y Gain
U-TILT_X_OFFSET.           2.30841       :WPTET Tilt X Offset
U-TILT_X_GAIN.           1.00000         :WPTET Tilt X Gain
U-TILT_OFFSET_TOL.           0.00100     :WPTET Tilt Offset Calibration Tolerance
U-MOT_CUR_LIMIT_REQ.MA        70.00000   :Requested Motor Current Limit
U-MOT_SPD_REQ_WPMS.RPM        1.00000    :Requested Motor Speed
U-STD_TOL_TILT.           0.01000        :Tilt Standard Deviation Tolerance
CWEI .LB/F      29.00000                 :Casing Weight
CSIZ .IN         7.00000                 :Current Casing Size
LCC  .               440                 :Logging Company Code
LUN  .              2134                 :Logging Unit Number
HIDE .                                   :Header Identifier
HID1 .                                   :Header Identifier Line 1
R1   .                                   :Remark Line 1
WITN .        MR. KELLY McCOY            :Witness's Name
ENGI .        MORRIS MOORE               :Engineer's Name
LUL  .        IOWA COLONY                :Logging Unit Location
DATE .        02-Aug-2018                :Date as Month-Day-Year
STAT .        TEXAS                      :State or Province
COUN .        HARRIS                     :County or Rig Name
FN   .        WILDCAT                    :Field Name
WN   .        WPP TEST 4                 :Well Name
CN   .        SHELL INTERNATIONAL EP     :Company Name
CLAB .        County                     :County/Rig Label
SLAB .        State                      :State/Province Label
RUN  .          1                        :RUN NUMBER
PDAT .        GROUND LEVEL               :Permanent Datum
EPD  .                                   :Elevation of Permanent Datum above Mean Sea Level
LMF  .          NA                       :Logging Measured From (Name of Logging Elevation Reference)
APD  .                                   :Elevation of Depth Reference (LMF) above Permanent Datum
#-----------------------------------------------------------------------------
~CURVE INFORMATION
#MNEM.UNIT   API CODE                                  DESCRIPTION
#---- -----  --------                                  -----------------------
TIME .S                                                :TIME {F10.1}
FREQ_EMF_SL.HZ                                         :Electromagnetic Field Frequency {F13.4}
PH_SH_WPPCM_SL.DEG                                     :WPPCM Phase Shift {F13.4}
RB_SL.DEG                                              :Relative Bearing {F13.4}
SDEV_SL.DEG                                            :Sonde Deviation {F13.4}
RTIX_SL.DEG                                            :Raw X-axis Tilt {F13.4}
RTIY_SL.DEG                                            :Raw Y-axis Tilt {F13.4}
TILX_SL.DEG                                            :X-axis Tilt {F13.4}
TILY_SL.DEG                                            :Y-axis Tilt {F13.4}
ROTA_SL.DEG                                            :Motor Rotation Angle {F13.4}
TOD7 .S                                                :Time of Day {I11}
TOJ  .S                                                :Time of Job {F13.4}
#-----------------------------------------------------------------------------
# 
#     TIME    FREQ_EMF_SL  PH_SH_WPPCM_    RB_SL       SDEV_SL      RTIX_SL      RTIY_SL      TILX_SL      TILY_SL      ROTA_SL        TOD7            TOJ
#                          SL
~A  
# ...
     530.0    1365.2913       0.0000     -55.2454    -999.2500     -83.9483     -40.4077     -81.6399     -43.3514     140.6201 1533238611 9999999.9999
     531.0    1392.3268       0.0000     -51.1790    -999.2500     -75.5937     -47.3163     -73.2853     -50.4102     146.7220 1533238612 9999999.9999
     532.0    1406.2500       0.0000     -46.6678    -999.2500     -65.2307     -53.9037     -62.9223     -57.1406     152.8239 1533238613 9999999.9999
     533.0    1411.8976       0.0000     -38.0424    -999.2500     -51.4535     -71.5368     -49.1451     -75.1569     158.9258 1533238614 9999999.9999
     534.0    1411.8976       0.0000     -33.9447    -999.2500     -44.3842     -80.7752     -42.0758     -84.5960     165.4327 1533238615 9999999.9999
     535.0    1414.7384       0.0000     -29.7866    -999.2500     -37.1943     -88.2863     -34.8859     -92.2703     171.5346 1533238616 9999999.9999
     536.0    1420.4546       0.0000     -25.0417    -999.2500     -29.8438     -94.1908     -27.5354     -98.3031     177.6365 1533238617 9999999.9999
     537.0    1417.5908       0.0000     -19.3954    -999.2500     -22.4130     -98.2878     -20.1046    -102.4891     183.7546 1533238618 9999999.9999
     538.0    1429.1158       0.0000     -12.7979      83.4854     -15.0223    -100.0953     -12.7139    -104.3359     189.8534 1533238619 9999999.9999
     539.0    1429.1158       0.0000      -4.4916      76.0694      -6.6677    -100.3765      -4.3593    -104.6232     195.9584 1533238620 9999999.9999
     540.0    1432.0265       0.0000       5.1818      76.5710       2.7313    -100.1355       5.0397    -104.3769     202.0479 1533238621 9999999.9999
     541.0    1432.0265       0.0000      13.2399      88.2661      10.9253     -99.1313      13.2337    -103.3510     208.1760 1533238622 9999999.9999
     542.0    1437.8834       0.0000      19.7082    -999.2500      18.3160     -96.3197      20.6244    -100.4782     214.2779 1533238623 9999999.9999
     543.0    1437.8834       0.0000      25.1175    -999.2500      25.5058     -91.4997      27.8142     -95.5535     220.3798 1533238624 9999999.9999
     544.0    1437.8834       0.0000      29.7172    -999.2500      32.4948     -85.5148      34.8032     -89.4386     226.4817 1533238625 9999999.9999
     545.0    1437.8834       0.0000      33.8557    -999.2500      39.3232     -78.2447      41.6316     -82.0105     232.5713 1533238626 9999999.9999
     546.0    1440.8298       0.0000      38.1413    -999.2500      46.2720     -69.1670      48.5804     -72.7356     239.0912 1533238627 9999999.9999
     547.0    1446.7593       0.0000      43.9431    -999.2500      48.7222     -50.6100      51.0306     -53.7754     245.2062 1533238628 9999999.9999
     548.0    1440.8298       0.0000      52.4100    -999.2500      75.0313     -45.6293      77.3397     -48.6865     251.3081 1533238629 9999999.9999
     549.0    1437.8834       0.0000      56.1121    -999.2500      83.2253     -39.1223      85.5337     -42.0381     257.4131 1533238630 9999999.9999
     550.0    1437.8834       0.0000      60.1802    -999.2500      90.0135     -32.1735      92.3219     -34.9383     263.5149 1533238631 9999999.9999
     551.0    1443.7886       0.0000      64.7365    -999.2500      95.4360     -25.2648      97.7444     -27.8795     269.6167 1533238632 9999999.9999
     552.0    1434.9490       0.0000      70.7635    -999.2500      99.1313     -17.5528     101.4397     -20.0000     275.7215 1533238633 9999999.9999
     553.0    1432.0265       0.0000      77.8054      85.8048     100.5773      -9.8810     102.8857     -12.1615     281.8203 1533238634 9999999.9999
     554.0    1420.4546       0.0000      86.4073      77.1156     101.0593      -1.4058     103.3677      -3.5022     287.9221 1533238635 9999999.9999
     555.0    1429.1158       0.0000      95.5756      77.5662     101.3003       7.3505     103.6087       5.4444     294.0502 1533238636 9999999.9999
     556.0    1417.5908       0.0000     103.2730      88.6594     100.0150      15.0625     102.3234      13.3240     300.1520 1533238637 9999999.9999
     557.0    1417.5908       0.0000     110.1959    -999.2500      96.3197      22.8950      98.6281      21.3267     306.2415 1533238638 9999999.9999
     558.0    1409.0682       0.0000     115.9287    -999.2500      90.8570      30.4463      93.1654      29.0421     312.7514 1533238639 9999999.9999
     559.0    1409.0682       0.0000     120.8434    -999.2500      84.3500      37.8370      86.6584      36.5933     318.8532 1533238640 9999999.9999
     560.0    1403.4431       0.0000     125.2132    -999.2500      76.7183      44.9465      79.0267      43.8573     324.9550 1533238641 9999999.9999
     561.0    1397.8628       0.0000     129.6197    -999.2500      67.4398      51.8953      69.7482      50.9571     331.0568 1533238642 9999999.9999
     562.0    1392.3268       0.0000     137.9110    -999.2500      53.7028      67.2390      56.0112      66.6341     337.1586 1533238643 9999999.9999
     563.0    1384.1044       0.0000     142.0871    -999.2500      46.9950      77.1602      49.3034      76.7709     343.2736 1533238644 9999999.9999
     564.0    1381.3850       0.0000     146.2231    -999.2500      39.5240      85.8763      41.8324      85.6764     349.3754 1533238645 9999999.9999
     565.0    1375.9785       0.0000     150.4496    -999.2500      32.1735      93.0662      34.4819      93.0225     355.4772 1533238646 9999999.9999
     566.0    1373.2910       0.0000     155.5102    -999.2500      24.4213      99.0108      26.7297      99.0963       1.5790 1533238647 9999999.9999
     567.0    1367.9475       0.0000     161.6790    -999.2500      16.4683     103.3890      18.7767     103.5696       7.6808 1533238648 9999999.9999
     568.0    1370.6140       0.0000     169.0453      78.7945       8.4350     105.3973      10.7434     105.6215      13.7826 1533238649 9999999.9999
     569.0    1365.2913       0.0000     177.2241      74.1206       0.3615     105.8793       2.6699     106.1140      19.8844 1533238650 9999999.9999
     570.0    1362.6454       0.0000    -174.1181      75.1481      -7.9932     105.7187      -5.6848     105.9499      26.4074 1533238651 9999999.9999
     571.0    1354.7688       0.0000    -166.5984      88.4666     -15.7052     103.3087     -13.3968     103.4875      32.5092 1533238652 9999999.9999
     572.0    1354.7688       0.0000    -159.2412    -999.2500     -24.3410      98.1673     -22.0326      98.2345      38.6111 1533238653 9999999.9999
     573.0    1349.5681       0.0000    -153.4332    -999.2500     -32.2940      91.9013     -29.9856      91.8323      44.7260 1533238654 9999999.9999
     574.0    1349.5681       0.0000    -148.4575    -999.2500     -39.9658      84.6713     -37.6574      84.4452      50.8155 1533238655 9999999.9999
     575.0    1352.1635       0.0000    -143.8884    -999.2500     -47.3565      76.3568     -45.0481      75.9501      56.9304 1533238656 9999999.9999
     576.0    1352.1635       0.0000    -138.7866    -999.2500     -55.0685      65.9938     -52.7601      65.3619      63.0322 1533238657 9999999.9999
     577.0    1352.1635       0.0000    -130.9919    -999.2500     -69.2473      53.9840     -66.9389      53.0911      69.1217 1533238658 9999999.9999
     578.0    1352.1635       0.0000    -126.4895    -999.2500     -78.8070      47.0352     -76.4986      45.9913      75.2235 1533238659 9999999.9999
     579.0    1354.7688       0.0000    -122.1518    -999.2500     -86.7600      39.9257     -84.4516      38.7274      81.3253 1533238660 9999999.9999
     580.0    1354.7688       0.0000    -117.3490    -999.2500     -93.7490      32.4948     -91.4406      31.1351      87.4271 1533238661 9999999.9999
     581.0    1362.6454       0.0000    -111.5795    -999.2500     -99.7338      24.6222     -97.4254      23.0914      93.5296 1533238662 9999999.9999
     582.0    1365.2913       0.0000    -105.0686    -999.2500    -103.8710      16.9905    -101.5626      15.2939     100.0394 1533238663 9999999.9999
