~VERSION INFORMATION
VERS.           2.0   :CWLS Log ASCII Standard - VERSION 2.0
WRAP.           NO    :One Line per depth step
PROD.  Schlumberger   :LAS Producer
PROG.  DLIS to ASCII 19C2-270                          :LAS Program name and version
CREA.        2018/08/03 10:59                          :LAS Creation date {YYYY/MM/DD hh:mm}
DLIS_CREA.  2018-Aug-03 09:22                          :DLIS Creation date and time {YYYY-MMM-DD hh:mm}
SOURCE.     PERFO_Perfo_075PTP.DLIS                    :DLIS File Name
FILE-ID.     PERFO_Perfo_075PTP                        :File Identification Number
#--------------------------------------------------
~WELL INFORMATION
#MNEM.UNIT      DATA             DESCRIPTION
#---- ------ --------------   -----------------------------
STRT .S            0.0       :START TIME      
STOP .S          907.0       :STOP TIME      
STEP .S            1.0       :STEP     
NULL .          -999.25      :NULL VALUE
COMP .        SHELL INTERNATIONAL EP                   :COMPANY
WELL .        WPP TEST 4                               :WELL
FLD  .        WILDCAT                                  :FIELD
LOC  .        NA                                       :LOCATION
CNTY .        HARRIS                                   :COUNTY
STAT .        TEXAS                                    :STATE
CTRY .                                                 :COUNTRY
API  .        NA                                       :API NUMBER
UWI  .                                                 :UNIQUE WELL ID
DATE .        02-Aug-2018                              :LOG DATE {DD-MMM-YYYY}
SRVC .        Schlumberger                             :SERVICE COMPANY
LATI .DEG                                              :LATITUDE
LONG .DEG                                              :LONGITUDE
GDAT .                                                 :GeoDetic Datum
SECT .        NA                                       :Section
RANG .        NA                                       :Range
TOWN .        NA                                       :Township
#-----------------------------------------------------------------------------
~PARAMETER INFORMATION
#MNEM.UNIT    VALUE                      DESCRIPTION
#---- -----   --------------------       ------------------------
U-PHASE_B_COMP_PER_YT.                 0 :Phase B Comparator Period Yt
U-PHASE_A_COMP_PER_XT.                 0 :Phase A Comparator Period Xt
U-MAX_EXC_CUR_LIMIT.MA       265.00000   :Requested CM Current Limit
U-REQ_EXC_FQ.HZ              50          :Requested CM Frequency
U-TILT_Y_OFFSET.          -2.06578       :WPTET Tilt Y Offset
U-TILT_Y_GAIN.           1.02173         :WPTET Tilt Y Gain
U-TILT_X_OFFSET.           2.30841       :WPTET Tilt X Offset
U-TILT_X_GAIN.           1.00000         :WPTET Tilt X Gain
U-TILT_OFFSET_TOL.           0.00100     :WPTET Tilt Offset Calibration Tolerance
U-MOT_CUR_LIMIT_REQ.MA        70.00000   :Requested Motor Current Limit
U-MOT_SPD_REQ_WPMS.RPM        1.00000    :Requested Motor Speed
U-STD_TOL_TILT.           0.01000        :Tilt Standard Deviation Tolerance
CWEI .LB/F      29.00000                 :Casing Weight
CSIZ .IN         7.00000                 :Current Casing Size
LCC  .               440                 :Logging Company Code
LUN  .              2134                 :Logging Unit Number
HIDE .                                   :Header Identifier
HID1 .                                   :Header Identifier Line 1
R1   .                                   :Remark Line 1
WITN .        MR. KELLY McCOY            :Witness's Name
ENGI .        MORRIS MOORE               :Engineer's Name
LUL  .        IOWA COLONY                :Logging Unit Location
DATE .        02-Aug-2018                :Date as Month-Day-Year
STAT .        TEXAS                      :State or Province
COUN .        HARRIS                     :County or Rig Name
FN   .        WILDCAT                    :Field Name
WN   .        WPP TEST 4                 :Well Name
CN   .        SHELL INTERNATIONAL EP     :Company Name
CLAB .        County                     :County/Rig Label
SLAB .        State                      :State/Province Label
RUN  .          1                        :RUN NUMBER
PDAT .        GROUND LEVEL               :Permanent Datum
EPD  .                                   :Elevation of Permanent Datum above Mean Sea Level
LMF  .          NA                       :Logging Measured From (Name of Logging Elevation Reference)
APD  .                                   :Elevation of Depth Reference (LMF) above Permanent Datum
#-----------------------------------------------------------------------------
~CURVE INFORMATION
#MNEM.UNIT   API CODE                                  DESCRIPTION
#---- -----  --------                                  -----------------------
TIME .S                                                :TIME {F10.1}
FREQ_EMF_SL.HZ                                         :Electromagnetic Field Frequency {F13.4}
PH_SH_WPPCM_SL.DEG                                     :WPPCM Phase Shift {F13.4}
RB_SL.DEG                                              :Relative Bearing {F13.4}
SDEV_SL.DEG                                            :Sonde Deviation {F13.4}
RTIX_SL.DEG                                            :Raw X-axis Tilt {F13.4}
RTIY_SL.DEG                                            :Raw Y-axis Tilt {F13.4}
TILX_SL.DEG                                            :X-axis Tilt {F13.4}
TILY_SL.DEG                                            :Y-axis Tilt {F13.4}
ROTA_SL.DEG                                            :Motor Rotation Angle {F13.4}
TOD7 .S                                                :Time of Day {I11}
TOJ  .S                                                :Time of Job {F13.4}
#-----------------------------------------------------------------------------
# 
#     TIME    FREQ_EMF_SL  PH_SH_WPPCM_    RB_SL       SDEV_SL      RTIX_SL      RTIY_SL      TILX_SL      TILY_SL      ROTA_SL        TOD7            TOJ
#                          SL
~A  
# ...
     106.0     337.5540       0.0000    -152.3507    -999.2500     -33.9007      90.4955     -31.5923      90.3959     201.6811 1533240443 9999999.9999
     107.0     366.0203       0.0000    -147.4113    -999.2500     -41.6528      82.9040     -39.3444      82.6395     207.7708 1533240444 9999999.9999
     108.0     402.7062       0.0000    -142.9713    -999.2500     -48.8427      74.6297     -46.5343      74.1854     214.2938 1533240445 9999999.9999
     109.0     453.0445       0.0000    -138.0219    -999.2500     -56.1128      64.4273     -53.8044      63.7614     220.3927 1533240446 9999999.9999
     110.0     508.4056       0.0000    -130.2315    -999.2500     -70.8540      52.8593     -68.5456      51.9420     226.4822 1533240447 9999999.9999
     111.0     576.3320       0.0000    -125.8772    -999.2500     -80.0120      46.0310     -77.7036      44.9653     232.5972 1533240448 9999999.9999
     112.0     655.2889       0.0000    -121.5030    -999.2500     -87.8043      38.8813     -85.4959      37.6603     238.7022 1533240449 9999999.9999
     113.0     748.8019       0.0000    -116.5484    -999.2500     -94.7933      31.3300     -92.4849      29.9449     244.8041 1533240450 9999999.9999
     114.0     865.9175       0.0000    -110.1259    -999.2500    -100.8987      22.8147     -98.5903      21.2446     250.9060 1533240451 9999999.9999
     115.0     987.5352       0.0000    -102.9978      84.5566    -104.5538      14.7813    -102.2454      13.0367     256.9955 1533240452 9999999.9999
     116.0    1139.5867       0.0000     -94.8577      77.7447    -105.4777       6.6677    -103.1693       4.7468     263.1105 1533240453 9999999.9999
     117.0    1304.4990       0.0000     -86.1582      77.3521    -105.5178      -1.6468    -103.2094      -3.7484     269.2154 1533240454 9999999.9999
     118.0    1576.5134       0.0000     -77.7006      87.2108    -104.9153     -10.0015    -102.6069     -12.2846     275.3141 1533240455 9999999.9999
     119.0    2020.4741       0.0000     -70.6131    -999.2500    -102.1438     -17.8340     -99.8354     -20.2873     281.4159 1533240456 9999999.9999
     120.0    2225.0791       0.0000     -64.5302    -999.2500     -97.2435     -25.7067     -94.9351     -28.3310     287.9227 1533240457 9999999.9999
     121.0    2335.9634       0.0000     -59.5444    -999.2500     -91.0578     -33.2178     -88.7494     -36.0053     294.0406 1533240458 9999999.9999
     122.0    2407.9622       0.0000     -55.3380    -999.2500     -84.1090     -40.2470     -81.8006     -43.1872     300.1424 1533240459 9999999.9999
     123.0    2467.1052       0.0000     -51.2979    -999.2500     -75.9552     -47.1557     -73.6468     -50.2460     306.2442 1533240460 9999999.9999
     124.0    2475.7922       0.0000     -46.8760    -999.2500     -65.7930     -53.7028     -63.4846     -56.9354     312.3460 1533240461 9999999.9999
     125.0    2467.1052       0.0000     -38.2855    -999.2500     -51.8552     -70.9745     -49.5468     -74.5824     318.4478 1533240462 9999999.9999
     126.0    2467.1052       0.0000     -34.0216    -999.2500     -44.5448     -80.8957     -42.2364     -84.7191     324.5497 1533240463 9999999.9999
     127.0    2467.1052       0.0000     -29.8879    -999.2500     -37.3550     -88.4068     -35.0466     -92.3934     330.6515 1533240464 9999999.9999
     128.0    2475.7922       0.0000     -25.2208    -999.2500     -30.0848     -94.2310     -27.7764     -98.3442     336.7563 1533240465 9999999.9999
     129.0    2467.1052       0.0000     -19.6696    -999.2500     -22.7343     -98.2878     -20.4259    -102.4891     342.8551 1533240466 9999999.9999
     130.0    2475.7922       0.0000     -12.9923      83.7903     -15.2232    -100.1355     -12.9148    -104.3769     348.9569 1533240467 9999999.9999
     131.0    2467.1052       0.0000      -5.0296      76.0763      -7.1898    -100.5372      -4.8814    -104.7873     355.0587 1533240468 9999999.9999
     132.0    2467.1052       0.0000       4.2003      76.0233       1.7673    -100.3363       4.0757    -104.5821       1.5685 1533240469 9999999.9999
     133.0    2467.1052       0.0000      12.1871      83.5598       9.8007     -99.5330      12.1091    -103.7614       7.6703 1533240470 9999999.9999
     134.0    2475.7922       0.0000      18.8480    -999.2500      17.2717     -96.8017      19.5801    -100.9707      13.7721 1533240471 9999999.9999
     135.0    2467.1052       0.0000      24.5036    -999.2500      24.6222     -92.3833      26.9306     -96.4563      19.8739 1533240472 9999999.9999
     136.0    2467.1052       0.0000      29.1126    -999.2500      31.5308     -86.4788      33.8392     -90.4236      25.9634 1533240473 9999999.9999
     137.0    2475.7922       0.0000      33.2395    -999.2500      38.3190     -79.6907      40.6274     -83.4879      32.0529 1533240474 9999999.9999
     138.0    2467.1052       0.0000      37.5672    -999.2500      45.4285     -70.5829      47.7369     -74.1822      38.1547 1533240475 9999999.9999
     139.0    2467.1052       0.0000      42.8253    -999.2500      51.3732     -57.0768      53.6816     -60.3827      44.2566 1533240476 9999999.9999
     140.0    2467.1052       0.0000      52.0171    -999.2500      74.1477     -46.3122      76.4561     -49.3842      50.3584 1533240477 9999999.9999
     141.0    2475.7922       0.0000      55.8169    -999.2500      82.6228     -39.6445      84.9312     -42.5716      56.4602 1533240478 9999999.9999
     142.0    2484.5405       0.0000      59.6618    -999.2500      89.4913     -33.0170      91.7997     -35.8001      62.5620 1533240479 9999999.9999
     143.0    2449.9128       0.0000      64.2439    -999.2500      95.1950     -25.9477      97.5034     -28.5772      68.6638 1533240480 9999999.9999
     144.0    2391.5815       0.0000      69.5717    -999.2500      98.8100     -18.9587     101.1184     -21.4364      74.7532 1533240481 9999999.9999
     145.0    2312.9111       0.0000      76.2922      85.1230     100.4568     -11.4475     102.7652     -13.7620      81.2638 1533240482 9999999.9999
     146.0    2225.0791       0.0000      84.7767      77.6779     101.0593      -2.9723     103.3677      -5.1027      87.3656 1533240483 9999999.9999
     147.0    1860.1190       0.0000      93.6953      76.8099     101.3807       5.5430     103.6891       3.5977      93.4674 1533240484 9999999.9999
     148.0    1502.4038       0.0000     101.7345      84.6383     100.5773      13.4558     102.8857      11.6824      99.5692 1533240485 9999999.9999
     149.0    1306.9238       0.0000     108.8018    -999.2500      97.4845      21.2080      99.7929      19.6030     105.6710 1533240486 9999999.9999
     150.0    1128.1588       0.0000     114.9116    -999.2500      92.3331      29.0104      94.6415      27.5749     111.7728 1533240487 9999999.9999
     151.0     984.7689       0.0000     120.0232    -999.2500      85.7960      36.5517      88.1044      35.2801     117.8745 1533240488 9999999.9999
     152.0     859.5660       0.0000     124.5629    -999.2500      78.1242      43.9022      80.4326      42.7903     123.9763 1533240489 9999999.9999
     153.0     760.1351       0.0000     128.9632    -999.2500      68.9260      50.9313      71.2344      49.9721     130.0781 1533240490 9999999.9999
     154.0     672.8469       0.0000     136.9840    -999.2500      55.0283      65.1102      57.3367      64.4590     136.1800 1533240491 9999999.9999
     155.0     590.3652       0.0000     141.3404    -999.2500      48.2803      75.3928      50.5887      74.9651     142.2950 1533240492 9999999.9999
     156.0     521.9933       0.0000     145.1010    -999.2500      41.4922      83.1048      43.8006      82.8447     148.3969 1533240493 9999999.9999
     157.0     464.1089       0.0000     149.2084    -999.2500      34.2622      91.1783      36.5706      91.0936     154.9075 1533240494 9999999.9999
     158.0     417.2849       0.0000     153.9460    -999.2500      26.6707      97.6452      28.9791      97.7009     161.0094 1533240495 9999999.9999
