~VERSION INFORMATION
VERS.           2.0   :CWLS Log ASCII Standard - VERSION 2.0
WRAP.           NO    :One Line per depth step
PROD.  Schlumberger   :LAS Producer
PROG.  DLIS to ASCII 19C2-270                          :LAS Program name and version
CREA.        2018/08/03 10:59                          :LAS Creation date {YYYY/MM/DD hh:mm}
DLIS_CREA.  2018-Aug-03 09:13                          :DLIS Creation date and time {YYYY-MMM-DD hh:mm}
SOURCE.     PERFO_Perfo_073PTP.DLIS                    :DLIS File Name
FILE-ID.     PERFO_Perfo_073PTP                        :File Identification Number
#--------------------------------------------------
~WELL INFORMATION
#MNEM.UNIT      DATA             DESCRIPTION
#---- ------ --------------   -----------------------------
STRT .S            0.0       :START TIME      
STOP .S         1015.0       :STOP TIME      
STEP .S            1.0       :STEP     
NULL .          -999.25      :NULL VALUE
COMP .        SHELL INTERNATIONAL EP                   :COMPANY
WELL .        WPP TEST 4                               :WELL
FLD  .        WILDCAT                                  :FIELD
LOC  .        NA                                       :LOCATION
CNTY .        HARRIS                                   :COUNTY
STAT .        TEXAS                                    :STATE
CTRY .                                                 :COUNTRY
API  .        NA                                       :API NUMBER
UWI  .                                                 :UNIQUE WELL ID
DATE .        02-Aug-2018                              :LOG DATE {DD-MMM-YYYY}
SRVC .        Schlumberger                             :SERVICE COMPANY
LATI .DEG                                              :LATITUDE
LONG .DEG                                              :LONGITUDE
GDAT .                                                 :GeoDetic Datum
SECT .        NA                                       :Section
RANG .        NA                                       :Range
TOWN .        NA                                       :Township
#-----------------------------------------------------------------------------
~PARAMETER INFORMATION
#MNEM.UNIT    VALUE                      DESCRIPTION
#---- -----   --------------------       ------------------------
U-PHASE_B_COMP_PER_YT.                 0 :Phase B Comparator Period Yt
U-PHASE_A_COMP_PER_XT.                 0 :Phase A Comparator Period Xt
U-MAX_EXC_CUR_LIMIT.MA       265.00000   :Requested CM Current Limit
U-REQ_EXC_FQ.HZ              50          :Requested CM Frequency
U-TILT_Y_OFFSET.          -2.06578       :WPTET Tilt Y Offset
U-TILT_Y_GAIN.           1.02173         :WPTET Tilt Y Gain
U-TILT_X_OFFSET.           2.30841       :WPTET Tilt X Offset
U-TILT_X_GAIN.           1.00000         :WPTET Tilt X Gain
U-TILT_OFFSET_TOL.           0.00100     :WPTET Tilt Offset Calibration Tolerance
U-MOT_CUR_LIMIT_REQ.MA        70.00000   :Requested Motor Current Limit
U-MOT_SPD_REQ_WPMS.RPM        1.00000    :Requested Motor Speed
U-STD_TOL_TILT.           0.01000        :Tilt Standard Deviation Tolerance
CWEI .LB/F      29.00000                 :Casing Weight
CSIZ .IN         7.00000                 :Current Casing Size
LCC  .               440                 :Logging Company Code
LUN  .              2134                 :Logging Unit Number
HIDE .                                   :Header Identifier
HID1 .                                   :Header Identifier Line 1
R1   .                                   :Remark Line 1
WITN .        MR. KELLY McCOY            :Witness's Name
ENGI .        MORRIS MOORE               :Engineer's Name
LUL  .        IOWA COLONY                :Logging Unit Location
DATE .        02-Aug-2018                :Date as Month-Day-Year
STAT .        TEXAS                      :State or Province
COUN .        HARRIS                     :County or Rig Name
FN   .        WILDCAT                    :Field Name
WN   .        WPP TEST 4                 :Well Name
CN   .        SHELL INTERNATIONAL EP     :Company Name
CLAB .        County                     :County/Rig Label
SLAB .        State                      :State/Province Label
RUN  .          1                        :RUN NUMBER
PDAT .        GROUND LEVEL               :Permanent Datum
EPD  .                                   :Elevation of Permanent Datum above Mean Sea Level
LMF  .          NA                       :Logging Measured From (Name of Logging Elevation Reference)
APD  .                                   :Elevation of Depth Reference (LMF) above Permanent Datum
#-----------------------------------------------------------------------------
~CURVE INFORMATION
#MNEM.UNIT   API CODE                                  DESCRIPTION
#---- -----  --------                                  -----------------------
TIME .S                                                :TIME {F10.1}
FREQ_EMF_SL.HZ                                         :Electromagnetic Field Frequency {F13.4}
PH_SH_WPPCM_SL.DEG                                     :WPPCM Phase Shift {F13.4}
RB_SL.DEG                                              :Relative Bearing {F13.4}
SDEV_SL.DEG                                            :Sonde Deviation {F13.4}
RTIX_SL.DEG                                            :Raw X-axis Tilt {F13.4}
RTIY_SL.DEG                                            :Raw Y-axis Tilt {F13.4}
TILX_SL.DEG                                            :X-axis Tilt {F13.4}
TILY_SL.DEG                                            :Y-axis Tilt {F13.4}
ROTA_SL.DEG                                            :Motor Rotation Angle {F13.4}
TOD7 .S                                                :Time of Day {I11}
TOJ  .S                                                :Time of Job {F13.4}
#-----------------------------------------------------------------------------
# 
#     TIME    FREQ_EMF_SL  PH_SH_WPPCM_    RB_SL       SDEV_SL      RTIX_SL      RTIY_SL      TILX_SL      TILY_SL      ROTA_SL        TOD7            TOJ
#                          SL
~A  
# ...
     742.0       0.0000       0.0000     145.0506    -999.2500      41.6528      83.5868      43.9612      83.3372       1.0412 1533238823 9999999.9999
     743.0       0.0000       0.0000     149.0918    -999.2500      34.4630      90.8972      36.7714      90.8063       7.1431 1533238824 9999999.9999
     744.0       0.0000       0.0000     154.0385    -999.2500      26.5502      97.5247      28.8586      97.5778      13.2579 1533238825 9999999.9999
     745.0       0.0000       0.0000     160.0372    -999.2500      18.4365     102.6359      20.7449     102.8001      19.3598 1533238826 9999999.9999
     746.0       0.0000       0.0000     167.3283      80.9308      10.2023     105.3170      12.5107     105.5395      25.4747 1533238827 9999999.9999
     747.0       0.0000       0.0000     175.6057      74.6096       1.9280     105.7588       4.2364     105.9909      31.5766 1533238828 9999999.9999
     748.0       0.0000       0.0000    -175.8088      74.4692      -6.3463     105.8392      -4.0379     106.0730      37.6660 1533238829 9999999.9999
     749.0       0.0000       0.0000    -167.9458      82.5450     -14.2592     103.9513     -11.9508     104.1441      43.7678 1533238830 9999999.9999
     750.0       0.0000       0.0000    -160.7855    -999.2500     -22.4130      99.4125     -20.1046      99.5067      49.8696 1533238831 9999999.9999
     751.0       0.0000       0.0000    -154.6848    -999.2500     -30.4865      93.3875     -28.1781      93.3508      55.9715 1533238832 9999999.9999
     752.0       0.0000       0.0000    -149.4367    -999.2500     -38.3993      86.1575     -36.0909      85.9637      62.4944 1533238833 9999999.9999
     753.0       0.0000       0.0000    -144.7696    -999.2500     -45.9507      78.1242     -43.6423      77.7558      68.5962 1533238834 9999999.9999
     754.0       0.0000       0.0000    -140.1364    -999.2500     -53.1405      68.7653     -50.8321      68.1936      74.6980 1533238835 9999999.9999
     755.0       0.0000       0.0000    -132.0584    -999.2500     -66.9980      55.5103     -64.6896      54.6506      80.7998 1533238836 9999999.9999
     756.0       0.0000       0.0000    -127.5954    -999.2500     -76.4773      48.8025     -74.1689      47.7971      86.9024 1533238837 9999999.9999
     757.0       0.0000       0.0000    -123.2012    -999.2500     -84.9826      41.6327     -82.6742      40.4715      93.0042 1533238838 9999999.9999
     758.0       0.0000       0.0000    -118.4296    -999.2500     -92.3833      34.1015     -90.0749      32.7766      99.1060 1533238839 9999999.9999
     759.0       0.0000       0.0000    -112.8565    -999.2500     -98.5288      26.2690     -96.2204      24.7740     105.1955 1533238840 9999999.9999
     760.0       0.0000       0.0000    -106.3377    -999.2500    -103.1882      18.3963    -100.8798      16.7303     111.3104 1533238841 9999999.9999
     761.0       0.0000       0.0000     -98.6090      80.1569    -105.3572      10.3228    -103.0488       8.4813     117.4122 1533238842 9999999.9999
     762.0       0.0000       0.0000     -89.7751      76.7924    -105.5178       1.8075    -103.2094      -0.2190     123.5140 1533238843 9999999.9999
     763.0       0.0000       0.0000     -81.2877      80.4658    -105.1965      -6.3865    -102.8881      -8.5910     129.6158 1533238844 9999999.9999
     764.0       0.0000       0.0000     -73.6553      97.3742    -103.5497     -14.3395    -101.2412     -16.7168     136.1519 1533238845 9999999.9999
     765.0       0.0000       0.0000     -67.1097    -999.2500     -99.5732     -22.2122     -97.2648     -24.7606     142.2538 1533238846 9999999.9999
     766.0       0.0000       0.0000     -61.7299    -999.2500     -93.9498     -29.8037     -91.6414     -32.5170     148.3434 1533238847 9999999.9999
     767.0       0.0000       0.0000     -57.1301    -999.2500     -87.2822     -37.1943     -84.9738     -40.0682     154.4453 1533238848 9999999.9999
     768.0       0.0000       0.0000     -53.1289    -999.2500     -79.8513     -44.0628     -77.5429     -47.0860     160.5472 1533238849 9999999.9999
     769.0       0.0000       0.0000     -49.0370    -999.2500     -70.7737     -50.6903     -68.4653     -53.8575     166.6491 1533238850 9999999.9999
     770.0       0.0000       0.0000     -40.1031    -999.2500     -54.8275     -66.9177     -52.5191     -70.4374     172.7510 1533238851 9999999.9999
     771.0       0.0000       0.0000     -35.6866    -999.2500     -47.4770     -77.1602     -45.1686     -80.9024     178.8529 1533238852 9999999.9999
     772.0       0.0000       0.0000     -31.7476    -999.2500     -40.5282     -85.1533     -38.2198     -89.0693     184.9548 1533238853 9999999.9999
     773.0       0.0000       0.0000     -27.3580    -999.2500     -33.2982     -91.6202     -30.9898     -95.6766     191.0567 1533238854 9999999.9999
     774.0       0.0000       0.0000     -22.4539    -999.2500     -26.2690     -96.5205     -23.9606    -100.6834     197.1586 1533238855 9999999.9999
     775.0       0.0000       0.0000     -16.3994    -999.2500     -18.9185     -99.5330     -16.6101    -103.7614     203.2605 1533238856 9999999.9999
     776.0       0.0000       0.0000      -9.1255      78.4195     -11.2467    -100.4568      -8.9383    -104.7053     209.7704 1533238857 9999999.9999
     777.0       0.0000       0.0000      -0.3124      75.4622      -2.6108    -100.2962      -0.3024    -104.5411     215.8600 1533238858 9999999.9999
     778.0       0.0000       0.0000       8.3428      78.4524       5.8643     -99.9748       8.1727    -104.2128     221.9619 1533238859 9999999.9999
     779.0       0.0000       0.0000      15.6649      93.3908      13.5763     -98.3682      15.8847    -102.5712     228.0514 1533238860 9999999.9999
     780.0       0.0000       0.0000      21.5792    -999.2500      20.6858     -94.8737      22.9942     -99.0008     234.1533 1533238861 9999999.9999
     781.0       0.0000       0.0000      26.7405    -999.2500      27.8757     -89.6922      30.1841     -93.7067     240.2552 1533238862 9999999.9999
     782.0       0.0000       0.0000      31.5431    -999.2500      35.4672     -82.4622      37.7756     -86.3196     246.3447 1533238863 9999999.9999
     783.0       0.0000       0.0000      35.5492    -999.2500      42.1750     -74.9912      44.4834     -78.6863     252.4466 1533238864 9999999.9999
     784.0       0.0000       0.0000      39.6525    -999.2500      48.4812     -65.7127      50.7896     -69.2062     258.5485 1533238865 9999999.9999
     785.0       0.0000       0.0000      50.0616    -999.2500      68.9662     -49.3247      71.2746     -52.4621     264.6503 1533238866 9999999.9999
     786.0       0.0000       0.0000      53.7779    -999.2500      78.2447     -43.2595      80.5531     -46.2652     270.7651 1533238867 9999999.9999
     787.0       0.0000       0.0000      57.5320    -999.2500      85.9567     -36.6320      88.2651     -39.4937     276.8669 1533238868 9999999.9999
     788.0       0.0000       0.0000      61.6905    -999.2500      92.2628     -29.7635      94.5712     -32.4760     283.3768 1533238869 9999999.9999
     789.0       0.0000       0.0000      66.6158    -999.2500      97.0828     -22.6942      99.3912     -25.2530     289.4786 1533238870 9999999.9999
     790.0       0.0000       0.0000      72.6273    -999.2500      99.6133     -15.4240     101.9217     -17.8249     295.5804 1533238871 9999999.9999
     791.0       0.0000       0.0000      79.9484      81.7032     100.6978      -7.7120     103.0062      -9.9453     301.6822 1533238872 9999999.9999
     792.0       0.0000       0.0000      88.9313      76.6340     101.0995       1.0042     103.4079      -1.0398     307.7840 1533238873 9999999.9999
     793.0       0.0000       0.0000      97.5991      78.8719     101.1397       9.3187     103.4481       7.4554     313.8858 1533238874 9999999.9999
     794.0       0.0000       0.0000     105.5170      91.1325      99.2117      17.4725     101.5201      15.7863     320.0016 1533238875 9999999.9999
