~VERSION INFORMATION
VERS.           2.0   :CWLS Log ASCII Standard - VERSION 2.0
WRAP.           NO    :One Line per depth step
PROD.  Schlumberger   :LAS Producer
PROG.  DLIS to ASCII 19C2-270                          :LAS Program name and version
CREA.        2018/08/03 10:59                          :LAS Creation date {YYYY/MM/DD hh:mm}
DLIS_CREA.  2018-Aug-03 09:22                          :DLIS Creation date and time {YYYY-MMM-DD hh:mm}
SOURCE.     PERFO_Perfo_075PTP.DLIS                    :DLIS File Name
FILE-ID.     PERFO_Perfo_075PTP                        :File Identification Number
#--------------------------------------------------
~WELL INFORMATION
#MNEM.UNIT      DATA             DESCRIPTION
#---- ------ --------------   -----------------------------
STRT .S            0.0       :START TIME      
STOP .S          907.0       :STOP TIME      
STEP .S            1.0       :STEP     
NULL .          -999.25      :NULL VALUE
COMP .        SHELL INTERNATIONAL EP                   :COMPANY
WELL .        WPP TEST 4                               :WELL
FLD  .        WILDCAT                                  :FIELD
LOC  .        NA                                       :LOCATION
CNTY .        HARRIS                                   :COUNTY
STAT .        TEXAS                                    :STATE
CTRY .                                                 :COUNTRY
API  .        NA                                       :API NUMBER
UWI  .                                                 :UNIQUE WELL ID
DATE .        02-Aug-2018                              :LOG DATE {DD-MMM-YYYY}
SRVC .        Schlumberger                             :SERVICE COMPANY
LATI .DEG                                              :LATITUDE
LONG .DEG                                              :LONGITUDE
GDAT .                                                 :GeoDetic Datum
SECT .        NA                                       :Section
RANG .        NA                                       :Range
TOWN .        NA                                       :Township
#-----------------------------------------------------------------------------
~PARAMETER INFORMATION
#MNEM.UNIT    VALUE                      DESCRIPTION
#---- -----   --------------------       ------------------------
U-PHASE_B_COMP_PER_YT.                 0 :Phase B Comparator Period Yt
U-PHASE_A_COMP_PER_XT.                 0 :Phase A Comparator Period Xt
U-MAX_EXC_CUR_LIMIT.MA       265.00000   :Requested CM Current Limit
U-REQ_EXC_FQ.HZ              50          :Requested CM Frequency
U-TILT_Y_OFFSET.          -2.06578       :WPTET Tilt Y Offset
U-TILT_Y_GAIN.           1.02173         :WPTET Tilt Y Gain
U-TILT_X_OFFSET.           2.30841       :WPTET Tilt X Offset
U-TILT_X_GAIN.           1.00000         :WPTET Tilt X Gain
U-TILT_OFFSET_TOL.           0.00100     :WPTET Tilt Offset Calibration Tolerance
U-MOT_CUR_LIMIT_REQ.MA        70.00000   :Requested Motor Current Limit
U-MOT_SPD_REQ_WPMS.RPM        1.00000    :Requested Motor Speed
U-STD_TOL_TILT.           0.01000        :Tilt Standard Deviation Tolerance
CWEI .LB/F      29.00000                 :Casing Weight
CSIZ .IN         7.00000                 :Current Casing Size
LCC  .               440                 :Logging Company Code
LUN  .              2134                 :Logging Unit Number
HIDE .                                   :Header Identifier
HID1 .                                   :Header Identifier Line 1
R1   .                                   :Remark Line 1
WITN .        MR. KELLY McCOY            :Witness's Name
ENGI .        MORRIS MOORE               :Engineer's Name
LUL  .        IOWA COLONY                :Logging Unit Location
DATE .        02-Aug-2018                :Date as Month-Day-Year
STAT .        TEXAS                      :State or Province
COUN .        HARRIS                     :County or Rig Name
FN   .        WILDCAT                    :Field Name
WN   .        WPP TEST 4                 :Well Name
CN   .        SHELL INTERNATIONAL EP     :Company Name
CLAB .        County                     :County/Rig Label
SLAB .        State                      :State/Province Label
RUN  .          1                        :RUN NUMBER
PDAT .        GROUND LEVEL               :Permanent Datum
EPD  .                                   :Elevation of Permanent Datum above Mean Sea Level
LMF  .          NA                       :Logging Measured From (Name of Logging Elevation Reference)
APD  .                                   :Elevation of Depth Reference (LMF) above Permanent Datum
#-----------------------------------------------------------------------------
~CURVE INFORMATION
#MNEM.UNIT   API CODE                                  DESCRIPTION
#---- -----  --------                                  -----------------------
TIME .S                                                :TIME {F10.1}
FREQ_EMF_SL.HZ                                         :Electromagnetic Field Frequency {F13.4}
PH_SH_WPPCM_SL.DEG                                     :WPPCM Phase Shift {F13.4}
RB_SL.DEG                                              :Relative Bearing {F13.4}
SDEV_SL.DEG                                            :Sonde Deviation {F13.4}
RTIX_SL.DEG                                            :Raw X-axis Tilt {F13.4}
RTIY_SL.DEG                                            :Raw Y-axis Tilt {F13.4}
TILX_SL.DEG                                            :X-axis Tilt {F13.4}
TILY_SL.DEG                                            :Y-axis Tilt {F13.4}
ROTA_SL.DEG                                            :Motor Rotation Angle {F13.4}
TOD7 .S                                                :Time of Day {I11}
TOJ  .S                                                :Time of Job {F13.4}
#-----------------------------------------------------------------------------
# 
#     TIME    FREQ_EMF_SL  PH_SH_WPPCM_    RB_SL       SDEV_SL      RTIX_SL      RTIY_SL      TILX_SL      TILY_SL      ROTA_SL        TOD7            TOJ
#                          SL
~A  
# ...
     159.0     376.2039       0.0000     159.8004    -999.2500      18.7177     102.6258      21.0261     102.7898     167.1120 1533240496 9999999.9999
     160.0     346.5377       0.0000     166.6824      82.2456      10.8852     105.1563      13.1936     105.3753     173.2139 1533240497 9999999.9999
     161.0     323.7224       0.0000     174.9005      74.7372       2.6108     105.8392       4.9192     106.0730     179.3035 1533240498 9999999.9999
     162.0     312.6389       0.0000    -176.4724      74.2668      -5.7037     105.8793      -3.3953     106.1140     185.4054 1533240499 9999999.9999
     163.0     306.5061       0.0000    -168.1378      82.1650     -14.0583     103.9915     -11.7499     104.1852     191.5204 1533240500 9999999.9999
     164.0     314.4566       0.0000    -160.7086    -999.2500     -22.4933      99.5732     -20.1849      99.6708     197.6101 1533240501 9999999.9999
     165.0     329.3326       0.0000    -154.5970    -999.2500     -30.6070      93.4277     -28.2986      93.3918     203.7251 1533240502 9999999.9999
     166.0     354.9344       0.0000    -149.4380    -999.2500     -38.3993      86.1977     -36.0909      86.0047     209.8402 1533240503 9999999.9999
     167.0     385.2740       0.0000    -144.8301    -999.2500     -45.8703      78.3250     -43.5619      77.9610     215.9421 1533240504 9999999.9999
     168.0     428.9964       0.0000    -140.1846    -999.2500     -53.1405      69.0063     -50.8321      68.4399     222.0571 1533240505 9999999.9999
     169.0     486.2552       0.0000    -132.1732    -999.2500     -66.7570      55.6710     -64.4486      54.8148     228.5670 1533240506 9999999.9999
     170.0     545.9045       0.0000    -127.7016    -999.2500     -76.3568      49.0033     -74.0484      48.0023     234.6689 1533240507 9999999.9999
     171.0     621.6843       0.0000    -123.4576    -999.2500     -84.5508      42.0545     -82.2424      40.9024     240.7708 1533240508 9999999.9999
     172.0     708.0815       0.0000    -118.7749    -999.2500     -91.9013      34.6237     -89.5929      33.3102     246.8727 1533240509 9999999.9999
     173.0     805.4124       0.0000    -113.2572    -999.2500     -98.2477      26.7912     -95.9393      25.3075     252.9746 1533240510 9999999.9999
     174.0     917.9178       0.0000    -106.5910    -999.2500    -103.1078      18.6775    -100.7994      17.0175     259.0896 1533240511 9999999.9999
     175.0    1071.8369       0.0000     -98.4473      79.9653    -105.3973      10.1622    -103.0889       8.3172     265.1914 1533240512 9999999.9999
     176.0    1240.0793       0.0000     -89.8593      76.6306    -105.6785       1.8878    -103.3701      -0.1369     271.2932 1533240513 9999999.9999
     177.0    1423.3300       0.0000     -81.1615      80.4169    -105.3170      -6.5070    -103.0086      -8.7142     277.3951 1533240514 9999999.9999
     178.0    1821.5673       0.0000     -73.5100      97.8771    -103.5095     -14.5002    -101.2011     -16.8810     283.4969 1533240515 9999999.9999
     179.0    2176.8577       0.0000     -67.0160    -999.2500     -99.5330     -22.3327     -97.2246     -24.8837     289.6119 1533240516 9999999.9999
     180.0    2297.7942       0.0000     -61.5970    -999.2500     -93.8695     -30.0045     -91.5611     -32.7222     295.7137 1533240517 9999999.9999
     181.0    2383.4746       0.0000     -57.0635    -999.2500     -87.2822     -37.3148     -84.9738     -40.1914     302.2236 1533240518 9999999.9999
     182.0    2441.4063       0.0000     -53.0300    -999.2500     -79.6103     -44.2235     -77.3019     -47.2501     308.3254 1533240519 9999999.9999
     183.0    2467.1052       0.0000     -48.9315    -999.2500     -70.6130     -50.8912     -68.3046     -54.0627     314.4272 1533240520 9999999.9999
     184.0       0.0000       0.0000     -40.2882    -999.2500     -54.9882     -66.2348     -52.6798     -69.7397     320.6246 1533240521 9999999.9999
     185.0       0.0000       0.0000     -35.9319    -999.2500     -47.9188     -76.6782     -45.6104     -80.4099     326.7141 1533240522 9999999.9999
     186.0       0.0000       0.0000     -31.9092    -999.2500     -40.8093     -84.8722     -38.5009     -88.7820     332.8159 1533240523 9999999.9999
     187.0       0.0000       0.0000     -27.2332    -999.2500     -33.0973     -91.9013     -30.7889     -95.9639     338.9062 1533240524 9999999.9999
     188.0       0.0000       0.0000     -22.1501    -999.2500     -25.8673     -96.7615     -23.5589    -100.9296     345.0089 1533240525 9999999.9999
     189.0       0.0000       0.0000     -15.9630    -999.2500     -18.4365     -99.5732     -16.1281    -103.8024     351.1107 1533240526 9999999.9999
     190.0       0.0000       0.0000      -8.8486      78.1047     -10.9655    -100.5372      -8.6571    -104.7873     357.2125 1533240527 9999999.9999
     191.0       0.0000       0.0000       0.4762      75.3844      -1.8477    -100.3765       0.4607    -104.6232       3.3143 1533240528 9999999.9999
     192.0       0.0000       0.0000       9.3027      79.2069       6.8283     -99.9748       9.1367    -104.2128       9.4161 1533240529 9999999.9999
     193.0       0.0000       0.0000      16.4211      92.4309      14.4198     -98.2075      16.7282    -102.4071      15.9260 1533240530 9999999.9999
     194.0       0.0000       0.0000      22.4265    -999.2500      21.7703     -94.5523      24.0787     -98.6725      22.0278 1533240531 9999999.9999
     195.0       0.0000       0.0000      27.4648    -999.2500      28.9602     -89.0495      31.2686     -93.0501      28.1296 1533240532 9999999.9999
     196.0       0.0000       0.0000      31.6734    -999.2500      35.7082     -82.7433      38.0166     -86.6069      34.2190 1533240533 9999999.9999
     197.0       0.0000       0.0000      35.6081    -999.2500      42.2152     -74.5895      44.5236     -78.2759      40.3085 1533240534 9999999.9999
     198.0       0.0000       0.0000      40.3118    -999.2500      49.4452     -64.3068      51.7536     -67.7698      46.4103 1533240535 9999999.9999
     199.0       0.0000       0.0000      50.4432    -999.2500      70.1712     -48.8427      72.4796     -51.9697      52.5121 1533240536 9999999.9999
     200.0       0.0000       0.0000      54.2042    -999.2500      79.1283     -42.4963      81.4367     -45.4854      58.6139 1533240537 9999999.9999
     201.0       0.0000       0.0000      58.1603    -999.2500      87.0813     -35.5475      89.3897     -38.3856      64.7158 1533240538 9999999.9999
     202.0       0.0000       0.0000      62.4242    -999.2500      93.1063     -28.6388      95.4147     -31.3269      70.8175 1533240539 9999999.9999
     203.0       0.0000       0.0000      67.5918    -999.2500      97.9263     -21.4088     100.2347     -23.9398      76.9193 1533240540 9999999.9999
     204.0       0.0000       0.0000      73.4021    -999.2500     100.1355     -14.5403     102.4439     -16.9220      83.0342 1533240541 9999999.9999
     205.0       0.0000       0.0000      81.3595      80.0268     100.8585      -6.3062     103.1669      -8.5090      89.5316 1533240542 9999999.9999
     206.0       0.0000       0.0000      90.7459      76.3711     101.3405       2.7313     103.6489       0.7249      95.6465 1533240543 9999999.9999
     207.0       0.0000       0.0000      99.1115      80.0669     101.1397      10.8048     103.4481       8.9738     101.7483 1533240544 9999999.9999
     208.0       0.0000       0.0000     106.2068      95.9999      98.8903      18.2357     101.1987      16.5661     107.8501 1533240545 9999999.9999
     209.0       0.0000       0.0000     112.6810    -999.2500      94.3113      26.0280      96.6197      24.5277     113.9519 1533240546 9999999.9999
     210.0       0.0000       0.0000     117.9479    -999.2500      88.5675      33.3785      90.8759      32.0379     120.0668 1533240547 9999999.9999
     211.0       0.0000       0.0000     122.8608    -999.2500      81.0965      41.0905      83.4049      39.9175     126.1686 1533240548 9999999.9999
