~VERSION INFORMATION
VERS.           2.0   :CWLS Log ASCII Standard - VERSION 2.0
WRAP.           NO    :One Line per depth step
PROD.  Schlumberger   :LAS Producer
PROG.  DLIS to ASCII 19C2-270                          :LAS Program name and version
CREA.        2018/08/03 10:59                          :LAS Creation date {YYYY/MM/DD hh:mm}
DLIS_CREA.  2018-Aug-03 09:13                          :DLIS Creation date and time {YYYY-MMM-DD hh:mm}
SOURCE.     PERFO_Perfo_073PTP.DLIS                    :DLIS File Name
FILE-ID.     PERFO_Perfo_073PTP                        :File Identification Number
#--------------------------------------------------
~WELL INFORMATION
#MNEM.UNIT      DATA             DESCRIPTION
#---- ------ --------------   -----------------------------
STRT .S            0.0       :START TIME      
STOP .S         1015.0       :STOP TIME      
STEP .S            1.0       :STEP     
NULL .          -999.25      :NULL VALUE
COMP .        SHELL INTERNATIONAL EP                   :COMPANY
WELL .        WPP TEST 4                               :WELL
FLD  .        WILDCAT                                  :FIELD
LOC  .        NA                                       :LOCATION
CNTY .        HARRIS                                   :COUNTY
STAT .        TEXAS                                    :STATE
CTRY .                                                 :COUNTRY
API  .        NA                                       :API NUMBER
UWI  .                                                 :UNIQUE WELL ID
DATE .        02-Aug-2018                              :LOG DATE {DD-MMM-YYYY}
SRVC .        Schlumberger                             :SERVICE COMPANY
LATI .DEG                                              :LATITUDE
LONG .DEG                                              :LONGITUDE
GDAT .                                                 :GeoDetic Datum
SECT .        NA                                       :Section
RANG .        NA                                       :Range
TOWN .        NA                                       :Township
#-----------------------------------------------------------------------------
~PARAMETER INFORMATION
#MNEM.UNIT    VALUE                      DESCRIPTION
#---- -----   --------------------       ------------------------
U-PHASE_B_COMP_PER_YT.                 0 :Phase B Comparator Period Yt
U-PHASE_A_COMP_PER_XT.                 0 :Phase A Comparator Period Xt
U-MAX_EXC_CUR_LIMIT.MA       265.00000   :Requested CM Current Limit
U-REQ_EXC_FQ.HZ              50          :Requested CM Frequency
U-TILT_Y_OFFSET.          -2.06578       :WPTET Tilt Y Offset
U-TILT_Y_GAIN.           1.02173         :WPTET Tilt Y Gain
U-TILT_X_OFFSET.           2.30841       :WPTET Tilt X Offset
U-TILT_X_GAIN.           1.00000         :WPTET Tilt X Gain
U-TILT_OFFSET_TOL.           0.00100     :WPTET Tilt Offset Calibration Tolerance
U-MOT_CUR_LIMIT_REQ.MA        70.00000   :Requested Motor Current Limit
U-MOT_SPD_REQ_WPMS.RPM        1.00000    :Requested Motor Speed
U-STD_TOL_TILT.           0.01000        :Tilt Standard Deviation Tolerance
CWEI .LB/F      29.00000                 :Casing Weight
CSIZ .IN         7.00000                 :Current Casing Size
LCC  .               440                 :Logging Company Code
LUN  .              2134                 :Logging Unit Number
HIDE .                                   :Header Identifier
HID1 .                                   :Header Identifier Line 1
R1   .                                   :Remark Line 1
WITN .        MR. KELLY McCOY            :Witness's Name
ENGI .        MORRIS MOORE               :Engineer's Name
LUL  .        IOWA COLONY                :Logging Unit Location
DATE .        02-Aug-2018                :Date as Month-Day-Year
STAT .        TEXAS                      :State or Province
COUN .        HARRIS                     :County or Rig Name
FN   .        WILDCAT                    :Field Name
WN   .        WPP TEST 4                 :Well Name
CN   .        SHELL INTERNATIONAL EP     :Company Name
CLAB .        County                     :County/Rig Label
SLAB .        State                      :State/Province Label
RUN  .          1                        :RUN NUMBER
PDAT .        GROUND LEVEL               :Permanent Datum
EPD  .                                   :Elevation of Permanent Datum above Mean Sea Level
LMF  .          NA                       :Logging Measured From (Name of Logging Elevation Reference)
APD  .                                   :Elevation of Depth Reference (LMF) above Permanent Datum
#-----------------------------------------------------------------------------
~CURVE INFORMATION
#MNEM.UNIT   API CODE                                  DESCRIPTION
#---- -----  --------                                  -----------------------
TIME .S                                                :TIME {F10.1}
FREQ_EMF_SL.HZ                                         :Electromagnetic Field Frequency {F13.4}
PH_SH_WPPCM_SL.DEG                                     :WPPCM Phase Shift {F13.4}
RB_SL.DEG                                              :Relative Bearing {F13.4}
SDEV_SL.DEG                                            :Sonde Deviation {F13.4}
RTIX_SL.DEG                                            :Raw X-axis Tilt {F13.4}
RTIY_SL.DEG                                            :Raw Y-axis Tilt {F13.4}
TILX_SL.DEG                                            :X-axis Tilt {F13.4}
TILY_SL.DEG                                            :Y-axis Tilt {F13.4}
ROTA_SL.DEG                                            :Motor Rotation Angle {F13.4}
TOD7 .S                                                :Time of Day {I11}
TOJ  .S                                                :Time of Job {F13.4}
#-----------------------------------------------------------------------------
# 
#     TIME    FREQ_EMF_SL  PH_SH_WPPCM_    RB_SL       SDEV_SL      RTIX_SL      RTIY_SL      TILX_SL      TILY_SL      ROTA_SL        TOD7            TOJ
#                          SL
~A  
# ...
     318.0       0.0000       0.0000     108.2564    -999.2500      90.6963      20.8465      93.0047      19.2337     280.2278 1533238399 9999999.9999
     319.0       0.0000       0.0000     114.0783    -999.2500      92.1423      27.9158      94.4507      26.4566     286.2264 1533238400 9999999.9999
     320.0       0.0000       0.0000     117.9238    -999.2500      88.9692      33.3383      91.2776      31.9969     292.2328 1533238401 9999999.9999
     321.0       0.0000       0.0000     122.7653    -999.2500      81.6588      40.9700      83.9672      39.7944     298.5966 1533238402 9999999.9999
     322.0       0.0000       0.0000     125.0718    -999.2500      76.7183      44.6653      79.0267      43.5700     304.6166 1533238403 9999999.9999
     323.0       0.0000       0.0000     129.5961    -999.2500      67.4800      51.8552      69.7884      50.9161     310.6342 1533238404 9999999.9999
     324.0       0.0000       0.0000     137.4121    -999.2500      54.3857      66.0340      56.6941      65.4030     316.7360 1533238405 9999999.9999
     325.0       0.0000       0.0000     141.7429    -999.2500      47.5573      76.2363      49.8657      75.8270     322.8409 1533238406 9999999.9999
     326.0       0.0000       0.0000     145.5322    -999.2500      40.7692      84.4705      43.0776      84.2400     328.9435 1533238407 9999999.9999
     327.0       0.0000       0.0000     149.5159    -999.2500      33.7400      91.5800      36.0484      91.5040     335.0453 1533238408 9999999.9999
     328.0       0.0000       0.0000     154.3069    -999.2500      26.1485      97.8862      28.4569      97.9472     341.5520 1533238409 9999999.9999
     329.0       0.0000       0.0000     160.1091    -999.2500      18.3562     102.5857      20.6646     102.7488     347.6538 1533238410 9999999.9999
     330.0       0.0000       0.0000     166.7618      82.1910      10.8048     105.1162      13.1132     105.3343     353.7556 1533238411 9999999.9999
     331.0       0.0000       0.0000     174.8602      74.7938       2.6510     105.7990       4.9594     106.0319     359.8575 1533238412 9999999.9999
     332.0       0.0000       0.0000    -176.5965      74.1982      -5.5832     105.9195      -3.2748     106.1551       5.9470 1533238413 9999999.9999
     333.0       0.0000       0.0000    -168.6280      80.9223     -13.5362     104.3128     -11.2278     104.5135      12.0488 1533238414 9999999.9999
     334.0       0.0000       0.0000    -160.8429      85.2030     -22.3327      99.6133     -20.0243      99.7119      18.1506 1533238415 9999999.9999
     335.0       0.0000       0.0000    -154.6829    -999.2500     -30.4865      93.4678     -28.1781      93.4328      24.2687 1533238416 9999999.9999
     336.0       0.0000       0.0000    -149.5154    -999.2500     -38.2788      86.3583     -35.9704      86.1689      30.3705 1533238417 9999999.9999
     337.0       0.0000       0.0000    -144.9380    -999.2500     -45.6695      78.4053     -43.3611      78.0431      36.4723 1533238418 9999999.9999
     338.0       0.0000       0.0000    -140.6313    -999.2500     -52.2167      69.3678     -49.9083      68.8092      42.5741 1533238419 9999999.9999
     339.0       0.0000       0.0000    -132.5731    -999.2500     -65.8733      56.1932     -63.5649      55.3483      48.6759 1533238420 9999999.9999
     340.0       0.0000       0.0000    -127.9118    -999.2500     -75.8748      49.3247     -73.5664      48.3306      55.1827 1533238421 9999999.9999
     341.0       0.0000       0.0000    -123.7486    -999.2500     -84.0688      42.5365     -81.7604      41.3949      61.2845 1533238422 9999999.9999
     342.0       0.0000       0.0000    -119.1442    -999.2500     -91.3390      35.1860     -89.0306      33.8847      67.3872 1533238423 9999999.9999
     343.0       0.0000       0.0000    -113.7668    -999.2500     -97.6452      27.4740     -95.3368      26.0052      73.4767 1533238424 9999999.9999
     344.0       0.0000       0.0000    -107.2670    -999.2500    -102.7865      19.4407    -100.4781      17.7973      79.5947 1533238425 9999999.9999
     345.0       0.0000       0.0000     -99.7814      81.4433    -105.2768      11.4877    -102.9684       9.6715      85.6810 1533238426 9999999.9999
     346.0       0.0000       0.0000     -90.6185      76.6440    -105.6785       2.6108    -103.3701       0.6018      91.7959 1533238427 9999999.9999
     347.0       0.0000       0.0000     -81.9376      79.8086    -105.2768      -5.7438    -102.9684      -7.9344      97.9107 1533238428 9999999.9999
     348.0       0.0000       0.0000     -74.1634      93.2040    -103.7505     -13.7772    -101.4421     -16.1423     104.0156 1533238429 9999999.9999
     349.0       0.0000       0.0000     -67.5116    -999.2500     -99.8945     -21.6900     -97.5861     -24.2270     110.1304 1533238430 9999999.9999
     350.0       0.0000       0.0000     -62.0215    -999.2500     -94.3515     -29.3618     -92.0431     -32.0656     116.2322 1533238431 9999999.9999
     351.0    1411.8976       0.0000     -57.4156    -999.2500     -87.7240     -36.7123     -85.4156     -39.5758     122.2615 1533238432 9999999.9999
     352.0    1429.1158       0.0000     -53.3179    -999.2500     -80.2530     -43.7415     -77.9446     -46.7577     128.7683 1533238433 9999999.9999
     353.0    1426.2170       0.0000     -49.2416    -999.2500     -71.2155     -50.3690     -68.9071     -53.5292     134.8702 1533238434 9999999.9999
     354.0    1437.8834       0.0000     -41.6527    -999.2500     -55.9120     -61.4148     -53.6036     -64.8150     140.9721 1533238435 9999999.9999
     355.0    1432.0265       0.0000     -36.2491    -999.2500     -48.4410     -75.7945     -46.1326     -79.5071     147.0740 1533238436 9999999.9999
     356.0    1437.8834       0.0000     -32.1638    -999.2500     -41.2512     -84.3098     -38.9428     -88.2074     153.1759 1533238437 9999999.9999
     357.0    1437.8834       0.0000     -27.9018    -999.2500     -34.1417     -91.0177     -31.8333     -95.0610     159.2940 1533238438 9999999.9999
     358.0    1446.7593       0.0000     -22.4220    -999.2500     -26.2288     -96.5205     -23.9204    -100.6834     165.3959 1533238439 9999999.9999
     359.0    1443.7886       0.0000     -16.3629    -999.2500     -18.8783     -99.5330     -16.5699    -103.7614     171.4978 1533238440 9999999.9999
     360.0    1443.7886       0.0000      -8.8903      78.0842     -11.0057    -100.5773      -8.6973    -104.8284     177.5997 1533238441 9999999.9999
     361.0    1449.7422       0.0000       0.0611      75.2538      -2.2493    -100.4970       0.0591    -104.7463     183.7016 1533238442 9999999.9999
     362.0    1440.8298       0.0000       8.7484      78.5983       6.2660    -100.0953       8.5744    -104.3359     189.8035 1533238443 9999999.9999
     363.0    1443.7886       0.0000      16.1377     101.4046      14.0985     -98.3280      16.4069    -102.5302     195.9054 1533238444 9999999.9999
     364.0    1446.7593       0.0000      22.1424    -999.2500      21.4088     -94.5925      23.7172     -98.7135     202.3998 1533238445 9999999.9999
     365.0    1443.7886       0.0000      27.3038    -999.2500      28.7192     -89.1298      31.0276     -93.1322     208.5017 1533238446 9999999.9999
     366.0    1440.8298       0.0000      31.5396    -999.2500      35.4672     -82.5827      37.7756     -86.4427     214.5944 1533238447 9999999.9999
     367.0    1443.7886       0.0000      35.7156    -999.2500      42.4562     -74.6698      44.7646     -78.3580     220.6963 1533238448 9999999.9999
     368.0    1437.8834       0.0000      40.2245    -999.2500      49.2845     -64.4273      51.5929     -67.8929     226.7982 1533238449 9999999.9999
     369.0    1434.9490       0.0000      50.0920    -999.2500      69.5285     -49.4853      71.8369     -52.6263     232.9001 1533238450 9999999.9999
     370.0    1431.2977       0.0000      54.2066    -999.2500      79.2288     -42.5064      81.5372     -45.4957     239.0020 1533238451 9999999.9999
