~VERSION INFORMATION
VERS.           2.0   :CWLS Log ASCII Standard - VERSION 2.0
WRAP.           NO    :One Line per depth step
PROD.  Schlumberger   :LAS Producer
PROG.  DLIS to ASCII 19C2-270                          :LAS Program name and version
CREA.        2018/08/03 10:59                          :LAS Creation date {YYYY/MM/DD hh:mm}
DLIS_CREA.  2018-Aug-03 09:13                          :DLIS Creation date and time {YYYY-MMM-DD hh:mm}
SOURCE.     PERFO_Perfo_073PTP.DLIS                    :DLIS File Name
FILE-ID.     PERFO_Perfo_073PTP                        :File Identification Number
#--------------------------------------------------
~WELL INFORMATION
#MNEM.UNIT      DATA             DESCRIPTION
#---- ------ --------------   -----------------------------
STRT .S            0.0       :START TIME      
STOP .S         1015.0       :STOP TIME      
STEP .S            1.0       :STEP     
NULL .          -999.25      :NULL VALUE
COMP .        SHELL INTERNATIONAL EP                   :COMPANY
WELL .        WPP TEST 4                               :WELL
FLD  .        WILDCAT                                  :FIELD
LOC  .        NA                                       :LOCATION
CNTY .        HARRIS                                   :COUNTY
STAT .        TEXAS                                    :STATE
CTRY .                                                 :COUNTRY
API  .        NA                                       :API NUMBER
UWI  .                                                 :UNIQUE WELL ID
DATE .        02-Aug-2018                              :LOG DATE {DD-MMM-YYYY}
SRVC .        Schlumberger                             :SERVICE COMPANY
LATI .DEG                                              :LATITUDE
LONG .DEG                                              :LONGITUDE
GDAT .                                                 :GeoDetic Datum
SECT .        NA                                       :Section
RANG .        NA                                       :Range
TOWN .        NA                                       :Township
#-----------------------------------------------------------------------------
~PARAMETER INFORMATION
#MNEM.UNIT    VALUE                      DESCRIPTION
#---- -----   --------------------       ------------------------
U-PHASE_B_COMP_PER_YT.                 0 :Phase B Comparator Period Yt
U-PHASE_A_COMP_PER_XT.                 0 :Phase A Comparator Period Xt
U-MAX_EXC_CUR_LIMIT.MA       265.00000   :Requested CM Current Limit
U-REQ_EXC_FQ.HZ              50          :Requested CM Frequency
U-TILT_Y_OFFSET.          -2.06578       :WPTET Tilt Y Offset
U-TILT_Y_GAIN.           1.02173         :WPTET Tilt Y Gain
U-TILT_X_OFFSET.           2.30841       :WPTET Tilt X Offset
U-TILT_X_GAIN.           1.00000         :WPTET Tilt X Gain
U-TILT_OFFSET_TOL.           0.00100     :WPTET Tilt Offset Calibration Tolerance
U-MOT_CUR_LIMIT_REQ.MA        70.00000   :Requested Motor Current Limit
U-MOT_SPD_REQ_WPMS.RPM        1.00000    :Requested Motor Speed
U-STD_TOL_TILT.           0.01000        :Tilt Standard Deviation Tolerance
CWEI .LB/F      29.00000                 :Casing Weight
CSIZ .IN         7.00000                 :Current Casing Size
LCC  .               440                 :Logging Company Code
LUN  .              2134                 :Logging Unit Number
HIDE .                                   :Header Identifier
HID1 .                                   :Header Identifier Line 1
R1   .                                   :Remark Line 1
WITN .        MR. KELLY McCOY            :Witness's Name
ENGI .        MORRIS MOORE               :Engineer's Name
LUL  .        IOWA COLONY                :Logging Unit Location
DATE .        02-Aug-2018                :Date as Month-Day-Year
STAT .        TEXAS                      :State or Province
COUN .        HARRIS                     :County or Rig Name
FN   .        WILDCAT                    :Field Name
WN   .        WPP TEST 4                 :Well Name
CN   .        SHELL INTERNATIONAL EP     :Company Name
CLAB .        County                     :County/Rig Label
SLAB .        State                      :State/Province Label
RUN  .          1                        :RUN NUMBER
PDAT .        GROUND LEVEL               :Permanent Datum
EPD  .                                   :Elevation of Permanent Datum above Mean Sea Level
LMF  .          NA                       :Logging Measured From (Name of Logging Elevation Reference)
APD  .                                   :Elevation of Depth Reference (LMF) above Permanent Datum
#-----------------------------------------------------------------------------
~CURVE INFORMATION
#MNEM.UNIT   API CODE                                  DESCRIPTION
#---- -----  --------                                  -----------------------
TIME .S                                                :TIME {F10.1}
FREQ_EMF_SL.HZ                                         :Electromagnetic Field Frequency {F13.4}
PH_SH_WPPCM_SL.DEG                                     :WPPCM Phase Shift {F13.4}
RB_SL.DEG                                              :Relative Bearing {F13.4}
SDEV_SL.DEG                                            :Sonde Deviation {F13.4}
RTIX_SL.DEG                                            :Raw X-axis Tilt {F13.4}
RTIY_SL.DEG                                            :Raw Y-axis Tilt {F13.4}
TILX_SL.DEG                                            :X-axis Tilt {F13.4}
TILY_SL.DEG                                            :Y-axis Tilt {F13.4}
ROTA_SL.DEG                                            :Motor Rotation Angle {F13.4}
TOD7 .S                                                :Time of Day {I11}
TOJ  .S                                                :Time of Job {F13.4}
#-----------------------------------------------------------------------------
# 
#     TIME    FREQ_EMF_SL  PH_SH_WPPCM_    RB_SL       SDEV_SL      RTIX_SL      RTIY_SL      TILX_SL      TILY_SL      ROTA_SL        TOD7            TOJ
#                          SL
~A  
# ...
     954.0    1426.2170       0.0000     -50.7993    -999.2500     -74.7100     -47.9188     -72.4016     -51.0258     221.6094 1533239035 9999999.9999
     955.0    1429.1158       0.0000     -46.0779    -999.2500     -63.7847     -54.5463     -61.4763     -57.7972     227.7243 1533239036 9999999.9999
     956.0    1429.1158       0.0000     -37.5693    -999.2500     -50.6502     -72.5812     -48.3418     -76.2239     233.8262 1533239037 9999999.9999
     957.0    1432.0265       0.0000     -33.6463    -999.2500     -43.8620     -81.4580     -41.5536     -85.2936     240.3369 1533239038 9999999.9999
     958.0    1437.8834       0.0000     -29.4735    -999.2500     -36.6722     -88.8888     -34.3638     -92.8859     246.4388 1533239039 9999999.9999
     959.0    1434.9490       0.0000     -24.6860    -999.2500     -29.3217     -94.7130     -27.0133     -98.8366     252.5407 1533239040 9999999.9999
     960.0    1434.9490       0.0000     -19.0329    -999.2500     -21.9712     -98.5288     -19.6628    -102.7354     258.6557 1533239041 9999999.9999
     961.0    1437.8834       0.0000     -12.3009      82.4203     -14.5002    -100.1757     -12.1918    -104.4180     264.7583 1533239042 9999999.9999
     962.0    1440.8298       0.0000      -3.8753      75.8037      -6.0652    -100.4568      -3.7568    -104.7053     270.8601 1533239043 9999999.9999
     963.0    1443.7886       0.0000       5.9587      76.8923       3.4945    -100.1355       5.8029    -104.3769     276.9619 1533239044 9999999.9999
     964.0    1440.8298       0.0000      13.6911      86.0795      11.4073     -99.0510      13.7157    -103.2689     283.0638 1533239045 9999999.9999
     965.0    1440.8298       0.0000      20.1633    -999.2500      18.8783     -96.0385      21.1867    -100.1909     289.1656 1533239046 9999999.9999
     966.0    1437.8834       0.0000      25.4273    -999.2500      25.9477     -91.2185      28.2561     -95.2662     295.2550 1533239047 9999999.9999
     967.0    1437.8834       0.0000      29.9668    -999.2500      32.8965     -85.1533      35.2049     -89.0693     301.3699 1533239048 9999999.9999
     968.0    1437.8834       0.0000      34.0854    -999.2500      39.7248     -77.9233      42.0332     -81.6822     307.4717 1533239049 9999999.9999
     969.0    1434.9490       0.0000      38.3114    -999.2500      46.5532     -68.8457      48.8616     -72.4073     313.9815 1533239050 9999999.9999
     970.0    1432.0265       0.0000      46.3760    -999.2500      56.7153     -51.6142      59.0237     -54.8014     320.0964 1533239051 9999999.9999
     971.0    1429.1158       0.0000      52.4926    -999.2500      75.3125     -45.5088      77.6209     -48.5634     326.2113 1533239052 9999999.9999
     972.0    1426.2170       0.0000      56.2885    -999.2500      83.4262     -38.8010      85.7346     -41.7098     332.3162 1533239053 9999999.9999
     973.0    1423.3300       0.0000      60.2519    -999.2500      90.2545     -32.0530      92.5629     -34.8152     338.4149 1533239054 9999999.9999
     974.0    1420.4546       0.0000      64.8759    -999.2500      95.6368     -25.0640      97.9452     -27.6743     344.5044 1533239055 9999999.9999
     975.0    1411.8976       0.0000      70.8336    -999.2500      99.1313     -17.4725     101.4397     -19.9179     350.6062 1533239056 9999999.9999
     976.0    1411.8976       0.0000      77.8447      85.6907     100.5773      -9.8408     102.8857     -12.1204     356.7080 1533239057 9999999.9999
     977.0    1403.4431       0.0000      86.5751      77.0707     101.0593      -1.2452     103.3677      -3.3380       2.8230 1533239058 9999999.9999
     978.0    1406.2500       0.0000      95.5765      77.5225     101.3405       7.3505     103.6489       5.4444       8.9248 1533239059 9999999.9999
     979.0    1400.6475       0.0000     103.3097      88.4138      99.9748      15.1027     102.2832      13.3650      15.0266 1533239060 9999999.9999
     980.0    1392.3268       0.0000     110.1337    -999.2500      96.4402      22.8147      98.7486      21.2446      21.1284 1533239061 9999999.9999
     981.0    1392.3268       0.0000     115.8478    -999.2500      91.1382      30.3258      93.4466      28.9190      27.6382 1533239062 9999999.9999
     982.0    1386.8344       0.0000     120.6891    -999.2500      84.6713      37.5960      86.9797      36.3471      33.7401 1533239063 9999999.9999
     983.0    1384.1044       0.0000     124.9918    -999.2500      77.1602      44.5850      79.4686      43.4879      39.8419 1533239064 9999999.9999
     984.0    1381.3850       0.0000     129.4422    -999.2500      67.8817      51.6543      70.1901      50.7109      45.9437 1533239065 9999999.9999
     985.0    1375.9785       0.0000     137.5419    -999.2500      54.1045      66.1947      56.4129      65.5671      52.0455 1533239066 9999999.9999
     986.0    1367.9475       0.0000     141.7479    -999.2500      47.5573      76.2765      49.8657      75.8680      58.1350 1533239067 9999999.9999
     987.0    1367.9475       0.0000     145.7594    -999.2500      40.3675      85.0328      42.6759      84.8146      64.2368 1533239068 9999999.9999
     988.0    1370.6140       0.0000     149.9928    -999.2500      32.9367      92.3030      35.2451      92.2427      70.3386 1533239069 9999999.9999
     989.0    1365.2913       0.0000     154.8838    -999.2500      25.3050      98.5288      27.6134      98.6038      76.4404 1533239070 9999999.9999
     990.0    1360.0098       0.0000     161.0085    -999.2500      17.2717     102.9873      19.5801     103.1592      82.5421 1533239071 9999999.9999
     991.0    1367.9475       0.0000     168.3504      79.8955       9.1580     105.1563      11.4664     105.3753      88.6702 1533239072 9999999.9999
     992.0    1360.0098       0.0000     176.6835      74.2641       0.8837     105.8392       3.1921     106.0730      94.7597 1533239073 9999999.9999
     993.0    1360.0098       0.0000    -174.5276      74.9079      -7.5915     105.7990      -5.2831     106.0319     101.2695 1533239074 9999999.9999
     994.0    1357.3842       0.0000    -167.0069      85.6417     -15.2633     103.5095     -12.9549     103.6927     107.3589 1533239075 9999999.9999
     995.0    1365.2913       0.0000    -159.9995    -999.2500     -23.3770      98.9305     -21.0686      99.0142     113.4607 1533239076 9999999.9999
     996.0    1360.0098       0.0000    -153.9556    -999.2500     -31.5308      92.6243     -29.2224      92.5710     119.5625 1533239077 9999999.9999
     997.0    1365.2913       0.0000    -148.8538    -999.2500     -39.3232      85.1935     -37.0148      84.9787     125.6521 1533239078 9999999.9999
     998.0    1362.6454       0.0000    -144.3003    -999.2500     -46.7138      77.2405     -44.4054      76.8529     131.7547 1533239079 9999999.9999
     999.0    1366.6180       0.0000    -139.6652    -999.2500     -53.6526      67.4800     -51.3442      66.8804     137.8566 1533239080 9999999.9999
    1000.0    1367.9475       0.0000    -131.3587    -999.2500     -68.5243      54.5463     -66.2159      53.6657     143.9585 1533239081 9999999.9999
    1001.0    1375.9785       0.0000    -126.8950    -999.2500     -77.9233      47.6778     -75.6149      46.6480     150.0604 1533239082 9999999.9999
    1002.0    1375.9785       0.0000    -122.5722    -999.2500     -86.0772      40.6085     -83.7688      39.4250     156.1499 1533239083 9999999.9999
    1003.0    1378.6765       0.0000    -117.7845    -999.2500     -93.1867      33.1375     -90.8783      31.7917     162.2518 1533239084 9999999.9999
    1004.0    1384.1044       0.0000    -112.1144    -999.2500     -99.2518      25.3050     -96.9434      23.7890     168.3537 1533239085 9999999.9999
    1005.0    1384.1044       0.0000    -105.2778    -999.2500    -103.5497      17.2315    -101.2412      15.5401     174.4587 1533239086 9999999.9999
    1006.0    1392.3268       0.0000     -97.6290      79.3326    -105.3973       9.3588    -103.0889       7.4964     180.9655 1533239087 9999999.9999
