~VERSION INFORMATION
VERS.           2.0   :CWLS Log ASCII Standard - VERSION 2.0
WRAP.           NO    :One Line per depth step
PROD.  Schlumberger   :LAS Producer
PROG.  DLIS to ASCII 19C2-270                          :LAS Program name and version
CREA.        2018/08/03 10:59                          :LAS Creation date {YYYY/MM/DD hh:mm}
DLIS_CREA.  2018-Aug-03 09:22                          :DLIS Creation date and time {YYYY-MMM-DD hh:mm}
SOURCE.     PERFO_Perfo_075PTP.DLIS                    :DLIS File Name
FILE-ID.     PERFO_Perfo_075PTP                        :File Identification Number
#--------------------------------------------------
~WELL INFORMATION
#MNEM.UNIT      DATA             DESCRIPTION
#---- ------ --------------   -----------------------------
STRT .S            0.0       :START TIME      
STOP .S          907.0       :STOP TIME      
STEP .S            1.0       :STEP     
NULL .          -999.25      :NULL VALUE
COMP .        SHELL INTERNATIONAL EP                   :COMPANY
WELL .        WPP TEST 4                               :WELL
FLD  .        WILDCAT                                  :FIELD
LOC  .        NA                                       :LOCATION
CNTY .        HARRIS                                   :COUNTY
STAT .        TEXAS                                    :STATE
CTRY .                                                 :COUNTRY
API  .        NA                                       :API NUMBER
UWI  .                                                 :UNIQUE WELL ID
DATE .        02-Aug-2018                              :LOG DATE {DD-MMM-YYYY}
SRVC .        Schlumberger                             :SERVICE COMPANY
LATI .DEG                                              :LATITUDE
LONG .DEG                                              :LONGITUDE
GDAT .                                                 :GeoDetic Datum
SECT .        NA                                       :Section
RANG .        NA                                       :Range
TOWN .        NA                                       :Township
#-----------------------------------------------------------------------------
~PARAMETER INFORMATION
#MNEM.UNIT    VALUE                      DESCRIPTION
#---- -----   --------------------       ------------------------
U-PHASE_B_COMP_PER_YT.                 0 :Phase B Comparator Period Yt
U-PHASE_A_COMP_PER_XT.                 0 :Phase A Comparator Period Xt
U-MAX_EXC_CUR_LIMIT.MA       265.00000   :Requested CM Current Limit
U-REQ_EXC_FQ.HZ              50          :Requested CM Frequency
U-TILT_Y_OFFSET.          -2.06578       :WPTET Tilt Y Offset
U-TILT_Y_GAIN.           1.02173         :WPTET Tilt Y Gain
U-TILT_X_OFFSET.           2.30841       :WPTET Tilt X Offset
U-TILT_X_GAIN.           1.00000         :WPTET Tilt X Gain
U-TILT_OFFSET_TOL.           0.00100     :WPTET Tilt Offset Calibration Tolerance
U-MOT_CUR_LIMIT_REQ.MA        70.00000   :Requested Motor Current Limit
U-MOT_SPD_REQ_WPMS.RPM        1.00000    :Requested Motor Speed
U-STD_TOL_TILT.           0.01000        :Tilt Standard Deviation Tolerance
CWEI .LB/F      29.00000                 :Casing Weight
CSIZ .IN         7.00000                 :Current Casing Size
LCC  .               440                 :Logging Company Code
LUN  .              2134                 :Logging Unit Number
HIDE .                                   :Header Identifier
HID1 .                                   :Header Identifier Line 1
R1   .                                   :Remark Line 1
WITN .        MR. KELLY McCOY            :Witness's Name
ENGI .        MORRIS MOORE               :Engineer's Name
LUL  .        IOWA COLONY                :Logging Unit Location
DATE .        02-Aug-2018                :Date as Month-Day-Year
STAT .        TEXAS                      :State or Province
COUN .        HARRIS                     :County or Rig Name
FN   .        WILDCAT                    :Field Name
WN   .        WPP TEST 4                 :Well Name
CN   .        SHELL INTERNATIONAL EP     :Company Name
CLAB .        County                     :County/Rig Label
SLAB .        State                      :State/Province Label
RUN  .          1                        :RUN NUMBER
PDAT .        GROUND LEVEL               :Permanent Datum
EPD  .                                   :Elevation of Permanent Datum above Mean Sea Level
LMF  .          NA                       :Logging Measured From (Name of Logging Elevation Reference)
APD  .                                   :Elevation of Depth Reference (LMF) above Permanent Datum
#-----------------------------------------------------------------------------
~CURVE INFORMATION
#MNEM.UNIT   API CODE                                  DESCRIPTION
#---- -----  --------                                  -----------------------
TIME .S                                                :TIME {F10.1}
FREQ_EMF_SL.HZ                                         :Electromagnetic Field Frequency {F13.4}
PH_SH_WPPCM_SL.DEG                                     :WPPCM Phase Shift {F13.4}
RB_SL.DEG                                              :Relative Bearing {F13.4}
SDEV_SL.DEG                                            :Sonde Deviation {F13.4}
RTIX_SL.DEG                                            :Raw X-axis Tilt {F13.4}
RTIY_SL.DEG                                            :Raw Y-axis Tilt {F13.4}
TILX_SL.DEG                                            :X-axis Tilt {F13.4}
TILY_SL.DEG                                            :Y-axis Tilt {F13.4}
ROTA_SL.DEG                                            :Motor Rotation Angle {F13.4}
TOD7 .S                                                :Time of Day {I11}
TOJ  .S                                                :Time of Job {F13.4}
#-----------------------------------------------------------------------------
# 
#     TIME    FREQ_EMF_SL  PH_SH_WPPCM_    RB_SL       SDEV_SL      RTIX_SL      RTIY_SL      TILX_SL      TILY_SL      ROTA_SL        TOD7            TOJ
#                          SL
~A  
# ...
     371.0    2475.7922       0.0000      15.1631      90.4516      13.0140     -98.6092      15.3224    -102.8174      27.6723 1533240708 9999999.9999
     372.0    2467.1052       0.0000      21.4585    -999.2500      20.5252     -95.0343      22.8336     -99.1649      33.7742 1533240709 9999999.9999
     373.0    2475.7922       0.0000      26.5813    -999.2500      27.6347     -89.9733      29.9431     -93.9940      39.8760 1533240710 9999999.9999
     374.0    2475.7922       0.0000      31.0478    -999.2500      34.6638     -83.6270      36.9722     -87.5098      46.3858 1533240711 9999999.9999
     375.0    2475.7922       0.0000      35.0225    -999.2500      41.2913     -76.0355      43.5997     -79.7533      52.4753 1533240712 9999999.9999
     376.0    2475.7922       0.0000      39.3587    -999.2500      48.1598     -66.5963      50.4682     -70.1091      58.5771 1533240713 9999999.9999
     377.0    2475.7922       0.0000      49.1908    -999.2500      67.2792     -50.8510      69.5876     -54.0216      64.6820 1533240714 9999999.9999
     378.0    2467.1052       0.0000      53.3710    -999.2500      77.3610     -43.9825      79.6694     -47.0039      70.7685 1533240715 9999999.9999
     379.0    2467.1052       0.0000      57.1431    -999.2500      85.3943     -37.3148      87.7027     -40.1914      76.8703 1533240716 9999999.9999
     380.0    2467.1052       0.0000      61.4387    -999.2500      91.9716     -30.1551      94.2800     -32.8761      82.9721 1533240717 9999999.9999
     381.0    2475.7922       0.0000      66.4624    -999.2500      97.0025     -22.8950      99.3109     -25.4582      89.0739 1533240718 9999999.9999
     382.0    2467.1052       0.0000      72.5449    -999.2500      99.7740     -15.5043     102.0824     -17.9070      95.1633 1533240719 9999999.9999
     383.0    2467.1052       0.0000      80.0257      81.4849     100.7782      -7.6317     103.0866      -9.8633     101.2651 1533240720 9999999.9999
     384.0    2467.1052       0.0000      88.8040      76.4833     101.2602       0.8837     103.5686      -1.1629     107.3668 1533240721 9999999.9999
     385.0    2467.1052       0.0000      97.6889      78.6401     101.3807       9.3990     103.6891       7.5374     113.4717 1533240722 9999999.9999
     386.0    2484.5405       0.0000     105.1564      93.7844      99.4928      17.0708     101.8012      15.3760     119.9916 1533240723 9999999.9999
     387.0    2475.7922       0.0000     111.4697    -999.2500      95.5967      24.4615      97.9051      22.9272     126.0934 1533240724 9999999.9999
     388.0    2424.5691       0.0000     116.9406    -999.2500      89.9332      31.8923      92.2416      30.5195     132.1952 1533240725 9999999.9999
     389.0    2375.4224       0.0000     121.7196    -999.2500      83.0647      39.2428      85.3731      38.0297     138.3103 1533240726 9999999.9999
     390.0    2282.8735       0.0000     126.1330    -999.2500      74.9912      46.4728      77.2996      45.4168     144.4122 1533240727 9999999.9999
     391.0    2008.9286       0.0000     130.7322    -999.2500      64.9897      53.5020      67.2981      52.5987     150.5271 1533240728 9999999.9999
     392.0    1627.6041       0.0000     138.9843    -999.2500      52.1162      69.7996      54.4247      69.2504     156.6290 1533240729 9999999.9999
     393.0    1386.8344       0.0000     142.9350    -999.2500      45.5088      79.1685      47.8172      78.8228     162.7309 1533240730 9999999.9999
     394.0    1233.5526       0.0000     146.8056    -999.2500      38.4797      87.0412      40.7881      86.8665     168.8328 1533240731 9999999.9999
     395.0    1076.7611       0.0000     151.1558    -999.2500      31.0087      94.2310      33.3171      94.2126     174.9610 1533240732 9999999.9999
     396.0     941.2651       0.0000     156.5125    -999.2500      23.0155     100.0552      25.3239     100.1633     181.0629 1533240733 9999999.9999
     397.0     843.0756       0.0000     162.8781    -999.2500      15.0625     104.0718      17.3709     104.2672     187.1778 1533240734 9999999.9999
     398.0     751.2019       0.0000     170.5095      77.3274       6.9488     105.5580       9.2572     105.7857     193.2797 1533240735 9999999.9999
     399.0     669.0057       0.0000     178.8094      73.8466      -1.1648     105.9597       1.1436     106.1961     199.7896 1533240736 9999999.9999
     400.0     603.5408       0.0000    -172.6480      75.9457      -9.4392     105.5982      -7.1308     105.8267     205.8915 1533240737 9999999.9999
     401.0     548.0320       0.0000    -164.9567      87.4057     -17.5127     102.4652     -15.2043     102.6257     211.9934 1533240738 9999999.9999
     402.0     496.5572       0.0000    -158.2148    -999.2500     -25.6665      97.2033     -23.3581      97.2495     218.0953 1533240739 9999999.9999
     403.0     456.2784       0.0000    -152.4041    -999.2500     -33.8203      90.6160     -31.5119      90.5191     224.1972 1533240740 9999999.9999
     404.0     422.8052       0.0000    -147.5146    -999.2500     -41.4922      83.1450     -39.1838      82.8857     230.2991 1533240741 9999999.9999
     405.0     399.7300       0.0000    -142.7508    -999.2500     -49.2042      74.2280     -46.8958      73.7750     236.4010 1533240742 9999999.9999
     406.0     383.5925       0.0000    -137.8083    -999.2500     -56.3940      63.9855     -54.0856      63.3099     242.5029 1533240743 9999999.9999
     407.0     376.2039       0.0000    -130.0128    -999.2500     -71.4163      52.5782     -69.1079      51.6548     248.6048 1533240744 9999999.9999
     408.0     379.6571       0.0000    -125.7425    -999.2500     -80.3735      45.8302     -78.0651      44.7601     254.7067 1533240745 9999999.9999
     409.0     389.5429       0.0000    -121.3244    -999.2500     -88.1658      38.6002     -85.8574      37.3731     260.7992 1533240746 9999999.9999
     410.0     412.6320       0.0000    -116.3513    -999.2500     -94.9540      31.0488     -92.6456      29.6577     266.9010 1533240747 9999999.9999
     411.0     436.1818       0.0000    -110.3543    -999.2500    -100.6978      23.0958     -98.3894      21.5319     273.4077 1533240748 9999999.9999
     412.0     473.1662       0.0000    -103.3040      85.3655    -104.4735      15.1027    -102.1651      13.3650     279.5096 1533240749 9999999.9999
     413.0     514.3563       0.0000     -95.3177      77.8468    -105.5580       7.1095    -103.2496       5.1982     285.6114 1533240750 9999999.9999
     414.0     571.6464       0.0000     -86.4929      77.2150    -105.5580      -1.3255    -103.2496      -3.4201     291.7132 1533240751 9999999.9999
     415.0     638.0444       0.0000     -78.1313      85.5998    -104.9555      -9.5597    -102.6471     -11.8332     297.8150 1533240752 9999999.9999
     416.0     716.0132       0.0000     -70.9839    -999.2500    -102.3848     -17.3922    -100.0764     -19.8358     303.9168 1533240753 9999999.9999
     417.0     806.3361       0.0000     -64.5328    -999.2500     -97.1632     -25.7067     -94.8548     -28.3310     310.0316 1533240754 9999999.9999
     418.0     910.7836       0.0000     -59.4447    -999.2500     -90.9373     -33.3785     -88.6289     -36.1695     316.1365 1533240755 9999999.9999
     419.0    1027.9606       0.0000     -55.2713    -999.2500     -84.0287     -40.3675     -81.7203     -43.3104     322.2383 1533240756 9999999.9999
     420.0    1181.7228       0.0000     -51.1732    -999.2500     -75.5535     -47.3163     -73.2451     -50.4102     328.3401 1533240757 9999999.9999
     421.0    1336.7396       0.0000     -46.7220    -999.2500     -65.3913     -53.8635     -63.0829     -57.0996     334.4420 1533240758 9999999.9999
     422.0    1569.4755       0.0000     -38.1865    -999.2500     -51.7347     -71.3360     -49.4263     -74.9517     340.5438 1533240759 9999999.9999
     423.0    1953.1250       0.0000     -34.0938    -999.2500     -44.6653     -80.6547     -42.3569     -84.4728     347.0505 1533240760 9999999.9999
