~VERSION INFORMATION
VERS.           2.0   :CWLS Log ASCII Standard - VERSION 2.0
WRAP.           NO    :One Line per depth step
PROD.  Schlumberger   :LAS Producer
PROG.  DLIS to ASCII 19C2-270                          :LAS Program name and version
CREA.        2018/08/03 10:59                          :LAS Creation date {YYYY/MM/DD hh:mm}
DLIS_CREA.  2018-Aug-03 09:13                          :DLIS Creation date and time {YYYY-MMM-DD hh:mm}
SOURCE.     PERFO_Perfo_073PTP.DLIS                    :DLIS File Name
FILE-ID.     PERFO_Perfo_073PTP                        :File Identification Number
#--------------------------------------------------
~WELL INFORMATION
#MNEM.UNIT      DATA             DESCRIPTION
#---- ------ --------------   -----------------------------
STRT .S            0.0       :START TIME      
STOP .S         1015.0       :STOP TIME      
STEP .S            1.0       :STEP     
NULL .          -999.25      :NULL VALUE
COMP .        SHELL INTERNATIONAL EP                   :COMPANY
WELL .        WPP TEST 4                               :WELL
FLD  .        WILDCAT                                  :FIELD
LOC  .        NA                                       :LOCATION
CNTY .        HARRIS                                   :COUNTY
STAT .        TEXAS                                    :STATE
CTRY .                                                 :COUNTRY
API  .        NA                                       :API NUMBER
UWI  .                                                 :UNIQUE WELL ID
DATE .        02-Aug-2018                              :LOG DATE {DD-MMM-YYYY}
SRVC .        Schlumberger                             :SERVICE COMPANY
LATI .DEG                                              :LATITUDE
LONG .DEG                                              :LONGITUDE
GDAT .                                                 :GeoDetic Datum
SECT .        NA                                       :Section
RANG .        NA                                       :Range
TOWN .        NA                                       :Township
#-----------------------------------------------------------------------------
~PARAMETER INFORMATION
#MNEM.UNIT    VALUE                      DESCRIPTION
#---- -----   --------------------       ------------------------
U-PHASE_B_COMP_PER_YT.                 0 :Phase B Comparator Period Yt
U-PHASE_A_COMP_PER_XT.                 0 :Phase A Comparator Period Xt
U-MAX_EXC_CUR_LIMIT.MA       265.00000   :Requested CM Current Limit
U-REQ_EXC_FQ.HZ              50          :Requested CM Frequency
U-TILT_Y_OFFSET.          -2.06578       :WPTET Tilt Y Offset
U-TILT_Y_GAIN.           1.02173         :WPTET Tilt Y Gain
U-TILT_X_OFFSET.           2.30841       :WPTET Tilt X Offset
U-TILT_X_GAIN.           1.00000         :WPTET Tilt X Gain
U-TILT_OFFSET_TOL.           0.00100     :WPTET Tilt Offset Calibration Tolerance
U-MOT_CUR_LIMIT_REQ.MA        70.00000   :Requested Motor Current Limit
U-MOT_SPD_REQ_WPMS.RPM        1.00000    :Requested Motor Speed
U-STD_TOL_TILT.           0.01000        :Tilt Standard Deviation Tolerance
CWEI .LB/F      29.00000                 :Casing Weight
CSIZ .IN         7.00000                 :Current Casing Size
LCC  .               440                 :Logging Company Code
LUN  .              2134                 :Logging Unit Number
HIDE .                                   :Header Identifier
HID1 .                                   :Header Identifier Line 1
R1   .                                   :Remark Line 1
WITN .        MR. KELLY McCOY            :Witness's Name
ENGI .        MORRIS MOORE               :Engineer's Name
LUL  .        IOWA COLONY                :Logging Unit Location
DATE .        02-Aug-2018                :Date as Month-Day-Year
STAT .        TEXAS                      :State or Province
COUN .        HARRIS                     :County or Rig Name
FN   .        WILDCAT                    :Field Name
WN   .        WPP TEST 4                 :Well Name
CN   .        SHELL INTERNATIONAL EP     :Company Name
CLAB .        County                     :County/Rig Label
SLAB .        State                      :State/Province Label
RUN  .          1                        :RUN NUMBER
PDAT .        GROUND LEVEL               :Permanent Datum
EPD  .                                   :Elevation of Permanent Datum above Mean Sea Level
LMF  .          NA                       :Logging Measured From (Name of Logging Elevation Reference)
APD  .                                   :Elevation of Depth Reference (LMF) above Permanent Datum
#-----------------------------------------------------------------------------
~CURVE INFORMATION
#MNEM.UNIT   API CODE                                  DESCRIPTION
#---- -----  --------                                  -----------------------
TIME .S                                                :TIME {F10.1}
FREQ_EMF_SL.HZ                                         :Electromagnetic Field Frequency {F13.4}
PH_SH_WPPCM_SL.DEG                                     :WPPCM Phase Shift {F13.4}
RB_SL.DEG                                              :Relative Bearing {F13.4}
SDEV_SL.DEG                                            :Sonde Deviation {F13.4}
RTIX_SL.DEG                                            :Raw X-axis Tilt {F13.4}
RTIY_SL.DEG                                            :Raw Y-axis Tilt {F13.4}
TILX_SL.DEG                                            :X-axis Tilt {F13.4}
TILY_SL.DEG                                            :Y-axis Tilt {F13.4}
ROTA_SL.DEG                                            :Motor Rotation Angle {F13.4}
TOD7 .S                                                :Time of Day {I11}
TOJ  .S                                                :Time of Job {F13.4}
#-----------------------------------------------------------------------------
# 
#     TIME    FREQ_EMF_SL  PH_SH_WPPCM_    RB_SL       SDEV_SL      RTIX_SL      RTIY_SL      TILX_SL      TILY_SL      ROTA_SL        TOD7            TOJ
#                          SL
~A  
# ...
     689.0       0.0000       0.0000    -172.3270      76.2573      -9.7605     105.4777      -7.4521     105.7036      35.9462 1533238770 9999999.9999
     690.0       0.0000       0.0000    -164.9220      89.7874     -17.5528     102.4250     -15.2444     102.5846      42.0510 1533238771 9999999.9999
     691.0       0.0000       0.0000    -158.1810    -999.2500     -25.7067      97.2435     -23.3983      97.2906      48.5587 1533238772 9999999.9999
     692.0       0.0000       0.0000    -152.3507    -999.2500     -33.9007      90.4955     -31.5923      90.3959      54.6605 1533238773 9999999.9999
     693.0       0.0000       0.0000    -147.3399    -999.2500     -41.7733      82.8237     -39.4649      82.5574      60.8017 1533238774 9999999.9999
     694.0       0.0000       0.0000    -142.8519    -999.2500     -49.0435      74.4288     -46.7351      73.9802      66.9035 1533238775 9999999.9999
     695.0       0.0000       0.0000    -137.8288    -999.2500     -56.3940      64.0658     -54.0856      63.3920      73.0053 1533238776 9999999.9999
     696.0       0.0000       0.0000    -130.0903    -999.2500     -71.1753      52.6585     -68.8669      51.7368      79.1071 1533238777 9999999.9999
     697.0       0.0000       0.0000    -125.5847    -999.2500     -80.5743      45.5490     -78.2659      44.4729      85.1966 1533238778 9999999.9999
     698.0       0.0000       0.0000    -121.1264    -999.2500     -88.3667      38.2788     -86.0583      37.0447      91.2891 1533238779 9999999.9999
     699.0       0.0000       0.0000    -116.1273    -999.2500     -95.2753      30.7275     -92.9669      29.3293      97.4040 1533238780 9999999.9999
     700.0       0.0000       0.0000    -110.1561    -999.2500    -100.8183      22.8548     -98.5099      21.2856     103.4905 1533238781 9999999.9999
     701.0       0.0000       0.0000    -103.1104      85.2976    -104.4735      14.9018    -102.1651      13.1598     109.6216 1533238782 9999999.9999
     702.0       0.0000       0.0000     -94.9002      77.7181    -105.5178       6.7078    -103.2094       4.7878     115.7249 1533238783 9999999.9999
     703.0       0.0000       0.0000     -86.4114      77.4044    -105.3973      -1.4058    -103.0889      -3.5022     122.2316 1533238784 9999999.9999
     704.0       0.0000       0.0000     -77.7809      87.0417    -104.8752      -9.9212    -102.5667     -12.2025     128.3334 1533238785 9999999.9999
     705.0       0.0000       0.0000     -70.6522    -999.2500    -102.0635     -17.7938     -99.7551     -20.2462     134.4353 1533238786 9999999.9999
     706.0       0.0000       0.0000     -64.7350    -999.2500     -97.3238     -25.4255     -95.0154     -28.0437     140.5372 1533238787 9999999.9999
     707.0       0.0000       0.0000     -59.7189    -999.2500     -91.1783     -32.9367     -88.8699     -35.7181     146.6421 1533238788 9999999.9999
     708.0       0.0000       0.0000     -55.3325    -999.2500     -84.0287     -40.2470     -81.7203     -43.1872     152.7410 1533238789 9999999.9999
     709.0       0.0000       0.0000     -51.0892    -999.2500     -75.4330     -47.4770     -73.1246     -50.5743     158.8429 1533238790 9999999.9999
     710.0       0.0000       0.0000     -46.7015    -999.2500     -65.3110     -53.8635     -63.0026     -57.0996     164.9448 1533238791 9999999.9999
     711.0       0.0000       0.0000     -37.9825    -999.2500     -51.3732     -71.7377     -49.0648     -75.3621     171.0629 1533238792 9999999.9999
     712.0       0.0000       0.0000     -34.0064    -999.2500     -44.5047     -80.7752     -42.1963     -84.5960     177.1656 1533238793 9999999.9999
     713.0       0.0000       0.0000     -30.0057    -999.2500     -37.5558     -88.0855     -35.2474     -92.0651     183.2675 1533238794 9999999.9999
     714.0       0.0000       0.0000     -25.4638    -999.2500     -30.4463     -93.8695     -28.1379     -97.9748     189.3694 1533238795 9999999.9999
     715.0       0.0000       0.0000     -19.7947    -999.2500     -22.8950     -98.1272     -20.5866    -102.3250     195.8639 1533238796 9999999.9999
     716.0       0.0000       0.0000     -13.3681      85.0080     -15.6248    -100.0150     -13.3164    -104.2538     201.9658 1533238797 9999999.9999
     717.0       0.0000       0.0000      -5.4379      76.3165      -7.5915    -100.4568      -5.2831    -104.7053     208.0677 1533238798 9999999.9999
     718.0       0.0000       0.0000       3.5394      75.9296       1.1247    -100.2560       3.4331    -104.5001     214.1696 1533238799 9999999.9999
     719.0       0.0000       0.0000      11.7592      82.8808       9.3588     -99.4928      11.6672    -103.7203     220.2746 1533238800 9999999.9999
     720.0       0.0000       0.0000      18.3720      87.7438      16.7093     -96.9623      19.0177    -101.1348     226.3611 1533238801 9999999.9999
     721.0       0.0000       0.0000      24.4668    -999.2500      24.5820     -92.2227      26.8904     -96.2922     232.4661 1533238802 9999999.9999
     722.0       0.0000       0.0000      29.0871    -999.2500      31.4907     -86.4788      33.7991     -90.4236     238.1600 1533238803 9999999.9999
     723.0       0.0000       0.0000      33.2289    -999.2500      38.2788     -79.4898      40.5872     -83.2827     244.2619 1533238804 9999999.9999
     724.0       0.0000       0.0000      37.4333    -999.2500      45.1473     -70.6532      47.4557     -74.2540     250.3515 1533238805 9999999.9999
     725.0       0.0000       0.0000      42.4485    -999.2500      51.3330     -58.3622      53.6414     -61.6960     256.4534 1533238806 9999999.9999
     726.0       0.0000       0.0000      51.6782    -999.2500      73.3042     -46.8745      75.6126     -49.9587     262.5552 1533238807 9999999.9999
     727.0       0.0000       0.0000      55.5169    -999.2500      81.8998     -40.1667      84.2082     -43.1052     269.0619 1533238808 9999999.9999
     728.0       0.0000       0.0000      59.3973    -999.2500      88.8888     -33.4588      91.1972     -36.2516     275.1637 1533238809 9999999.9999
     729.0       0.0000       0.0000      63.8037    -999.2500      94.6327     -26.5903      96.9411     -29.2338     281.2686 1533238810 9999999.9999
     730.0       0.0000       0.0000      69.0825    -999.2500      98.4887     -19.5612     100.7971     -22.0520     287.3704 1533238811 9999999.9999
     731.0       0.0000       0.0000      75.5737    -999.2500     100.2560     -12.2107     102.5644     -14.5417     293.4600 1533238812 9999999.9999
     732.0       0.0000       0.0000      83.6166      78.3680     100.9388      -4.0970     103.2472      -6.2518     299.5749 1533238813 9999999.9999
     733.0       0.0000       0.0000      93.4835      76.8781     101.2602       5.3422     103.5686       3.3925     305.6899 1533238814 9999999.9999
     734.0       0.0000       0.0000     101.4592      83.9791     100.6175      13.1747     102.9259      11.3951     311.7917 1533238815 9999999.9999
     735.0       0.0000       0.0000     108.5946    -999.2500      97.5648      20.9670      99.8732      19.3568     317.9066 1533238816 9999999.9999
     736.0       0.0000       0.0000     114.5776    -999.2500      92.5038      28.5585      94.8122      27.1132     324.0085 1533238817 9999999.9999
     737.0       0.0000       0.0000     119.5599    -999.2500      86.3583      35.8287      88.6667      34.5413     330.0979 1533238818 9999999.9999
     738.0       0.0000       0.0000     124.1616    -999.2500      78.7267      43.2193      81.0351      42.0926     336.1997 1533238819 9999999.9999
     739.0       0.0000       0.0000     128.6058    -999.2500      69.7695      50.4092      72.0779      49.4386     342.7065 1533238820 9999999.9999
     740.0       0.0000       0.0000     136.4761    -999.2500      54.7472      62.7805      57.0556      62.0788     348.8113 1533238821 9999999.9999
     741.0       0.0000       0.0000     141.1681    -999.2500      48.5615      74.9510      50.8699      74.5137     354.9232 1533238822 9999999.9999
