~VERSION INFORMATION
VERS.           2.0   :CWLS Log ASCII Standard - VERSION 2.0
WRAP.           NO    :One Line per depth step
PROD.  Schlumberger   :LAS Producer
PROG.  DLIS to ASCII 19C2-270                          :LAS Program name and version
CREA.        2018/08/03 10:59                          :LAS Creation date {YYYY/MM/DD hh:mm}
DLIS_CREA.  2018-Aug-03 09:18                          :DLIS Creation date and time {YYYY-MMM-DD hh:mm}
SOURCE.     PERFO_Perfo_074PTP.DLIS                    :DLIS File Name
FILE-ID.     PERFO_Perfo_074PTP                        :File Identification Number
#--------------------------------------------------
~WELL INFORMATION
#MNEM.UNIT      DATA             DESCRIPTION
#---- ------ --------------   -----------------------------
STRT .S            0.0       :START TIME      
STOP .S          866.0       :STOP TIME      
STEP .S            1.0       :STEP     
NULL .          -999.25      :NULL VALUE
COMP .        SHELL INTERNATIONAL EP                   :COMPANY
WELL .        WPP TEST 4                               :WELL
FLD  .        WILDCAT                                  :FIELD
LOC  .        NA                                       :LOCATION
CNTY .        HARRIS                                   :COUNTY
STAT .        TEXAS                                    :STATE
CTRY .                                                 :COUNTRY
API  .        NA                                       :API NUMBER
UWI  .                                                 :UNIQUE WELL ID
DATE .        02-Aug-2018                              :LOG DATE {DD-MMM-YYYY}
SRVC .        Schlumberger                             :SERVICE COMPANY
LATI .DEG                                              :LATITUDE
LONG .DEG                                              :LONGITUDE
GDAT .                                                 :GeoDetic Datum
SECT .        NA                                       :Section
RANG .        NA                                       :Range
TOWN .        NA                                       :Township
#-----------------------------------------------------------------------------
~PARAMETER INFORMATION
#MNEM.UNIT    VALUE                      DESCRIPTION
#---- -----   --------------------       ------------------------
U-PHASE_B_COMP_PER_YT.                 0 :Phase B Comparator Period Yt
U-PHASE_A_COMP_PER_XT.                 0 :Phase A Comparator Period Xt
U-MAX_EXC_CUR_LIMIT.MA       265.00000   :Requested CM Current Limit
U-REQ_EXC_FQ.HZ              50          :Requested CM Frequency
U-TILT_Y_OFFSET.          -2.06578       :WPTET Tilt Y Offset
U-TILT_Y_GAIN.           1.02173         :WPTET Tilt Y Gain
U-TILT_X_OFFSET.           2.30841       :WPTET Tilt X Offset
U-TILT_X_GAIN.           1.00000         :WPTET Tilt X Gain
U-TILT_OFFSET_TOL.           0.00100     :WPTET Tilt Offset Calibration Tolerance
U-MOT_CUR_LIMIT_REQ.MA        70.00000   :Requested Motor Current Limit
U-MOT_SPD_REQ_WPMS.RPM        1.00000    :Requested Motor Speed
U-STD_TOL_TILT.           0.01000        :Tilt Standard Deviation Tolerance
CWEI .LB/F      29.00000                 :Casing Weight
CSIZ .IN         7.00000                 :Current Casing Size
LCC  .               440                 :Logging Company Code
LUN  .              2134                 :Logging Unit Number
HIDE .                                   :Header Identifier
HID1 .                                   :Header Identifier Line 1
R1   .                                   :Remark Line 1
WITN .        MR. KELLY McCOY            :Witness's Name
ENGI .        MORRIS MOORE               :Engineer's Name
LUL  .        IOWA COLONY                :Logging Unit Location
DATE .        02-Aug-2018                :Date as Month-Day-Year
STAT .        TEXAS                      :State or Province
COUN .        HARRIS                     :County or Rig Name
FN   .        WILDCAT                    :Field Name
WN   .        WPP TEST 4                 :Well Name
CN   .        SHELL INTERNATIONAL EP     :Company Name
CLAB .        County                     :County/Rig Label
SLAB .        State                      :State/Province Label
RUN  .          1                        :RUN NUMBER
PDAT .        GROUND LEVEL               :Permanent Datum
EPD  .                                   :Elevation of Permanent Datum above Mean Sea Level
LMF  .          NA                       :Logging Measured From (Name of Logging Elevation Reference)
APD  .                                   :Elevation of Depth Reference (LMF) above Permanent Datum
#-----------------------------------------------------------------------------
~CURVE INFORMATION
#MNEM.UNIT   API CODE                                  DESCRIPTION
#---- -----  --------                                  -----------------------
TIME .S                                                :TIME {F10.1}
FREQ_EMF_SL.HZ                                         :Electromagnetic Field Frequency {F13.4}
PH_SH_WPPCM_SL.DEG                                     :WPPCM Phase Shift {F13.4}
RB_SL.DEG                                              :Relative Bearing {F13.4}
SDEV_SL.DEG                                            :Sonde Deviation {F13.4}
RTIX_SL.DEG                                            :Raw X-axis Tilt {F13.4}
RTIY_SL.DEG                                            :Raw Y-axis Tilt {F13.4}
TILX_SL.DEG                                            :X-axis Tilt {F13.4}
TILY_SL.DEG                                            :Y-axis Tilt {F13.4}
ROTA_SL.DEG                                            :Motor Rotation Angle {F13.4}
TOD7 .S                                                :Time of Day {I11}
TOJ  .S                                                :Time of Job {F13.4}
#-----------------------------------------------------------------------------
# 
#     TIME    FREQ_EMF_SL  PH_SH_WPPCM_    RB_SL       SDEV_SL      RTIX_SL      RTIY_SL      TILX_SL      TILY_SL      ROTA_SL        TOD7            TOJ
#                          SL
~A  
# ...
     636.0     845.1021       0.0000    -108.4137    -999.2500    -102.1037      20.7662     -99.7952      19.1516     221.4832 1533240035 9999999.9999
     637.0     799.0057       0.0000    -101.1312      83.8733    -104.9957      12.8533    -102.6873      11.0668     228.0062 1533240036 9999999.9999
     638.0     757.6778       0.0000     -92.6393      77.0113    -105.5580       4.5388    -103.2496       2.5717     234.1081 1533240037 9999999.9999
     639.0     723.3796       0.0000     -83.9519      78.3705    -105.3973      -3.7757    -103.0889      -5.9235     240.2100 1533240038 9999999.9999
     640.0     692.0522       0.0000     -75.8300      88.3092    -104.3530     -11.9697    -102.0446     -14.2955     246.3119 1533240039 9999999.9999
     641.0     670.9208       0.0000     -69.0948    -999.2500    -101.1397     -19.6817     -98.8313     -22.1751     252.4138 1533240040 9999999.9999
     642.0     656.5126       0.0000     -63.2693    -999.2500     -95.7975     -27.5142     -93.4891     -30.1778     258.5157 1533240041 9999999.9999
     643.0     648.6393       0.0000     -58.1413    -999.2500     -88.9692     -35.5073     -86.6608     -38.3446     264.6175 1533240042 9999999.9999
     644.0       0.0000       0.0000     -53.9491    -999.2500     -81.5383     -42.6570     -79.2299     -45.6496     270.8148 1533240043 9999999.9999
     645.0       0.0000       0.0000     -49.9318    -999.2500     -72.8222     -49.3247     -70.5138     -52.4621     276.9166 1533240044 9999999.9999
     646.0       0.0000       0.0000     -44.8410    -999.2500     -60.6115     -55.5505     -58.3031     -58.8232     283.0184 1533240045 9999999.9999
     647.0       0.0000       0.0000     -36.7745    -999.2500     -49.3648     -74.6698     -47.0564     -78.3580     289.1202 1533240046 9999999.9999
     648.0       0.0000       0.0000     -32.9394    -999.2500     -42.6168     -82.9442     -40.3084     -86.8121     295.2220 1533240047 9999999.9999
     649.0       0.0000       0.0000     -28.7381    -999.2500     -35.4672     -90.0537     -33.1588     -94.0761     301.7319 1533240048 9999999.9999
     650.0       0.0000       0.0000     -23.7273    -999.2500     -27.9962     -95.3958     -25.6878     -99.5343     307.8337 1533240049 9999999.9999
     651.0       0.0000       0.0000     -17.8831    -999.2500     -20.6055     -99.1313     -18.2971    -103.3510     313.9355 1533240050 9999999.9999
     652.0       0.0000       0.0000     -11.2601      80.6092     -13.4157    -100.3765     -11.1073    -104.6232     320.0373 1533240051 9999999.9999
     653.0       0.0000       0.0000      -2.4298      75.3676      -4.6593    -100.5773      -2.3509    -104.8284     326.1391 1533240052 9999999.9999
     654.0       0.0000       0.0000       6.5291      77.1632       4.0568    -100.1355       6.3652    -104.3769     332.2409 1533240053 9999999.9999
     655.0       0.0000       0.0000      14.7617      94.1157      12.5722     -98.7297      14.8806    -102.9406     338.3427 1533240054 9999999.9999
     656.0       0.0000       0.0000      21.1674    -999.2500      20.1637     -95.0745      22.4721     -99.2060     344.4445 1533240055 9999999.9999
     657.0       0.0000       0.0000      26.1448    -999.2500      26.9920     -90.4152      29.3004     -94.4454     350.5463 1533240056 9999999.9999
     658.0       0.0000       0.0000      30.5108    -999.2500      33.7802     -84.3902      36.0886     -88.2895     356.6489 1533240057 9999999.9999
     659.0       0.0000       0.0000      34.7893    -999.2500      40.8495     -76.1962      43.1579     -79.9175       2.7507 1533240058 9999999.9999
     660.0       0.0000       0.0000      38.8916    -999.2500      47.3163     -67.2792      49.6247     -70.8067       8.8526 1533240059 9999999.9999
     661.0       0.0000       0.0000      49.3242    -999.2500      67.2792     -50.4895      69.5876     -53.6523      15.3624 1533240060 9999999.9999
     662.0       0.0000       0.0000      53.3167    -999.2500      77.1602     -44.0628      79.4686     -47.0860      21.4673 1533240061 9999999.9999
     663.0       0.0000       0.0000      56.9086    -999.2500      84.7115     -37.7165      87.0199     -40.6018      27.5660 1533240062 9999999.9999
     664.0       0.0000       0.0000      61.0241    -999.2500      91.4595     -30.8078      93.7679     -33.5430      33.6685 1533240063 9999999.9999
     665.0       0.0000       0.0000      65.8434    -999.2500      96.3598     -23.7385      98.6682     -26.3201      39.7704 1533240064 9999999.9999
     666.0       0.0000       0.0000      71.3762    -999.2500      99.4928     -16.8298     101.8012     -19.2613      45.8722 1533240065 9999999.9999
     667.0       0.0000       0.0000      78.9857      82.9639     100.7380      -8.6760     103.0464     -10.9303      51.9872 1533240066 9999999.9999
     668.0       0.0000       0.0000      88.0034      76.6576     101.1798       0.1205     103.4882      -1.9427      58.0890 1533240067 9999999.9999
     669.0       0.0000       0.0000      96.9480      78.1294     101.4208       8.6760     103.7292       6.7987      64.1908 1533240068 9999999.9999
     670.0       0.0000       0.0000     104.4515      90.2778      99.7740      16.3077     102.0824      14.5962      70.3057 1533240069 9999999.9999
     671.0       0.0000       0.0000     111.4621    -999.2500      95.4360      24.4615      97.7444      22.9272      76.4075 1533240070 9999999.9999
     672.0       0.0000       0.0000     116.9681    -999.2500      89.8930      31.9325      92.2014      30.5605      82.5093 1533240071 9999999.9999
     673.0       0.0000       0.0000     121.5045    -999.2500      83.1450      38.8813      85.4534      37.6603      89.0191 1533240072 9999999.9999
     674.0       0.0000       0.0000     125.8691    -999.2500      75.4732      46.0310      77.7816      44.9653      95.1085 1533240073 9999999.9999
     675.0       0.0000       0.0000     130.4215    -999.2500      65.6725      53.0602      67.9809      52.1472     101.2235 1533240074 9999999.9999
     676.0       0.0000       0.0000     138.4934    -999.2500      52.8192      68.5645      55.1276      67.9884     107.3261 1533240075 9999999.9999
     677.0       0.0000       0.0000     142.6151    -999.2500      46.0712      78.4053      48.3796      78.0431     113.4279 1533240076 9999999.9999
     678.0       0.0000       0.0000     146.3603    -999.2500      39.2830      86.2378      41.5914      86.0458     119.5297 1533240077 9999999.9999
     679.0       0.0000       0.0000     150.8667    -999.2500      31.4907      93.5883      33.7991      93.5560     125.6322 1533240078 9999999.9999
     680.0       0.0000       0.0000     156.1020    -999.2500      23.5778      99.7338      25.8862      99.8350     131.7341 1533240079 9999999.9999
     681.0       0.0000       0.0000     162.3925    -999.2500      15.6248     103.8308      17.9332     104.0210     137.8376 1533240080 9999999.9999
     682.0       0.0000       0.0000     169.9458      77.6602       7.5112     105.6383       9.8196     105.8678     143.9395 1533240081 9999999.9999
     683.0       0.0000       0.0000     178.2259      74.0640      -0.6025     105.7990       1.7059     106.0319     150.0290 1533240082 9999999.9999
     684.0       0.0000       0.0000    -173.5496      75.6067      -8.5555     105.5178      -6.2471     105.7447     156.1309 1533240083 9999999.9999
     685.0       0.0000       0.0000    -165.6110      88.6565     -16.7897     102.7463     -14.4813     102.9129     162.6285 1533240084 9999999.9999
     686.0       0.0000       0.0000    -158.7050    -999.2500     -25.0238      97.7657     -22.7154      97.8241     168.7442 1533240085 9999999.9999
     687.0       0.0000       0.0000    -152.9149    -999.2500     -33.0572      91.3390     -30.7488      91.2578     174.8461 1533240086 9999999.9999
     688.0       0.0000       0.0000    -147.9101    -999.2500     -40.8495      83.7877     -38.5411      83.5424     180.9487 1533240087 9999999.9999
