~VERSION INFORMATION
VERS.           2.0   :CWLS Log ASCII Standard - VERSION 2.0
WRAP.           NO    :One Line per depth step
PROD.  Schlumberger   :LAS Producer
PROG.  DLIS to ASCII 19C2-270                          :LAS Program name and version
CREA.        2018/08/03 10:59                          :LAS Creation date {YYYY/MM/DD hh:mm}
DLIS_CREA.  2018-Aug-03 09:18                          :DLIS Creation date and time {YYYY-MMM-DD hh:mm}
SOURCE.     PERFO_Perfo_074PTP.DLIS                    :DLIS File Name
FILE-ID.     PERFO_Perfo_074PTP                        :File Identification Number
#--------------------------------------------------
~WELL INFORMATION
#MNEM.UNIT      DATA             DESCRIPTION
#---- ------ --------------   -----------------------------
STRT .S            0.0       :START TIME      
STOP .S          866.0       :STOP TIME      
STEP .S            1.0       :STEP     
NULL .          -999.25      :NULL VALUE
COMP .        SHELL INTERNATIONAL EP                   :COMPANY
WELL .        WPP TEST 4                               :WELL
FLD  .        WILDCAT                                  :FIELD
LOC  .        NA                                       :LOCATION
CNTY .        HARRIS                                   :COUNTY
STAT .        TEXAS                                    :STATE
CTRY .                                                 :COUNTRY
API  .        NA                                       :API NUMBER
UWI  .                                                 :UNIQUE WELL ID
DATE .        02-Aug-2018                              :LOG DATE {DD-MMM-YYYY}
SRVC .        Schlumberger                             :SERVICE COMPANY
LATI .DEG                                              :LATITUDE
LONG .DEG                                              :LONGITUDE
GDAT .                                                 :GeoDetic Datum
SECT .        NA                                       :Section
RANG .        NA                                       :Range
TOWN .        NA                                       :Township
#-----------------------------------------------------------------------------
~PARAMETER INFORMATION
#MNEM.UNIT    VALUE                      DESCRIPTION
#---- -----   --------------------       ------------------------
U-PHASE_B_COMP_PER_YT.                 0 :Phase B Comparator Period Yt
U-PHASE_A_COMP_PER_XT.                 0 :Phase A Comparator Period Xt
U-MAX_EXC_CUR_LIMIT.MA       265.00000   :Requested CM Current Limit
U-REQ_EXC_FQ.HZ              50          :Requested CM Frequency
U-TILT_Y_OFFSET.          -2.06578       :WPTET Tilt Y Offset
U-TILT_Y_GAIN.           1.02173         :WPTET Tilt Y Gain
U-TILT_X_OFFSET.           2.30841       :WPTET Tilt X Offset
U-TILT_X_GAIN.           1.00000         :WPTET Tilt X Gain
U-TILT_OFFSET_TOL.           0.00100     :WPTET Tilt Offset Calibration Tolerance
U-MOT_CUR_LIMIT_REQ.MA        70.00000   :Requested Motor Current Limit
U-MOT_SPD_REQ_WPMS.RPM        1.00000    :Requested Motor Speed
U-STD_TOL_TILT.           0.01000        :Tilt Standard Deviation Tolerance
CWEI .LB/F      29.00000                 :Casing Weight
CSIZ .IN         7.00000                 :Current Casing Size
LCC  .               440                 :Logging Company Code
LUN  .              2134                 :Logging Unit Number
HIDE .                                   :Header Identifier
HID1 .                                   :Header Identifier Line 1
R1   .                                   :Remark Line 1
WITN .        MR. KELLY McCOY            :Witness's Name
ENGI .        MORRIS MOORE               :Engineer's Name
LUL  .        IOWA COLONY                :Logging Unit Location
DATE .        02-Aug-2018                :Date as Month-Day-Year
STAT .        TEXAS                      :State or Province
COUN .        HARRIS                     :County or Rig Name
FN   .        WILDCAT                    :Field Name
WN   .        WPP TEST 4                 :Well Name
CN   .        SHELL INTERNATIONAL EP     :Company Name
CLAB .        County                     :County/Rig Label
SLAB .        State                      :State/Province Label
RUN  .          1                        :RUN NUMBER
PDAT .        GROUND LEVEL               :Permanent Datum
EPD  .                                   :Elevation of Permanent Datum above Mean Sea Level
LMF  .          NA                       :Logging Measured From (Name of Logging Elevation Reference)
APD  .                                   :Elevation of Depth Reference (LMF) above Permanent Datum
#-----------------------------------------------------------------------------
~CURVE INFORMATION
#MNEM.UNIT   API CODE                                  DESCRIPTION
#---- -----  --------                                  -----------------------
TIME .S                                                :TIME {F10.1}
FREQ_EMF_SL.HZ                                         :Electromagnetic Field Frequency {F13.4}
PH_SH_WPPCM_SL.DEG                                     :WPPCM Phase Shift {F13.4}
RB_SL.DEG                                              :Relative Bearing {F13.4}
SDEV_SL.DEG                                            :Sonde Deviation {F13.4}
RTIX_SL.DEG                                            :Raw X-axis Tilt {F13.4}
RTIY_SL.DEG                                            :Raw Y-axis Tilt {F13.4}
TILX_SL.DEG                                            :X-axis Tilt {F13.4}
TILY_SL.DEG                                            :Y-axis Tilt {F13.4}
ROTA_SL.DEG                                            :Motor Rotation Angle {F13.4}
TOD7 .S                                                :Time of Day {I11}
TOJ  .S                                                :Time of Job {F13.4}
#-----------------------------------------------------------------------------
# 
#     TIME    FREQ_EMF_SL  PH_SH_WPPCM_    RB_SL       SDEV_SL      RTIX_SL      RTIY_SL      TILX_SL      TILY_SL      ROTA_SL        TOD7            TOJ
#                          SL
~A  
# ...
      53.0    2312.9111       0.0000     -36.4844    -999.2500     -48.8427     -75.2322     -46.5343     -78.9325     244.9829 1533239452 9999999.9999
      54.0    2343.7500       0.0000     -32.5546    -999.2500     -41.9340     -83.5467     -39.6256     -87.4277     251.0878 1533239453 9999999.9999
      55.0    2359.4797       0.0000     -28.3080    -999.2500     -34.7843     -90.4955     -32.4759     -94.5275     257.1775 1533239454 9999999.9999
      56.0    2391.5815       0.0000     -23.2913    -999.2500     -27.3937     -95.8377     -25.0853     -99.9857     263.6904 1533239455 9999999.9999
      57.0    2399.7441       0.0000     -17.3177    -999.2500     -19.9628     -99.2117     -17.6544    -103.4330     269.7861 1533239456 9999999.9999
      58.0    2407.9622       0.0000     -10.2380      79.4447     -12.3713    -100.4167     -10.0629    -104.6642     275.8879 1533239457 9999999.9999
      59.0    2416.2371       0.0000      -1.4747      75.4085      -3.7355    -100.4167      -1.4271    -104.6642     281.9897 1533239458 9999999.9999
      60.0    2416.2371       0.0000       7.5791      77.8927       5.1012    -100.0150       7.4096    -104.2538     288.0946 1533239459 9999999.9999
      61.0    2416.2371       0.0000      14.9129      91.3013      12.7328     -98.7698      15.0412    -102.9816     294.1964 1533239460 9999999.9999
      62.0    2410.0256       0.0000      21.2624    -999.2500      20.2741     -95.1649      22.5825     -99.2983     300.2990 1533239461 9999999.9999
      63.0    2391.5815       0.0000      26.6014    -999.2500      27.6748     -89.6922      29.9832     -93.7067     306.4008 1533239462 9999999.9999
      64.0    2359.4797       0.0000      31.1063    -999.2500      34.7442     -83.1048      37.0526     -86.9762     312.5026 1533239463 9999999.9999
      65.0    2359.4797       0.0000      35.1855    -999.2500      41.5725     -75.7543      43.8809     -79.4660     318.6044 1533239464 9999999.9999
      66.0    2320.5444       0.0000      39.3643    -999.2500      47.9188     -66.0340      50.2272     -69.5345     324.7070 1533239465 9999999.9999
      67.0    2275.4854       0.0000      49.6645    -999.2500      68.0825     -49.9673      70.3909     -53.1188     330.8220 1533239466 9999999.9999
      68.0    2204.1536       0.0000      53.4146    -999.2500      77.4413     -43.9022      79.7497     -46.9218     337.3201 1533239467 9999999.9999
      69.0    2111.4866       0.0000      57.3462    -999.2500      85.5550     -36.9533      87.8634     -39.8220     343.4219 1533239468 9999999.9999
      70.0    1991.8556       0.0000      61.4558    -999.2500      92.0620     -30.1250      94.3704     -32.8453     349.5237 1533239469 9999999.9999
      71.0    1875.0000       0.0000      66.3751    -999.2500      96.8820     -23.0155      99.1904     -25.5813     355.6225 1533239470 9999999.9999
      72.0    1723.3456       0.0000      72.2985    -999.2500      99.6535     -15.7855     101.9619     -18.1943       1.7412 1533239471 9999999.9999
      73.0    1598.0114       0.0000      79.7844      81.7770     100.7782      -7.8727     103.0866     -10.1095       7.8430 1533239472 9999999.9999
      74.0    1448.9954       0.0000      88.8892      76.6676     101.0694       0.9640     103.3778      -1.0808      13.9579 1533239473 9999999.9999
      75.0    1329.1588       0.0000      97.9275      79.1020     101.1397       9.6400     103.4481       7.7837      20.0729 1533239474 9999999.9999
      76.0    1233.5526       0.0000     105.4026      97.4153      99.1715      17.3520     101.4799      15.6632      26.1747 1533239475 9999999.9999
      77.0    1139.5867       0.0000     111.8729    -999.2500      95.0745      24.9837      97.3829      23.4607      32.2765 1533239476 9999999.9999
      78.0    1057.3308       0.0000     117.2410    -999.2500      89.4110      32.3342      91.7194      30.9709      38.3915 1533239477 9999999.9999
      79.0     997.3405       0.0000     121.7988    -999.2500      82.8237      39.3633      85.1321      38.1528      44.4811 1533239478 9999999.9999
      80.0     932.5266       0.0000     126.1504    -999.2500      74.8305      46.4728      77.1389      45.4168      50.5830 1533239479 9999999.9999
      81.0     875.6227       0.0000     130.6773    -999.2500      65.0298      53.3815      67.3382      52.4756      57.0928 1533239480 9999999.9999
      82.0     822.3684       0.0000     138.7927    -999.2500      52.3773      69.2875      54.6857      68.7271      63.1946 1533239481 9999999.9999
      83.0     773.5148       0.0000     142.7049    -999.2500      45.9105      78.6062      48.2189      78.2483      69.2964 1533239482 9999999.9999
      84.0     736.2565       0.0000     146.5777    -999.2500      38.8813      86.4788      41.1897      86.2920      75.4112 1533239483 9999999.9999
      85.0     696.8533       0.0000     150.7913    -999.2500      31.6112      93.5482      33.9196      93.5149      81.5262 1533239484 9999999.9999
      86.0     667.7350       0.0000     156.0996    -999.2500      23.5879      99.6535      25.8963      99.7529      87.6280 1533239485 9999999.9999
      87.0     646.8491       0.0000     162.7456    -999.2500      15.2232     103.9112      17.5316     104.1031      93.7429 1533239486 9999999.9999
      88.0     631.7385       0.0000     170.3493      77.4481       7.1095     105.5580       9.4179     105.7857      99.8324 1533239487 9999999.9999
      89.0     625.5561       0.0000     178.8097      73.8877      -1.1648     105.9195       1.1436     106.1551     105.9473 1533239488 9999999.9999
      90.0     624.4449       0.0000    -172.5318      76.1932      -9.5597     105.4375      -7.2513     105.6626     112.0491 1533239489 9999999.9999
      91.0     631.7385       0.0000    -164.9914      87.5483     -17.4725     102.5053     -15.1641     102.6667     118.1508 1533239490 9999999.9999
      92.0     650.4394       0.0000    -158.1471    -999.2500     -25.7468      97.2837     -23.4384      97.3316     124.2526 1533239491 9999999.9999
      93.0     670.2813       0.0000    -152.5115    -999.2500     -33.6597      90.6963     -31.3513      90.6011     130.7625 1533239492 9999999.9999
      94.0     698.9314       0.0000    -147.5393    -999.2500     -41.4520      83.1852     -39.1436      82.9268     136.8774 1533239493 9999999.9999
      95.0     735.4865       0.0000    -143.0670    -999.2500     -48.6820      74.7903     -46.3736      74.3495     142.9793 1533239494 9999999.9999
      96.0     777.7931       0.0000    -138.0959    -999.2500     -55.9923      64.5478     -53.6839      63.8845     149.0812 1533239495 9999999.9999
      97.0     832.1006       0.0000    -130.2867    -999.2500     -70.8138      52.9798     -68.5054      52.0652     155.1831 1533239496 9999999.9999
      98.0     885.5479       0.0000    -125.9888    -999.2500     -79.6907      46.1917     -77.3823      45.1295     161.2981 1533239497 9999999.9999
      99.0     951.4547       0.0000    -121.2514    -999.2500     -88.2060      38.4797     -85.8976      37.2499     167.4000 1533239498 9999999.9999
     100.0    1017.5471       0.0000    -116.2946    -999.2500     -94.9942      30.9685     -92.6858      29.5756     173.5019 1533239499 9999999.9999
     101.0    1086.7465       0.0000    -110.2262    -999.2500    -100.8585      22.9352     -98.5501      21.3677     179.6038 1533239500 9999999.9999
     102.0    1175.7943       0.0000    -103.0716      85.4787    -104.4735      14.8617    -102.1651      13.1188     185.7188 1533239501 9999999.9999
     103.0    1273.7772       0.0000     -95.1902      77.9238    -105.4375       6.9890    -103.1291       5.0751     191.8207 1533239502 9999999.9999
     104.0    1386.8344       0.0000     -86.4929      77.2150    -105.5580      -1.3255    -103.2496      -3.4201     197.9226 1533239503 9999999.9999
     105.0    1518.6285       0.0000     -77.9738      86.0569    -104.9555      -9.7203    -102.6471     -11.9973     204.4325 1533239504 9999999.9999
