~VERSION INFORMATION
VERS.           2.0   :CWLS Log ASCII Standard - VERSION 2.0
WRAP.           NO    :One Line per depth step
PROD.  Schlumberger   :LAS Producer
PROG.  DLIS to ASCII 19C2-270                          :LAS Program name and version
CREA.        2018/08/03 10:59                          :LAS Creation date {YYYY/MM/DD hh:mm}
DLIS_CREA.  2018-Aug-03 09:18                          :DLIS Creation date and time {YYYY-MMM-DD hh:mm}
SOURCE.     PERFO_Perfo_074PTP.DLIS                    :DLIS File Name
FILE-ID.     PERFO_Perfo_074PTP                        :File Identification Number
#--------------------------------------------------
~WELL INFORMATION
#MNEM.UNIT      DATA             DESCRIPTION
#---- ------ --------------   -----------------------------
STRT .S            0.0       :START TIME      
STOP .S          866.0       :STOP TIME      
STEP .S            1.0       :STEP     
NULL .          -999.25      :NULL VALUE
COMP .        SHELL INTERNATIONAL EP                   :COMPANY
WELL .        WPP TEST 4                               :WELL
FLD  .        WILDCAT                                  :FIELD
LOC  .        NA                                       :LOCATION
CNTY .        HARRIS                                   :COUNTY
STAT .        TEXAS                                    :STATE
CTRY .                                                 :COUNTRY
API  .        NA                                       :API NUMBER
UWI  .                                                 :UNIQUE WELL ID
DATE .        02-Aug-2018                              :LOG DATE {DD-MMM-YYYY}
SRVC .        Schlumberger                             :SERVICE COMPANY
LATI .DEG                                              :LATITUDE
LONG .DEG                                              :LONGITUDE
GDAT .                                                 :GeoDetic Datum
SECT .        NA                                       :Section
RANG .        NA                                       :Range
TOWN .        NA                                       :Township
#-----------------------------------------------------------------------------
~PARAMETER INFORMATION
#MNEM.UNIT    VALUE                      DESCRIPTION
#---- -----   --------------------       ------------------------
U-PHASE_B_COMP_PER_YT.                 0 :Phase B Comparator Period Yt
U-PHASE_A_COMP_PER_XT.                 0 :Phase A Comparator Period Xt
U-MAX_EXC_CUR_LIMIT.MA       265.00000   :Requested CM Current Limit
U-REQ_EXC_FQ.HZ              50          :Requested CM Frequency
U-TILT_Y_OFFSET.          -2.06578       :WPTET Tilt Y Offset
U-TILT_Y_GAIN.           1.02173         :WPTET Tilt Y Gain
U-TILT_X_OFFSET.           2.30841       :WPTET Tilt X Offset
U-TILT_X_GAIN.           1.00000         :WPTET Tilt X Gain
U-TILT_OFFSET_TOL.           0.00100     :WPTET Tilt Offset Calibration Tolerance
U-MOT_CUR_LIMIT_REQ.MA        70.00000   :Requested Motor Current Limit
U-MOT_SPD_REQ_WPMS.RPM        1.00000    :Requested Motor Speed
U-STD_TOL_TILT.           0.01000        :Tilt Standard Deviation Tolerance
CWEI .LB/F      29.00000                 :Casing Weight
CSIZ .IN         7.00000                 :Current Casing Size
LCC  .               440                 :Logging Company Code
LUN  .              2134                 :Logging Unit Number
HIDE .                                   :Header Identifier
HID1 .                                   :Header Identifier Line 1
R1   .                                   :Remark Line 1
WITN .        MR. KELLY McCOY            :Witness's Name
ENGI .        MORRIS MOORE               :Engineer's Name
LUL  .        IOWA COLONY                :Logging Unit Location
DATE .        02-Aug-2018                :Date as Month-Day-Year
STAT .        TEXAS                      :State or Province
COUN .        HARRIS                     :County or Rig Name
FN   .        WILDCAT                    :Field Name
WN   .        WPP TEST 4                 :Well Name
CN   .        SHELL INTERNATIONAL EP     :Company Name
CLAB .        County                     :County/Rig Label
SLAB .        State                      :State/Province Label
RUN  .          1                        :RUN NUMBER
PDAT .        GROUND LEVEL               :Permanent Datum
EPD  .                                   :Elevation of Permanent Datum above Mean Sea Level
LMF  .          NA                       :Logging Measured From (Name of Logging Elevation Reference)
APD  .                                   :Elevation of Depth Reference (LMF) above Permanent Datum
#-----------------------------------------------------------------------------
~CURVE INFORMATION
#MNEM.UNIT   API CODE                                  DESCRIPTION
#---- -----  --------                                  -----------------------
TIME .S                                                :TIME {F10.1}
FREQ_EMF_SL.HZ                                         :Electromagnetic Field Frequency {F13.4}
PH_SH_WPPCM_SL.DEG                                     :WPPCM Phase Shift {F13.4}
RB_SL.DEG                                              :Relative Bearing {F13.4}
SDEV_SL.DEG                                            :Sonde Deviation {F13.4}
RTIX_SL.DEG                                            :Raw X-axis Tilt {F13.4}
RTIY_SL.DEG                                            :Raw Y-axis Tilt {F13.4}
TILX_SL.DEG                                            :X-axis Tilt {F13.4}
TILY_SL.DEG                                            :Y-axis Tilt {F13.4}
ROTA_SL.DEG                                            :Motor Rotation Angle {F13.4}
TOD7 .S                                                :Time of Day {I11}
TOJ  .S                                                :Time of Job {F13.4}
#-----------------------------------------------------------------------------
# 
#     TIME    FREQ_EMF_SL  PH_SH_WPPCM_    RB_SL       SDEV_SL      RTIX_SL      RTIY_SL      TILX_SL      TILY_SL      ROTA_SL        TOD7            TOJ
#                          SL
~A  
       0.0    2391.5815       0.0000       4.8592      76.1911       2.4100    -100.3765       4.7184    -104.6232     281.4969 1533239401 9999999.9999
       1.0    2407.9622       0.0000      10.4824      80.6560       8.0333     -99.7740      10.3417    -104.0076     285.9573 1533239401 9999999.9999
       2.0    2416.2371       0.0000      17.9485      83.2839      16.1872     -97.4845      18.4956    -101.6683     292.0723 1533239402 9999999.9999
       3.0    2407.9622       0.0000      23.6890    -999.2500      23.4975     -93.0662      25.8059     -97.1540     298.1741 1533239403 9999999.9999
       4.0    2383.4746       0.0000      28.5253    -999.2500      30.6070     -87.2822      32.9154     -91.2443     304.2635 1533239404 9999999.9999
       5.0    2359.4797       0.0000      32.6556    -999.2500      37.3148     -80.4940      39.6232     -84.3087     310.3785 1533239405 9999999.9999
       6.0    2335.9634       0.0000      36.7815    -999.2500      44.1432     -72.1795      46.4516     -75.8135     316.4680 1533239406 9999999.9999
       7.0    2297.7942       0.0000      41.6294    -999.2500      50.8108     -60.7722      53.1192     -64.1584     322.5860 1533239407 9999999.9999
       8.0    2260.8521       0.0000      51.1840    -999.2500      71.9385     -47.6377      74.2469     -50.7385     329.0927 1533239408 9999999.9999
       9.0    2176.8577       0.0000      55.0515    -999.2500      81.0965     -41.0102      83.4049     -43.9670     335.1946 1533239409 9999999.9999
      10.0    2074.1150       0.0000      58.9166    -999.2500      88.1658     -34.2622      90.4742     -37.0724     341.2964 1533239409 9999999.9999
      11.0    1953.1250       0.0000      63.2774    -999.2500      94.1908     -27.3535      96.4992     -30.0136     347.3982 1533239410 9999999.9999
      12.0    1812.1779       0.0000      68.3966    -999.2500      98.2075     -20.4047     100.5159     -22.9138     353.5007 1533239411 9999999.9999
      13.0    1674.1072       0.0000      74.9277    -999.2500     100.2560     -12.8935     102.5644     -15.2394     359.6025 1533239412 9999999.9999
      14.0    1531.8628       0.0000      83.7398      78.2563     100.9790      -3.9765     103.2874      -6.1287       5.7306 1533239413 9999999.9999
      15.0    1409.0682       0.0000      92.7274      76.6623     101.3003       4.6192     103.6087       2.6537      11.8324 1533239414 9999999.9999
      16.0    1292.5093       0.0000     100.9042      82.9416     100.6577      12.6123     102.9661      10.8206      17.9342 1533239415 9999999.9999
      17.0    1191.7373       0.0000     107.9678      87.2786      97.8058      20.2440     100.1142      18.6181      24.0368 1533239416 9999999.9999
      18.0    1102.0768       0.0000     114.2237    -999.2500      92.8653      28.0765      95.1737      26.6207      30.1518 1533239417 9999999.9999
      19.0    1034.0073       0.0000     119.2730    -999.2500      86.8403      35.3868      89.1487      34.0899      36.2567 1533239418 9999999.9999
      20.0     965.8310       0.0000     123.6761    -999.2500      79.5702      42.4160      81.8786      41.2718      42.7634 1533239419 9999999.9999
      21.0     902.5995       0.0000     127.8474    -999.2500      71.3360      49.2042      73.6444      48.2075      48.8530 1533239420 9999999.9999
      22.0     850.2117       0.0000     133.2327    -999.2500      57.9203      55.5505      60.2287      54.6917      54.9548 1533239421 9999999.9999
      23.0     799.9147       0.0000     140.4659    -999.2500      49.7263      73.2640      52.0347      72.7900      61.0566 1533239422 9999999.9999
      24.0     752.8105       0.0000     144.2373    -999.2500      43.1390      81.9400      45.4474      81.6545      67.1584 1533239423 9999999.9999
      25.0     712.3860       0.0000     148.3020    -999.2500      35.8287      89.6520      38.1371      89.5341      73.2734 1533239424 9999999.9999
      26.0     681.9835       0.0000     153.1605    -999.2500      27.8757      96.4402      30.1841      96.4698      79.3751 1533239425 9999999.9999
      27.0     656.5126       0.0000     159.0734    -999.2500      19.6415     102.0233      21.9499     102.1742      85.4900 1533239426 9999999.9999
      28.0     636.8886       0.0000     165.4848      85.9917      12.1705     104.8350      14.4789     105.0470      91.5918 1533239427 9999999.9999
      29.0     626.1131       0.0000     173.6699      75.3749       3.8158     105.6785       6.1242     105.9088      97.7098 1533239428 9999999.9999
      30.0     622.2346       0.0000    -177.5134      74.0740      -4.6995     105.8793      -2.3911     106.1140     103.8085 1533239429 9999999.9999
      31.0     625.5561       0.0000    -169.4788      79.5308     -12.6525     104.5940     -10.3441     104.8008     109.9133 1533239430 9999999.9999
      32.0     636.8886       0.0000    -162.0096      82.7622     -20.9268     100.4167     -18.6184     100.5327     116.4201 1533239431 9999999.9999
      33.0     655.9001       0.0000    -155.6499    -999.2500     -29.1208      94.6728     -26.8124      94.6640     122.5219 1533239432 9999999.9999
      34.0     678.6921       0.0000    -150.5118    -999.2500     -36.7123      87.8043     -34.4039      87.6463     128.6267 1533239433 9999999.9999
      35.0     712.3860       0.0000    -145.7541    -999.2500     -44.3440      79.9317     -42.0356      79.6026     134.7286 1533239434 9999999.9999
      36.0     751.2019       0.0000    -141.2976    -999.2500     -51.4535      71.2557     -49.1451      70.7381     140.8305 1533239435 9999999.9999
      37.0     797.1938       0.0000    -133.1931    -999.2500     -63.7043      56.3538     -61.3959      55.5125     146.9294 1533239436 9999999.9999
      38.0     849.1848       0.0000    -128.3286    -999.2500     -74.9510      49.9673     -72.6426      48.9872     153.0343 1533239437 9999999.9999
      39.0     911.9650       0.0000    -124.2036    -999.2500     -83.3458      43.2997     -81.0374      42.1747     159.1362 1533239438 9999999.9999
      40.0     973.8573       0.0000    -119.3798    -999.2500     -91.0177      35.5475     -88.7093      34.2541     165.2642 1533239439 9999999.9999
      41.0    1043.2122       0.0000    -114.0423    -999.2500     -97.5648      27.8355     -95.2564      26.3745     171.3538 1533239440 9999999.9999
      42.0    1121.4115       0.0000    -107.5414    -999.2500    -102.5053      19.7620    -100.1969      18.1256     177.4687 1533239441 9999999.9999
      43.0    1212.2845       0.0000    -100.2962      82.4091    -105.0760      12.0098    -102.7676      10.2050     183.5706 1533239442 9999999.9999
      44.0    1306.9238       0.0000     -91.7976      76.9113    -105.5178       3.7355    -103.2094       1.7509     190.0775 1533239443 9999999.9999
      45.0    1437.8834       0.0000     -83.2064      78.7387    -105.4375      -4.4987    -103.1291      -6.6622     196.1794 1533239444 9999999.9999
      46.0    1569.4755       0.0000     -75.2397      91.9697    -103.9915     -12.6123    -101.6831     -14.9521     202.2813 1533239445 9999999.9999
      47.0    1719.1321       0.0000     -68.3565    -999.2500    -100.6175     -20.6055     -98.3091     -23.1190     208.3832 1533239446 9999999.9999
      48.0    1875.0000       0.0000     -62.8022    -999.2500     -95.3155     -28.1970     -93.0071     -30.8754     214.4881 1533239447 9999999.9999
      49.0    2008.9286       0.0000     -58.0651    -999.2500     -88.7282     -35.6278     -86.4198     -38.4677     220.5870 1533239448 9999999.9999
      50.0    2124.2446       0.0000     -53.7070    -999.2500     -80.9760     -43.0587     -78.6676     -46.0600     226.6796 1533239449 9999999.9999
      51.0    2204.1536       0.0000     -49.6553    -999.2500     -72.2197     -49.7665     -69.9113     -52.9136     232.7814 1533239450 9999999.9999
      52.0    2268.1450       0.0000     -43.8105    -999.2500     -57.7195     -55.8317     -55.4111     -59.1105     238.8710 1533239451 9999999.9999
