~VERSION INFORMATION
VERS.           2.0   :CWLS Log ASCII Standard - VERSION 2.0
WRAP.           NO    :One Line per depth step
PROD.  Schlumberger   :LAS Producer
PROG.  DLIS to ASCII 19C2-270                          :LAS Program name and version
CREA.        2018/08/03 10:59                          :LAS Creation date {YYYY/MM/DD hh:mm}
DLIS_CREA.  2018-Aug-03 09:22                          :DLIS Creation date and time {YYYY-MMM-DD hh:mm}
SOURCE.     PERFO_Perfo_075PTP.DLIS                    :DLIS File Name
FILE-ID.     PERFO_Perfo_075PTP                        :File Identification Number
#--------------------------------------------------
~WELL INFORMATION
#MNEM.UNIT      DATA             DESCRIPTION
#---- ------ --------------   -----------------------------
STRT .S            0.0       :START TIME      
STOP .S          907.0       :STOP TIME      
STEP .S            1.0       :STEP     
NULL .          -999.25      :NULL VALUE
COMP .        SHELL INTERNATIONAL EP                   :COMPANY
WELL .        WPP TEST 4                               :WELL
FLD  .        WILDCAT                                  :FIELD
LOC  .        NA                                       :LOCATION
CNTY .        HARRIS                                   :COUNTY
STAT .        TEXAS                                    :STATE
CTRY .                                                 :COUNTRY
API  .        NA                                       :API NUMBER
UWI  .                                                 :UNIQUE WELL ID
DATE .        02-Aug-2018                              :LOG DATE {DD-MMM-YYYY}
SRVC .        Schlumberger                             :SERVICE COMPANY
LATI .DEG                                              :LATITUDE
LONG .DEG                                              :LONGITUDE
GDAT .                                                 :GeoDetic Datum
SECT .        NA                                       :Section
RANG .        NA                                       :Range
TOWN .        NA                                       :Township
#-----------------------------------------------------------------------------
~PARAMETER INFORMATION
#MNEM.UNIT    VALUE                      DESCRIPTION
#---- -----   --------------------       ------------------------
U-PHASE_B_COMP_PER_YT.                 0 :Phase B Comparator Period Yt
U-PHASE_A_COMP_PER_XT.                 0 :Phase A Comparator Period Xt
U-MAX_EXC_CUR_LIMIT.MA       265.00000   :Requested CM Current Limit
U-REQ_EXC_FQ.HZ              50          :Requested CM Frequency
U-TILT_Y_OFFSET.          -2.06578       :WPTET Tilt Y Offset
U-TILT_Y_GAIN.           1.02173         :WPTET Tilt Y Gain
U-TILT_X_OFFSET.           2.30841       :WPTET Tilt X Offset
U-TILT_X_GAIN.           1.00000         :WPTET Tilt X Gain
U-TILT_OFFSET_TOL.           0.00100     :WPTET Tilt Offset Calibration Tolerance
U-MOT_CUR_LIMIT_REQ.MA        70.00000   :Requested Motor Current Limit
U-MOT_SPD_REQ_WPMS.RPM        1.00000    :Requested Motor Speed
U-STD_TOL_TILT.           0.01000        :Tilt Standard Deviation Tolerance
CWEI .LB/F      29.00000                 :Casing Weight
CSIZ .IN         7.00000                 :Current Casing Size
LCC  .               440                 :Logging Company Code
LUN  .              2134                 :Logging Unit Number
HIDE .                                   :Header Identifier
HID1 .                                   :Header Identifier Line 1
R1   .                                   :Remark Line 1
WITN .        MR. KELLY McCOY            :Witness's Name
ENGI .        MORRIS MOORE               :Engineer's Name
LUL  .        IOWA COLONY                :Logging Unit Location
DATE .        02-Aug-2018                :Date as Month-Day-Year
STAT .        TEXAS                      :State or Province
COUN .        HARRIS                     :County or Rig Name
FN   .        WILDCAT                    :Field Name
WN   .        WPP TEST 4                 :Well Name
CN   .        SHELL INTERNATIONAL EP     :Company Name
CLAB .        County                     :County/Rig Label
SLAB .        State                      :State/Province Label
RUN  .          1                        :RUN NUMBER
PDAT .        GROUND LEVEL               :Permanent Datum
EPD  .                                   :Elevation of Permanent Datum above Mean Sea Level
LMF  .          NA                       :Logging Measured From (Name of Logging Elevation Reference)
APD  .                                   :Elevation of Depth Reference (LMF) above Permanent Datum
#-----------------------------------------------------------------------------
~CURVE INFORMATION
#MNEM.UNIT   API CODE                                  DESCRIPTION
#---- -----  --------                                  -----------------------
TIME .S                                                :TIME {F10.1}
FREQ_EMF_SL.HZ                                         :Electromagnetic Field Frequency {F13.4}
PH_SH_WPPCM_SL.DEG                                     :WPPCM Phase Shift {F13.4}
RB_SL.DEG                                              :Relative Bearing {F13.4}
SDEV_SL.DEG                                            :Sonde Deviation {F13.4}
RTIX_SL.DEG                                            :Raw X-axis Tilt {F13.4}
RTIY_SL.DEG                                            :Raw Y-axis Tilt {F13.4}
TILX_SL.DEG                                            :X-axis Tilt {F13.4}
TILY_SL.DEG                                            :Y-axis Tilt {F13.4}
ROTA_SL.DEG                                            :Motor Rotation Angle {F13.4}
TOD7 .S                                                :Time of Day {I11}
TOJ  .S                                                :Time of Job {F13.4}
#-----------------------------------------------------------------------------
# 
#     TIME    FREQ_EMF_SL  PH_SH_WPPCM_    RB_SL       SDEV_SL      RTIX_SL      RTIY_SL      TILX_SL      TILY_SL      ROTA_SL        TOD7            TOJ
#                          SL
~A  
# ...
      53.0     697.5446       0.0000    -119.5365    -999.2500     -90.7767      35.7885     -88.4683      34.5003     236.6859 1533240390 9999999.9999
      54.0     801.7388       0.0000    -113.7414    -999.2500     -97.8058      27.4338     -95.4974      25.9641     242.7817 1533240391 9999999.9999
      55.0     910.7836       0.0000    -107.2649    -999.2500    -102.7463      19.4407    -100.4379      17.7973     248.8836 1533240392 9999999.9999
      56.0    1046.3170       0.0000     -99.7814      81.4433    -105.2768      11.4877    -102.9684       9.6715     254.9855 1533240393 9999999.9999
      57.0    1216.4792       0.0000     -91.1667      76.6800    -105.6785       3.1330    -103.3701       1.1353     261.0873 1533240394 9999999.9999
      58.0    1381.3850       0.0000     -82.4677      79.3138    -105.3572      -5.2217    -103.0488      -7.4009     267.1891 1533240395 9999999.9999
      59.0    1762.2180       0.0000     -74.5637      99.7394    -103.9513     -13.3353    -101.6429     -15.6909     273.2909 1533240396 9999999.9999
      60.0    2143.6738       0.0000     -67.9729    -999.2500    -100.4167     -21.0875     -98.1083     -23.6115     279.8038 1533240397 9999999.9999
      61.0    2268.1450       0.0000     -62.3419    -999.2500     -94.7933     -28.8798     -92.4849     -31.5731     285.9026 1533240398 9999999.9999
      62.0    2375.4224       0.0000     -57.7094    -999.2500     -88.3667     -36.2303     -86.0583     -39.0833     292.0044 1533240399 9999999.9999
      63.0    2441.4063       0.0000     -53.6014    -999.2500     -80.8555     -43.2595     -78.5471     -46.2652     298.1193 1533240400 9999999.9999
      64.0    2467.1052       0.0000     -49.5426    -999.2500     -72.0188     -49.9673     -69.7104     -53.1188     304.2211 1533240401 9999999.9999
      65.0    2467.1052       0.0000     -43.7797    -999.2500     -58.1613     -56.4342     -55.8529     -59.7261     310.3105 1533240402 9999999.9999
      66.0    2467.1052       0.0000     -36.2859    -999.2500     -48.5213     -75.7945     -46.2129     -79.5071     316.4123 1533240403 9999999.9999
      67.0    2467.1052       0.0000     -32.2550    -999.2500     -41.4118     -84.1893     -39.1034     -88.0843     322.5273 1533240404 9999999.9999
      68.0    2484.5405       0.0000     -27.9271    -999.2500     -34.1818     -90.9775     -31.8734     -95.0200     328.6167 1533240405 9999999.9999
      69.0    2467.1052       0.0000     -22.9366    -999.2500     -26.9117     -96.1590     -24.6033    -100.3140     334.7216 1533240406 9999999.9999
      70.0    2467.1052       0.0000     -17.0023    -999.2500     -19.6013     -99.3322     -17.2929    -103.5562     340.8234 1533240407 9999999.9999
      71.0    2475.7922       0.0000      -9.7239      78.9151     -11.8492    -100.4568      -9.5408    -104.7053     346.9252 1533240408 9999999.9999
      72.0    2467.1052       0.0000      -0.9771      75.2854      -3.2535    -100.4970      -0.9451    -104.7463     353.4196 1533240409 9999999.9999
      73.0    2475.7922       0.0000       7.7016      77.9206       5.2217    -100.0552       7.5301    -104.2949     359.5215 1533240410 9999999.9999
      74.0    2475.7922       0.0000      15.2717      90.6409      13.1345     -98.5690      15.4429    -102.7764       5.6233 1533240411 9999999.9999
      75.0    2475.7922       0.0000      21.3723    -999.2500      20.4047     -95.2352      22.7131     -99.3701      11.7251 1533240412 9999999.9999
      76.0    2475.7922       0.0000      26.5545    -999.2500      27.5945     -90.0135      29.9029     -94.0350      17.8145 1533240413 9999999.9999
      77.0    2467.1052       0.0000      30.9296    -999.2500      34.4630     -83.6270      36.7714     -87.5098      23.9164 1533240414 9999999.9999
      78.0    2467.1052       0.0000      35.3250    -999.2500      41.8135     -75.5133      44.1219     -79.2198      30.0058 1533240415 9999999.9999
      79.0    2475.7922       0.0000      39.7795    -999.2500      48.7222     -65.5520      51.0306     -69.0420      36.1107 1533240416 9999999.9999
      80.0    2475.7922       0.0000      49.4987    -999.2500      68.0825     -50.4092      70.3909     -53.5702      42.2125 1533240417 9999999.9999
      81.0    2467.1052       0.0000      53.6434    -999.2500      77.9635     -43.5005      80.2719     -46.5114      48.3143 1533240418 9999999.9999
      82.0    2475.7922       0.0000      57.4154    -999.2500      85.6755     -36.8328      87.9839     -39.6989      54.4161 1533240419 9999999.9999
      83.0    2475.7922       0.0000      61.5602    -999.2500      92.1423     -29.9643      94.4507     -32.6812      60.5180 1533240420 9999999.9999
      84.0    2424.5691       0.0000      66.3098    -999.2500      96.9222     -23.0958      99.2306     -25.6634      67.0131 1533240421 9999999.9999
      85.0    2351.5886       0.0000      72.4022    -999.2500      99.7338     -15.6650     102.0422     -18.0711      73.1149 1533240422 9999999.9999
      86.0    2290.3093       0.0000      79.7827      81.7145     100.8183      -7.8727     103.1267     -10.1095      79.2167 1533240423 9999999.9999
      87.0    2092.6340       0.0000      88.6357      76.5797     101.1798       0.7230     103.4882      -1.3271      85.3185 1533240424 9999999.9999
      88.0    1674.1072       0.0000      97.5244      78.5312     101.3807       9.2383     103.6891       7.3733      91.4203 1533240425 9999999.9999
      89.0    1411.8976       0.0000     104.7450      91.5523      99.5732      16.6290     101.8816      14.9245      97.5220 1533240426 9999999.9999
      90.0    1220.7031       0.0000     111.6580    -999.2500      95.3958      24.7025      97.7042      23.1734     103.6238 1533240427 9999999.9999
      91.0    1062.1223       0.0000     117.1617    -999.2500      89.7323      32.2137      92.0407      30.8478     109.7287 1533240428 9999999.9999
      92.0     930.0595       0.0000     121.9233    -999.2500      82.6228      39.5642      84.9312      38.3580     115.8313 1533240429 9999999.9999
      93.0     818.5389       0.0000     126.3111    -999.2500      74.5895      46.7540      76.8979      45.7041     121.9461 1533240430 9999999.9999
      94.0     720.4149       0.0000     130.8951    -999.2500      64.5077      53.6627      66.8161      52.7628     128.0356 1533240431 9999999.9999
      95.0     634.5894       0.0000     139.0744    -999.2500      51.9757      70.0105      54.2841      69.4659     134.1406 1533240432 9999999.9999
      96.0     561.6014       0.0000     143.0421    -999.2500      45.3080      79.3693      47.6164      79.0280     140.6575 1533240433 9999999.9999
      97.0     494.4620       0.0000     146.6951    -999.2500      38.6805      86.8805      40.9889      86.7024     146.7594 1533240434 9999999.9999
      98.0     443.8921       0.0000     151.2605    -999.2500      30.8480      94.1908      33.1564      94.1716     152.8613 1533240435 9999999.9999
      99.0     395.9037       0.0000     156.3684    -999.2500      23.2163      99.8945      25.5247      99.9991     158.9641 1533240436 9999999.9999
     100.0     361.6898       0.0000     162.7037    -999.2500      15.2633     103.9915      17.5717     104.1852     165.0660 1533240437 9999999.9999
     101.0     332.1327       0.0000     170.1893      77.5720       7.2702     105.5580       9.5786     105.7857     171.1840 1533240438 9999999.9999
     102.0     317.5813       0.0000     179.1857      73.8238      -1.5263     105.9597       0.7821     106.1961     177.2829 1533240439 9999999.9999
     103.0     306.6398       0.0000    -172.4083      76.2128      -9.6802     105.4777      -7.3718     105.7036     183.3848 1533240440 9999999.9999
     104.0     308.5235       0.0000    -164.8480      89.5385     -17.6332     102.4250     -15.3248     102.5846     189.4897 1533240441 9999999.9999
     105.0     316.8657       0.0000    -157.9327    -999.2500     -26.0280      97.0828     -23.7196      97.1264     195.5792 1533240442 9999999.9999
