~VERSION INFORMATION
VERS.           2.0   :CWLS Log ASCII Standard - VERSION 2.0
WRAP.           NO    :One Line per depth step
PROD.  Schlumberger   :LAS Producer
PROG.  DLIS to ASCII 19C2-270                          :LAS Program name and version
CREA.        2018/08/03 10:59                          :LAS Creation date {YYYY/MM/DD hh:mm}
DLIS_CREA.  2018-Aug-03 09:22                          :DLIS Creation date and time {YYYY-MMM-DD hh:mm}
SOURCE.     PERFO_Perfo_075PTP.DLIS                    :DLIS File Name
FILE-ID.     PERFO_Perfo_075PTP                        :File Identification Number
#--------------------------------------------------
~WELL INFORMATION
#MNEM.UNIT      DATA             DESCRIPTION
#---- ------ --------------   -----------------------------
STRT .S            0.0       :START TIME      
STOP .S          907.0       :STOP TIME      
STEP .S            1.0       :STEP     
NULL .          -999.25      :NULL VALUE
COMP .        SHELL INTERNATIONAL EP                   :COMPANY
WELL .        WPP TEST 4                               :WELL
FLD  .        WILDCAT                                  :FIELD
LOC  .        NA                                       :LOCATION
CNTY .        HARRIS                                   :COUNTY
STAT .        TEXAS                                    :STATE
CTRY .                                                 :COUNTRY
API  .        NA                                       :API NUMBER
UWI  .                                                 :UNIQUE WELL ID
DATE .        02-Aug-2018                              :LOG DATE {DD-MMM-YYYY}
SRVC .        Schlumberger                             :SERVICE COMPANY
LATI .DEG                                              :LATITUDE
LONG .DEG                                              :LONGITUDE
GDAT .                                                 :GeoDetic Datum
SECT .        NA                                       :Section
RANG .        NA                                       :Range
TOWN .        NA                                       :Township
#-----------------------------------------------------------------------------
~PARAMETER INFORMATION
#MNEM.UNIT    VALUE                      DESCRIPTION
#---- -----   --------------------       ------------------------
U-PHASE_B_COMP_PER_YT.                 0 :Phase B Comparator Period Yt
U-PHASE_A_COMP_PER_XT.                 0 :Phase A Comparator Period Xt
U-MAX_EXC_CUR_LIMIT.MA       265.00000   :Requested CM Current Limit
U-REQ_EXC_FQ.HZ              50          :Requested CM Frequency
U-TILT_Y_OFFSET.          -2.06578       :WPTET Tilt Y Offset
U-TILT_Y_GAIN.           1.02173         :WPTET Tilt Y Gain
U-TILT_X_OFFSET.           2.30841       :WPTET Tilt X Offset
U-TILT_X_GAIN.           1.00000         :WPTET Tilt X Gain
U-TILT_OFFSET_TOL.           0.00100     :WPTET Tilt Offset Calibration Tolerance
U-MOT_CUR_LIMIT_REQ.MA        70.00000   :Requested Motor Current Limit
U-MOT_SPD_REQ_WPMS.RPM        1.00000    :Requested Motor Speed
U-STD_TOL_TILT.           0.01000        :Tilt Standard Deviation Tolerance
CWEI .LB/F      29.00000                 :Casing Weight
CSIZ .IN         7.00000                 :Current Casing Size
LCC  .               440                 :Logging Company Code
LUN  .              2134                 :Logging Unit Number
HIDE .                                   :Header Identifier
HID1 .                                   :Header Identifier Line 1
R1   .                                   :Remark Line 1
WITN .        MR. KELLY McCOY            :Witness's Name
ENGI .        MORRIS MOORE               :Engineer's Name
LUL  .        IOWA COLONY                :Logging Unit Location
DATE .        02-Aug-2018                :Date as Month-Day-Year
STAT .        TEXAS                      :State or Province
COUN .        HARRIS                     :County or Rig Name
FN   .        WILDCAT                    :Field Name
WN   .        WPP TEST 4                 :Well Name
CN   .        SHELL INTERNATIONAL EP     :Company Name
CLAB .        County                     :County/Rig Label
SLAB .        State                      :State/Province Label
RUN  .          1                        :RUN NUMBER
PDAT .        GROUND LEVEL               :Permanent Datum
EPD  .                                   :Elevation of Permanent Datum above Mean Sea Level
LMF  .          NA                       :Logging Measured From (Name of Logging Elevation Reference)
APD  .                                   :Elevation of Depth Reference (LMF) above Permanent Datum
#-----------------------------------------------------------------------------
~CURVE INFORMATION
#MNEM.UNIT   API CODE                                  DESCRIPTION
#---- -----  --------                                  -----------------------
TIME .S                                                :TIME {F10.1}
FREQ_EMF_SL.HZ                                         :Electromagnetic Field Frequency {F13.4}
PH_SH_WPPCM_SL.DEG                                     :WPPCM Phase Shift {F13.4}
RB_SL.DEG                                              :Relative Bearing {F13.4}
SDEV_SL.DEG                                            :Sonde Deviation {F13.4}
RTIX_SL.DEG                                            :Raw X-axis Tilt {F13.4}
RTIY_SL.DEG                                            :Raw Y-axis Tilt {F13.4}
TILX_SL.DEG                                            :X-axis Tilt {F13.4}
TILY_SL.DEG                                            :Y-axis Tilt {F13.4}
ROTA_SL.DEG                                            :Motor Rotation Angle {F13.4}
TOD7 .S                                                :Time of Day {I11}
TOJ  .S                                                :Time of Job {F13.4}
#-----------------------------------------------------------------------------
# 
#     TIME    FREQ_EMF_SL  PH_SH_WPPCM_    RB_SL       SDEV_SL      RTIX_SL      RTIY_SL      TILX_SL      TILY_SL      ROTA_SL        TOD7            TOJ
#                          SL
~A  
# ...
     477.0     150.5299       0.0000     -61.2320    -999.2500     -93.1063     -30.5668     -90.7979     -33.2967     318.2008 1533240814 9999999.9999
     478.0     130.9358       0.0000     -56.7079    -999.2500     -86.6797     -37.9173     -84.3713     -40.8069     324.3026 1533240815 9999999.9999
     479.0     122.4530       0.0000     -52.6558    -999.2500     -78.8472     -44.8662     -76.5387     -47.9068     330.4174 1533240816 9999999.9999
     480.0     125.2896       0.0000     -48.5263    -999.2500     -69.6892     -51.4937     -67.3808     -54.6783     336.5193 1533240817 9999999.9999
     481.0     136.0010       0.0000     -39.6203    -999.2500     -53.8635     -67.5603     -51.5551     -71.0940     342.6211 1533240818 9999999.9999
     482.0     157.2283       0.0000     -35.5483    -999.2500     -47.2360     -77.4815     -44.9276     -81.2307     348.7229 1533240819 9999999.9999
     483.0     189.4705       0.0000     -31.5851    -999.2500     -40.2470     -85.5148     -37.9386     -89.4386     355.2203 1533240820 9999999.9999
     484.0     234.1409       0.0000     -27.2349    -999.2500     -33.0973     -91.9415     -30.7889     -96.0049       1.3221 1533240821 9999999.9999
     485.0     285.9394       0.0000     -21.9649    -999.2500     -25.6263     -96.8820     -23.3179    -101.0527       7.4240 1533240822 9999999.9999
     486.0     351.3868       0.0000     -16.0050    -999.2500     -18.4767     -99.6535     -16.1683    -103.8845      13.5258 1533240823 9999999.9999
     487.0     433.4926       0.0000      -8.6078      77.9305     -10.7245    -100.5372      -8.4161    -104.7873      19.6276 1533240824 9999999.9999
     488.0     529.8606       0.0000       0.6423      75.3496      -1.6870    -100.4167       0.6214    -104.6642      25.7171 1533240825 9999999.9999
     489.0     652.2495       0.0000       9.6970      79.6720       7.2300     -99.8945       9.5384    -104.1307      31.8197 1533240826 9999999.9999
     490.0     781.2500       0.0000      16.8371      94.2056      14.9018     -97.9263      17.2102    -102.1198      37.9216 1533240827 9999999.9999
     491.0     931.2914       0.0000      22.5945    -999.2500      22.0113     -94.1507      24.3197     -98.2621      44.0234 1533240828 9999999.9999
     492.0    1128.6116       0.0000      27.6208    -999.2500      29.2012     -88.7683      31.5096     -92.7628      50.1252 1533240829 9999999.9999
     493.0    1341.8416       0.0000      31.8729    -999.2500      36.0295     -82.1810      38.3379     -86.0323      56.2270 1533240830 9999999.9999
     494.0    1706.6141       0.0000      35.9557    -999.2500      42.8578     -74.1878      45.1662     -77.8655      62.3288 1533240831 9999999.9999
     495.0    2032.1531       0.0000      40.4818    -999.2500      49.6460     -63.8650      51.9544     -67.3184      68.8386 1533240832 9999999.9999
     496.0    2290.3093       0.0000      50.1979    -999.2500      69.6088     -49.2443      71.9172     -52.3801      74.9404 1533240833 9999999.9999
     497.0    2407.9622       0.0000      54.2403    -999.2500      79.3693     -42.4562      81.6777     -45.4444      81.0422 1533240834 9999999.9999
     498.0    2475.7922       0.0000      58.0203    -999.2500      86.8805     -35.7885      89.1889     -38.6319      87.1440 1533240835 9999999.9999
     499.0    2475.7922       0.0000      62.2389    -999.2500      92.9055     -28.9200      95.2139     -31.6141      93.2458 1533240836 9999999.9999
     500.0    2475.7922       0.0000      67.1365    -999.2500      97.4443     -22.0113      99.7527     -24.5554      99.3476 1533240837 9999999.9999
     501.0    2467.1052       0.0000      73.9934    -999.2500     100.1757     -13.8977     102.4841     -16.2654     105.4624 1533240838 9999999.9999
     502.0    2475.7922       0.0000      81.8493      79.6239     100.8585      -5.8242     103.1669      -8.0165     111.5773 1533240839 9999999.9999
     503.0    2467.1052       0.0000      90.7038      76.3287     101.3807       2.6912     103.6891       0.6839     117.6790 1533240840 9999999.9999
     504.0    2475.7922       0.0000      99.0302      79.9931     101.1397      10.7245     103.4481       8.8917     123.7808 1533240841 9999999.9999
     505.0    2475.7922       0.0000     106.4997      97.2496      98.8502      18.5570     101.1586      16.8944     129.8826 1533240842 9999999.9999
     506.0    2484.5405       0.0000     112.8440    -999.2500      94.3917      26.2288      96.7001      24.7329     135.9845 1533240843 9999999.9999
     507.0    2484.5405       0.0000     118.1094    -999.2500      88.4068      33.6195      90.7152      32.2842     142.4945 1533240844 9999999.9999
     508.0    2484.5405       0.0000     122.7138    -999.2500      81.3375      40.8495      83.6459      39.6713     148.5994 1533240845 9999999.9999
     509.0    2475.7922       0.0000     127.1957    -999.2500      72.8222      48.2000      75.1306      47.1815     154.6983 1533240846 9999999.9999
     510.0    2467.1052       0.0000     131.7237    -999.2500      62.6198      54.7472      64.9282      53.8709     160.7878 1533240847 9999999.9999
     511.0    2475.7922       0.0000     139.6206    -999.2500      51.1322      71.3360      53.4406      70.8202     166.8897 1533240848 9999999.9999
     512.0    2475.7922       0.0000     143.5571    -999.2500      44.3842      80.5342      46.6926      80.2182     172.9916 1533240849 9999999.9999
     513.0    2473.6147       0.0000     147.5373    -999.2500      37.1742      88.3566      39.4827      88.2106     179.0935 1533240850 9999999.9999
     514.0    2467.1052       0.0000     152.3442    -999.2500      29.1208      95.6770      31.4292      95.6900     185.2084 1533240851 9999999.9999
     515.0    2475.7922       0.0000     157.7084    -999.2500      21.4088     101.0192      23.7172     101.1482     191.3103 1533240852 9999999.9999
     516.0    2475.7922       0.0000     164.2332      85.2387      13.5362     104.5538      15.8446     104.7597     197.4122 1533240853 9999999.9999
     517.0    2475.7922       0.0000     172.0778      76.1596       5.3823     105.6785       7.6907     105.9088     203.5141 1533240854 9999999.9999
     518.0    2475.7922       0.0000    -179.3923      73.8150      -2.8920     105.9597      -0.5836     106.1961     209.6160 1533240855 9999999.9999
     519.0    2475.7922       0.0000    -170.9631      77.4069     -11.1262     105.2367      -8.8178     105.4574     215.7179 1533240856 9999999.9999
     520.0    2449.9128       0.0000    -163.5757      90.5902     -19.0792     101.6618     -16.7708     101.8049     222.2278 1533240857 9999999.9999
     521.0    2375.4224       0.0000    -156.9369    -999.2500     -27.3535      96.1188     -25.0451      96.1414     228.3297 1533240858 9999999.9999
     522.0    2183.6179       0.0000    -151.3978    -999.2500     -35.3467      89.2102     -33.0383      89.0827     234.4316 1533240859 9999999.9999
     523.0    1900.3378       0.0000    -146.6299    -999.2500     -42.9382      81.6588     -40.6298      81.3673     240.5335 1533240860 9999999.9999
     524.0    1535.2074       0.0000    -142.2437    -999.2500     -50.0075      73.2238     -47.6991      72.7490     246.6354 1533240861 9999999.9999
     525.0    1268.6062       0.0000    -136.4480    -999.2500     -57.6894      60.7019     -55.3810      59.9550     252.7373 1533240862 9999999.9999
     526.0    1063.7292       0.0000    -129.1540    -999.2500     -73.3042      51.2928     -70.9958      50.3415     258.8392 1533240863 9999999.9999
     527.0     892.2906       0.0000    -124.9031    -999.2500     -81.8597      44.4243     -79.5513      43.3238     264.9410 1533240864 9999999.9999
     528.0     755.2363       0.0000    -120.3865    -999.2500     -89.6118      37.1140     -87.3034      35.8546     271.0428 1533240865 9999999.9999
     529.0     638.0444       0.0000    -115.1539    -999.2500     -96.2795      29.3618     -93.9711      27.9340     277.1608 1533240866 9999999.9999
