~VERSION INFORMATION
VERS.           2.0   :CWLS Log ASCII Standard - VERSION 2.0
WRAP.           NO    :One Line per depth step
PROD.  Schlumberger   :LAS Producer
PROG.  DLIS to ASCII 19C2-270                          :LAS Program name and version
CREA.        2018/08/03 10:59                          :LAS Creation date {YYYY/MM/DD hh:mm}
DLIS_CREA.  2018-Aug-03 09:13                          :DLIS Creation date and time {YYYY-MMM-DD hh:mm}
SOURCE.     PERFO_Perfo_073PTP.DLIS                    :DLIS File Name
FILE-ID.     PERFO_Perfo_073PTP                        :File Identification Number
#--------------------------------------------------
~WELL INFORMATION
#MNEM.UNIT      DATA             DESCRIPTION
#---- ------ --------------   -----------------------------
STRT .S            0.0       :START TIME      
STOP .S         1015.0       :STOP TIME      
STEP .S            1.0       :STEP     
NULL .          -999.25      :NULL VALUE
COMP .        SHELL INTERNATIONAL EP                   :COMPANY
WELL .        WPP TEST 4                               :WELL
FLD  .        WILDCAT                                  :FIELD
LOC  .        NA                                       :LOCATION
CNTY .        HARRIS                                   :COUNTY
STAT .        TEXAS                                    :STATE
CTRY .                                                 :COUNTRY
API  .        NA                                       :API NUMBER
UWI  .                                                 :UNIQUE WELL ID
DATE .        02-Aug-2018                              :LOG DATE {DD-MMM-YYYY}
SRVC .        Schlumberger                             :SERVICE COMPANY
LATI .DEG                                              :LATITUDE
LONG .DEG                                              :LONGITUDE
GDAT .                                                 :GeoDetic Datum
SECT .        NA                                       :Section
RANG .        NA                                       :Range
TOWN .        NA                                       :Township
#-----------------------------------------------------------------------------
~PARAMETER INFORMATION
#MNEM.UNIT    VALUE                      DESCRIPTION
#---- -----   --------------------       ------------------------
U-PHASE_B_COMP_PER_YT.                 0 :Phase B Comparator Period Yt
U-PHASE_A_COMP_PER_XT.                 0 :Phase A Comparator Period Xt
U-MAX_EXC_CUR_LIMIT.MA       265.00000   :Requested CM Current Limit
U-REQ_EXC_FQ.HZ              50          :Requested CM Frequency
U-TILT_Y_OFFSET.          -2.06578       :WPTET Tilt Y Offset
U-TILT_Y_GAIN.           1.02173         :WPTET Tilt Y Gain
U-TILT_X_OFFSET.           2.30841       :WPTET Tilt X Offset
U-TILT_X_GAIN.           1.00000         :WPTET Tilt X Gain
U-TILT_OFFSET_TOL.           0.00100     :WPTET Tilt Offset Calibration Tolerance
U-MOT_CUR_LIMIT_REQ.MA        70.00000   :Requested Motor Current Limit
U-MOT_SPD_REQ_WPMS.RPM        1.00000    :Requested Motor Speed
U-STD_TOL_TILT.           0.01000        :Tilt Standard Deviation Tolerance
CWEI .LB/F      29.00000                 :Casing Weight
CSIZ .IN         7.00000                 :Current Casing Size
LCC  .               440                 :Logging Company Code
LUN  .              2134                 :Logging Unit Number
HIDE .                                   :Header Identifier
HID1 .                                   :Header Identifier Line 1
R1   .                                   :Remark Line 1
WITN .        MR. KELLY McCOY            :Witness's Name
ENGI .        MORRIS MOORE               :Engineer's Name
LUL  .        IOWA COLONY                :Logging Unit Location
DATE .        02-Aug-2018                :Date as Month-Day-Year
STAT .        TEXAS                      :State or Province
COUN .        HARRIS                     :County or Rig Name
FN   .        WILDCAT                    :Field Name
WN   .        WPP TEST 4                 :Well Name
CN   .        SHELL INTERNATIONAL EP     :Company Name
CLAB .        County                     :County/Rig Label
SLAB .        State                      :State/Province Label
RUN  .          1                        :RUN NUMBER
PDAT .        GROUND LEVEL               :Permanent Datum
EPD  .                                   :Elevation of Permanent Datum above Mean Sea Level
LMF  .          NA                       :Logging Measured From (Name of Logging Elevation Reference)
APD  .                                   :Elevation of Depth Reference (LMF) above Permanent Datum
#-----------------------------------------------------------------------------
~CURVE INFORMATION
#MNEM.UNIT   API CODE                                  DESCRIPTION
#---- -----  --------                                  -----------------------
TIME .S                                                :TIME {F10.1}
FREQ_EMF_SL.HZ                                         :Electromagnetic Field Frequency {F13.4}
PH_SH_WPPCM_SL.DEG                                     :WPPCM Phase Shift {F13.4}
RB_SL.DEG                                              :Relative Bearing {F13.4}
SDEV_SL.DEG                                            :Sonde Deviation {F13.4}
RTIX_SL.DEG                                            :Raw X-axis Tilt {F13.4}
RTIY_SL.DEG                                            :Raw Y-axis Tilt {F13.4}
TILX_SL.DEG                                            :X-axis Tilt {F13.4}
TILY_SL.DEG                                            :Y-axis Tilt {F13.4}
ROTA_SL.DEG                                            :Motor Rotation Angle {F13.4}
TOD7 .S                                                :Time of Day {I11}
TOJ  .S                                                :Time of Job {F13.4}
#-----------------------------------------------------------------------------
# 
#     TIME    FREQ_EMF_SL  PH_SH_WPPCM_    RB_SL       SDEV_SL      RTIX_SL      RTIY_SL      TILX_SL      TILY_SL      ROTA_SL        TOD7            TOJ
#                          SL
~A  
# ...
     636.0    1346.9828       0.0000    -133.0783    -999.2500     -64.6181      56.7254     -62.3097      55.8921      71.2303 1533238717 9999999.9999
     637.0    1349.5681       0.0000    -128.2226    -999.2500     -75.1920      49.8067     -72.8836      48.8230      77.3321 1533238718 9999999.9999
     638.0    1357.3842       0.0000    -123.8777    -999.2500     -83.7475      42.7373     -81.4391      41.6001      83.4339 1533238719 9999999.9999
     639.0    1357.3842       0.0000    -119.3016    -999.2500     -91.0980      35.4270     -88.7896      34.1309      89.5234 1533238720 9999999.9999
     640.0    1354.7688       0.0000    -113.9484    -999.2500     -97.5247      27.7150     -95.2163      26.2514      95.6129 1533238721 9999999.9999
     641.0    1360.0098       0.0000    -107.6833    -999.2500    -102.4652      19.9227    -100.1568      18.2898     101.7023 1533238722 9999999.9999
     642.0    1370.6140       0.0000     -99.9332      82.0024    -105.0358      11.6483    -102.7274       9.8356     107.8172 1533238723 9999999.9999
     643.0    1362.6454       0.0000     -91.7558      76.8652    -105.5580       3.6953    -103.2496       1.7098     113.9220 1533238724 9999999.9999
     644.0    1370.6140       0.0000     -83.1261      78.8818    -105.3572      -4.5790    -103.0488      -6.7443     120.0115 1533238725 9999999.9999
     645.0    1370.6140       0.0000     -75.0486      93.3396    -104.0317     -12.8132    -101.7233     -15.1573     126.1132 1533238726 9999999.9999
     646.0    1370.6140       0.0000     -68.3914    -999.2500    -100.5773     -20.5653     -98.2689     -23.0779     132.2151 1533238727 9999999.9999
     647.0    1381.3850       0.0000     -62.8047    -999.2500     -95.1950     -28.1970     -92.8866     -30.8754     138.3170 1533238728 9999999.9999
     648.0    1381.3850       0.0000     -58.0569    -999.2500     -88.4470     -35.6278     -86.1386     -38.4677     144.4189 1533238729 9999999.9999
     649.0    1386.8344       0.0000     -53.7259    -999.2500     -80.9760     -43.0185     -78.6676     -46.0190     150.5208 1533238730 9999999.9999
     650.0    1392.3268       0.0000     -49.6488    -999.2500     -72.0992     -49.7263     -69.7908     -52.8725     156.6103 1533238731 9999999.9999
     651.0    1397.8628       0.0000     -43.7931    -999.2500     -57.2777     -55.3898     -54.9693     -58.6591     162.7122 1533238732 9999999.9999
     652.0    1403.4431       0.0000     -36.4586    -999.2500     -48.8025     -75.3125     -46.4941     -79.0146     168.8141 1533238733 9999999.9999
     653.0    1400.6475       0.0000     -32.5073    -999.2500     -41.8537     -83.7073     -39.5453     -87.5918     174.9292 1533238734 9999999.9999
     654.0    1411.8976       0.0000     -28.2790    -999.2500     -34.7442     -90.4152     -32.4358     -94.4454     181.0311 1533238735 9999999.9999
     655.0    1417.5908       0.0000     -23.3820    -999.2500     -27.5142     -95.7975     -25.2058     -99.9447     187.5195 1533238736 9999999.9999
     656.0    1414.7384       0.0000     -17.4884    -999.2500     -20.1637     -99.0912     -17.8553    -103.3099     193.6214 1533238737 9999999.9999
     657.0    1417.5908       0.0000     -10.4338      79.6970     -12.5722    -100.3765     -10.2638    -104.6232     199.7202 1533238738 9999999.9999
     658.0    1423.3300       0.0000      -1.7643      75.5227      -4.0167    -100.3363      -1.7083    -104.5821     205.8221 1533238739 9999999.9999
     659.0    1423.3300       0.0000       7.3366      77.7456       4.8602    -100.0150       7.1686    -104.2538     211.9240 1533238740 9999999.9999
     660.0    1429.1158       0.0000      14.7222      88.9104      12.5320     -98.6895      14.8404    -102.8995     218.0259 1533238741 9999999.9999
     661.0    1429.1158       0.0000      21.3329    -999.2500      20.3645     -95.1147      22.6729     -99.2470     224.1154 1533238742 9999999.9999
     662.0    1432.0265       0.0000      26.5232    -999.2500      27.5543     -89.8930      29.8627     -93.9119     230.2204 1533238743 9999999.9999
     663.0    1432.0265       0.0000      30.9067    -999.2500      34.4228     -83.5868      36.7312     -87.4687     236.3324 1533238744 9999999.9999
     664.0    1440.8298       0.0000      34.9336    -999.2500      41.0905     -75.9150      43.3989     -79.6302     242.4343 1533238745 9999999.9999
     665.0    1437.8834       0.0000      39.2463    -999.2500      47.9188     -66.6767      50.2272     -70.1911     248.5362 1533238746 9999999.9999
     666.0    1434.9490       0.0000      49.5343    -999.2500      67.4398     -50.0075      69.7482     -53.1598     254.6449 1533238747 9999999.9999
     667.0    1434.9490       0.0000      53.3167    -999.2500      77.1602     -44.0628      79.4686     -47.0860     261.1486 1533238748 9999999.9999
     668.0    1440.8298       0.0000      57.0468    -999.2500      84.9927     -37.4755      87.3011     -40.3555     267.2504 1533238749 9999999.9999
     669.0    1437.8834       0.0000      61.1292    -999.2500      91.4595     -30.6472      93.7679     -33.3788     273.3522 1533238750 9999999.9999
     670.0    1432.0265       0.0000      65.8985    -999.2500      96.4803     -23.6582      98.7887     -26.2380     279.4540 1533238751 9999999.9999
     671.0    1432.0265       0.0000      71.7736    -999.2500      99.4125     -16.3880     101.7209     -18.8098     285.5558 1533238752 9999999.9999
     672.0    1426.2170       0.0000      78.9078      83.1654     100.6978      -8.7563     103.0062     -11.0124     291.6453 1533238753 9999999.9999
     673.0    1423.3300       0.0000      88.2987      76.6580     101.1397       0.4017     103.4481      -1.6554     297.7471 1533238754 9999999.9999
     674.0    1417.5908       0.0000      97.2722      78.5616     101.2200       8.9973     103.5284       7.1270     303.8620 1533238755 9999999.9999
     675.0    1414.7384       0.0000     104.7450      91.0902      99.5732      16.6290     101.8816      14.9245     309.9638 1533238756 9999999.9999
     676.0    1409.0682       0.0000     111.3685    -999.2500      95.5565      24.3410      97.8649      22.8041     316.0718 1533238757 9999999.9999
     677.0    1411.8976       0.0000     116.9106    -999.2500      89.8127      31.8522      92.1211      30.4784     322.1705 1533238758 9999999.9999
     678.0    1406.2500       0.0000     121.7255    -999.2500      82.9040      39.2428      85.2124      38.0297     328.2731 1533238759 9999999.9999
     679.0    1400.6475       0.0000     126.0193    -999.2500      75.1518      46.2720      77.4602      45.2116     334.7799 1533238760 9999999.9999
     680.0    1389.5751       0.0000     130.6534    -999.2500      65.0700      53.3413      67.3784      52.4345     340.8817 1533238761 9999999.9999
     681.0       0.0000       0.0000     138.8823    -999.2500      52.2568      69.5285      54.5652      68.9734     347.0559 1533238762 9999999.9999
     682.0       0.0000       0.0000     142.9272    -999.2500      45.5088      79.0882      47.8172      78.7408     353.1810 1533238763 9999999.9999
     683.0       0.0000       0.0000     146.8483    -999.2500      38.3993      87.0412      40.7077      86.8665     359.3090 1533238764 9999999.9999
     684.0       0.0000       0.0000     151.1608    -999.2500      31.0087      94.0703      33.3171      94.0484       5.4139 1533238765 9999999.9999
     685.0       0.0000       0.0000     156.7249    -999.2500      22.7343     100.1355      25.0427     100.2454      11.5127 1533238766 9999999.9999
     686.0       0.0000       0.0000     163.0620    -999.2500      14.8617     104.0317      17.1701     104.2262      17.6145 1533238767 9999999.9999
     687.0       0.0000       0.0000     171.1560      76.9715       6.3062     105.4777       8.6146     105.7036      23.7294 1533238768 9999999.9999
     688.0       0.0000       0.0000     179.4367      73.8545      -1.7673     105.9195       0.5411     106.1551      29.8443 1533238769 9999999.9999
