~VERSION INFORMATION
VERS.           2.0   :CWLS Log ASCII Standard - VERSION 2.0
WRAP.           NO    :One Line per depth step
PROD.  Schlumberger   :LAS Producer
PROG.  DLIS to ASCII 19C2-270                          :LAS Program name and version
CREA.        2018/08/03 10:59                          :LAS Creation date {YYYY/MM/DD hh:mm}
DLIS_CREA.  2018-Aug-03 09:22                          :DLIS Creation date and time {YYYY-MMM-DD hh:mm}
SOURCE.     PERFO_Perfo_075PTP.DLIS                    :DLIS File Name
FILE-ID.     PERFO_Perfo_075PTP                        :File Identification Number
#--------------------------------------------------
~WELL INFORMATION
#MNEM.UNIT      DATA             DESCRIPTION
#---- ------ --------------   -----------------------------
STRT .S            0.0       :START TIME      
STOP .S          907.0       :STOP TIME      
STEP .S            1.0       :STEP     
NULL .          -999.25      :NULL VALUE
COMP .        SHELL INTERNATIONAL EP                   :COMPANY
WELL .        WPP TEST 4                               :WELL
FLD  .        WILDCAT                                  :FIELD
LOC  .        NA                                       :LOCATION
CNTY .        HARRIS                                   :COUNTY
STAT .        TEXAS                                    :STATE
CTRY .                                                 :COUNTRY
API  .        NA                                       :API NUMBER
UWI  .                                                 :UNIQUE WELL ID
DATE .        02-Aug-2018                              :LOG DATE {DD-MMM-YYYY}
SRVC .        Schlumberger                             :SERVICE COMPANY
LATI .DEG                                              :LATITUDE
LONG .DEG                                              :LONGITUDE
GDAT .                                                 :GeoDetic Datum
SECT .        NA                                       :Section
RANG .        NA                                       :Range
TOWN .        NA                                       :Township
#-----------------------------------------------------------------------------
~PARAMETER INFORMATION
#MNEM.UNIT    VALUE                      DESCRIPTION
#---- -----   --------------------       ------------------------
U-PHASE_B_COMP_PER_YT.                 0 :Phase B Comparator Period Yt
U-PHASE_A_COMP_PER_XT.                 0 :Phase A Comparator Period Xt
U-MAX_EXC_CUR_LIMIT.MA       265.00000   :Requested CM Current Limit
U-REQ_EXC_FQ.HZ              50          :Requested CM Frequency
U-TILT_Y_OFFSET.          -2.06578       :WPTET Tilt Y Offset
U-TILT_Y_GAIN.           1.02173         :WPTET Tilt Y Gain
U-TILT_X_OFFSET.           2.30841       :WPTET Tilt X Offset
U-TILT_X_GAIN.           1.00000         :WPTET Tilt X Gain
U-TILT_OFFSET_TOL.           0.00100     :WPTET Tilt Offset Calibration Tolerance
U-MOT_CUR_LIMIT_REQ.MA        70.00000   :Requested Motor Current Limit
U-MOT_SPD_REQ_WPMS.RPM        1.00000    :Requested Motor Speed
U-STD_TOL_TILT.           0.01000        :Tilt Standard Deviation Tolerance
CWEI .LB/F      29.00000                 :Casing Weight
CSIZ .IN         7.00000                 :Current Casing Size
LCC  .               440                 :Logging Company Code
LUN  .              2134                 :Logging Unit Number
HIDE .                                   :Header Identifier
HID1 .                                   :Header Identifier Line 1
R1   .                                   :Remark Line 1
WITN .        MR. KELLY McCOY            :Witness's Name
ENGI .        MORRIS MOORE               :Engineer's Name
LUL  .        IOWA COLONY                :Logging Unit Location
DATE .        02-Aug-2018                :Date as Month-Day-Year
STAT .        TEXAS                      :State or Province
COUN .        HARRIS                     :County or Rig Name
FN   .        WILDCAT                    :Field Name
WN   .        WPP TEST 4                 :Well Name
CN   .        SHELL INTERNATIONAL EP     :Company Name
CLAB .        County                     :County/Rig Label
SLAB .        State                      :State/Province Label
RUN  .          1                        :RUN NUMBER
PDAT .        GROUND LEVEL               :Permanent Datum
EPD  .                                   :Elevation of Permanent Datum above Mean Sea Level
LMF  .          NA                       :Logging Measured From (Name of Logging Elevation Reference)
APD  .                                   :Elevation of Depth Reference (LMF) above Permanent Datum
#-----------------------------------------------------------------------------
~CURVE INFORMATION
#MNEM.UNIT   API CODE                                  DESCRIPTION
#---- -----  --------                                  -----------------------
TIME .S                                                :TIME {F10.1}
FREQ_EMF_SL.HZ                                         :Electromagnetic Field Frequency {F13.4}
PH_SH_WPPCM_SL.DEG                                     :WPPCM Phase Shift {F13.4}
RB_SL.DEG                                              :Relative Bearing {F13.4}
SDEV_SL.DEG                                            :Sonde Deviation {F13.4}
RTIX_SL.DEG                                            :Raw X-axis Tilt {F13.4}
RTIY_SL.DEG                                            :Raw Y-axis Tilt {F13.4}
TILX_SL.DEG                                            :X-axis Tilt {F13.4}
TILY_SL.DEG                                            :Y-axis Tilt {F13.4}
ROTA_SL.DEG                                            :Motor Rotation Angle {F13.4}
TOD7 .S                                                :Time of Day {I11}
TOJ  .S                                                :Time of Job {F13.4}
#-----------------------------------------------------------------------------
# 
#     TIME    FREQ_EMF_SL  PH_SH_WPPCM_    RB_SL       SDEV_SL      RTIX_SL      RTIY_SL      TILX_SL      TILY_SL      ROTA_SL        TOD7            TOJ
#                          SL
~A  
# ...
     795.0     568.4114       0.0000      58.2777    -999.2500      87.3625     -35.3467      89.6709     -38.1804     108.8988 1533241132 9999999.9999
     796.0     671.5616       0.0000      62.6286    -999.2500      93.5482     -28.3175      95.8566     -30.9985     115.0006 1533241133 9999999.9999
     797.0     784.7377       0.0000      67.7274    -999.2500      97.8460     -21.2482     100.1544     -23.7756     121.1024 1533241134 9999999.9999
     798.0     921.5269       0.0000      74.0307    -999.2500     100.1757     -13.8575     102.4841     -16.2244     127.6122 1533241135 9999999.9999
     799.0    1100.3522       0.0000      82.0462      79.1711     101.0995      -5.6233     103.4079      -7.8113     133.7272 1533241136 9999999.9999
     800.0    1278.4092       0.0000      90.8727      76.3382     101.3807       2.8518     103.6891       0.8480     139.8291 1533241137 9999999.9999
     801.0    1576.5134       0.0000      99.3535      80.3505     101.0995      11.0458     103.4079       9.2200     145.9310 1533241138 9999999.9999
     802.0    1895.2157       0.0000     106.6424      95.7191      98.7698      18.7177     101.0782      17.0586     152.0329 1533241139 9999999.9999
     803.0    2190.4207       0.0000     112.9061    -999.2500      94.3515      26.3092      96.6599      24.8150     157.7299 1533241140 9999999.9999
     804.0    2383.4746       0.0000     118.4303    -999.2500      88.1257      34.1015      90.4341      32.7766     163.8318 1533241141 9999999.9999
     805.0    2458.4790       0.0000     123.1403    -999.2500      80.8555      41.5725      83.1639      40.4100     169.9337 1533241142 9999999.9999
     806.0    2484.5405       0.0000     127.4693    -999.2500      72.2598      48.6418      74.5682      47.6329     176.0356 1533241143 9999999.9999
     807.0    2484.5405       0.0000     132.2384    -999.2500      61.2140      55.2292      63.5224      54.3634     182.1375 1533241144 9999999.9999
     808.0    2484.5405       0.0000     139.9808    -999.2500      50.5297      72.1393      52.8381      71.6409     188.2271 1533241145 9999999.9999
     809.0    2467.1052       0.0000     143.8152    -999.2500      43.9022      81.0162      46.2106      80.7106     194.3290 1533241146 9999999.9999
     810.0    2475.7922       0.0000     147.7542    -999.2500      36.7927      88.8487      39.1011      88.7133     200.8520 1533241147 9999999.9999
     811.0    2475.7922       0.0000     152.2903    -999.2500      29.2012      95.6770      31.5096      95.6900     206.9539 1533241148 9999999.9999
     812.0    2484.5405       0.0000     157.7055    -999.2500      21.4088     101.0593      23.7172     101.1893     213.0558 1533241149 9999999.9999
     813.0    2484.5405       0.0000     164.1621      85.2262      13.6165     104.5137      15.9249     104.7187     219.1577 1533241150 9999999.9999
     814.0    2475.7922       0.0000     171.9155      76.2526       5.5430     105.6785       7.8514     105.9088     225.2596 1533241151 9999999.9999
     815.0    2484.5405       0.0000    -179.3921      73.7329      -2.8920     106.0400      -0.5836     106.2782     231.3615 1533241152 9999999.9999
     816.0    2475.7922       0.0000    -170.7242      77.6321     -11.3672     105.1965      -9.0588     105.4163     237.4633 1533241153 9999999.9999
     817.0    2475.7922       0.0000    -163.1240      93.0853     -19.6013     101.3807     -17.2929     101.5176     243.5652 1533241154 9999999.9999
     818.0    2475.7922       0.0000    -156.5196    -999.2500     -27.9158      95.7573     -25.6074      95.7721     249.6671 1533241155 9999999.9999
     819.0    2475.7922       0.0000    -151.1103    -999.2500     -35.7885      88.8085     -33.4801      88.6723     255.7690 1533241156 9999999.9999
     820.0    2484.5405       0.0000    -146.3107    -999.2500     -43.4603      81.0965     -41.1519      80.7927     261.8708 1533241157 9999999.9999
     821.0    2484.5405       0.0000    -141.7822    -999.2500     -50.7305      72.3000     -48.4221      71.8051     267.9727 1533241158 9999999.9999
     822.0    2475.7922       0.0000    -136.0263    -999.2500     -58.2818      59.9688     -55.9734      59.2060     274.4825 1533241159 9999999.9999
     823.0    2475.7922       0.0000    -129.0836    -999.2500     -73.4247      51.1723     -71.1162      50.2184     280.5843 1533241160 9999999.9999
     824.0    2467.1052       0.0000    -124.8723    -999.2500     -81.9802      44.3842     -79.6718      43.2827     286.6738 1533241161 9999999.9999
     825.0    2467.1052       0.0000    -120.3625    -999.2500     -89.5717      37.0738     -87.2633      35.8136     292.7756 1533241162 9999999.9999
     826.0    2493.3511       0.0000    -115.1572    -999.2500     -96.4000      29.3618     -94.0916      27.9340     298.8773 1533241163 9999999.9999
     827.0    2467.1052       0.0000    -108.9977    -999.2500    -101.8225      21.4490     -99.5141      19.8492     304.9922 1533241164 9999999.9999
     828.0    2391.5815       0.0000    -101.2538      83.9306    -105.0760      12.9738    -102.7676      11.1899     311.0940 1533241165 9999999.9999
     829.0    2211.0850       0.0000     -92.9343      76.9913    -105.6383       4.8200    -103.3299       2.8589     317.1958 1533241166 9999999.9999
     830.0    1942.3344       0.0000     -84.1989      78.1570    -105.4777      -3.5347    -103.1693      -5.6772     323.2976 1533241167 9999999.9999
     831.0    1590.7806       0.0000     -75.9750      94.2045    -104.5137     -11.8090    -102.2053     -14.1314     329.4125 1533241168 9999999.9999
     832.0    1329.1588       0.0000     -69.0885    -999.2500    -101.2602     -19.6817     -98.9518     -22.1751     335.5304 1533241169 9999999.9999
     833.0    1135.9047       0.0000     -63.3474    -999.2500     -96.0787     -27.3937     -93.7703     -30.0546     341.6291 1533241170 9999999.9999
     834.0     967.1596       0.0000     -58.4601    -999.2500     -89.5717     -34.9852     -87.2633     -37.8111     348.1389 1533241171 9999999.9999
     835.0     829.1569       0.0000     -54.2327    -999.2500     -82.1408     -42.1750     -79.8324     -45.1571     354.2408 1533241172 9999999.9999
     836.0     713.8325       0.0000     -50.3213    -999.2500     -73.8263     -48.7623     -71.5179     -51.8876       0.3426 1533241173 9999999.9999
     837.0     613.0122       0.0000     -45.4420    -999.2500     -62.4190     -55.3497     -60.1106     -58.6180       6.4444 1533241174 9999999.9999
     838.0     529.0632       0.0000     -37.3099    -999.2500     -50.2887     -73.4648     -47.9803     -77.1268      12.5339 1533241175 9999999.9999
     839.0     453.3365       0.0000     -33.2343    -999.2500     -43.1390     -82.3818     -40.8306     -86.2375      18.6357 1533241176 9999999.9999
     840.0     381.0976       0.0000     -28.8120    -999.2500     -35.5877     -89.9332     -33.2793     -93.9529      24.7251 1533241177 9999999.9999
     841.0     330.8824       0.0000     -23.8578    -999.2500     -28.1568     -95.5163     -25.8484     -99.6574      30.8269 1533241178 9999999.9999
     842.0     286.9898       0.0000     -18.1224    -999.2500     -20.8867     -99.0108     -18.5783    -103.2278      36.9288 1533241179 9999999.9999
     843.0     254.3868       0.0000     -11.2581      80.6715     -13.4157    -100.3363     -11.1073    -104.5821      43.0306 1533241180 9999999.9999
     844.0     232.6688       0.0000      -2.6768      75.5351      -4.9003    -100.4568      -2.5919    -104.7053      49.1324 1533241181 9999999.9999
     845.0     218.4296       0.0000       6.1252      76.8320       3.6552    -100.2560       5.9636    -104.5001      55.2342 1533241182 9999999.9999
     846.0     212.2962       0.0000      14.0309      88.0634      11.7688     -99.0510      14.0772    -103.2689      61.7440 1533241183 9999999.9999
     847.0     219.9328       0.0000      20.2662    -999.2500      18.9988     -96.0787      21.3072    -100.2320      67.8458 1533241184 9999999.9999
