~VERSION INFORMATION
VERS.           2.0   :CWLS Log ASCII Standard - VERSION 2.0
WRAP.           NO    :One Line per depth step
PROD.  Schlumberger   :LAS Producer
PROG.  DLIS to ASCII 19C2-270                          :LAS Program name and version
CREA.        2018/08/03 10:59                          :LAS Creation date {YYYY/MM/DD hh:mm}
DLIS_CREA.  2018-Aug-03 09:22                          :DLIS Creation date and time {YYYY-MMM-DD hh:mm}
SOURCE.     PERFO_Perfo_075PTP.DLIS                    :DLIS File Name
FILE-ID.     PERFO_Perfo_075PTP                        :File Identification Number
#--------------------------------------------------
~WELL INFORMATION
#MNEM.UNIT      DATA             DESCRIPTION
#---- ------ --------------   -----------------------------
STRT .S            0.0       :START TIME      
STOP .S          907.0       :STOP TIME      
STEP .S            1.0       :STEP     
NULL .          -999.25      :NULL VALUE
COMP .        SHELL INTERNATIONAL EP                   :COMPANY
WELL .        WPP TEST 4                               :WELL
FLD  .        WILDCAT                                  :FIELD
LOC  .        NA                                       :LOCATION
CNTY .        HARRIS                                   :COUNTY
STAT .        TEXAS                                    :STATE
CTRY .                                                 :COUNTRY
API  .        NA                                       :API NUMBER
UWI  .                                                 :UNIQUE WELL ID
DATE .        02-Aug-2018                              :LOG DATE {DD-MMM-YYYY}
SRVC .        Schlumberger                             :SERVICE COMPANY
LATI .DEG                                              :LATITUDE
LONG .DEG                                              :LONGITUDE
GDAT .                                                 :GeoDetic Datum
SECT .        NA                                       :Section
RANG .        NA                                       :Range
TOWN .        NA                                       :Township
#-----------------------------------------------------------------------------
~PARAMETER INFORMATION
#MNEM.UNIT    VALUE                      DESCRIPTION
#---- -----   --------------------       ------------------------
U-PHASE_B_COMP_PER_YT.                 0 :Phase B Comparator Period Yt
U-PHASE_A_COMP_PER_XT.                 0 :Phase A Comparator Period Xt
U-MAX_EXC_CUR_LIMIT.MA       265.00000   :Requested CM Current Limit
U-REQ_EXC_FQ.HZ              50          :Requested CM Frequency
U-TILT_Y_OFFSET.          -2.06578       :WPTET Tilt Y Offset
U-TILT_Y_GAIN.           1.02173         :WPTET Tilt Y Gain
U-TILT_X_OFFSET.           2.30841       :WPTET Tilt X Offset
U-TILT_X_GAIN.           1.00000         :WPTET Tilt X Gain
U-TILT_OFFSET_TOL.           0.00100     :WPTET Tilt Offset Calibration Tolerance
U-MOT_CUR_LIMIT_REQ.MA        70.00000   :Requested Motor Current Limit
U-MOT_SPD_REQ_WPMS.RPM        1.00000    :Requested Motor Speed
U-STD_TOL_TILT.           0.01000        :Tilt Standard Deviation Tolerance
CWEI .LB/F      29.00000                 :Casing Weight
CSIZ .IN         7.00000                 :Current Casing Size
LCC  .               440                 :Logging Company Code
LUN  .              2134                 :Logging Unit Number
HIDE .                                   :Header Identifier
HID1 .                                   :Header Identifier Line 1
R1   .                                   :Remark Line 1
WITN .        MR. KELLY McCOY            :Witness's Name
ENGI .        MORRIS MOORE               :Engineer's Name
LUL  .        IOWA COLONY                :Logging Unit Location
DATE .        02-Aug-2018                :Date as Month-Day-Year
STAT .        TEXAS                      :State or Province
COUN .        HARRIS                     :County or Rig Name
FN   .        WILDCAT                    :Field Name
WN   .        WPP TEST 4                 :Well Name
CN   .        SHELL INTERNATIONAL EP     :Company Name
CLAB .        County                     :County/Rig Label
SLAB .        State                      :State/Province Label
RUN  .          1                        :RUN NUMBER
PDAT .        GROUND LEVEL               :Permanent Datum
EPD  .                                   :Elevation of Permanent Datum above Mean Sea Level
LMF  .          NA                       :Logging Measured From (Name of Logging Elevation Reference)
APD  .                                   :Elevation of Depth Reference (LMF) above Permanent Datum
#-----------------------------------------------------------------------------
~CURVE INFORMATION
#MNEM.UNIT   API CODE                                  DESCRIPTION
#---- -----  --------                                  -----------------------
TIME .S                                                :TIME {F10.1}
FREQ_EMF_SL.HZ                                         :Electromagnetic Field Frequency {F13.4}
PH_SH_WPPCM_SL.DEG                                     :WPPCM Phase Shift {F13.4}
RB_SL.DEG                                              :Relative Bearing {F13.4}
SDEV_SL.DEG                                            :Sonde Deviation {F13.4}
RTIX_SL.DEG                                            :Raw X-axis Tilt {F13.4}
RTIY_SL.DEG                                            :Raw Y-axis Tilt {F13.4}
TILX_SL.DEG                                            :X-axis Tilt {F13.4}
TILY_SL.DEG                                            :Y-axis Tilt {F13.4}
ROTA_SL.DEG                                            :Motor Rotation Angle {F13.4}
TOD7 .S                                                :Time of Day {I11}
TOJ  .S                                                :Time of Job {F13.4}
#-----------------------------------------------------------------------------
# 
#     TIME    FREQ_EMF_SL  PH_SH_WPPCM_    RB_SL       SDEV_SL      RTIX_SL      RTIY_SL      TILX_SL      TILY_SL      ROTA_SL        TOD7            TOJ
#                          SL
~A  
# ...
     583.0    1698.3695       0.0000    -144.0369    -999.2500     -47.1557      76.7987     -44.8473      76.4015     248.6654 1533240920 9999999.9999
     584.0    1370.6140       0.0000    -139.2765    -999.2500     -54.4258      67.0783     -52.1174      66.4700     254.7673 1533240921 9999999.9999
     585.0    1158.3608       0.0000    -131.3525    -999.2500     -68.4842      54.5062     -66.1758      53.6247     260.8691 1533240922 9999999.9999
     586.0     964.5062       0.0000    -126.5648    -999.2500     -78.6463      47.1557     -76.3379      46.1144     266.9709 1533240923 9999999.9999
     587.0     810.0518       0.0000    -122.3198    -999.2500     -86.5993      40.2068     -84.2909      39.0146     273.0727 1533240924 9999999.9999
     588.0     685.3070       0.0000    -117.3494    -999.2500     -93.7892      32.4948     -91.4808      31.1351     279.1908 1533240925 9999999.9999
     589.0     575.8599       0.0000    -111.5191    -999.2500     -99.8543      24.5418     -97.5459      23.0093     285.2926 1533240926 9999999.9999
     590.0     474.1234       0.0000    -104.6252    -999.2500    -104.0718      16.5085    -101.7634      14.8014     291.3951 1533240927 9999999.9999
     591.0     389.1118       0.0000     -96.8483      78.7717    -105.4375       8.5957    -103.1291       6.7166     297.4969 1533240928 9999999.9999
     592.0     321.3551       0.0000     -88.1732      76.7936    -105.6383       0.2812    -103.3299      -1.7785     304.0067 1533240929 9999999.9999
     593.0     263.1456       0.0000     -79.5501      82.3455    -105.2367      -8.1137    -102.9283     -10.3557     310.0930 1533240930 9999999.9999
     594.0     214.3674       0.0000     -72.2603      85.9335    -103.0677     -15.9060    -100.7593     -18.3174     316.1949 1533240931 9999999.9999
     595.0     180.6126       0.0000     -65.9301    -999.2500     -98.5690     -23.7787     -96.2606     -26.3611     322.2967 1533240932 9999999.9999
     596.0     155.4555       0.0000     -60.6862    -999.2500     -92.5842     -31.4103     -90.2757     -34.1586     328.3985 1533240933 9999999.9999
     597.0     137.7866       0.0000     -56.2140    -999.2500     -85.8362     -38.7608     -83.5278     -41.6688     334.5165 1533240934 9999999.9999
     598.0     131.0578       0.0000     -51.9816    -999.2500     -77.3610     -45.9908     -75.0526     -49.0559     340.6029 1533240935 9999999.9999
     599.0     133.2181       0.0000     -47.7026    -999.2500     -67.7210     -52.6183     -65.4126     -55.8274     346.6954 1533240936 9999999.9999
     600.0     145.6952       0.0000     -38.9165    -999.2500     -52.8593     -69.4482     -50.5509     -73.0229     352.7972 1533240937 9999999.9999
     601.0     170.5372       0.0000     -34.8788    -999.2500     -46.0712     -79.0882     -43.7628     -82.8723     358.8990 1533240938 9999999.9999
     602.0     202.5130       0.0000     -30.7672    -999.2500     -38.8412     -86.8805     -36.5328     -90.8340       5.0008 1533240939 9999999.9999
     603.0     246.7971       0.0000     -26.2818    -999.2500     -31.6513     -93.0260     -29.3429     -97.1130      11.1026 1533240940 9999999.9999
     604.0     302.2893       0.0000     -20.9318    -999.2500     -24.3008     -97.5648     -21.9924    -101.7504      17.6102 1533240941 9999999.9999
     605.0     377.4155       0.0000     -14.5373      84.4108     -16.8700     -99.9347     -14.5616    -104.1717      23.7120 1533240942 9999999.9999
     606.0     460.4617       0.0000      -6.6645      76.8157      -8.7965    -100.4970      -6.4881    -104.7463      29.4058 1533240943 9999999.9999
     607.0     555.8301       0.0000       2.0933      75.5657      -0.2812    -100.3363       2.0272    -104.5821      35.5076 1533240944 9999999.9999
     608.0     674.1371       0.0000      10.7614      80.8513       8.3145     -99.8543      10.6229    -104.0897      41.6125 1533240945 9999999.9999
     609.0     800.8257       0.0000      17.5953      83.7974      15.7855     -97.4845      18.0939    -101.6683      47.6990 1533240946 9999999.9999
     610.0     975.2081       0.0000      23.7863    -999.2500      23.6180     -93.1867      25.9264     -97.2771      53.8038 1533240947 9999999.9999
     611.0    1169.9252       0.0000      28.5521    -999.2500      30.6472     -87.3625      32.9556     -91.3264      59.8902 1533240948 9999999.9999
     612.0    1420.4546       0.0000      32.7874    -999.2500      37.5558     -80.4940      39.8642     -84.3087      65.9951 1533240949 9999999.9999
     613.0    1784.5813       0.0000      36.8595    -999.2500      44.3038     -72.1393      46.6122     -75.7725      72.0969 1533240950 9999999.9999
     614.0    2086.4243       0.0000      41.6593    -999.2500      50.8912     -60.7722      53.1996     -64.1584      78.1894 1533240951 9999999.9999
     615.0    2335.9634       0.0000      51.2278    -999.2500      72.2598     -47.6377      74.5682     -50.7385      84.2881 1533240952 9999999.9999
     616.0    2424.5691       0.0000      55.0116    -999.2500      81.0965     -41.0905      83.4049     -44.0491      90.7948 1533240953 9999999.9999
     617.0    2467.1052       0.0000      58.9397    -999.2500      88.3667     -34.2220      90.6751     -37.0313      96.9098 1533240954 9999999.9999
     618.0    2475.7922       0.0000      63.2793    -999.2500      94.1507     -27.3535      96.4591     -30.0136     103.0116 1533240955 9999999.9999
     619.0    2475.7922       0.0000      68.4580    -999.2500      98.2878     -20.3243     100.5962     -22.8317     109.0918 1533240956 9999999.9999
     620.0    2475.7922       0.0000      74.9989    -999.2500     100.3363     -12.8132     102.6447     -15.1573     115.1936 1533240957 9999999.9999
     621.0    2467.1052       0.0000      82.9533      78.6590     101.0192      -4.7397     103.3276      -6.9084     121.2953 1533240958 9999999.9999
     622.0    2467.1052       0.0000      92.3914      76.5175     101.3807       4.2978     103.6891       2.3254     127.3971 1533240959 9999999.9999
     623.0    2484.5405       0.0000     100.7131      82.3000     100.8585      12.4115     103.1669      10.6154     133.5121 1533240960 9999999.9999
     624.0    2467.1052       0.0000     107.8731      86.3465      98.0468      20.1235     100.3552      18.4949     139.6140 1533240961 9999999.9999
     625.0    2475.7922       0.0000     113.9301    -999.2500      93.2670      27.6748      95.5754      26.2104     145.7036 1533240962 9999999.9999
     626.0    2475.7922       0.0000     119.1681    -999.2500      87.0813      35.2262      89.3897      33.9258     151.8055 1533240963 9999999.9999
     627.0    2475.7922       0.0000     123.6898    -999.2500      79.6907      42.4562      81.9991      41.3128     157.9205 1533240964 9999999.9999
     628.0    2475.7922       0.0000     127.9764    -999.2500      71.0548      49.4050      73.3632      48.4127     164.4305 1533240965 9999999.9999
     629.0    2475.7922       0.0000     133.3685    -999.2500      57.5990      55.6710      59.9074      54.8148     170.5293 1533240966 9999999.9999
     630.0    2484.5405       0.0000     140.4815    -999.2500      49.7665      73.4648      52.0749      72.9952     176.6343 1533240967 9999999.9999
     631.0    2475.7922       0.0000     144.2542    -999.2500      43.1390      82.1810      45.4474      81.9008     182.7238 1533240968 9999999.9999
     632.0    2475.7922       0.0000     148.2333    -999.2500      35.9492      89.6118      38.2576      89.4931     188.8387 1533240969 9999999.9999
     633.0    2484.5405       0.0000     152.8597    -999.2500      28.3175      96.3598      30.6259      96.3877     194.9669 1533240970 9999999.9999
     634.0    2473.6147       0.0000     158.7404    -999.2500      20.0632     101.8225      22.3717     101.9690     201.0718 1533240971 9999999.9999
     635.0    2484.5405       0.0000     165.5955      85.4620      12.0500     104.8752      14.3584     105.0880     207.1707 1533240972 9999999.9999
