~VERSION INFORMATION
VERS.           2.0   :CWLS Log ASCII Standard - VERSION 2.0
WRAP.           NO    :One Line per depth step
PROD.  Schlumberger   :LAS Producer
PROG.  DLIS to ASCII 19C2-270                          :LAS Program name and version
CREA.        2018/08/03 10:59                          :LAS Creation date {YYYY/MM/DD hh:mm}
DLIS_CREA.  2018-Aug-03 09:13                          :DLIS Creation date and time {YYYY-MMM-DD hh:mm}
SOURCE.     PERFO_Perfo_073PTP.DLIS                    :DLIS File Name
FILE-ID.     PERFO_Perfo_073PTP                        :File Identification Number
#--------------------------------------------------
~WELL INFORMATION
#MNEM.UNIT      DATA             DESCRIPTION
#---- ------ --------------   -----------------------------
STRT .S            0.0       :START TIME      
STOP .S         1015.0       :STOP TIME      
STEP .S            1.0       :STEP     
NULL .          -999.25      :NULL VALUE
COMP .        SHELL INTERNATIONAL EP                   :COMPANY
WELL .        WPP TEST 4                               :WELL
FLD  .        WILDCAT                                  :FIELD
LOC  .        NA                                       :LOCATION
CNTY .        HARRIS                                   :COUNTY
STAT .        TEXAS                                    :STATE
CTRY .                                                 :COUNTRY
API  .        NA                                       :API NUMBER
UWI  .                                                 :UNIQUE WELL ID
DATE .        02-Aug-2018                              :LOG DATE {DD-MMM-YYYY}
SRVC .        Schlumberger                             :SERVICE COMPANY
LATI .DEG                                              :LATITUDE
LONG .DEG                                              :LONGITUDE
GDAT .                                                 :GeoDetic Datum
SECT .        NA                                       :Section
RANG .        NA                                       :Range
TOWN .        NA                                       :Township
#-----------------------------------------------------------------------------
~PARAMETER INFORMATION
#MNEM.UNIT    VALUE                      DESCRIPTION
#---- -----   --------------------       ------------------------
U-PHASE_B_COMP_PER_YT.                 0 :Phase B Comparator Period Yt
U-PHASE_A_COMP_PER_XT.                 0 :Phase A Comparator Period Xt
U-MAX_EXC_CUR_LIMIT.MA       265.00000   :Requested CM Current Limit
U-REQ_EXC_FQ.HZ              50          :Requested CM Frequency
U-TILT_Y_OFFSET.          -2.06578       :WPTET Tilt Y Offset
U-TILT_Y_GAIN.           1.02173         :WPTET Tilt Y Gain
U-TILT_X_OFFSET.           2.30841       :WPTET Tilt X Offset
U-TILT_X_GAIN.           1.00000         :WPTET Tilt X Gain
U-TILT_OFFSET_TOL.           0.00100     :WPTET Tilt Offset Calibration Tolerance
U-MOT_CUR_LIMIT_REQ.MA        70.00000   :Requested Motor Current Limit
U-MOT_SPD_REQ_WPMS.RPM        1.00000    :Requested Motor Speed
U-STD_TOL_TILT.           0.01000        :Tilt Standard Deviation Tolerance
CWEI .LB/F      29.00000                 :Casing Weight
CSIZ .IN         7.00000                 :Current Casing Size
LCC  .               440                 :Logging Company Code
LUN  .              2134                 :Logging Unit Number
HIDE .                                   :Header Identifier
HID1 .                                   :Header Identifier Line 1
R1   .                                   :Remark Line 1
WITN .        MR. KELLY McCOY            :Witness's Name
ENGI .        MORRIS MOORE               :Engineer's Name
LUL  .        IOWA COLONY                :Logging Unit Location
DATE .        02-Aug-2018                :Date as Month-Day-Year
STAT .        TEXAS                      :State or Province
COUN .        HARRIS                     :County or Rig Name
FN   .        WILDCAT                    :Field Name
WN   .        WPP TEST 4                 :Well Name
CN   .        SHELL INTERNATIONAL EP     :Company Name
CLAB .        County                     :County/Rig Label
SLAB .        State                      :State/Province Label
RUN  .          1                        :RUN NUMBER
PDAT .        GROUND LEVEL               :Permanent Datum
EPD  .                                   :Elevation of Permanent Datum above Mean Sea Level
LMF  .          NA                       :Logging Measured From (Name of Logging Elevation Reference)
APD  .                                   :Elevation of Depth Reference (LMF) above Permanent Datum
#-----------------------------------------------------------------------------
~CURVE INFORMATION
#MNEM.UNIT   API CODE                                  DESCRIPTION
#---- -----  --------                                  -----------------------
TIME .S                                                :TIME {F10.1}
FREQ_EMF_SL.HZ                                         :Electromagnetic Field Frequency {F13.4}
PH_SH_WPPCM_SL.DEG                                     :WPPCM Phase Shift {F13.4}
RB_SL.DEG                                              :Relative Bearing {F13.4}
SDEV_SL.DEG                                            :Sonde Deviation {F13.4}
RTIX_SL.DEG                                            :Raw X-axis Tilt {F13.4}
RTIY_SL.DEG                                            :Raw Y-axis Tilt {F13.4}
TILX_SL.DEG                                            :X-axis Tilt {F13.4}
TILY_SL.DEG                                            :Y-axis Tilt {F13.4}
ROTA_SL.DEG                                            :Motor Rotation Angle {F13.4}
TOD7 .S                                                :Time of Day {I11}
TOJ  .S                                                :Time of Job {F13.4}
#-----------------------------------------------------------------------------
# 
#     TIME    FREQ_EMF_SL  PH_SH_WPPCM_    RB_SL       SDEV_SL      RTIX_SL      RTIY_SL      TILX_SL      TILY_SL      ROTA_SL        TOD7            TOJ
#                          SL
~A  
       0.0    1446.7593       0.0000     -18.8011    -999.2500     -21.6900     -98.6895     -19.3816    -102.8995     131.0884 1533238082 9999999.9999
       1.0    1443.7886       0.0000     -14.5023 9999999.9999     -16.8298     -99.9748     -14.5214    -104.2128     135.9693 1533238082 9999999.9999
       2.0    1440.8298       0.0000      -6.7879      76.8317      -8.9170    -100.5372      -6.6086    -104.7873     142.0743 1533238083 9999999.9999
       3.0    1443.7886       0.0000       2.1348      75.5716      -0.2410    -100.3363       2.0674    -104.5821     148.1762 1533238084 9999999.9999
       4.0    1443.7886       0.0000      10.4054      80.5087       7.9530     -99.8142      10.2614    -104.0486     154.2750 1533238085 9999999.9999
       5.0    1443.7886       0.0000      17.1499     107.9199      15.2633     -97.7657      17.5717    -101.9556     160.3769 1533238086 9999999.9999
       6.0    1449.7422       0.0000      22.9814    -999.2500      22.5335     -93.7490      24.8419     -97.8517     166.4819 1533238087 9999999.9999
       7.0    1444.5300       0.0000      27.9445    -999.2500      29.7032     -88.1759      32.0117     -92.1575     172.5838 1533238088 9999999.9999
       8.0    1443.7886       0.0000      32.3567    -999.2500      36.8328     -81.2572      39.1412     -85.0884     178.6857 1533238089 9999999.9999
       9.0    1437.8834       0.0000      36.3618    -999.2500      43.5005     -73.2238      45.8089     -76.8806     184.7845 1533238090 9999999.9999
      10.0    1440.8298       0.0000      40.9468    -999.2500      50.1280     -62.5797      52.4364     -66.0051     190.8771 1533238091 9999999.9999
      11.0    1437.8834       0.0000      50.6516    -999.2500      70.8138     -48.5615      73.1222     -51.6824     196.9790 1533238092 9999999.9999
      12.0    1432.0265       0.0000      54.4823    -999.2500      79.8112     -42.0143      82.1196     -44.9930     203.0809 1533238093 9999999.9999
      13.0    1426.2170       0.0000      58.2539    -999.2500      87.2018     -35.3868      89.5102     -38.2215     209.1828 1533238094 9999999.9999
      14.0    1426.2170       0.0000      62.4977    -999.2500      93.3473     -28.5183      95.6557     -31.2037     215.6927 1533238095 9999999.9999
      15.0    1420.4546       0.0000      67.7023    -999.2500      97.7255     -21.2883     100.0339     -23.8167     221.7946 1533238096 9999999.9999
      16.0    1409.0682       0.0000      73.8120    -999.2500     100.0953     -14.0985     102.4037     -16.4706     227.8965 1533238097 9999999.9999
      17.0    1409.0682       0.0000      81.6450      79.7871     100.8585      -6.0250     103.1669      -8.2217     233.9984 1533238098 9999999.9999
      18.0    1400.6475       0.0000      90.5770      76.3631     101.3405       2.5707     103.6489       0.5607     240.1003 1533238099 9999999.9999
      19.0    1403.4431       0.0000      99.1898      80.2500     101.0593      10.8852     103.3677       9.0559     246.2022 1533238100 9999999.9999
      20.0    1389.5751       0.0000     106.9223      82.6705      98.5288      19.0390     100.8372      17.3869     252.3041 1533238101 9999999.9999
      21.0    1389.5751       0.0000     113.2034    -999.2500      93.8695      26.7108      96.1779      25.2254     258.4059 1533238102 9999999.9999
      22.0    1381.3850       0.0000     118.5095    -999.2500      87.7240      34.2220      90.0324      32.8998     264.5077 1533238103 9999999.9999
      23.0    1382.7434       0.0000     123.0840    -999.2500      80.6748      41.4520      82.9832      40.2869     270.2015 1533238104 9999999.9999
      24.0    1378.6765       0.0000     127.2869    -999.2500      72.5410      48.3205      74.8494      47.3046     276.2971 1533238105 9999999.9999
      25.0    1375.9785       0.0000     132.1055    -999.2500      61.5755      55.1087      63.8839      54.2402     282.4059 1533238106 9999999.9999
      26.0    1365.2913       0.0000     139.9824    -999.2500      50.4895      72.0590      52.7979      71.5589     288.9035 1533238107 9999999.9999
      27.0    1365.2913       0.0000     143.7622    -999.2500      43.9022      80.3735      46.2106      80.0540     295.0053 1533238108 9999999.9999
      28.0    1354.7688       0.0000     147.6630    -999.2500      36.9533      88.6478      39.2617      88.5081     301.1071 1533238109 9999999.9999
      29.0    1352.1635       0.0000     152.1215    -999.2500      29.4823      95.1950      31.7907      95.1975     307.2089 1533238110 9999999.9999
      30.0    1352.1635       0.0000     157.3767    -999.2500      21.8507     100.7380      24.1591     100.8610     313.3107 1533238111 9999999.9999
      31.0    1346.9828       0.0000     163.8417      86.1422      13.9780     104.3530      16.2864     104.5545     319.4125 1533238112 9999999.9999
      32.0    1349.5681       0.0000     172.1184      76.1367       5.3422     105.6785       7.6506     105.9088     325.5143 1533238113 9999999.9999
      33.0    1344.4073       0.0000     179.9803      73.8450      -2.2895     105.9195       0.0189     106.1551     331.6161 1533238114 9999999.9999
      34.0    1346.9828       0.0000    -171.3251      77.1570     -10.7647     105.2367      -8.4563     105.4574     337.7210 1533238115 9999999.9999
      35.0    1341.8416       0.0000    -163.7952      98.5282     -18.8382     101.6217     -16.5298     101.7638     343.8074 1533238116 9999999.9999
      36.0    1344.4073       0.0000    -157.0889    -999.2500     -27.1527      96.1992     -24.8443      96.2235     349.9092 1533238117 9999999.9999
      37.0    1344.4073       0.0000    -151.6076    -999.2500     -35.0253      89.4512     -32.7169      89.3289     356.0242 1533238118 9999999.9999
      38.0    1344.4073       0.0000    -146.7161    -999.2500     -42.7775      81.6588     -40.4691      81.3673       2.5472 1533238119 9999999.9999
      39.0    1346.9828       0.0000    -142.2729    -999.2500     -49.9272      73.1837     -47.6188      72.7080       8.6521 1533238120 9999999.9999
      40.0    1349.5681       0.0000    -137.0555    -999.2500     -57.1572      62.1780     -54.8488      61.4632      14.7508 1533238121 9999999.9999
      41.0    1354.7688       0.0000    -129.5053    -999.2500     -72.4205      51.7748     -70.1121      50.8340      20.8526 1533238122 9999999.9999
      42.0    1354.7688       0.0000    -125.2442    -999.2500     -81.2170      44.9867     -78.9086      43.8983      26.9544 1533238123 9999999.9999
      43.0    1357.3842       0.0000    -120.8232    -999.2500     -88.8085      37.7968     -86.5001      36.5523      33.0563 1533238124 9999999.9999
      44.0    1365.2913       0.0000    -115.4116    -999.2500     -95.9180      29.7233     -93.6096      28.3034      39.1467 1533238125 9999999.9999
      45.0    1367.9475       0.0000    -109.2604    -999.2500    -101.5012      21.7703     -99.1927      20.1776      45.2485 1533238126 9999999.9999
      46.0    1367.9475       0.0000    -102.2245      87.8689    -104.7145      13.9780    -102.4061      12.2159      51.3503 1533238127 9999999.9999
      47.0    1373.2910       0.0000     -93.9392      77.3816    -105.5178       5.7840    -103.2094       3.8439      57.4522 1533238128 9999999.9999
      48.0    1378.6765       0.0000     -85.0725      77.7722    -105.4777      -2.6912    -103.1693      -4.8154      63.5670 1533238129 9999999.9999
      49.0    1384.1044       0.0000     -76.9315      87.6792    -104.6743     -10.8048    -102.3659     -13.1054      69.6688 1533238130 9999999.9999
      50.0    1392.3268       0.0000     -69.9767    -999.2500    -101.7823     -18.5972     -99.4739     -21.0670      76.1663 1533238131 9999999.9999
      51.0    1397.8628       0.0000     -64.0495    -999.2500     -96.6812     -26.3895     -94.3727     -29.0287      82.2681 1533238132 9999999.9999
      52.0    1392.3268       0.0000     -59.0216    -999.2500     -90.2545     -34.0613     -87.9461     -36.8672      88.3698 1533238133 9999999.9999
