~VERSION INFORMATION
VERS.           2.0   :CWLS Log ASCII Standard - VERSION 2.0
WRAP.           NO    :One Line per depth step
PROD.  Schlumberger   :LAS Producer
PROG.  DLIS to ASCII 19C2-270                          :LAS Program name and version
CREA.        2018/08/03 10:59                          :LAS Creation date {YYYY/MM/DD hh:mm}
DLIS_CREA.  2018-Aug-03 09:22                          :DLIS Creation date and time {YYYY-MMM-DD hh:mm}
SOURCE.     PERFO_Perfo_075PTP.DLIS                    :DLIS File Name
FILE-ID.     PERFO_Perfo_075PTP                        :File Identification Number
#--------------------------------------------------
~WELL INFORMATION
#MNEM.UNIT      DATA             DESCRIPTION
#---- ------ --------------   -----------------------------
STRT .S            0.0       :START TIME      
STOP .S          907.0       :STOP TIME      
STEP .S            1.0       :STEP     
NULL .          -999.25      :NULL VALUE
COMP .        SHELL INTERNATIONAL EP                   :COMPANY
WELL .        WPP TEST 4                               :WELL
FLD  .        WILDCAT                                  :FIELD
LOC  .        NA                                       :LOCATION
CNTY .        HARRIS                                   :COUNTY
STAT .        TEXAS                                    :STATE
CTRY .                                                 :COUNTRY
API  .        NA                                       :API NUMBER
UWI  .                                                 :UNIQUE WELL ID
DATE .        02-Aug-2018                              :LOG DATE {DD-MMM-YYYY}
SRVC .        Schlumberger                             :SERVICE COMPANY
LATI .DEG                                              :LATITUDE
LONG .DEG                                              :LONGITUDE
GDAT .                                                 :GeoDetic Datum
SECT .        NA                                       :Section
RANG .        NA                                       :Range
TOWN .        NA                                       :Township
#-----------------------------------------------------------------------------
~PARAMETER INFORMATION
#MNEM.UNIT    VALUE                      DESCRIPTION
#---- -----   --------------------       ------------------------
U-PHASE_B_COMP_PER_YT.                 0 :Phase B Comparator Period Yt
U-PHASE_A_COMP_PER_XT.                 0 :Phase A Comparator Period Xt
U-MAX_EXC_CUR_LIMIT.MA       265.00000   :Requested CM Current Limit
U-REQ_EXC_FQ.HZ              50          :Requested CM Frequency
U-TILT_Y_OFFSET.          -2.06578       :WPTET Tilt Y Offset
U-TILT_Y_GAIN.           1.02173         :WPTET Tilt Y Gain
U-TILT_X_OFFSET.           2.30841       :WPTET Tilt X Offset
U-TILT_X_GAIN.           1.00000         :WPTET Tilt X Gain
U-TILT_OFFSET_TOL.           0.00100     :WPTET Tilt Offset Calibration Tolerance
U-MOT_CUR_LIMIT_REQ.MA        70.00000   :Requested Motor Current Limit
U-MOT_SPD_REQ_WPMS.RPM        1.00000    :Requested Motor Speed
U-STD_TOL_TILT.           0.01000        :Tilt Standard Deviation Tolerance
CWEI .LB/F      29.00000                 :Casing Weight
CSIZ .IN         7.00000                 :Current Casing Size
LCC  .               440                 :Logging Company Code
LUN  .              2134                 :Logging Unit Number
HIDE .                                   :Header Identifier
HID1 .                                   :Header Identifier Line 1
R1   .                                   :Remark Line 1
WITN .        MR. KELLY McCOY            :Witness's Name
ENGI .        MORRIS MOORE               :Engineer's Name
LUL  .        IOWA COLONY                :Logging Unit Location
DATE .        02-Aug-2018                :Date as Month-Day-Year
STAT .        TEXAS                      :State or Province
COUN .        HARRIS                     :County or Rig Name
FN   .        WILDCAT                    :Field Name
WN   .        WPP TEST 4                 :Well Name
CN   .        SHELL INTERNATIONAL EP     :Company Name
CLAB .        County                     :County/Rig Label
SLAB .        State                      :State/Province Label
RUN  .          1                        :RUN NUMBER
PDAT .        GROUND LEVEL               :Permanent Datum
EPD  .                                   :Elevation of Permanent Datum above Mean Sea Level
LMF  .          NA                       :Logging Measured From (Name of Logging Elevation Reference)
APD  .                                   :Elevation of Depth Reference (LMF) above Permanent Datum
#-----------------------------------------------------------------------------
~CURVE INFORMATION
#MNEM.UNIT   API CODE                                  DESCRIPTION
#---- -----  --------                                  -----------------------
TIME .S                                                :TIME {F10.1}
FREQ_EMF_SL.HZ                                         :Electromagnetic Field Frequency {F13.4}
PH_SH_WPPCM_SL.DEG                                     :WPPCM Phase Shift {F13.4}
RB_SL.DEG                                              :Relative Bearing {F13.4}
SDEV_SL.DEG                                            :Sonde Deviation {F13.4}
RTIX_SL.DEG                                            :Raw X-axis Tilt {F13.4}
RTIY_SL.DEG                                            :Raw Y-axis Tilt {F13.4}
TILX_SL.DEG                                            :X-axis Tilt {F13.4}
TILY_SL.DEG                                            :Y-axis Tilt {F13.4}
ROTA_SL.DEG                                            :Motor Rotation Angle {F13.4}
TOD7 .S                                                :Time of Day {I11}
TOJ  .S                                                :Time of Job {F13.4}
#-----------------------------------------------------------------------------
# 
#     TIME    FREQ_EMF_SL  PH_SH_WPPCM_    RB_SL       SDEV_SL      RTIX_SL      RTIY_SL      TILX_SL      TILY_SL      ROTA_SL        TOD7            TOJ
#                          SL
~A  
# ...
     212.0       0.0000       0.0000     127.2192    -999.2500      72.7820      48.2402      75.0904      47.2225     132.2705 1533240549 9999999.9999
     213.0       0.0000       0.0000     131.7424    -999.2500      62.5395      54.7472      64.8479      53.8709     138.3477 1533240550 9999999.9999
     214.0       0.0000       0.0000     139.6703    -999.2500      51.0920      71.5368      53.4004      71.0254     144.4496 1533240551 9999999.9999
     215.0       0.0000       0.0000     143.6101    -999.2500      44.3038      80.7350      46.6122      80.4234     150.5515 1533240552 9999999.9999
     216.0       0.0000       0.0000     147.5246    -999.2500      37.1943      88.2462      39.5027      88.0977     156.6534 1533240553 9999999.9999
     217.0       0.0000       0.0000     151.8594    -999.2500      29.8840      95.0745      32.1924      95.0744     163.1896 1533240554 9999999.9999
     218.0       0.0000       0.0000     157.7433    -999.2500      21.3687     100.9790      23.6771     101.1072     169.2915 1533240555 9999999.9999
     219.0       0.0000       0.0000     164.0314      85.2291      13.7772     104.2727      16.0856     104.4724     175.3810 1533240556 9999999.9999
     220.0       0.0000       0.0000     172.0404      76.2760       5.4225     105.5982       7.7309     105.8267     181.4829 1533240557 9999999.9999
     221.0       0.0000       0.0000    -179.8106      73.8460      -2.4903     105.9195      -0.1819     106.1551     187.5848 1533240558 9999999.9999
     222.0       0.0000       0.0000    -171.3285      77.2544     -10.7647     105.1563      -8.4563     105.3753     193.6867 1533240559 9999999.9999
     223.0       0.0000       0.0000    -163.5465      89.6668     -19.1193     101.5413     -16.8109     101.6818     199.7886 1533240560 9999999.9999
     224.0       0.0000       0.0000    -156.7053    -999.2500     -27.6748      95.7172     -25.3664      95.7310     205.8905 1533240561 9999999.9999
     225.0       0.0000       0.0000    -151.4500    -999.2500     -35.2663      89.2503     -32.9579      89.1237     211.9678 1533240562 9999999.9999
     226.0       0.0000       0.0000    -146.4079    -999.2500     -43.2997      81.2572     -40.9913      80.9569     218.0697 1533240563 9999999.9999
     227.0       0.0000       0.0000    -141.9623    -999.2500     -50.4493      72.6615     -48.1409      72.1745     224.1716 1533240564 9999999.9999
     228.0       0.0000       0.0000    -136.2806    -999.2500     -57.6793      60.1295     -55.3709      59.3702     230.2735 1533240565 9999999.9999
     229.0       0.0000       0.0000    -129.2144    -999.2500     -73.1435      51.3732     -70.8351      50.4236     236.7966 1533240566 9999999.9999
     230.0       0.0000       0.0000    -124.9783    -999.2500     -81.6990      44.5448     -79.3906      43.4469     242.8985 1533240567 9999999.9999
     231.0       0.0000       0.0000    -120.4138    -999.2500     -89.4913      37.1542     -87.1829      35.8956     249.0004 1533240568 9999999.9999
     232.0       0.0000       0.0000    -115.3300    -999.2500     -96.1992      29.6028     -93.8908      28.1802     255.1023 1533240569 9999999.9999
     233.0       0.0000       0.0000    -109.0244    -999.2500    -101.6618      21.4892     -99.3534      19.8903     261.2041 1533240570 9999999.9999
     234.0       0.0000       0.0000    -101.9173      85.9832    -104.8752      13.6567    -102.5667      11.8876     267.3189 1533240571 9999999.9999
     235.0       0.0000       0.0000     -93.0168      77.1337    -105.5178       4.9003    -103.2094       2.9410     273.4207 1533240572 9999999.9999
     236.0       0.0000       0.0000     -84.2819      78.1171    -105.4777      -3.4543    -103.1693      -5.5952     279.5102 1533240573 9999999.9999
     237.0     942.5268       0.0000     -76.2417      91.8632    -104.5538     -11.5278    -102.2454     -13.8441     285.5048 1533240574 9999999.9999
     238.0     762.6085       0.0000     -69.3537    -999.2500    -101.3405     -19.3603     -99.0321     -21.8468     291.6228 1533240575 9999999.9999
     239.0     811.9227       0.0000     -63.5460    -999.2500     -96.1188     -27.1125     -93.8104     -29.7674     297.7215 1533240576 9999999.9999
     240.0     913.1494       0.0000     -58.6290    -999.2500     -89.7323     -34.7040     -87.4239     -37.5238     303.8233 1533240577 9999999.9999
     241.0    1051.0089       0.0000     -54.5065    -999.2500     -82.6228     -41.6930     -80.3144     -44.6647     310.3463 1533240578 9999999.9999
     242.0    1208.1185       0.0000     -50.4973    -999.2500     -74.0272     -48.4008     -71.7188     -51.5182     316.4481 1533240579 9999999.9999
     243.0    1352.1635       0.0000     -45.7952    -999.2500     -63.2223     -54.9480     -60.9139     -58.2076     322.5499 1533240580 9999999.9999
     244.0    1623.8453       0.0000     -37.4243    -999.2500     -50.4895     -73.2238     -48.1811     -76.8806     328.6394 1533240581 9999999.9999
     245.0    1986.2288       0.0000     -33.3946    -999.2500     -43.4202     -82.0203     -41.1118     -85.8682     334.7412 1533240582 9999999.9999
     246.0    2239.2517       0.0000     -29.2535    -999.2500     -36.3107     -89.2102     -34.0023     -93.2142     340.8430 1533240583 9999999.9999
     247.0    2351.5886       0.0000     -24.1428    -999.2500     -28.5585     -95.1950     -26.2501     -99.3291     346.9580 1533240584 9999999.9999
     248.0    2432.9585       0.0000     -18.3520    -999.2500     -21.1678     -98.7698     -18.8594    -102.9816     353.0598 1533240585 9999999.9999
     249.0    2467.1052       0.0000     -11.5688      81.1299     -13.7370    -100.2962     -11.4286    -104.5411     359.1647 1533240586 9999999.9999
     250.0    2467.1052       0.0000      -2.9665      75.5906      -5.1815    -100.4568      -2.8731    -104.7053       5.2634 1533240587 9999999.9999
     251.0    2475.7922       0.0000       6.0050      76.6872       3.5347    -100.3363       5.8431    -104.5821      11.3683 1533240588 9999999.9999
     252.0    2467.1052       0.0000      13.6911      86.6238      11.4073     -99.0510      13.7157    -103.2689      17.4701 1533240589 9999999.9999
     253.0    2467.1052       0.0000      20.0362    -999.2500      18.7177     -96.1590      21.0261    -100.3140      23.9769 1533240590 9999999.9999
     254.0    2467.1052       0.0000      25.3738    -999.2500      25.8673     -91.3390      28.1757     -95.3893      30.0663 1533240591 9999999.9999
     255.0    2475.7922       0.0000      30.0409    -999.2500      33.0170     -85.1132      35.3254     -89.0282      36.1681 1533240592 9999999.9999
     256.0    2475.7922       0.0000      34.1295    -999.2500      39.8052     -77.8832      42.1136     -81.6411      42.2700 1533240593 9999999.9999
     257.0    2475.7922       0.0000      38.3051    -999.2500      46.5532     -68.8858      48.8616     -72.4483      48.3718 1533240594 9999999.9999
     258.0    2475.7922       0.0000      46.2423    -999.2500      56.2735     -51.6142      58.5819     -54.8014      54.4767 1533240595 9999999.9999
     259.0    2473.6147       0.0000      52.6965    -999.2500      75.7945     -45.1574      78.1029     -48.2043      60.5785 1533240596 9999999.9999
     260.0    2467.1052       0.0000      56.6383    -999.2500      84.3500     -38.1985      86.6584     -41.0942      66.6934 1533240597 9999999.9999
     261.0    2484.5405       0.0000      60.5965    -999.2500      90.8972     -31.4907      93.2056     -34.2407      72.7952 1533240598 9999999.9999
     262.0    2467.1052       0.0000      65.3082    -999.2500      96.0385     -24.4615      98.3469     -27.0588      78.8970 1533240599 9999999.9999
     263.0    2467.1052       0.0000      70.8964    -999.2500      99.2518     -17.3922     101.5602     -19.8358      84.9865 1533240600 9999999.9999
     264.0    2475.7922       0.0000      78.0735      84.6727     100.7380      -9.5998     103.0464     -11.8742      91.1015 1533240601 9999999.9999
