~VERSION INFORMATION
VERS.           2.0   :CWLS Log ASCII Standard - VERSION 2.0
WRAP.           NO    :One Line per depth step
PROD.  Schlumberger   :LAS Producer
PROG.  DLIS to ASCII 19C2-270                          :LAS Program name and version
CREA.        2018/08/03 10:59                          :LAS Creation date {YYYY/MM/DD hh:mm}
DLIS_CREA.  2018-Aug-03 09:22                          :DLIS Creation date and time {YYYY-MMM-DD hh:mm}
SOURCE.     PERFO_Perfo_075PTP.DLIS                    :DLIS File Name
FILE-ID.     PERFO_Perfo_075PTP                        :File Identification Number
#--------------------------------------------------
~WELL INFORMATION
#MNEM.UNIT      DATA             DESCRIPTION
#---- ------ --------------   -----------------------------
STRT .S            0.0       :START TIME      
STOP .S          907.0       :STOP TIME      
STEP .S            1.0       :STEP     
NULL .          -999.25      :NULL VALUE
COMP .        SHELL INTERNATIONAL EP                   :COMPANY
WELL .        WPP TEST 4                               :WELL
FLD  .        WILDCAT                                  :FIELD
LOC  .        NA                                       :LOCATION
CNTY .        HARRIS                                   :COUNTY
STAT .        TEXAS                                    :STATE
CTRY .                                                 :COUNTRY
API  .        NA                                       :API NUMBER
UWI  .                                                 :UNIQUE WELL ID
DATE .        02-Aug-2018                              :LOG DATE {DD-MMM-YYYY}
SRVC .        Schlumberger                             :SERVICE COMPANY
LATI .DEG                                              :LATITUDE
LONG .DEG                                              :LONGITUDE
GDAT .                                                 :GeoDetic Datum
SECT .        NA                                       :Section
RANG .        NA                                       :Range
TOWN .        NA                                       :Township
#-----------------------------------------------------------------------------
~PARAMETER INFORMATION
#MNEM.UNIT    VALUE                      DESCRIPTION
#---- -----   --------------------       ------------------------
U-PHASE_B_COMP_PER_YT.                 0 :Phase B Comparator Period Yt
U-PHASE_A_COMP_PER_XT.                 0 :Phase A Comparator Period Xt
U-MAX_EXC_CUR_LIMIT.MA       265.00000   :Requested CM Current Limit
U-REQ_EXC_FQ.HZ              50          :Requested CM Frequency
U-TILT_Y_OFFSET.          -2.06578       :WPTET Tilt Y Offset
U-TILT_Y_GAIN.           1.02173         :WPTET Tilt Y Gain
U-TILT_X_OFFSET.           2.30841       :WPTET Tilt X Offset
U-TILT_X_GAIN.           1.00000         :WPTET Tilt X Gain
U-TILT_OFFSET_TOL.           0.00100     :WPTET Tilt Offset Calibration Tolerance
U-MOT_CUR_LIMIT_REQ.MA        70.00000   :Requested Motor Current Limit
U-MOT_SPD_REQ_WPMS.RPM        1.00000    :Requested Motor Speed
U-STD_TOL_TILT.           0.01000        :Tilt Standard Deviation Tolerance
CWEI .LB/F      29.00000                 :Casing Weight
CSIZ .IN         7.00000                 :Current Casing Size
LCC  .               440                 :Logging Company Code
LUN  .              2134                 :Logging Unit Number
HIDE .                                   :Header Identifier
HID1 .                                   :Header Identifier Line 1
R1   .                                   :Remark Line 1
WITN .        MR. KELLY McCOY            :Witness's Name
ENGI .        MORRIS MOORE               :Engineer's Name
LUL  .        IOWA COLONY                :Logging Unit Location
DATE .        02-Aug-2018                :Date as Month-Day-Year
STAT .        TEXAS                      :State or Province
COUN .        HARRIS                     :County or Rig Name
FN   .        WILDCAT                    :Field Name
WN   .        WPP TEST 4                 :Well Name
CN   .        SHELL INTERNATIONAL EP     :Company Name
CLAB .        County                     :County/Rig Label
SLAB .        State                      :State/Province Label
RUN  .          1                        :RUN NUMBER
PDAT .        GROUND LEVEL               :Permanent Datum
EPD  .                                   :Elevation of Permanent Datum above Mean Sea Level
LMF  .          NA                       :Logging Measured From (Name of Logging Elevation Reference)
APD  .                                   :Elevation of Depth Reference (LMF) above Permanent Datum
#-----------------------------------------------------------------------------
~CURVE INFORMATION
#MNEM.UNIT   API CODE                                  DESCRIPTION
#---- -----  --------                                  -----------------------
TIME .S                                                :TIME {F10.1}
FREQ_EMF_SL.HZ                                         :Electromagnetic Field Frequency {F13.4}
PH_SH_WPPCM_SL.DEG                                     :WPPCM Phase Shift {F13.4}
RB_SL.DEG                                              :Relative Bearing {F13.4}
SDEV_SL.DEG                                            :Sonde Deviation {F13.4}
RTIX_SL.DEG                                            :Raw X-axis Tilt {F13.4}
RTIY_SL.DEG                                            :Raw Y-axis Tilt {F13.4}
TILX_SL.DEG                                            :X-axis Tilt {F13.4}
TILY_SL.DEG                                            :Y-axis Tilt {F13.4}
ROTA_SL.DEG                                            :Motor Rotation Angle {F13.4}
TOD7 .S                                                :Time of Day {I11}
TOJ  .S                                                :Time of Job {F13.4}
#-----------------------------------------------------------------------------
# 
#     TIME    FREQ_EMF_SL  PH_SH_WPPCM_    RB_SL       SDEV_SL      RTIX_SL      RTIY_SL      TILX_SL      TILY_SL      ROTA_SL        TOD7            TOJ
#                          SL
~A  
# ...
     848.0     231.7485       0.0000      25.6813    -999.2500      26.3092     -91.0578      28.6176     -95.1020      73.9476 1533241185 9999999.9999
     849.0     258.4068       0.0000      30.2387    -999.2500      33.3383     -84.8722      35.6467     -88.7820      80.0494 1533241186 9999999.9999
     850.0     289.5902       0.0000      34.3110    -999.2500      40.1265     -77.6422      42.4349     -81.3949      86.1643 1533241187 9999999.9999
     851.0     332.6041       0.0000      38.5413    -999.2500      46.9147     -68.3637      49.2231     -71.9148      92.2660 1533241188 9999999.9999
     852.0     390.4081       0.0000      48.1264    -999.2500      64.5880     -52.3372      66.8964     -55.5401      98.3709 1533241189 9999999.9999
     853.0     460.4617       0.0000      52.8949    -999.2500      76.3167     -44.8260      78.6251     -47.8657     104.4696 1533241190 9999999.9999
     854.0     542.9537       0.0000      56.6610    -999.2500      84.3902     -38.1583      86.6986     -41.0532     110.5845 1533241191 9999999.9999
     855.0     635.7369       0.0000      60.7218    -999.2500      91.0578     -31.2898      93.3662     -34.0354     116.6863 1533241192 9999999.9999
     856.0     748.8019       0.0000      65.4520    -999.2500      96.1992     -24.2607      98.5076     -26.8536     122.7890 1533241193 9999999.9999
     857.0     866.9852       0.0000      71.1028    -999.2500      99.3322     -17.1512     101.6406     -19.5896     128.8939 1533241194 9999999.9999
     858.0    1027.9606       0.0000      78.3861      83.8395     100.8183      -9.2785     103.1267     -11.5459     135.4270 1533241195 9999999.9999
     859.0    1203.9811       0.0000      86.9509      76.8134     101.2200      -0.8837     103.5284      -2.9686     141.5289 1533241196 9999999.9999
     860.0    1423.3300       0.0000      95.7043      77.4469     101.4610       7.4710     103.7694       5.5675     147.6308 1533241197 9999999.9999
     861.0    1762.2180       0.0000     103.2402      88.9133     100.1355      15.0223     102.4439      13.2829     153.7459 1533241198 9999999.9999
     862.0    2043.9680       0.0000     110.3360    -999.2500      96.4000      23.0557      98.7084      21.4908     159.8355 1533241199 9999999.9999
     863.0    2297.7942       0.0000     116.0222    -999.2500      91.1382      30.5668      93.4466      29.1652     165.9374 1533241200 9999999.9999
     864.0    2424.5691       0.0000     121.2679    -999.2500      83.8278      38.5198      86.1362      37.2910     172.0524 1533241201 9999999.9999
     865.0    2467.1052       0.0000     125.5968    -999.2500      76.0355      45.5892      78.3439      44.5139     178.1543 1533241202 9999999.9999
     866.0    2484.5405       0.0000     130.0123    -999.2500      66.7168      52.5380      69.0252      51.6137     184.2439 1533241203 9999999.9999
     867.0    2475.7922       0.0000     138.2247    -999.2500      53.2610      68.0022      55.5694      67.4139     190.3334 1533241204 9999999.9999
     868.0    2475.7922       0.0000     142.1698    -999.2500      46.8745      77.4413      49.1829      77.0581     196.4353 1533241205 9999999.9999
     869.0    2475.7922       0.0000     145.9356    -999.2500      40.0462      85.3542      42.3546      85.1429     202.5248 1533241206 9999999.9999
     870.0    2467.1052       0.0000     150.2078    -999.2500      32.5752      92.7047      34.8836      92.6531     209.0347 1533241207 9999999.9999
     871.0    2484.5405       0.0000     155.1237    -999.2500      24.9435      98.9707      27.2519      99.0552     215.1366 1533241208 9999999.9999
     872.0    2475.7922       0.0000     161.2696    -999.2500      16.9503     103.2283      19.2587     103.4054     221.2385 1533241209 9999999.9999
     873.0    2484.5405       0.0000     168.4154      79.4476       9.0777     105.3973      11.3861     105.6215     227.3404 1533241210 9999999.9999
     874.0    2475.7922       0.0000     177.0575      74.1499       0.5222     105.8793       2.8306     106.1140     233.4585 1533241211 9999999.9999
     875.0    2493.3511       0.0000    -174.4841      74.8359      -7.6317     105.8793      -5.3233     106.1140     239.5574 1533241212 9999999.9999
     876.0    2480.1587       0.0000    -166.4073      84.5112     -15.9060     103.3288     -13.5976     103.5080     245.6593 1533241213 9999999.9999
     877.0    2475.7922       0.0000    -159.0443    -999.2500     -24.5820      98.1673     -22.2736      98.2345     251.7612 1533241214 9999999.9999
     878.0    2484.5405       0.0000    -153.1856    -999.2500     -32.6555      91.7407     -30.3471      91.6682     257.8630 1533241215 9999999.9999
     879.0    2475.7922       0.0000    -148.5359    -999.2500     -39.8052      84.3500     -37.4968      84.1169     263.9648 1533241216 9999999.9999
     880.0    2475.7922       0.0000    -143.6589    -999.2500     -47.7582      76.0355     -45.4498      75.6218     270.0667 1533241217 9999999.9999
     881.0    2484.5405       0.0000    -138.8633    -999.2500     -54.9882      66.1947     -52.6798      65.5671     276.1816 1533241218 9999999.9999
     882.0    2484.5405       0.0000    -130.9582    -999.2500     -69.4080      53.9840     -67.0996      53.0911     282.6914 1533241219 9999999.9999
     883.0    2484.5405       0.0000    -126.5176    -999.2500     -78.7267      47.0753     -76.4183      46.0324     288.7932 1533241220 9999999.9999
     884.0    2484.5405       0.0000    -122.2722    -999.2500     -86.6395      40.1265     -84.3311      38.9326     294.8951 1533241221 9999999.9999
     885.0    2475.7922       0.0000    -117.4048    -999.2500     -93.7892      32.5752     -91.4808      31.2172     300.9969 1533241222 9999999.9999
     886.0    2467.1052       0.0000    -111.6782    -999.2500     -99.7338      24.7427     -97.4254      23.2145     307.1118 1533241223 9999999.9999
     887.0    2424.5691       0.0000    -104.8862    -999.2500    -103.9915      16.7897    -101.6831      15.0887     313.2136 1533241224 9999999.9999
     888.0    2320.5444       0.0000     -96.6547      78.5518    -105.5279       8.4049    -103.2195       6.5217     319.3031 1533241225 9999999.9999
     889.0    2055.9211       0.0000     -87.7518      76.8169    -105.6785      -0.1205    -103.3701      -2.1889     325.4180 1533241226 9999999.9999
     890.0    1736.1111       0.0000     -79.1520      82.9992    -105.1965      -8.5153    -102.8881     -10.7661     331.5198 1533241227 9999999.9999
     891.0    1417.5908       0.0000     -71.9129      87.0388    -102.8668     -16.3077    -100.5584     -18.7278     337.6247 1533241228 9999999.9999
     892.0    1218.5875       0.0000     -65.5123    -999.2500     -98.2878     -24.3410     -95.9794     -26.9356     343.7397 1533241229 9999999.9999
     893.0    1034.0073       0.0000     -60.4039    -999.2500     -92.2227     -31.8522     -89.9143     -34.6100     349.8384 1533241230 9999999.9999
     894.0     887.7841       0.0000     -56.0270    -999.2500     -85.5148     -39.0822     -83.2064     -41.9971     355.9464 1533241231 9999999.9999
     895.0     770.1259       0.0000     -51.9299    -999.2500     -77.3610     -46.1113     -75.0526     -49.1790       2.4632 1533241232 9999999.9999
     896.0     665.8381       0.0000     -47.6935    -999.2500     -67.6808     -52.6183     -65.3724     -55.8274       8.5681 1533241233 9999999.9999
     897.0     571.6464       0.0000     -38.8820    -999.2500     -52.8192     -69.5687     -50.5108     -73.1460      14.6668 1533241234 9999999.9999
     898.0     488.9604       0.0000     -34.8347    -999.2500     -45.9908     -79.1685     -43.6824     -82.9544      20.7686 1533241235 9999999.9999
     899.0     425.1058       0.0000     -30.8381    -999.2500     -38.9617     -86.8002     -36.6533     -90.7519      26.8705 1533241236 9999999.9999
     900.0     363.7481       0.0000     -26.3143    -999.2500     -31.6915     -93.1063     -29.3831     -97.1951      32.9723 1533241237 9999999.9999
