~VERSION INFORMATION
VERS.           2.0   :CWLS Log ASCII Standard - VERSION 2.0
WRAP.           NO    :One Line per depth step
PROD.  Schlumberger   :LAS Producer
PROG.  DLIS to ASCII 19C2-270                          :LAS Program name and version
CREA.        2018/08/03 10:59                          :LAS Creation date {YYYY/MM/DD hh:mm}
DLIS_CREA.  2018-Aug-03 09:22                          :DLIS Creation date and time {YYYY-MMM-DD hh:mm}
SOURCE.     PERFO_Perfo_075PTP.DLIS                    :DLIS File Name
FILE-ID.     PERFO_Perfo_075PTP                        :File Identification Number
#--------------------------------------------------
~WELL INFORMATION
#MNEM.UNIT      DATA             DESCRIPTION
#---- ------ --------------   -----------------------------
STRT .S            0.0       :START TIME      
STOP .S          907.0       :STOP TIME      
STEP .S            1.0       :STEP     
NULL .          -999.25      :NULL VALUE
COMP .        SHELL INTERNATIONAL EP                   :COMPANY
WELL .        WPP TEST 4                               :WELL
FLD  .        WILDCAT                                  :FIELD
LOC  .        NA                                       :LOCATION
CNTY .        HARRIS                                   :COUNTY
STAT .        TEXAS                                    :STATE
CTRY .                                                 :COUNTRY
API  .        NA                                       :API NUMBER
UWI  .                                                 :UNIQUE WELL ID
DATE .        02-Aug-2018                              :LOG DATE {DD-MMM-YYYY}
SRVC .        Schlumberger                             :SERVICE COMPANY
LATI .DEG                                              :LATITUDE
LONG .DEG                                              :LONGITUDE
GDAT .                                                 :GeoDetic Datum
SECT .        NA                                       :Section
RANG .        NA                                       :Range
TOWN .        NA                                       :Township
#-----------------------------------------------------------------------------
~PARAMETER INFORMATION
#MNEM.UNIT    VALUE                      DESCRIPTION
#---- -----   --------------------       ------------------------
U-PHASE_B_COMP_PER_YT.                 0 :Phase B Comparator Period Yt
U-PHASE_A_COMP_PER_XT.                 0 :Phase A Comparator Period Xt
U-MAX_EXC_CUR_LIMIT.MA       265.00000   :Requested CM Current Limit
U-REQ_EXC_FQ.HZ              50          :Requested CM Frequency
U-TILT_Y_OFFSET.          -2.06578       :WPTET Tilt Y Offset
U-TILT_Y_GAIN.           1.02173         :WPTET Tilt Y Gain
U-TILT_X_OFFSET.           2.30841       :WPTET Tilt X Offset
U-TILT_X_GAIN.           1.00000         :WPTET Tilt X Gain
U-TILT_OFFSET_TOL.           0.00100     :WPTET Tilt Offset Calibration Tolerance
U-MOT_CUR_LIMIT_REQ.MA        70.00000   :Requested Motor Current Limit
U-MOT_SPD_REQ_WPMS.RPM        1.00000    :Requested Motor Speed
U-STD_TOL_TILT.           0.01000        :Tilt Standard Deviation Tolerance
CWEI .LB/F      29.00000                 :Casing Weight
CSIZ .IN         7.00000                 :Current Casing Size
LCC  .               440                 :Logging Company Code
LUN  .              2134                 :Logging Unit Number
HIDE .                                   :Header Identifier
HID1 .                                   :Header Identifier Line 1
R1   .                                   :Remark Line 1
WITN .        MR. KELLY McCOY            :Witness's Name
ENGI .        MORRIS MOORE               :Engineer's Name
LUL  .        IOWA COLONY                :Logging Unit Location
DATE .        02-Aug-2018                :Date as Month-Day-Year
STAT .        TEXAS                      :State or Province
COUN .        HARRIS                     :County or Rig Name
FN   .        WILDCAT                    :Field Name
WN   .        WPP TEST 4                 :Well Name
CN   .        SHELL INTERNATIONAL EP     :Company Name
CLAB .        County                     :County/Rig Label
SLAB .        State                      :State/Province Label
RUN  .          1                        :RUN NUMBER
PDAT .        GROUND LEVEL               :Permanent Datum
EPD  .                                   :Elevation of Permanent Datum above Mean Sea Level
LMF  .          NA                       :Logging Measured From (Name of Logging Elevation Reference)
APD  .                                   :Elevation of Depth Reference (LMF) above Permanent Datum
#-----------------------------------------------------------------------------
~CURVE INFORMATION
#MNEM.UNIT   API CODE                                  DESCRIPTION
#---- -----  --------                                  -----------------------
TIME .S                                                :TIME {F10.1}
FREQ_EMF_SL.HZ                                         :Electromagnetic Field Frequency {F13.4}
PH_SH_WPPCM_SL.DEG                                     :WPPCM Phase Shift {F13.4}
RB_SL.DEG                                              :Relative Bearing {F13.4}
SDEV_SL.DEG                                            :Sonde Deviation {F13.4}
RTIX_SL.DEG                                            :Raw X-axis Tilt {F13.4}
RTIY_SL.DEG                                            :Raw Y-axis Tilt {F13.4}
TILX_SL.DEG                                            :X-axis Tilt {F13.4}
TILY_SL.DEG                                            :Y-axis Tilt {F13.4}
ROTA_SL.DEG                                            :Motor Rotation Angle {F13.4}
TOD7 .S                                                :Time of Day {I11}
TOJ  .S                                                :Time of Job {F13.4}
#-----------------------------------------------------------------------------
# 
#     TIME    FREQ_EMF_SL  PH_SH_WPPCM_    RB_SL       SDEV_SL      RTIX_SL      RTIY_SL      TILX_SL      TILY_SL      ROTA_SL        TOD7            TOJ
#                          SL
~A  
# ...
     636.0    2475.7922       0.0000     173.7917      75.2790       3.6953     105.7187       6.0037     105.9499     213.2602 1533240973 9999999.9999
     637.0    2484.5405       0.0000    -177.6380      74.0140      -4.5790     105.9195      -2.2706     106.1551     219.3751 1533240974 9999999.9999
     638.0    2475.7922       0.0000    -169.5897      79.1896     -12.5320     104.7547     -10.2236     104.9649     225.4647 1533240975 9999999.9999
     639.0    2432.9585       0.0000    -162.2066     106.6162     -20.6858     100.6577     -18.3774     100.7789     231.5666 1533240976 9999999.9999
     640.0    2367.4243       0.0000    -155.8544    -999.2500     -28.8397      94.8335     -26.5313      94.8282     237.6685 1533240977 9999999.9999
     641.0    2111.4866       0.0000    -150.4644    -999.2500     -36.7927      87.9650     -34.4843      87.8104     244.1660 1533240978 9999999.9999
     642.0    1816.8605       0.0000    -145.8198    -999.2500     -44.2637      80.2128     -41.9553      79.8899     250.2648 1533240979 9999999.9999
     643.0    1458.7655       0.0000    -141.2666    -999.2500     -51.4937      71.1753     -49.1853      70.6560     256.3698 1533240980 9999999.9999
     644.0    1237.8961       0.0000    -133.2601    -999.2500     -63.6642      56.5145     -61.3558      55.6766     262.4716 1533240981 9999999.9999
     645.0    1037.0575       0.0000    -128.5287    -999.2500     -74.5493      50.2887     -72.2409      49.3155     268.5734 1533240982 9999999.9999
     646.0     873.7186       0.0000    -124.1929    -999.2500     -83.2052      43.2595     -80.8968      42.1336     274.6752 1533240983 9999999.9999
     647.0     734.7179       0.0000    -119.3806    -999.2500     -90.9373      35.5475     -88.6289      34.2541     280.7901 1533240984 9999999.9999
     648.0     617.8603       0.0000    -114.0101    -999.2500     -97.5247      27.7953     -95.2163      26.3335     286.8919 1533240985 9999999.9999
     649.0     515.1099       0.0000    -107.5456    -999.2500    -102.5857      19.7620    -100.2773      18.1256     292.9937 1533240986 9999999.9999
     650.0     423.0596       0.0000    -100.1838      81.9280    -105.2768      11.8893    -102.9684      10.0819     299.0955 1533240987 9999999.9999
     651.0     347.2222       0.0000     -91.5876      76.8037    -105.5982       3.5347    -103.2897       1.5457     305.1973 1533240988 9999999.9999
     652.0     285.2434       0.0000     -82.8354      78.9692    -105.4375      -4.8602    -103.1291      -7.0315     311.3254 1533240989 9999999.9999
     653.0     234.6096       0.0000     -74.8160      95.3443    -104.1522     -13.0542    -101.8438     -15.4036     317.8484 1533240990 9999999.9999
     654.0     193.3787       0.0000     -68.1632    -999.2500    -100.5372     -20.8465     -98.2288     -23.3652     323.9502 1533240991 9999999.9999
     655.0     163.5174       0.0000     -62.5295    -999.2500     -95.0745     -28.5987     -92.7661     -31.2858     330.0652 1533240992 9999999.9999
     656.0     146.3624       0.0000     -57.8021    -999.2500     -88.4068     -36.0697     -86.0984     -38.9191     336.1670 1533240993 9999999.9999
     657.0     133.5977       0.0000     -53.7563    -999.2500     -81.0965     -42.9783     -78.7881     -45.9779     342.2818 1533240994 9999999.9999
     658.0     131.7207       0.0000     -49.6923    -999.2500     -72.3402     -49.7263     -70.0318     -52.8725     348.3714 1533240995 9999999.9999
     659.0     139.7585       0.0000     -43.1773    -999.2500     -57.1973     -57.3580     -54.8889     -60.6700     354.4793 1533240996 9999999.9999
     660.0     160.5308       0.0000     -36.4215    -999.2500     -48.7623     -75.5133     -46.4539     -79.2198       0.5750 1533240997 9999999.9999
     661.0     189.8798       0.0000     -32.3440    -999.2500     -41.5725     -84.1893     -39.2641     -88.0843       6.6899 1533240998 9999999.9999
     662.0     231.5959       0.0000     -28.0545    -999.2500     -34.3827     -90.8168     -32.0743     -94.8558      12.7917 1533240999 9999999.9999
     663.0     283.5181       0.0000     -23.0023    -999.2500     -26.9920     -96.1992     -24.6836    -100.3551      18.8935 1533241000 9999999.9999
     664.0     347.7374       0.0000     -17.1465    -999.2500     -19.7620     -99.3322     -17.4536    -103.5562      24.9953 1533241001 9999999.9999
     665.0     427.9519       0.0000      -9.9208      79.1465     -12.0500    -100.4167      -9.7416    -104.6642      31.5051 1533241002 9999999.9999
     666.0     520.8333       0.0000      -1.2677      75.3071      -3.5347    -100.4970      -1.2263    -104.7463      37.6201 1533241003 9999999.9999
     667.0     634.5894       0.0000       7.6222      77.8222       5.1413    -100.0953       7.4497    -104.3359      43.7219 1533241004 9999999.9999
     668.0     751.2019       0.0000      15.1655      89.1149      13.0140     -98.6493      15.3224    -102.8585      49.8237 1533241005 9999999.9999
     669.0     894.5611       0.0000      21.2138    -999.2500      20.2038     -95.3155      22.5122     -99.4522      55.9256 1533241006 9999999.9999
     670.0    1083.3976       0.0000      26.4790    -999.2500      27.4740     -90.2947      29.7824     -94.3223      62.0274 1533241007 9999999.9999
     671.0    1294.8895       0.0000      31.1965    -999.2500      34.9048     -83.2655      37.2132     -87.1404      68.1423 1533241008 9999999.9999
     672.0    1642.8153       0.0000      35.2822    -999.2500      41.7332     -75.5535      44.0416     -79.2608      74.2441 1533241009 9999999.9999
     673.0    1975.0703       0.0000      39.6380    -999.2500      48.5213     -65.8733      50.8297     -69.3704      80.3459 1533241010 9999999.9999
     674.0    2268.1450       0.0000      49.2055    -999.2500      67.4398     -50.8912      69.7482     -54.0627      86.4477 1533241011 9999999.9999
     675.0    2399.7441       0.0000      53.5089    -999.2500      77.6823     -43.7415      79.9907     -46.7577      92.5371 1533241012 9999999.9999
     676.0    2467.1052       0.0000      57.3225    -999.2500      85.4747     -36.9935      87.7831     -39.8630      98.6266 1533241013 9999999.9999
     677.0    2475.7922       0.0000      61.4279    -999.2500      92.1022     -30.1652      94.4106     -32.8863     105.1364 1533241014 9999999.9999
     678.0    2484.5405       0.0000      66.2784    -999.2500      96.9222     -23.1360      99.2306     -25.7045     111.2382 1533241015 9999999.9999
     679.0    2475.7922       0.0000      72.0434    -999.2500      99.6937     -16.0667     102.0021     -18.4815     117.3400 1533241016 9999999.9999
     680.0    2475.7922       0.0000      79.7827      81.7145     100.8183      -7.8727     103.1267     -10.1095     123.4418 1533241017 9999999.9999
     681.0    2475.7922       0.0000      88.3403      76.5719     101.2200       0.4418     103.5284      -1.6143     129.5466 1533241018 9999999.9999
     682.0    2484.5405       0.0000      97.1097      78.3661     101.3003       8.8367     103.6087       6.9629     135.6455 1533241019 9999999.9999
     683.0    2475.7922       0.0000     105.1145      96.2178      99.4125      17.0307     101.7209      15.3349     141.7474 1533241020 9999999.9999
     684.0    2467.1052       0.0000     111.6618    -999.2500      95.4762      24.7025      97.7846      23.1734     147.8623 1533241021 9999999.9999
     685.0    3700.6580       0.0000     117.1343    -999.2500      89.7725      32.1735      92.0809      30.8068     153.9642 1533241022 9999999.9999
     686.0    2484.5405       0.0000     121.7943    -999.2500      82.9442      39.3633      85.2526      38.1528     160.0538 1533241023 9999999.9999
     687.0    2467.1052       0.0000     126.1287    -999.2500      75.0313      46.4728      77.3397      45.4168     166.1434 1533241024 9999999.9999
     688.0    2484.5405       0.0000     130.7239    -999.2500      65.0298      53.5020      67.3382      52.5987     172.2329 1533241025 9999999.9999
