~VERSION INFORMATION
VERS.           2.0   :CWLS Log ASCII Standard - VERSION 2.0
WRAP.           NO    :One Line per depth step
PROD.  Schlumberger   :LAS Producer
PROG.  DLIS to ASCII 19C2-270                          :LAS Program name and version
CREA.        2018/08/03 10:59                          :LAS Creation date {YYYY/MM/DD hh:mm}
DLIS_CREA.  2018-Aug-03 09:18                          :DLIS Creation date and time {YYYY-MMM-DD hh:mm}
SOURCE.     PERFO_Perfo_074PTP.DLIS                    :DLIS File Name
FILE-ID.     PERFO_Perfo_074PTP                        :File Identification Number
#--------------------------------------------------
~WELL INFORMATION
#MNEM.UNIT      DATA             DESCRIPTION
#---- ------ --------------   -----------------------------
STRT .S            0.0       :START TIME      
STOP .S          866.0       :STOP TIME      
STEP .S            1.0       :STEP     
NULL .          -999.25      :NULL VALUE
COMP .        SHELL INTERNATIONAL EP                   :COMPANY
WELL .        WPP TEST 4                               :WELL
FLD  .        WILDCAT                                  :FIELD
LOC  .        NA                                       :LOCATION
CNTY .        HARRIS                                   :COUNTY
STAT .        TEXAS                                    :STATE
CTRY .                                                 :COUNTRY
API  .        NA                                       :API NUMBER
UWI  .                                                 :UNIQUE WELL ID
DATE .        02-Aug-2018                              :LOG DATE {DD-MMM-YYYY}
SRVC .        Schlumberger                             :SERVICE COMPANY
LATI .DEG                                              :LATITUDE
LONG .DEG                                              :LONGITUDE
GDAT .                                                 :GeoDetic Datum
SECT .        NA                                       :Section
RANG .        NA                                       :Range
TOWN .        NA                                       :Township
#-----------------------------------------------------------------------------
~PARAMETER INFORMATION
#MNEM.UNIT    VALUE                      DESCRIPTION
#---- -----   --------------------       ------------------------
U-PHASE_B_COMP_PER_YT.                 0 :Phase B Comparator Period Yt
U-PHASE_A_COMP_PER_XT.                 0 :Phase A Comparator Period Xt
U-MAX_EXC_CUR_LIMIT.MA       265.00000   :Requested CM Current Limit
U-REQ_EXC_FQ.HZ              50          :Requested CM Frequency
U-TILT_Y_OFFSET.          -2.06578       :WPTET Tilt Y Offset
U-TILT_Y_GAIN.           1.02173         :WPTET Tilt Y Gain
U-TILT_X_OFFSET.           2.30841       :WPTET Tilt X Offset
U-TILT_X_GAIN.           1.00000         :WPTET Tilt X Gain
U-TILT_OFFSET_TOL.           0.00100     :WPTET Tilt Offset Calibration Tolerance
U-MOT_CUR_LIMIT_REQ.MA        70.00000   :Requested Motor Current Limit
U-MOT_SPD_REQ_WPMS.RPM        1.00000    :Requested Motor Speed
U-STD_TOL_TILT.           0.01000        :Tilt Standard Deviation Tolerance
CWEI .LB/F      29.00000                 :Casing Weight
CSIZ .IN         7.00000                 :Current Casing Size
LCC  .               440                 :Logging Company Code
LUN  .              2134                 :Logging Unit Number
HIDE .                                   :Header Identifier
HID1 .                                   :Header Identifier Line 1
R1   .                                   :Remark Line 1
WITN .        MR. KELLY McCOY            :Witness's Name
ENGI .        MORRIS MOORE               :Engineer's Name
LUL  .        IOWA COLONY                :Logging Unit Location
DATE .        02-Aug-2018                :Date as Month-Day-Year
STAT .        TEXAS                      :State or Province
COUN .        HARRIS                     :County or Rig Name
FN   .        WILDCAT                    :Field Name
WN   .        WPP TEST 4                 :Well Name
CN   .        SHELL INTERNATIONAL EP     :Company Name
CLAB .        County                     :County/Rig Label
SLAB .        State                      :State/Province Label
RUN  .          1                        :RUN NUMBER
PDAT .        GROUND LEVEL               :Permanent Datum
EPD  .                                   :Elevation of Permanent Datum above Mean Sea Level
LMF  .          NA                       :Logging Measured From (Name of Logging Elevation Reference)
APD  .                                   :Elevation of Depth Reference (LMF) above Permanent Datum
#-----------------------------------------------------------------------------
~CURVE INFORMATION
#MNEM.UNIT   API CODE                                  DESCRIPTION
#---- -----  --------                                  -----------------------
TIME .S                                                :TIME {F10.1}
FREQ_EMF_SL.HZ                                         :Electromagnetic Field Frequency {F13.4}
PH_SH_WPPCM_SL.DEG                                     :WPPCM Phase Shift {F13.4}
RB_SL.DEG                                              :Relative Bearing {F13.4}
SDEV_SL.DEG                                            :Sonde Deviation {F13.4}
RTIX_SL.DEG                                            :Raw X-axis Tilt {F13.4}
RTIY_SL.DEG                                            :Raw Y-axis Tilt {F13.4}
TILX_SL.DEG                                            :X-axis Tilt {F13.4}
TILY_SL.DEG                                            :Y-axis Tilt {F13.4}
ROTA_SL.DEG                                            :Motor Rotation Angle {F13.4}
TOD7 .S                                                :Time of Day {I11}
TOJ  .S                                                :Time of Job {F13.4}
#-----------------------------------------------------------------------------
# 
#     TIME    FREQ_EMF_SL  PH_SH_WPPCM_    RB_SL       SDEV_SL      RTIX_SL      RTIY_SL      TILX_SL      TILY_SL      ROTA_SL        TOD7            TOJ
#                          SL
~A  
# ...
     689.0       0.0000       0.0000    -143.4523    -999.2500     -48.0795      75.5937     -45.7711      75.1703     187.0383 1533240088 9999999.9999
     690.0       0.0000       0.0000    -138.5720    -999.2500     -55.3898      65.5922     -53.0814      64.9515     193.1402 1533240089 9999999.9999
     691.0       0.0000       0.0000    -130.5669    -999.2500     -70.1310      53.3514     -67.8226      52.4448     199.2421 1533240090 9999999.9999
     692.0       0.0000       0.0000    -126.0555    -999.2500     -79.6103      46.3122     -77.3019      45.2526     205.3440 1533240091 9999999.9999
     693.0       0.0000       0.0000    -121.8018    -999.2500     -87.3625      39.3633     -85.0541      38.1528     211.4336 1533240092 9999999.9999
     694.0       0.0000       0.0000    -116.7690    -999.2500     -94.3917      31.6513     -92.0833      30.2732     217.5355 1533240093 9999999.9999
     695.0       0.0000       0.0000    -110.8708    -999.2500    -100.2158      23.7385     -97.9074      22.1885     223.6405 1533240094 9999999.9999
     696.0    1727.5798       0.0000    -104.2507    -999.2500    -104.1923      16.1068    -101.8839      14.3910     229.6515 1533240095 9999999.9999
     697.0    1654.4117       0.0000     -95.9817      78.2010    -105.5178       7.7522    -103.2094       5.8548     236.1685 1533240096 9999999.9999
     698.0    1518.6285       0.0000     -87.3745      77.0086    -105.5580      -0.4820    -103.2496      -2.5583     242.2835 1533240097 9999999.9999
     699.0    1373.2910       0.0000     -78.9181      83.6194    -105.0760      -8.7563    -102.7676     -11.0124     248.3854 1533240098 9999999.9999
     700.0    1244.4691       0.0000     -71.7434    -999.2500    -102.7062     -16.5085    -100.3978     -18.9330     254.4913 1533240099 9999999.9999
     701.0    1148.8971       0.0000     -65.4592    -999.2500     -98.0870     -24.4213     -95.7786     -27.0177     260.5900 1533240100 9999999.9999
     702.0    1062.1223       0.0000     -60.2510    -999.2500     -92.1022     -32.0932     -89.7938     -34.8562     266.6926 1533240101 9999999.9999
     703.0     985.8044       0.0000     -55.7600    -999.2500     -84.8923     -39.5240     -82.5838     -42.4485     272.8075 1533240102 9999999.9999
     704.0     916.7209       0.0000     -51.5728    -999.2500     -76.4773     -46.6737     -74.1689     -49.7535     278.8970 1533240103 9999999.9999
     705.0     853.3071       0.0000     -47.2570    -999.2500     -66.6365     -53.1807     -64.3281     -56.4019     284.9988 1533240104 9999999.9999
     706.0     797.1938       0.0000     -38.6253    -999.2500     -52.3773     -70.0908     -50.0689     -73.6795     291.0944 1533240105 9999999.9999
     707.0     752.8105       0.0000     -34.4845    -999.2500     -45.3482     -79.7308     -43.0398     -83.5289     297.1931 1533240106 9999999.9999
     708.0     705.9488       0.0000     -30.3397    -999.2500     -38.1182     -87.4830     -35.8098     -91.4495     303.2919 1533240107 9999999.9999
     709.0     668.3698       0.0000     -25.8231    -999.2500     -30.9685     -93.5482     -28.6601     -97.6465     309.3814 1533240108 9999999.9999
     710.0     636.8886       0.0000     -20.4176    -999.2500     -23.6582     -97.8460     -21.3498    -102.0377     315.8912 1533240109 9999999.9999
     711.0     611.9452       0.0000     -14.0522      87.5863     -16.3478    -100.0150     -14.0394    -104.2538     321.9930 1533240110 9999999.9999
     712.0     600.4483       0.0000      -5.9732      76.4032      -8.1137    -100.5773      -5.8053    -104.8284     328.0948 1533240111 9999999.9999
     713.0     590.3652       0.0000       3.2104      75.7682       0.8033    -100.3363       3.1117    -104.5821     334.1967 1533240112 9999999.9999
     714.0     586.4262       0.0000      11.4580      82.0323       9.0375     -99.6937      11.3459    -103.9255     340.2862 1533240113 9999999.9999
     715.0     595.9949       0.0000      18.5603      86.2155      16.9303     -96.9121      19.2387    -101.0835     346.3880 1533240114 9999999.9999
     716.0     615.6962       0.0000      24.2393    -999.2500      24.2607     -92.5038      26.5691     -96.5795     352.4898 1533240115 9999999.9999
     717.0     638.0444       0.0000      28.9351    -999.2500      31.2497     -86.8002      33.5581     -90.7519     358.5793 1533240116 9999999.9999
     718.0     664.5794       0.0000      33.1297    -999.2500      38.1182     -79.7308      40.4266     -83.5289       4.6943 1533240117 9999999.9999
     719.0     703.1250       0.0000      37.3303    -999.2500      45.0268     -71.0147      47.3352     -74.6234      10.7991 1533240118 9999999.9999
     720.0     748.8019       0.0000      42.2265    -999.2500      51.1723     -58.9647      53.4807     -62.3116      16.8979 1533240119 9999999.9999
     721.0     799.9147       0.0000      51.5578    -999.2500      73.1435     -47.1155      75.4519     -50.2050      23.0028 1533240120 9999999.9999
     722.0     858.5165       0.0000      55.4314    -999.2500      81.8195     -40.3273      84.1279     -43.2693      29.5095 1533240121 9999999.9999
     723.0     921.5269       0.0000      59.2761    -999.2500      88.7683     -33.6597      91.0767     -36.4568      35.6114 1533240122 9999999.9999
     724.0     987.5352       0.0000      63.7476    -999.2500      94.5925     -26.6707      96.9009     -29.3159      41.7132 1533240123 9999999.9999
     725.0    1066.9575       0.0000      69.0124    -999.2500      98.5288     -19.6415     100.8372     -22.1340      47.8150 1533240124 9999999.9999
     726.0    1150.7773       0.0000      75.4124      88.3260     100.4167     -12.3713     102.7251     -14.7059      53.9168 1533240125 9999999.9999
     727.0    1251.1122       0.0000      83.9460      78.1045     101.0192      -3.7757     103.3276      -5.9235      60.0186 1533240126 9999999.9999
     728.0    1381.3850       0.0000      93.4007      76.7737     101.3405       5.2618     103.6489       3.3104      66.1367 1533240127 9999999.9999
     729.0    1521.9155       0.0000     101.4231      83.7393     100.6978      13.1345     103.0062      11.3541      72.2484 1533240128 9999999.9999
     730.0    1650.5282       0.0000     108.3887    -999.2500      97.6853      20.7260      99.9937      19.1105      78.3533 1533240129 9999999.9999
     731.0    1793.6862       0.0000     114.3739    -999.2500      92.7850      28.2773      95.0934      26.8259      84.4305 1533240130 9999999.9999
     732.0    1953.1250       0.0000     119.4298    -999.2500      86.5592      35.6278      88.8676      34.3361      90.5453 1533240131 9999999.9999
     733.0    2098.8806       0.0000     124.0539    -999.2500      79.0480      43.0587      81.3564      41.9284      96.6471 1533240132 9999999.9999
     734.0    2211.0850       0.0000     128.4055    -999.2500      70.1712      50.0878      72.4796      49.1103     103.1538 1533240133 9999999.9999
     735.0    2275.4854       0.0000     135.1135    -999.2500      55.7915      59.2458      58.0999      58.4673     109.2432 1533240134 9999999.9999
     736.0    2320.5444       0.0000     140.7891    -999.2500      49.2042      74.0673      51.5126      73.6108     115.3581 1533240135 9999999.9999
     737.0    2359.4797       0.0000     144.6834    -999.2500      42.3357      82.9442      44.6441      82.6805     121.4599 1533240136 9999999.9999
     738.0    2383.4746       0.0000     148.6717    -999.2500      35.1860      90.2545      37.4944      90.1497     127.5617 1533240137 9999999.9999
     739.0    2407.9622       0.0000     153.3306    -999.2500      27.5945      96.9623      29.9029      97.0033     133.6635 1533240138 9999999.9999
     740.0    2416.2371       0.0000     159.7506    -999.2500      18.7980     102.3848      21.1064     102.5436     139.7654 1533240139 9999999.9999
     741.0    2441.4063       0.0000     166.4192      82.9012      11.1663     105.0760      13.4747     105.2932     145.8704 1533240140 9999999.9999
