~VERSION INFORMATION
VERS.           2.0   :CWLS Log ASCII Standard - VERSION 2.0
WRAP.           NO    :One Line per depth step
PROD.  Schlumberger   :LAS Producer
PROG.  DLIS to ASCII 19C2-270                          :LAS Program name and version
CREA.        2018/08/03 10:59                          :LAS Creation date {YYYY/MM/DD hh:mm}
DLIS_CREA.  2018-Aug-03 09:18                          :DLIS Creation date and time {YYYY-MMM-DD hh:mm}
SOURCE.     PERFO_Perfo_074PTP.DLIS                    :DLIS File Name
FILE-ID.     PERFO_Perfo_074PTP                        :File Identification Number
#--------------------------------------------------
~WELL INFORMATION
#MNEM.UNIT      DATA             DESCRIPTION
#---- ------ --------------   -----------------------------
STRT .S            0.0       :START TIME      
STOP .S          866.0       :STOP TIME      
STEP .S            1.0       :STEP     
NULL .          -999.25      :NULL VALUE
COMP .        SHELL INTERNATIONAL EP                   :COMPANY
WELL .        WPP TEST 4                               :WELL
FLD  .        WILDCAT                                  :FIELD
LOC  .        NA                                       :LOCATION
CNTY .        HARRIS                                   :COUNTY
STAT .        TEXAS                                    :STATE
CTRY .                                                 :COUNTRY
API  .        NA                                       :API NUMBER
UWI  .                                                 :UNIQUE WELL ID
DATE .        02-Aug-2018                              :LOG DATE {DD-MMM-YYYY}
SRVC .        Schlumberger                             :SERVICE COMPANY
LATI .DEG                                              :LATITUDE
LONG .DEG                                              :LONGITUDE
GDAT .                                                 :GeoDetic Datum
SECT .        NA                                       :Section
RANG .        NA                                       :Range
TOWN .        NA                                       :Township
#-----------------------------------------------------------------------------
~PARAMETER INFORMATION
#MNEM.UNIT    VALUE                      DESCRIPTION
#---- -----   --------------------       ------------------------
U-PHASE_B_COMP_PER_YT.                 0 :Phase B Comparator Period Yt
U-PHASE_A_COMP_PER_XT.                 0 :Phase A Comparator Period Xt
U-MAX_EXC_CUR_LIMIT.MA       265.00000   :Requested CM Current Limit
U-REQ_EXC_FQ.HZ              50          :Requested CM Frequency
U-TILT_Y_OFFSET.          -2.06578       :WPTET Tilt Y Offset
U-TILT_Y_GAIN.           1.02173         :WPTET Tilt Y Gain
U-TILT_X_OFFSET.           2.30841       :WPTET Tilt X Offset
U-TILT_X_GAIN.           1.00000         :WPTET Tilt X Gain
U-TILT_OFFSET_TOL.           0.00100     :WPTET Tilt Offset Calibration Tolerance
U-MOT_CUR_LIMIT_REQ.MA        70.00000   :Requested Motor Current Limit
U-MOT_SPD_REQ_WPMS.RPM        1.00000    :Requested Motor Speed
U-STD_TOL_TILT.           0.01000        :Tilt Standard Deviation Tolerance
CWEI .LB/F      29.00000                 :Casing Weight
CSIZ .IN         7.00000                 :Current Casing Size
LCC  .               440                 :Logging Company Code
LUN  .              2134                 :Logging Unit Number
HIDE .                                   :Header Identifier
HID1 .                                   :Header Identifier Line 1
R1   .                                   :Remark Line 1
WITN .        MR. KELLY McCOY            :Witness's Name
ENGI .        MORRIS MOORE               :Engineer's Name
LUL  .        IOWA COLONY                :Logging Unit Location
DATE .        02-Aug-2018                :Date as Month-Day-Year
STAT .        TEXAS                      :State or Province
COUN .        HARRIS                     :County or Rig Name
FN   .        WILDCAT                    :Field Name
WN   .        WPP TEST 4                 :Well Name
CN   .        SHELL INTERNATIONAL EP     :Company Name
CLAB .        County                     :County/Rig Label
SLAB .        State                      :State/Province Label
RUN  .          1                        :RUN NUMBER
PDAT .        GROUND LEVEL               :Permanent Datum
EPD  .                                   :Elevation of Permanent Datum above Mean Sea Level
LMF  .          NA                       :Logging Measured From (Name of Logging Elevation Reference)
APD  .                                   :Elevation of Depth Reference (LMF) above Permanent Datum
#-----------------------------------------------------------------------------
~CURVE INFORMATION
#MNEM.UNIT   API CODE                                  DESCRIPTION
#---- -----  --------                                  -----------------------
TIME .S                                                :TIME {F10.1}
FREQ_EMF_SL.HZ                                         :Electromagnetic Field Frequency {F13.4}
PH_SH_WPPCM_SL.DEG                                     :WPPCM Phase Shift {F13.4}
RB_SL.DEG                                              :Relative Bearing {F13.4}
SDEV_SL.DEG                                            :Sonde Deviation {F13.4}
RTIX_SL.DEG                                            :Raw X-axis Tilt {F13.4}
RTIY_SL.DEG                                            :Raw Y-axis Tilt {F13.4}
TILX_SL.DEG                                            :X-axis Tilt {F13.4}
TILY_SL.DEG                                            :Y-axis Tilt {F13.4}
ROTA_SL.DEG                                            :Motor Rotation Angle {F13.4}
TOD7 .S                                                :Time of Day {I11}
TOJ  .S                                                :Time of Job {F13.4}
#-----------------------------------------------------------------------------
# 
#     TIME    FREQ_EMF_SL  PH_SH_WPPCM_    RB_SL       SDEV_SL      RTIX_SL      RTIY_SL      TILX_SL      TILY_SL      ROTA_SL        TOD7            TOJ
#                          SL
~A  
# ...
     371.0    2320.5444       0.0000      88.2562      76.6229     101.1798       0.3615     103.4882      -1.6964      36.2011 1533239770 9999999.9999
     372.0    2290.3093       0.0000      96.4087      77.8783     101.3807       8.1538     103.6891       6.2652      42.3060 1533239771 9999999.9999
     373.0    2225.0791       0.0000     103.8840      93.1611      99.8945      15.7052     102.2029      13.9806      48.4048 1533239772 9999999.9999
     374.0    2137.1582       0.0000     110.4298    -999.2500      96.2393      23.1762      98.5477      21.6139      54.5066 1533239773 9999999.9999
     375.0    2014.6848       0.0000     115.9651    -999.2500      91.1783      30.4865      93.4867      29.0831      60.6084 1533239774 9999999.9999
     376.0    1885.0536       0.0000     120.8920    -999.2500      84.3500      37.9173      86.6584      36.6754      66.7363 1533239775 9999999.9999
     377.0    1731.8351       0.0000     125.5809    -999.2500      75.9953      45.5490      78.3037      44.4729      72.8259 1533239776 9999999.9999
     378.0    1601.6515       0.0000     130.1055    -999.2500      66.3955      52.6183      68.7039      51.6958      78.9276 1533239777 9999999.9999
     379.0    1477.1533       0.0000     138.2965    -999.2500      53.1003      68.0825      55.4087      67.4960      85.0426 1533239778 9999999.9999
     380.0    1357.3842       0.0000     142.3150    -999.2500      46.5933      77.6823      48.9017      77.3044      91.1444 1533239779 9999999.9999
     381.0    1244.4691       0.0000     146.1154    -999.2500      39.7248      85.7558      42.0332      85.5533      97.2624 1533239780 9999999.9999
     382.0    1158.3608       0.0000     150.5492    -999.2500      32.0128      93.1063      34.3212      93.0635     103.3772 1533239781 9999999.9999
     383.0    1071.8369       0.0000     155.5328    -999.2500      24.3812      99.1313      26.6896      99.2194     109.8840 1533239782 9999999.9999
     384.0     998.7571       0.0000     161.8468    -999.2500      16.2675     103.5095      18.5759     103.6927     115.9857 1533239783 9999999.9999
     385.0     937.5000       0.0000     169.1596      78.5695       8.3145     105.4777      10.6229     105.7036     122.0875 1533239784 9999999.9999
     386.0     874.5336       0.0000     177.5997      74.1026       0.0000     105.8392       2.3084     106.0730     128.2024 1533239785 9999999.9999
     387.0     824.2966       0.0000    -173.7906      75.3242      -8.3145     105.6785      -6.0061     105.9088     134.3043 1533239786 9999999.9999
     388.0     776.9337       0.0000    -166.1880      86.5696     -16.1470     103.1882     -13.8386     103.3644     140.4062 1533239787 9999999.9999
     389.0     738.5767       0.0000    -158.8313    -999.2500     -24.8632      97.8460     -22.5548      97.9061     146.5081 1533239788 9999999.9999
     390.0     701.0219       0.0000    -152.9967    -999.2500     -32.9367      91.3792     -30.6283      91.2988     152.6100 1533239789 9999999.9999
     391.0     672.8469       0.0000    -148.0361    -999.2500     -40.6487      84.0287     -38.3403      83.7886     158.7149 1533239790 9999999.9999
     392.0     654.0698       0.0000    -143.5343    -999.2500     -47.9590      75.7945     -45.6506      75.3755     164.8168 1533239791 9999999.9999
     393.0     643.8874       0.0000    -138.6794    -999.2500     -55.2292      65.7930     -52.9208      65.1567     170.9319 1533239792 9999999.9999
     394.0     638.6240       0.0000    -130.8955    -999.2500     -69.4883      53.8635     -67.1799      52.9680     177.0338 1533239793 9999999.9999
     395.0     638.0444       0.0000    -126.5555    -999.2500     -78.7267      47.1557     -76.4183      46.1144     183.5406 1533239794 9999999.9999
     396.0     645.6611       0.0000    -122.1731    -999.2500     -86.8002      39.9658     -84.4918      38.7684     189.6425 1533239795 9999999.9999
     397.0     661.4534       0.0000    -117.2943    -999.2500     -93.8293      32.4145     -91.5209      31.0530     195.7506 1533239796 9999999.9999
     398.0     685.3070       0.0000    -111.5191    -999.2500     -99.8543      24.5418     -97.5459      23.0093     201.8463 1533239797 9999999.9999
     399.0     713.8325       0.0000    -104.6969    -999.2500    -103.9915      16.5888    -101.6831      14.8835     207.9513 1533239798 9999999.9999
     400.0     749.6002       0.0000     -96.8071      78.7468    -105.4375       8.5555    -103.1291       6.6756     214.0532 1533239799 9999999.9999
     401.0     795.3903       0.0000     -87.2480      76.9933    -105.5982      -0.6025    -103.2897      -2.6814     220.1551 1533239800 9999999.9999
     402.0     849.1848       0.0000     -78.6780      83.9730    -105.1162      -8.9973    -102.8078     -11.2586     226.2670 1533239801 9999999.9999
     403.0       0.0000       0.0000     -71.3577    -999.2500    -102.6258     -16.9503    -100.3174     -19.3844     232.4525 1533239802 9999999.9999
     404.0       0.0000       0.0000     -65.4881    -999.2500     -98.1272     -24.3812     -95.8187     -26.9767     238.5544 1533239803 9999999.9999
     405.0       0.0000       0.0000     -60.3528    -999.2500     -92.1423     -31.9325     -89.8339     -34.6921     244.6563 1533239804 9999999.9999
     406.0       0.0000       0.0000     -56.0464    -999.2500     -85.1132     -39.0018     -82.8048     -41.9150     250.7582 1533239805 9999999.9999
     407.0       0.0000       0.0000     -51.8297    -999.2500     -77.1200     -46.2720     -74.8116     -49.3431     257.2782 1533239806 9999999.9999
     408.0       0.0000       0.0000     -47.5411    -999.2500     -67.3193     -52.8192     -65.0109     -56.0326     263.3800 1533239807 9999999.9999
     409.0       0.0000       0.0000     -38.9449    -999.2500     -52.8995     -69.3678     -50.5911     -72.9408     269.4818 1533239808 9999999.9999
     410.0       0.0000       0.0000     -34.8173    -999.2500     -45.9507     -79.1283     -43.6423     -82.9134     275.5836 1533239809 9999999.9999
     411.0       0.0000       0.0000     -30.6483    -999.2500     -38.6403     -86.9608     -36.3319     -90.9160     281.6885 1533239810 9999999.9999
     412.0       0.0000       0.0000     -26.2028    -999.2500     -31.5308     -93.1465     -29.2224     -97.2361     287.7912 1533239811 9999999.9999
     413.0       0.0000       0.0000     -19.1979    -999.2500     -22.2523     -97.4042     -19.9439    -101.5863     293.9062 1533239812 9999999.9999
     414.0       0.0000       0.0000     -14.1705      87.8062     -16.4683    -100.0953     -14.1599    -104.3359     300.0080 1533239813 9999999.9999
     415.0       0.0000       0.0000      -6.4106      77.0584      -8.5555    -100.1757      -6.2471    -104.4180     306.1098 1533239814 9999999.9999
     416.0       0.0000       0.0000       3.0864      75.7413       0.6828    -100.3363       2.9912    -104.5821     312.1993 1533239815 9999999.9999
     417.0       0.0000       0.0000      11.4131      82.1861       8.9973     -99.5732      11.3057    -103.8024     318.3072 1533239816 9999999.9999
     418.0       0.0000       0.0000      18.1093      85.5873      16.3880     -97.2435      18.6964    -101.4221     324.4029 1533239817 9999999.9999
     419.0       0.0000       0.0000      23.9499    -999.2500      23.8590     -92.7850      26.1674     -96.8667     330.9096 1533239818 9999999.9999
     420.0       0.0000       0.0000      28.6564    -999.2500      30.8078     -87.4027      33.1162     -91.3675     337.0114 1533239819 9999999.9999
     421.0       0.0000       0.0000      32.7455    -999.2500      37.4755     -80.4538      39.7839     -84.2677     343.1009 1533239820 9999999.9999
     422.0       0.0000       0.0000      36.7948    -999.2500      44.1833     -72.2197      46.4917     -75.8546     349.2057 1533239821 9999999.9999
     423.0       0.0000       0.0000      41.8339    -999.2500      51.0117     -60.2500      53.3201     -63.6248     355.2953 1533239822 9999999.9999
