~VERSION INFORMATION
VERS.           2.0   :CWLS Log ASCII Standard - VERSION 2.0
WRAP.           NO    :One Line per depth step
PROD.  Schlumberger   :LAS Producer
PROG.  DLIS to ASCII 19C2-270                          :LAS Program name and version
CREA.        2018/08/03 10:59                          :LAS Creation date {YYYY/MM/DD hh:mm}
DLIS_CREA.  2018-Aug-03 09:18                          :DLIS Creation date and time {YYYY-MMM-DD hh:mm}
SOURCE.     PERFO_Perfo_074PTP.DLIS                    :DLIS File Name
FILE-ID.     PERFO_Perfo_074PTP                        :File Identification Number
#--------------------------------------------------
~WELL INFORMATION
#MNEM.UNIT      DATA             DESCRIPTION
#---- ------ --------------   -----------------------------
STRT .S            0.0       :START TIME      
STOP .S          866.0       :STOP TIME      
STEP .S            1.0       :STEP     
NULL .          -999.25      :NULL VALUE
COMP .        SHELL INTERNATIONAL EP                   :COMPANY
WELL .        WPP TEST 4                               :WELL
FLD  .        WILDCAT                                  :FIELD
LOC  .        NA                                       :LOCATION
CNTY .        HARRIS                                   :COUNTY
STAT .        TEXAS                                    :STATE
CTRY .                                                 :COUNTRY
API  .        NA                                       :API NUMBER
UWI  .                                                 :UNIQUE WELL ID
DATE .        02-Aug-2018                              :LOG DATE {DD-MMM-YYYY}
SRVC .        Schlumberger                             :SERVICE COMPANY
LATI .DEG                                              :LATITUDE
LONG .DEG                                              :LONGITUDE
GDAT .                                                 :GeoDetic Datum
SECT .        NA                                       :Section
RANG .        NA                                       :Range
TOWN .        NA                                       :Township
#-----------------------------------------------------------------------------
~PARAMETER INFORMATION
#MNEM.UNIT    VALUE                      DESCRIPTION
#---- -----   --------------------       ------------------------
U-PHASE_B_COMP_PER_YT.                 0 :Phase B Comparator Period Yt
U-PHASE_A_COMP_PER_XT.                 0 :Phase A Comparator Period Xt
U-MAX_EXC_CUR_LIMIT.MA       265.00000   :Requested CM Current Limit
U-REQ_EXC_FQ.HZ              50          :Requested CM Frequency
U-TILT_Y_OFFSET.          -2.06578       :WPTET Tilt Y Offset
U-TILT_Y_GAIN.           1.02173         :WPTET Tilt Y Gain
U-TILT_X_OFFSET.           2.30841       :WPTET Tilt X Offset
U-TILT_X_GAIN.           1.00000         :WPTET Tilt X Gain
U-TILT_OFFSET_TOL.           0.00100     :WPTET Tilt Offset Calibration Tolerance
U-MOT_CUR_LIMIT_REQ.MA        70.00000   :Requested Motor Current Limit
U-MOT_SPD_REQ_WPMS.RPM        1.00000    :Requested Motor Speed
U-STD_TOL_TILT.           0.01000        :Tilt Standard Deviation Tolerance
CWEI .LB/F      29.00000                 :Casing Weight
CSIZ .IN         7.00000                 :Current Casing Size
LCC  .               440                 :Logging Company Code
LUN  .              2134                 :Logging Unit Number
HIDE .                                   :Header Identifier
HID1 .                                   :Header Identifier Line 1
R1   .                                   :Remark Line 1
WITN .        MR. KELLY McCOY            :Witness's Name
ENGI .        MORRIS MOORE               :Engineer's Name
LUL  .        IOWA COLONY                :Logging Unit Location
DATE .        02-Aug-2018                :Date as Month-Day-Year
STAT .        TEXAS                      :State or Province
COUN .        HARRIS                     :County or Rig Name
FN   .        WILDCAT                    :Field Name
WN   .        WPP TEST 4                 :Well Name
CN   .        SHELL INTERNATIONAL EP     :Company Name
CLAB .        County                     :County/Rig Label
SLAB .        State                      :State/Province Label
RUN  .          1                        :RUN NUMBER
PDAT .        GROUND LEVEL               :Permanent Datum
EPD  .                                   :Elevation of Permanent Datum above Mean Sea Level
LMF  .          NA                       :Logging Measured From (Name of Logging Elevation Reference)
APD  .                                   :Elevation of Depth Reference (LMF) above Permanent Datum
#-----------------------------------------------------------------------------
~CURVE INFORMATION
#MNEM.UNIT   API CODE                                  DESCRIPTION
#---- -----  --------                                  -----------------------
TIME .S                                                :TIME {F10.1}
FREQ_EMF_SL.HZ                                         :Electromagnetic Field Frequency {F13.4}
PH_SH_WPPCM_SL.DEG                                     :WPPCM Phase Shift {F13.4}
RB_SL.DEG                                              :Relative Bearing {F13.4}
SDEV_SL.DEG                                            :Sonde Deviation {F13.4}
RTIX_SL.DEG                                            :Raw X-axis Tilt {F13.4}
RTIY_SL.DEG                                            :Raw Y-axis Tilt {F13.4}
TILX_SL.DEG                                            :X-axis Tilt {F13.4}
TILY_SL.DEG                                            :Y-axis Tilt {F13.4}
ROTA_SL.DEG                                            :Motor Rotation Angle {F13.4}
TOD7 .S                                                :Time of Day {I11}
TOJ  .S                                                :Time of Job {F13.4}
#-----------------------------------------------------------------------------
# 
#     TIME    FREQ_EMF_SL  PH_SH_WPPCM_    RB_SL       SDEV_SL      RTIX_SL      RTIY_SL      TILX_SL      TILY_SL      ROTA_SL        TOD7            TOJ
#                          SL
~A  
# ...
     318.0    1670.1307       0.0000     127.5323    -999.2500      72.0590      48.7222      74.3674      47.7150      70.6797 1533239717 9999999.9999
     319.0    1559.0355       0.0000     132.1398    -999.2500      61.4952      55.1488      63.8036      54.2813      76.7693 1533239718 9999999.9999
     320.0    1434.9490       0.0000     139.9606    -999.2500      50.5297      72.0188      52.8381      71.5178      82.8587 1533239719 9999999.9999
     321.0    1311.8003       0.0000     143.8983    -999.2500      43.7415      81.1367      46.0499      80.8338      88.9605 1533239720 9999999.9999
     322.0    1208.1185       0.0000     147.7757    -999.2500      36.7525      88.7683      39.0609      88.6312      95.4964 1533239721 9999999.9999
     323.0    1119.6259       0.0000     152.3932    -999.2500      29.0405      95.7975      31.3489      95.8131     101.6143 1533239722 9999999.9999
     324.0    1040.1257       0.0000     157.9194    -999.2500      21.1277     101.2200      23.4361     101.3534     107.7130 1533239723 9999999.9999
     325.0     976.5625       0.0000     164.4185      83.9731      13.3353     104.5538      15.6437     104.7597     113.8148 1533239724 9999999.9999
     326.0     909.6055       0.0000     172.4845      75.9378       4.9807     105.6785       7.2891     105.9088     119.9166 1533239725 9999999.9999
     327.0     851.2409       0.0000    -179.0162      73.8741      -3.2535     105.9195      -0.9451     106.1551     126.0184 1533239726 9999999.9999
     328.0     802.6541       0.0000    -170.5621      77.9900     -11.5379     105.0157      -9.2295     105.2317     132.1210 1533239727 9999999.9999
     329.0     753.6174       0.0000    -162.7497      96.7191     -20.0432     101.0593     -17.7348     101.1893     138.2229 1533239728 9999999.9999
     330.0     718.2073       0.0000    -156.3206    -999.2500     -28.1970      95.3557     -25.8886      95.3617     144.3279 1533239729 9999999.9999
     331.0     689.3383       0.0000    -151.2861    -999.2500     -35.5073      88.4068     -33.1989      88.2619     150.4143 1533239730 9999999.9999
     332.0     665.2081       0.0000    -146.1978    -999.2500     -43.6210      80.7350     -41.3126      80.4234     156.5294 1533239731 9999999.9999
     333.0     648.6393       0.0000    -141.4619    -999.2500     -51.2125      71.6172     -48.9041      71.1074     162.6313 1533239732 9999999.9999
     334.0     635.7369       0.0000    -135.7489    -999.2500     -59.0048      59.8483     -56.6964      59.0829     168.7339 1533239733 9999999.9999
     335.0     634.0172       0.0000    -128.9260    -999.2500     -73.6657      50.8912     -71.3573      49.9311     175.2439 1533239734 9999999.9999
     336.0     639.7861       0.0000    -124.7801    -999.2500     -82.1007      44.2235     -79.7923      43.1186     181.3458 1533239735 9999999.9999
     337.0     651.0417       0.0000    -120.1570    -999.2500     -89.8930      36.7525     -87.5846      35.4852     187.4477 1533239736 9999999.9999
     338.0     669.0057       0.0000    -114.9225    -999.2500     -96.5607      29.0405     -94.2523      27.6057     193.5496 1533239737 9999999.9999
     339.0     695.4748       0.0000    -108.5781    -999.2500    -101.8627      20.9670     -99.5543      19.3568     199.6515 1533239738 9999999.9999
     340.0     724.1246       0.0000    -101.4451      84.6782    -104.9153      13.1747    -102.6069      11.3951     205.7534 1533239739 9999999.9999
     341.0     770.1259       0.0000     -92.5127      77.0276    -105.5178       4.4183    -103.2094       2.4486     211.8553 1533239740 9999999.9999
     342.0     817.5872       0.0000     -83.7448      78.4795    -105.3973      -3.9765    -103.0889      -6.1287     217.9834 1533239741 9999999.9999
     343.0     864.8524       0.0000     -75.7175      89.0993    -104.3128     -12.0902    -102.0044     -14.4186     224.0853 1533239742 9999999.9999
     344.0     922.7362       0.0000     -68.8668    -999.2500    -101.0192     -19.9628     -98.7108     -22.4623     230.1872 1533239743 9999999.9999
     345.0     982.0181       0.0000     -63.2137    -999.2500     -95.7573     -27.5945     -93.4489     -30.2598     236.2891 1533239744 9999999.9999
     346.0    1057.3308       0.0000     -58.3831    -999.2500     -89.2905     -35.1057     -86.9821     -37.9342     242.3910 1533239745 9999999.9999
     347.0    1132.2463       0.0000     -54.2417    -999.2500     -82.0203     -42.1348     -79.7119     -45.1161     248.9009 1533239746 9999999.9999
     348.0    1220.7031       0.0000     -50.2522    -999.2500     -73.5050     -48.8025     -71.1966     -51.9286     255.0028 1533239747 9999999.9999
     349.0    1321.6636       0.0000     -45.3750    -999.2500     -62.0575     -55.2292     -59.7491     -58.4949     261.1046 1533239748 9999999.9999
     350.0    1446.7593       0.0000     -37.1560    -999.2500     -50.0075     -73.7460     -47.6991     -77.4141     267.2070 1533239749 9999999.9999
     351.0    1576.5134       0.0000     -33.1000    -999.2500     -42.8980     -82.5827     -40.5896     -86.4427     273.3088 1533239750 9999999.9999
     352.0    1710.7665       0.0000     -28.9586    -999.2500     -35.8287     -89.6520     -33.5203     -93.6657     279.4106 1533239751 9999999.9999
     353.0    1875.0000       0.0000     -23.7068    -999.2500     -27.9560     -95.5565     -25.6476     -99.6984     285.5256 1533239752 9999999.9999
     354.0    2014.6848       0.0000     -17.9725    -999.2500     -20.7260     -98.8903     -18.4176    -103.1047     291.6274 1533239753 9999999.9999
     355.0    2124.2446       0.0000     -11.0227      80.3936     -13.1747    -100.3363     -10.8663    -104.5821     297.7354 1533239754 9999999.9999
     356.0    2225.0791       0.0000      -2.2204      75.5428      -4.4585    -100.3765      -2.1501    -104.6232     303.8310 1533239755 9999999.9999
     357.0    2275.4854       0.0000       6.7755      77.1967       4.2978    -100.2158       6.6062    -104.4590     309.9491 1533239756 9999999.9999
     358.0    2312.9111       0.0000      14.2452      89.7284      12.0098     -98.8502      14.3182    -103.0637     316.0478 1533239757 9999999.9999
     359.0    2351.5886       0.0000      20.6113    -999.2500      19.4407     -95.7172      21.7491     -99.8626     322.5576 1533239758 9999999.9999
     360.0    2367.4243       0.0000      25.9239    -999.2500      26.6707     -90.6160      28.9791     -94.6506     328.6594 1533239759 9999999.9999
     361.0    2383.4746       0.0000      30.3647    -999.2500      33.5392     -84.4705      35.8476     -88.3716     334.7612 1533239760 9999999.9999
     362.0    2399.7441       0.0000      34.4955    -999.2500      40.4077     -77.0798      42.7161     -80.8203     340.8630 1533239761 9999999.9999
     363.0    2416.2371       0.0000      38.7218    -999.2500      47.1557     -67.8817      49.4641     -71.4223     346.9555 1533239762 9999999.9999
     364.0    2424.5691       0.0000      47.9528    -999.2500      63.3428     -52.0560      65.6512     -55.2528     353.0543 1533239763 9999999.9999
     365.0    2416.2371       0.0000      53.1857    -999.2500      76.9192     -44.3038      79.2276     -47.3322     359.1561 1533239764 9999999.9999
     366.0    2407.9622       0.0000      56.9781    -999.2500      84.8722     -37.5960      87.1806     -40.4786       5.2579 1533239765 9999999.9999
     367.0    2399.7441       0.0000      61.0274    -999.2500      91.3390     -30.8078      93.6474     -33.5430      11.3597 1533239766 9999999.9999
     368.0    2391.5815       0.0000      65.7483    -999.2500      96.4000     -23.8590      98.7084     -26.4432      17.4646 1533239767 9999999.9999
     369.0    2383.4746       0.0000      71.7378    -999.2500      99.4125     -16.4282     101.7209     -18.8509      23.5795 1533239768 9999999.9999
     370.0    2351.5886       0.0000      78.8300      83.3737     100.6577      -8.8367     102.9661     -11.0944      29.6813 1533239769 9999999.9999
