~VERSION INFORMATION
VERS.           2.0   :CWLS Log ASCII Standard - VERSION 2.0
WRAP.           NO    :One Line per depth step
PROD.  Schlumberger   :LAS Producer
PROG.  DLIS to ASCII 19C2-270                          :LAS Program name and version
CREA.        2018/08/03 10:59                          :LAS Creation date {YYYY/MM/DD hh:mm}
DLIS_CREA.  2018-Aug-03 09:18                          :DLIS Creation date and time {YYYY-MMM-DD hh:mm}
SOURCE.     PERFO_Perfo_074PTP.DLIS                    :DLIS File Name
FILE-ID.     PERFO_Perfo_074PTP                        :File Identification Number
#--------------------------------------------------
~WELL INFORMATION
#MNEM.UNIT      DATA             DESCRIPTION
#---- ------ --------------   -----------------------------
STRT .S            0.0       :START TIME      
STOP .S          866.0       :STOP TIME      
STEP .S            1.0       :STEP     
NULL .          -999.25      :NULL VALUE
COMP .        SHELL INTERNATIONAL EP                   :COMPANY
WELL .        WPP TEST 4                               :WELL
FLD  .        WILDCAT                                  :FIELD
LOC  .        NA                                       :LOCATION
CNTY .        HARRIS                                   :COUNTY
STAT .        TEXAS                                    :STATE
CTRY .                                                 :COUNTRY
API  .        NA                                       :API NUMBER
UWI  .                                                 :UNIQUE WELL ID
DATE .        02-Aug-2018                              :LOG DATE {DD-MMM-YYYY}
SRVC .        Schlumberger                             :SERVICE COMPANY
LATI .DEG                                              :LATITUDE
LONG .DEG                                              :LONGITUDE
GDAT .                                                 :GeoDetic Datum
SECT .        NA                                       :Section
RANG .        NA                                       :Range
TOWN .        NA                                       :Township
#-----------------------------------------------------------------------------
~PARAMETER INFORMATION
#MNEM.UNIT    VALUE                      DESCRIPTION
#---- -----   --------------------       ------------------------
U-PHASE_B_COMP_PER_YT.                 0 :Phase B Comparator Period Yt
U-PHASE_A_COMP_PER_XT.                 0 :Phase A Comparator Period Xt
U-MAX_EXC_CUR_LIMIT.MA       265.00000   :Requested CM Current Limit
U-REQ_EXC_FQ.HZ              50          :Requested CM Frequency
U-TILT_Y_OFFSET.          -2.06578       :WPTET Tilt Y Offset
U-TILT_Y_GAIN.           1.02173         :WPTET Tilt Y Gain
U-TILT_X_OFFSET.           2.30841       :WPTET Tilt X Offset
U-TILT_X_GAIN.           1.00000         :WPTET Tilt X Gain
U-TILT_OFFSET_TOL.           0.00100     :WPTET Tilt Offset Calibration Tolerance
U-MOT_CUR_LIMIT_REQ.MA        70.00000   :Requested Motor Current Limit
U-MOT_SPD_REQ_WPMS.RPM        1.00000    :Requested Motor Speed
U-STD_TOL_TILT.           0.01000        :Tilt Standard Deviation Tolerance
CWEI .LB/F      29.00000                 :Casing Weight
CSIZ .IN         7.00000                 :Current Casing Size
LCC  .               440                 :Logging Company Code
LUN  .              2134                 :Logging Unit Number
HIDE .                                   :Header Identifier
HID1 .                                   :Header Identifier Line 1
R1   .                                   :Remark Line 1
WITN .        MR. KELLY McCOY            :Witness's Name
ENGI .        MORRIS MOORE               :Engineer's Name
LUL  .        IOWA COLONY                :Logging Unit Location
DATE .        02-Aug-2018                :Date as Month-Day-Year
STAT .        TEXAS                      :State or Province
COUN .        HARRIS                     :County or Rig Name
FN   .        WILDCAT                    :Field Name
WN   .        WPP TEST 4                 :Well Name
CN   .        SHELL INTERNATIONAL EP     :Company Name
CLAB .        County                     :County/Rig Label
SLAB .        State                      :State/Province Label
RUN  .          1                        :RUN NUMBER
PDAT .        GROUND LEVEL               :Permanent Datum
EPD  .                                   :Elevation of Permanent Datum above Mean Sea Level
LMF  .          NA                       :Logging Measured From (Name of Logging Elevation Reference)
APD  .                                   :Elevation of Depth Reference (LMF) above Permanent Datum
#-----------------------------------------------------------------------------
~CURVE INFORMATION
#MNEM.UNIT   API CODE                                  DESCRIPTION
#---- -----  --------                                  -----------------------
TIME .S                                                :TIME {F10.1}
FREQ_EMF_SL.HZ                                         :Electromagnetic Field Frequency {F13.4}
PH_SH_WPPCM_SL.DEG                                     :WPPCM Phase Shift {F13.4}
RB_SL.DEG                                              :Relative Bearing {F13.4}
SDEV_SL.DEG                                            :Sonde Deviation {F13.4}
RTIX_SL.DEG                                            :Raw X-axis Tilt {F13.4}
RTIY_SL.DEG                                            :Raw Y-axis Tilt {F13.4}
TILX_SL.DEG                                            :X-axis Tilt {F13.4}
TILY_SL.DEG                                            :Y-axis Tilt {F13.4}
ROTA_SL.DEG                                            :Motor Rotation Angle {F13.4}
TOD7 .S                                                :Time of Day {I11}
TOJ  .S                                                :Time of Job {F13.4}
#-----------------------------------------------------------------------------
# 
#     TIME    FREQ_EMF_SL  PH_SH_WPPCM_    RB_SL       SDEV_SL      RTIX_SL      RTIY_SL      TILX_SL      TILY_SL      ROTA_SL        TOD7            TOJ
#                          SL
~A  
# ...
     742.0    2441.4063       0.0000     174.6125      74.8780       2.8920     105.7990       5.2004     106.0319     151.9723 1533240141 9999999.9999
     743.0    2441.4063       0.0000    -176.6797      74.1809      -5.5028     105.9195      -3.1944     106.1551     158.0742 1533240142 9999999.9999
     744.0    2449.9128       0.0000    -168.8176      80.4955     -13.3353     104.4333     -11.0269     104.6366     164.1761 1533240143 9999999.9999
     745.0    2432.9585       0.0000    -161.4679      84.3025     -21.5695     100.1355     -19.2611     100.2454     170.2749 1533240144 9999999.9999
     746.0    2432.9585       0.0000    -155.1899    -999.2500     -29.7635      94.1908     -27.4551      94.1716     176.7849 1533240145 9999999.9999
     747.0    2407.9622       0.0000    -149.8965    -999.2500     -37.6763      86.9207     -35.3679      86.7434     182.8999 1533240146 9999999.9999
     748.0    2399.7441       0.0000    -145.3229    -999.2500     -45.0670      79.2488     -42.7586      78.9049     189.0079 1533240147 9999999.9999
     749.0    2367.4243       0.0000    -140.8005    -999.2500     -52.1765      70.1712     -49.8681      69.6300     195.1037 1533240148 9999999.9999
     750.0    2335.9634       0.0000    -132.5448    -999.2500     -65.8733      56.1128     -63.5649      55.2662     201.2094 1533240149 9999999.9999
     751.0    2297.7942       0.0000    -128.2401    -999.2500     -75.1920      49.8468     -72.8836      48.8641     207.3113 1533240150 9999999.9999
     752.0    2246.4058       0.0000    -123.6949    -999.2500     -84.2295      42.4562     -81.9211      41.3128     213.0214 1533240151 9999999.9999
     753.0    2143.6738       0.0000    -119.0128    -999.2500     -91.4997      34.9852     -89.1913      33.6795     219.1233 1533240152 9999999.9999
     754.0    2003.2051       0.0000    -113.5291    -999.2500     -97.9665      27.1527     -95.6581      25.6768     225.2252 1533240153 9999999.9999
     755.0    1840.6414       0.0000    -106.9441    -999.2500    -102.8668      19.0792    -100.5584      17.4279     231.3271 1533240154 9999999.9999
     756.0    1702.4818       0.0000     -99.4584      81.0870    -105.2768      11.1663    -102.9684       9.3432     237.4290 1533240155 9999999.9999
     757.0    1552.1523       0.0000     -90.8712      76.7383    -105.5982       2.8518    -103.2897       0.8480     243.5309 1533240156 9999999.9999
     758.0    1417.5908       0.0000     -82.3446      79.4011    -105.3572      -5.3422    -103.0488      -7.5240     250.0378 1533240157 9999999.9999
     759.0    1292.5093       0.0000     -74.4930      91.2587    -103.8710     -13.4157    -101.5626     -15.7729     256.1397 1533240158 9999999.9999
     760.0    1183.7122       0.0000     -67.8505    -999.2500    -100.2560     -21.2482     -97.9476     -23.7756     262.2446 1533240159 9999999.9999
     761.0    1102.0768       0.0000     -62.3166    -999.2500     -94.6728     -28.9200     -92.3644     -31.6141     268.3464 1533240160 9999999.9999
     762.0    1021.9840       0.0000     -57.5852    -999.2500     -88.0453     -36.4312     -85.7369     -39.2885     274.4482 1533240161 9999999.9999
     763.0     950.1689       0.0000     -53.5443    -999.2500     -80.6547     -43.3398     -78.3463     -46.3473     280.5530 1533240162 9999999.9999
     764.0     884.4340       0.0000     -49.1510    -999.2500     -71.0548     -50.5297     -68.7464     -53.6933     286.6518 1533240163 9999999.9999
     765.0     828.1802       0.0000     -41.3705    -999.2500     -55.6308     -62.1780     -53.3224     -65.5947     292.7536 1533240164 9999999.9999
     766.0     774.3668       0.0000     -36.1688    -999.2500     -48.3205     -76.0757     -46.0121     -79.7943     298.8553 1533240165 9999999.9999
     767.0     725.6192       0.0000     -32.1173    -999.2500     -41.1708     -84.4303     -38.8624     -88.3306     304.9572 1533240166 9999999.9999
     768.0     686.6455       0.0000     -27.8766    -999.2500     -34.1015     -91.0578     -31.7931     -95.1020     311.0466 1533240167 9999999.9999
     769.0     656.5126       0.0000     -22.8186    -999.2500     -26.7510     -96.2795     -24.4426    -100.4372     317.1491 1533240168 9999999.9999
     770.0     628.3512       0.0000     -16.8606    -999.2500     -19.4407     -99.3723     -17.1323    -103.5972     323.6589 1533240169 9999999.9999
     771.0     606.6652       0.0000      -9.5646      78.7778     -11.6885    -100.4568      -9.3801    -104.7053     329.7577 1533240170 9999999.9999
     772.0     597.3874       0.0000      -0.7694      75.3144      -3.0527    -100.4568      -0.7443    -104.7053     335.8625 1533240171 9999999.9999
     773.0     592.8541       0.0000       8.1075      78.0872       5.6233    -100.1355       7.9317    -104.3769     341.9643 1533240172 9999999.9999
     774.0     597.3874       0.0000      15.4859      92.8095      13.3755     -98.4485      15.6839    -102.6533     348.0661 1533240173 9999999.9999
     775.0     606.1423       0.0000      21.6762    -999.2500      20.8063     -94.8737      23.1147     -99.0008     354.1679 1533240174 9999999.9999
     776.0     631.1714       0.0000      27.0370    -999.2500      28.3175     -89.4110      30.6259     -93.4194       0.2697 1533240175 9999999.9999
     777.0     657.1262       0.0000      31.3423    -999.2500      35.1458     -83.0245      37.4542     -86.8942       6.3715 1533240176 9999999.9999
     778.0     694.7875       0.0000      35.4562    -999.2500      42.0143     -75.1518      44.3227     -78.8504      12.4764 1533240177 9999999.9999
     779.0     734.7179       0.0000      39.8815    -999.2500      48.7623     -65.1102      51.0707     -68.5906      18.5629 1533240178 9999999.9999
     780.0     779.5178       0.0000      50.0926    -999.2500      69.2473     -49.3648      71.5557     -52.5032      24.6524 1533240179 9999999.9999
     781.0     832.1006       0.0000      53.7719    -999.2500      78.4053     -43.2997      80.7137     -46.3062      30.7674 1533240180 9999999.9999
     782.0     896.8431       0.0000      57.6456    -999.2500      85.9968     -36.4312      88.3052     -39.2885      37.2650 1533240181 9999999.9999
     783.0     961.8673       0.0000      61.7659    -999.2500      92.4235     -29.6430      94.7319     -32.3528      43.3637 1533240182 9999999.9999
     784.0    1032.4890       0.0000      66.6426    -999.2500      97.1632     -22.6540      99.4716     -25.2120      49.4562 1533240183 9999999.9999
     785.0    1112.5396       0.0000      72.6540    -999.2500      99.7740     -15.3838     102.0824     -17.7839      55.5581 1533240184 9999999.9999
     786.0    1201.9231       0.0000      80.2272      81.2539     100.7782      -7.4308     103.0866      -9.6581      61.6599 1533240185 9999999.9999
     787.0    1324.1526       0.0000      89.0570      76.4234     101.3003       1.1247     103.6087      -0.9167      67.7494 1533240186 9999999.9999
     788.0    1461.7983       0.0000      98.3003      79.2285     101.2602      10.0015     103.5686       8.1530      73.8512 1533240187 9999999.9999
     789.0    1598.0114       0.0000     105.6313      91.1712      99.2518      17.5930     101.5602      15.9095      79.9530 1533240188 9999999.9999
     790.0    1731.8351       0.0000     112.0379    -999.2500      95.1147      25.1845      97.4231      23.6659      86.0548 1533240189 9999999.9999
     791.0    1885.0536       0.0000     117.4337    -999.2500      89.2905      32.6153      91.5989      31.2582      92.1565 1533240190 9999999.9999
     792.0    2032.1531       0.0000     122.1945    -999.2500      82.2212      40.0060      84.5296      38.8094      98.2583 1533240191 9999999.9999
     793.0    2163.4614       0.0000     126.5415    -999.2500      74.0673      47.1155      76.3757      46.0734     104.3632 1533240192 9999999.9999
     794.0    2260.8521       0.0000     131.1039    -999.2500      64.1060      53.9840      66.4144      53.0911     110.8699 1533240193 9999999.9999
