~VERSION INFORMATION
VERS.           2.0   :CWLS Log ASCII Standard - VERSION 2.0
WRAP.           NO    :One Line per depth step
PROD.  Schlumberger   :LAS Producer
PROG.  DLIS to ASCII 19C2-270                          :LAS Program name and version
CREA.        2018/08/03 10:59                          :LAS Creation date {YYYY/MM/DD hh:mm}
DLIS_CREA.  2018-Aug-03 09:22                          :DLIS Creation date and time {YYYY-MMM-DD hh:mm}
SOURCE.     PERFO_Perfo_075PTP.DLIS                    :DLIS File Name
FILE-ID.     PERFO_Perfo_075PTP                        :File Identification Number
#--------------------------------------------------
~WELL INFORMATION
#MNEM.UNIT      DATA             DESCRIPTION
#---- ------ --------------   -----------------------------
STRT .S            0.0       :START TIME      
STOP .S          907.0       :STOP TIME      
STEP .S            1.0       :STEP     
NULL .          -999.25      :NULL VALUE
COMP .        SHELL INTERNATIONAL EP                   :COMPANY
WELL .        WPP TEST 4                               :WELL
FLD  .        WILDCAT                                  :FIELD
LOC  .        NA                                       :LOCATION
CNTY .        HARRIS                                   :COUNTY
STAT .        TEXAS                                    :STATE
CTRY .                                                 :COUNTRY
API  .        NA                                       :API NUMBER
UWI  .                                                 :UNIQUE WELL ID
DATE .        02-Aug-2018                              :LOG DATE {DD-MMM-YYYY}
SRVC .        Schlumberger                             :SERVICE COMPANY
LATI .DEG                                              :LATITUDE
LONG .DEG                                              :LONGITUDE
GDAT .                                                 :GeoDetic Datum
SECT .        NA                                       :Section
RANG .        NA                                       :Range
TOWN .        NA                                       :Township
#-----------------------------------------------------------------------------
~PARAMETER INFORMATION
#MNEM.UNIT    VALUE                      DESCRIPTION
#---- -----   --------------------       ------------------------
U-PHASE_B_COMP_PER_YT.                 0 :Phase B Comparator Period Yt
U-PHASE_A_COMP_PER_XT.                 0 :Phase A Comparator Period Xt
U-MAX_EXC_CUR_LIMIT.MA       265.00000   :Requested CM Current Limit
U-REQ_EXC_FQ.HZ              50          :Requested CM Frequency
U-TILT_Y_OFFSET.          -2.06578       :WPTET Tilt Y Offset
U-TILT_Y_GAIN.           1.02173         :WPTET Tilt Y Gain
U-TILT_X_OFFSET.           2.30841       :WPTET Tilt X Offset
U-TILT_X_GAIN.           1.00000         :WPTET Tilt X Gain
U-TILT_OFFSET_TOL.           0.00100     :WPTET Tilt Offset Calibration Tolerance
U-MOT_CUR_LIMIT_REQ.MA        70.00000   :Requested Motor Current Limit
U-MOT_SPD_REQ_WPMS.RPM        1.00000    :Requested Motor Speed
U-STD_TOL_TILT.           0.01000        :Tilt Standard Deviation Tolerance
CWEI .LB/F      29.00000                 :Casing Weight
CSIZ .IN         7.00000                 :Current Casing Size
LCC  .               440                 :Logging Company Code
LUN  .              2134                 :Logging Unit Number
HIDE .                                   :Header Identifier
HID1 .                                   :Header Identifier Line 1
R1   .                                   :Remark Line 1
WITN .        MR. KELLY McCOY            :Witness's Name
ENGI .        MORRIS MOORE               :Engineer's Name
LUL  .        IOWA COLONY                :Logging Unit Location
DATE .        02-Aug-2018                :Date as Month-Day-Year
STAT .        TEXAS                      :State or Province
COUN .        HARRIS                     :County or Rig Name
FN   .        WILDCAT                    :Field Name
WN   .        WPP TEST 4                 :Well Name
CN   .        SHELL INTERNATIONAL EP     :Company Name
CLAB .        County                     :County/Rig Label
SLAB .        State                      :State/Province Label
RUN  .          1                        :RUN NUMBER
PDAT .        GROUND LEVEL               :Permanent Datum
EPD  .                                   :Elevation of Permanent Datum above Mean Sea Level
LMF  .          NA                       :Logging Measured From (Name of Logging Elevation Reference)
APD  .                                   :Elevation of Depth Reference (LMF) above Permanent Datum
#-----------------------------------------------------------------------------
~CURVE INFORMATION
#MNEM.UNIT   API CODE                                  DESCRIPTION
#---- -----  --------                                  -----------------------
TIME .S                                                :TIME {F10.1}
FREQ_EMF_SL.HZ                                         :Electromagnetic Field Frequency {F13.4}
PH_SH_WPPCM_SL.DEG                                     :WPPCM Phase Shift {F13.4}
RB_SL.DEG                                              :Relative Bearing {F13.4}
SDEV_SL.DEG                                            :Sonde Deviation {F13.4}
RTIX_SL.DEG                                            :Raw X-axis Tilt {F13.4}
RTIY_SL.DEG                                            :Raw Y-axis Tilt {F13.4}
TILX_SL.DEG                                            :X-axis Tilt {F13.4}
TILY_SL.DEG                                            :Y-axis Tilt {F13.4}
ROTA_SL.DEG                                            :Motor Rotation Angle {F13.4}
TOD7 .S                                                :Time of Day {I11}
TOJ  .S                                                :Time of Job {F13.4}
#-----------------------------------------------------------------------------
# 
#     TIME    FREQ_EMF_SL  PH_SH_WPPCM_    RB_SL       SDEV_SL      RTIX_SL      RTIY_SL      TILX_SL      TILY_SL      ROTA_SL        TOD7            TOJ
#                          SL
~A  
# ...
     265.0    2475.7922       0.0000      86.8668      76.8328     101.2200      -0.9640     103.5284      -3.0507      97.6214 1533240602 9999999.9999
     266.0    2475.7922       0.0000      95.8292      77.5037     101.4610       7.5915     103.7694       5.6907     103.7231 1533240603 9999999.9999
     267.0    2467.1052       0.0000     103.3564      87.9781     100.1355      15.1428     102.4439      13.4061     109.8249 1533240604 9999999.9999
     268.0    2475.7922       0.0000     110.0776    -999.2500      96.6812      22.7343      98.9896      21.1625     115.9267 1533240605 9999999.9999
     269.0    2449.9128       0.0000     115.8527    -999.2500      91.3390      30.3258      93.6474      28.9190     122.0293 1533240606 9999999.9999
     270.0    2375.4224       0.0000     120.7390    -999.2500      84.6312      37.6763      86.9396      36.4292     128.1342 1533240607 9999999.9999
     271.0    2309.1133       0.0000     125.3521    -999.2500      76.5175      45.1875      78.8259      44.1035     134.2337 1533240608 9999999.9999
     272.0    2068.0146       0.0000     129.9879    -999.2500      66.6767      52.4577      68.9851      51.5316     140.3517 1533240609 9999999.9999
     273.0    1694.2772       0.0000     138.1497    -999.2500      53.3815      67.8415      55.6899      67.2497     146.4536 1533240610 9999999.9999
     274.0    1432.0265       0.0000     142.1073    -999.2500      47.0352      77.4815      49.3436      77.0992     152.5432 1533240611 9999999.9999
     275.0    1264.6134       0.0000     145.9152    -999.2500      40.0863      85.3542      42.3947      85.1429     158.6451 1533240612 9999999.9999
     276.0    1105.5425       0.0000     150.1846    -999.2500      32.6153      92.6243      34.9237      92.5710     164.7602 1533240613 9999999.9999
     277.0     964.5062       0.0000     155.2278    -999.2500      24.8230      98.7297      27.1314      98.8090     170.8751 1533240614 9999999.9999
     278.0     852.2727       0.0000     161.3046    -999.2500      16.9102     103.2283      19.2186     103.4054     177.3820 1533240615 9999999.9999
     279.0     757.6778       0.0000     168.4176      79.5068       9.0777     105.3572      11.3861     105.5805     183.4839 1533240616 9999999.9999
     280.0     680.6631       0.0000     176.8915      74.2227       0.6828     105.8392       2.9912     106.0730     189.5888 1533240617 9999999.9999
     281.0     611.4130       0.0000    -174.5254      74.8212      -7.5915     105.8793      -5.2831     106.1140     195.6907 1533240618 9999999.9999
     282.0     545.9045       0.0000    -166.8158      86.2699     -15.4642     103.5095     -13.1558     103.6927     201.7926 1533240619 9999999.9999
     283.0     494.4620       0.0000    -159.5784    -999.2500     -23.8992      98.6895     -21.5908      98.7680     207.8945 1533240620 9999999.9999
     284.0     449.2811       0.0000    -153.5152    -999.2500     -32.1735      92.0218     -29.8651      91.9554     213.9964 1533240621 9999999.9999
     285.0     417.0374       0.0000    -148.3613    -999.2500     -40.1265      84.5910     -37.8181      84.3631     220.0860 1533240622 9999999.9999
     286.0     392.1500       0.0000    -143.8312    -999.2500     -47.4770      76.3568     -45.1686      75.9501     226.1755 1533240623 9999999.9999
     287.0     373.8038       0.0000    -139.0219    -999.2500     -54.7873      66.5562     -52.4789      65.9365     232.2774 1533240624 9999999.9999
     288.0     368.9008       0.0000    -131.0546    -999.2500     -69.1670      54.1045     -66.8586      53.2143     238.4056 1533240625 9999999.9999
     289.0     366.4018       0.0000    -126.6496    -999.2500     -78.4053      47.2762     -76.0969      46.2376     244.5075 1533240626 9999999.9999
     290.0     375.0000       0.0000    -122.4185    -999.2500     -86.4387      40.3675     -84.1302      39.1788     251.0174 1533240627 9999999.9999
     291.0     393.6870       0.0000    -117.6230    -999.2500     -93.5482      32.8965     -91.2398      31.5455     257.1193 1533240628 9999999.9999
     292.0     418.0291       0.0000    -111.8659    -999.2500     -99.5330      24.9837     -97.2246      23.4607     263.2188 1533240629 9999999.9999
     293.0     452.4614       0.0000    -105.0666    -999.2500    -103.8308      16.9905    -101.5224      15.2939     269.3237 1533240630 9999999.9999
     294.0     495.1584       0.0000     -97.2192      79.0046    -105.4375       8.9572    -103.1291       7.0860     275.4255 1533240631 9999999.9999
     295.0     550.1761       0.0000     -88.4680      76.7568    -105.6383       0.5623    -103.3299      -1.4912     281.5405 1533240632 9999999.9999
     296.0     621.6843       0.0000     -79.3900      82.5703    -105.2367      -8.2743    -102.9283     -10.5199     287.6423 1533240633 9999999.9999
     297.0     695.4748       0.0000     -72.0852      86.4372    -102.9873     -16.1068    -100.6789     -18.5226     293.7441 1533240634 9999999.9999
     298.0     780.3829       0.0000     -65.8070    -999.2500     -98.5690     -23.9393     -96.2606     -26.5252     299.8459 1533240635 9999999.9999
     299.0     878.9063       0.0000     -60.5319    -999.2500     -92.4235     -31.6513     -90.1151     -34.4048     305.9477 1533240636 9999999.9999
     300.0     991.7137       0.0000     -56.1416    -999.2500     -85.6755     -38.8813     -83.3671     -41.7919     312.0626 1533240637 9999999.9999
     301.0    1141.4368       0.0000     -52.1043    -999.2500     -77.6422     -45.7900     -75.3338     -48.8507     318.1644 1533240638 9999999.9999
     302.0    1297.2786       0.0000     -47.8448    -999.2500     -68.0423     -52.4175     -65.7339     -55.6222     324.6742 1533240639 9999999.9999
     303.0    1502.4038       0.0000     -39.0430    -999.2500     -53.0200     -69.0465     -50.7116     -72.6125     330.7760 1533240640 9999999.9999
     304.0    1831.0547       0.0000     -35.0017    -999.2500     -46.2720     -78.6865     -43.9636     -82.4619     336.8655 1533240641 9999999.9999
     305.0    2170.1389       0.0000     -30.9318    -999.2500     -39.1223     -86.5592     -36.8139     -90.5056     342.9673 1533240642 9999999.9999
     306.0    2312.9111       0.0000     -26.5522    -999.2500     -32.0530     -92.7850     -29.7446     -96.8667     349.0692 1533240643 9999999.9999
     307.0    2399.7441       0.0000     -21.1851    -999.2500     -24.6222     -97.4042     -22.3138    -101.5863     355.1710 1533240644 9999999.9999
     308.0    2458.4790       0.0000     -14.4220      83.8242     -16.7495     -99.8945     -14.4411    -104.1307       1.2728 1533240645 9999999.9999
     309.0    2467.1052       0.0000      -6.4201      76.6966      -8.5555    -100.4970      -6.2471    -104.7463       7.3499 1533240646 9999999.9999
     310.0    2467.1052       0.0000       2.4251      75.5750       0.0402    -100.3765       2.3486    -104.6232      13.4547 1533240647 9999999.9999
     311.0    2484.5405       0.0000      10.9538      81.2153       8.5153     -99.7740      10.8237    -104.0076      19.5535 1533240648 9999999.9999
     312.0    2467.1052       0.0000      17.7418      84.0555      15.9462     -97.5648      18.2546    -101.7504      25.6553 1533240649 9999999.9999
     313.0    2475.7922       0.0000      23.5186    -999.2500      23.2565     -93.3473      25.5649     -97.4413      31.7571 1533240650 9999999.9999
     314.0    2475.7922       0.0000      28.3211    -999.2500      30.2857     -87.7240      32.5941     -91.6958      38.2555 1533240651 9999999.9999
     315.0    2475.7922       0.0000      32.5715    -999.2500      37.1943     -80.8957      39.5027     -84.7191      44.3449 1533240652 9999999.9999
     316.0    2475.7922       0.0000      36.6823    -999.2500      44.0227     -72.5410      46.3311     -76.1829      50.4467 1533240653 9999999.9999
     317.0    2475.7922       0.0000      41.4168    -999.2500      50.5297     -61.2140      52.8381     -64.6098      56.5486 1533240654 9999999.9999
