~VERSION INFORMATION
VERS.           2.0   :CWLS Log ASCII Standard - VERSION 2.0
WRAP.           NO    :One Line per depth step
PROD.  Schlumberger   :LAS Producer
PROG.  DLIS to ASCII 19C2-270                          :LAS Program name and version
CREA.        2018/08/03 10:59                          :LAS Creation date {YYYY/MM/DD hh:mm}
DLIS_CREA.  2018-Aug-03 09:18                          :DLIS Creation date and time {YYYY-MMM-DD hh:mm}
SOURCE.     PERFO_Perfo_074PTP.DLIS                    :DLIS File Name
FILE-ID.     PERFO_Perfo_074PTP                        :File Identification Number
#--------------------------------------------------
~WELL INFORMATION
#MNEM.UNIT      DATA             DESCRIPTION
#---- ------ --------------   -----------------------------
STRT .S            0.0       :START TIME      
STOP .S          866.0       :STOP TIME      
STEP .S            1.0       :STEP     
NULL .          -999.25      :NULL VALUE
COMP .        SHELL INTERNATIONAL EP                   :COMPANY
WELL .        WPP TEST 4                               :WELL
FLD  .        WILDCAT                                  :FIELD
LOC  .        NA                                       :LOCATION
CNTY .        HARRIS                                   :COUNTY
STAT .        TEXAS                                    :STATE
CTRY .                                                 :COUNTRY
API  .        NA                                       :API NUMBER
UWI  .                                                 :UNIQUE WELL ID
DATE .        02-Aug-2018                              :LOG DATE {DD-MMM-YYYY}
SRVC .        Schlumberger                             :SERVICE COMPANY
LATI .DEG                                              :LATITUDE
LONG .DEG                                              :LONGITUDE
GDAT .                                                 :GeoDetic Datum
SECT .        NA                                       :Section
RANG .        NA                                       :Range
TOWN .        NA                                       :Township
#-----------------------------------------------------------------------------
~PARAMETER INFORMATION
#MNEM.UNIT    VALUE                      DESCRIPTION
#---- -----   --------------------       ------------------------
U-PHASE_B_COMP_PER_YT.                 0 :Phase B Comparator Period Yt
U-PHASE_A_COMP_PER_XT.                 0 :Phase A Comparator Period Xt
U-MAX_EXC_CUR_LIMIT.MA       265.00000   :Requested CM Current Limit
U-REQ_EXC_FQ.HZ              50          :Requested CM Frequency
U-TILT_Y_OFFSET.          -2.06578       :WPTET Tilt Y Offset
U-TILT_Y_GAIN.           1.02173         :WPTET Tilt Y Gain
U-TILT_X_OFFSET.           2.30841       :WPTET Tilt X Offset
U-TILT_X_GAIN.           1.00000         :WPTET Tilt X Gain
U-TILT_OFFSET_TOL.           0.00100     :WPTET Tilt Offset Calibration Tolerance
U-MOT_CUR_LIMIT_REQ.MA        70.00000   :Requested Motor Current Limit
U-MOT_SPD_REQ_WPMS.RPM        1.00000    :Requested Motor Speed
U-STD_TOL_TILT.           0.01000        :Tilt Standard Deviation Tolerance
CWEI .LB/F      29.00000                 :Casing Weight
CSIZ .IN         7.00000                 :Current Casing Size
LCC  .               440                 :Logging Company Code
LUN  .              2134                 :Logging Unit Number
HIDE .                                   :Header Identifier
HID1 .                                   :Header Identifier Line 1
R1   .                                   :Remark Line 1
WITN .        MR. KELLY McCOY            :Witness's Name
ENGI .        MORRIS MOORE               :Engineer's Name
LUL  .        IOWA COLONY                :Logging Unit Location
DATE .        02-Aug-2018                :Date as Month-Day-Year
STAT .        TEXAS                      :State or Province
COUN .        HARRIS                     :County or Rig Name
FN   .        WILDCAT                    :Field Name
WN   .        WPP TEST 4                 :Well Name
CN   .        SHELL INTERNATIONAL EP     :Company Name
CLAB .        County                     :County/Rig Label
SLAB .        State                      :State/Province Label
RUN  .          1                        :RUN NUMBER
PDAT .        GROUND LEVEL               :Permanent Datum
EPD  .                                   :Elevation of Permanent Datum above Mean Sea Level
LMF  .          NA                       :Logging Measured From (Name of Logging Elevation Reference)
APD  .                                   :Elevation of Depth Reference (LMF) above Permanent Datum
#-----------------------------------------------------------------------------
~CURVE INFORMATION
#MNEM.UNIT   API CODE                                  DESCRIPTION
#---- -----  --------                                  -----------------------
TIME .S                                                :TIME {F10.1}
FREQ_EMF_SL.HZ                                         :Electromagnetic Field Frequency {F13.4}
PH_SH_WPPCM_SL.DEG                                     :WPPCM Phase Shift {F13.4}
RB_SL.DEG                                              :Relative Bearing {F13.4}
SDEV_SL.DEG                                            :Sonde Deviation {F13.4}
RTIX_SL.DEG                                            :Raw X-axis Tilt {F13.4}
RTIY_SL.DEG                                            :Raw Y-axis Tilt {F13.4}
TILX_SL.DEG                                            :X-axis Tilt {F13.4}
TILY_SL.DEG                                            :Y-axis Tilt {F13.4}
ROTA_SL.DEG                                            :Motor Rotation Angle {F13.4}
TOD7 .S                                                :Time of Day {I11}
TOJ  .S                                                :Time of Job {F13.4}
#-----------------------------------------------------------------------------
# 
#     TIME    FREQ_EMF_SL  PH_SH_WPPCM_    RB_SL       SDEV_SL      RTIX_SL      RTIY_SL      TILX_SL      TILY_SL      ROTA_SL        TOD7            TOJ
#                          SL
~A  
# ...
     106.0    1650.5282       0.0000     -70.9904    -999.2500    -102.2643     -17.3922     -99.9559     -19.8358     210.5344 1533239505 9999999.9999
     107.0    1816.8605       0.0000     -64.8756    -999.2500     -97.5648     -25.2247     -95.2564     -27.8385     216.6363 1533239506 9999999.9999
     108.0    1958.5656       0.0000     -59.7202    -999.2500     -91.3390     -32.9367     -89.0306     -35.7181     222.7413 1533239507 9999999.9999
     109.0    2086.4243       0.0000     -55.5442    -999.2500     -84.4303     -39.8855     -82.1219     -42.8179     228.8401 1533239508 9999999.9999
     110.0    2190.4207       0.0000     -51.5223    -999.2500     -76.2363     -46.7138     -73.9279     -49.7946     234.9420 1533239509 9999999.9999
     111.0    2260.8521       0.0000     -46.7015    -999.2500     -65.3110     -53.8635     -63.0026     -57.0996     241.0316 1533239510 9999999.9999
     112.0    2297.7942       0.0000     -38.0583    -999.2500     -51.4535     -71.4163     -49.1451     -75.0338     247.1335 1533239511 9999999.9999
     113.0    2328.2285       0.0000     -34.1143    -999.2500     -44.7055     -80.6547     -42.3971     -84.4728     253.2354 1533239512 9999999.9999
     114.0    2351.5886       0.0000     -30.0064    -999.2500     -37.5558     -88.1257     -35.2474     -92.1062     259.3372 1533239513 9999999.9999
     115.0    2391.5815       0.0000     -25.3853    -999.2500     -30.3258     -94.0302     -28.0174     -98.1390     265.4390 1533239514 9999999.9999
     116.0    2399.7441       0.0000     -19.8600    -999.2500     -22.9753     -98.0870     -20.6669    -102.2839     271.5408 1533239515 9999999.9999
     117.0    2407.9622       0.0000     -13.1433      84.2243     -15.3838    -100.0953     -13.0754    -104.3359     278.0384 1533239516 9999999.9999
     118.0    2407.9622       0.0000      -5.0267      76.2065      -7.1898    -100.4167      -4.8814    -104.6642     284.1402 1533239517 9999999.9999
     119.0    2424.5691       0.0000       4.0363      75.9332       1.6067    -100.3765       3.9151    -104.6232     290.2420 1533239518 9999999.9999
     120.0    2432.9585       0.0000      12.1464      83.5710       9.7605     -99.4928      12.0689    -103.7203     296.3438 1533239519 9999999.9999
     121.0    2407.9622       0.0000      18.7862    -999.2500      17.1913     -96.9222      19.4997    -101.0938     302.4456 1533239520 9999999.9999
     122.0    2399.7441       0.0000      24.4966    -999.2500      24.6222     -92.2227      26.9306     -96.2922     308.5605 1533239521 9999999.9999
     123.0    2383.4746       0.0000      29.3905    -999.2500      31.9727     -85.9968      34.2811     -89.9311     314.6499 1533239522 9999999.9999
     124.0    2367.4243       0.0000      33.5624    -999.2500      38.8412     -78.8873      41.1496     -82.6671     320.7648 1533239523 9999999.9999
     125.0    2343.7500       0.0000      37.7020    -999.2500      45.6293     -70.2515      47.9377     -73.8436     326.8542 1533239524 9999999.9999
     126.0    2297.7942       0.0000      43.1138    -999.2500      51.0518     -55.7112      53.3602     -58.9874     332.9691 1533239525 9999999.9999
     127.0    2246.4058       0.0000      51.9783    -999.2500      74.1075     -46.3925      76.4159     -49.4663     339.0585 1533239526 9999999.9999
     128.0    2163.4614       0.0000      55.8136    -999.2500      82.5425     -39.6445      84.8509     -42.5716     345.1742 1533239527 9999999.9999
     129.0    2055.9211       0.0000      59.7595    -999.2500      89.6118     -32.8563      91.9202     -35.6360     351.6971 1533239528 9999999.9999
     130.0    1926.3699       0.0000      64.3662    -999.2500      95.1147     -25.7870      97.4231     -28.4131     357.3909 1533239529 9999999.9999
     131.0    1784.5813       0.0000      69.7481    -999.2500      98.7297     -18.7578     101.0381     -21.2312       3.4927 1533239530 9999999.9999
     132.0    1646.6628       0.0000      76.4080      85.1232     100.4568     -11.3270     102.7652     -13.6389       9.5945 1533239531 9999999.9999
     133.0    1515.3556       0.0000      85.0276      77.6191     101.0192      -2.7313     103.3276      -4.8565      15.7225 1533239532 9999999.9999
     134.0    1386.8344       0.0000      93.9484      76.7983     101.4610       5.7840     103.7694       3.8439      21.8244 1533239533 9999999.9999
     135.0    1266.8918       0.0000     101.8044      85.3230     100.3765      13.5362     102.6849      11.7645      27.9262 1533239534 9999999.9999
     136.0    1169.9252       0.0000     109.3011    -999.2500      97.0025      21.8105      99.3109      20.2186      34.0157 1533239535 9999999.9999
     137.0    1096.9188       0.0000     115.0469    -999.2500      92.1022      29.2012      94.4106      27.7698      40.1175 1533239536 9999999.9999
     138.0    1027.9606       0.0000     119.9213    -999.2500      85.8763      36.3910      88.1847      35.1159      46.1946 1533239537 9999999.9999
     139.0     959.2429       0.0000     124.4382    -999.2500      78.1242      43.6612      80.4326      42.5440      52.2964 1533239538 9999999.9999
     140.0     896.8431       0.0000     128.8926    -999.2500      69.0465      50.8108      71.3549      49.8490      58.3983 1533239539 9999999.9999
     141.0     847.1386       0.0000     136.8013    -999.2500      55.2292      64.6282      57.5376      63.9666      64.9081 1533239540 9999999.9999
     142.0     794.4915       0.0000     141.2545    -999.2500      48.4410      75.2322      50.7494      74.8010      71.0099 1533239541 9999999.9999
     143.0     748.0053       0.0000     145.0942    -999.2500      41.5725      83.6672      43.8809      83.4192      77.1116 1533239542 9999999.9999
     144.0     714.5579       0.0000     149.2329    -999.2500      34.2220      91.0980      36.5304      91.0115      83.2266 1533239543 9999999.9999
     145.0     680.0049       0.0000     154.0055    -999.2500      26.5903      97.6050      28.8987      97.6599      89.3678 1533239544 9999999.9999
     146.0     658.3568       0.0000     160.0750    -999.2500      18.3963     102.5857      20.7047     102.7488      95.4695 1533239545 9999999.9999
     147.0     636.8886       0.0000     167.1397      81.3510      10.4032     105.2367      12.7116     105.4574     101.5713 1533239546 9999999.9999
     148.0     631.1714       0.0000     175.4806      74.6022       2.0485     105.7990       4.3569     106.0319     107.6608 1533239547 9999999.9999
     149.0     628.9133       0.0000    -175.8088      74.4692      -6.3463     105.8392      -4.0379     106.0730     113.7625 1533239548 9999999.9999
     150.0     632.3067       0.0000    -167.8662      82.5964     -14.3395     103.9915     -12.0311     104.1852     119.8643 1533239549 9999999.9999
     151.0     643.8874       0.0000    -160.5495    -999.2500     -22.6942      99.3723     -20.3858      99.4656     125.9661 1533239550 9999999.9999
     152.0     662.7003       0.0000    -154.6007    -999.2500     -30.6070      93.2670     -28.2986      93.2277     132.0680 1533239551 9999999.9999
     153.0     689.3383       0.0000    -149.4114    -999.2500     -38.4395      86.1173     -36.1311      85.9226     138.5779 1533239552 9999999.9999
     154.0     725.6192       0.0000    -144.8260    -999.2500     -45.8703      78.2848     -43.5619      77.9200     144.6798 1533239553 9999999.9999
     155.0     763.4365       0.0000    -140.1525    -999.2500     -53.1807      68.9260     -50.8723      68.3578     150.7817 1533239554 9999999.9999
     156.0     809.1197       0.0000    -132.1108    -999.2500     -66.8373      55.5505     -64.5289      54.6917     156.8836 1533239555 9999999.9999
     157.0     863.7899       0.0000    -127.5664    -999.2500     -76.5577      48.7623     -74.2493      47.7560     162.9985 1533239556 9999999.9999
     158.0     923.9487       0.0000    -123.2652    -999.2500     -84.8320      41.7332     -82.5236      40.5741     169.1004 1533239557 9999999.9999
