~VERSION INFORMATION
VERS.           2.0   :CWLS Log ASCII Standard - VERSION 2.0
WRAP.           NO    :One Line per depth step
PROD.  Schlumberger   :LAS Producer
PROG.  DLIS to ASCII 19C2-270                          :LAS Program name and version
CREA.        2018/08/03 10:59                          :LAS Creation date {YYYY/MM/DD hh:mm}
DLIS_CREA.  2018-Aug-03 09:13                          :DLIS Creation date and time {YYYY-MMM-DD hh:mm}
SOURCE.     PERFO_Perfo_073PTP.DLIS                    :DLIS File Name
FILE-ID.     PERFO_Perfo_073PTP                        :File Identification Number
#--------------------------------------------------
~WELL INFORMATION
#MNEM.UNIT      DATA             DESCRIPTION
#---- ------ --------------   -----------------------------
STRT .S            0.0       :START TIME      
STOP .S         1015.0       :STOP TIME      
STEP .S            1.0       :STEP     
NULL .          -999.25      :NULL VALUE
COMP .        SHELL INTERNATIONAL EP                   :COMPANY
WELL .        WPP TEST 4                               :WELL
FLD  .        WILDCAT                                  :FIELD
LOC  .        NA                                       :LOCATION
CNTY .        HARRIS                                   :COUNTY
STAT .        TEXAS                                    :STATE
CTRY .                                                 :COUNTRY
API  .        NA                                       :API NUMBER
UWI  .                                                 :UNIQUE WELL ID
DATE .        02-Aug-2018                              :LOG DATE {DD-MMM-YYYY}
SRVC .        Schlumberger                             :SERVICE COMPANY
LATI .DEG                                              :LATITUDE
LONG .DEG                                              :LONGITUDE
GDAT .                                                 :GeoDetic Datum
SECT .        NA                                       :Section
RANG .        NA                                       :Range
TOWN .        NA                                       :Township
#-----------------------------------------------------------------------------
~PARAMETER INFORMATION
#MNEM.UNIT    VALUE                      DESCRIPTION
#---- -----   --------------------       ------------------------
U-PHASE_B_COMP_PER_YT.                 0 :Phase B Comparator Period Yt
U-PHASE_A_COMP_PER_XT.                 0 :Phase A Comparator Period Xt
U-MAX_EXC_CUR_LIMIT.MA       265.00000   :Requested CM Current Limit
U-REQ_EXC_FQ.HZ              50          :Requested CM Frequency
U-TILT_Y_OFFSET.          -2.06578       :WPTET Tilt Y Offset
U-TILT_Y_GAIN.           1.02173         :WPTET Tilt Y Gain
U-TILT_X_OFFSET.           2.30841       :WPTET Tilt X Offset
U-TILT_X_GAIN.           1.00000         :WPTET Tilt X Gain
U-TILT_OFFSET_TOL.           0.00100     :WPTET Tilt Offset Calibration Tolerance
U-MOT_CUR_LIMIT_REQ.MA        70.00000   :Requested Motor Current Limit
U-MOT_SPD_REQ_WPMS.RPM        1.00000    :Requested Motor Speed
U-STD_TOL_TILT.           0.01000        :Tilt Standard Deviation Tolerance
CWEI .LB/F      29.00000                 :Casing Weight
CSIZ .IN         7.00000                 :Current Casing Size
LCC  .               440                 :Logging Company Code
LUN  .              2134                 :Logging Unit Number
HIDE .                                   :Header Identifier
HID1 .                                   :Header Identifier Line 1
R1   .                                   :Remark Line 1
WITN .        MR. KELLY McCOY            :Witness's Name
ENGI .        MORRIS MOORE               :Engineer's Name
LUL  .        IOWA COLONY                :Logging Unit Location
DATE .        02-Aug-2018                :Date as Month-Day-Year
STAT .        TEXAS                      :State or Province
COUN .        HARRIS                     :County or Rig Name
FN   .        WILDCAT                    :Field Name
WN   .        WPP TEST 4                 :Well Name
CN   .        SHELL INTERNATIONAL EP     :Company Name
CLAB .        County                     :County/Rig Label
SLAB .        State                      :State/Province Label
RUN  .          1                        :RUN NUMBER
PDAT .        GROUND LEVEL               :Permanent Datum
EPD  .                                   :Elevation of Permanent Datum above Mean Sea Level
LMF  .          NA                       :Logging Measured From (Name of Logging Elevation Reference)
APD  .                                   :Elevation of Depth Reference (LMF) above Permanent Datum
#-----------------------------------------------------------------------------
~CURVE INFORMATION
#MNEM.UNIT   API CODE                                  DESCRIPTION
#---- -----  --------                                  -----------------------
TIME .S                                                :TIME {F10.1}
FREQ_EMF_SL.HZ                                         :Electromagnetic Field Frequency {F13.4}
PH_SH_WPPCM_SL.DEG                                     :WPPCM Phase Shift {F13.4}
RB_SL.DEG                                              :Relative Bearing {F13.4}
SDEV_SL.DEG                                            :Sonde Deviation {F13.4}
RTIX_SL.DEG                                            :Raw X-axis Tilt {F13.4}
RTIY_SL.DEG                                            :Raw Y-axis Tilt {F13.4}
TILX_SL.DEG                                            :X-axis Tilt {F13.4}
TILY_SL.DEG                                            :Y-axis Tilt {F13.4}
ROTA_SL.DEG                                            :Motor Rotation Angle {F13.4}
TOD7 .S                                                :Time of Day {I11}
TOJ  .S                                                :Time of Job {F13.4}
#-----------------------------------------------------------------------------
# 
#     TIME    FREQ_EMF_SL  PH_SH_WPPCM_    RB_SL       SDEV_SL      RTIX_SL      RTIY_SL      TILX_SL      TILY_SL      ROTA_SL        TOD7            TOJ
#                          SL
~A  
# ...
     371.0    1432.0265       0.0000      58.2299    -999.2500      87.0412     -35.4270      89.3496     -38.2625     245.1039 1533238452 9999999.9999
     372.0    1420.4546       0.0000      62.4732    -999.2500      93.2670     -28.5585      95.5754     -31.2448     251.2058 1533238453 9999999.9999
     373.0    1417.5908       0.0000      67.5669    -999.2500      97.8058     -21.4490     100.1142     -23.9808     257.3077 1533238454 9999999.9999
     374.0    1409.0682       0.0000      73.7772    -999.2500     100.0552     -14.1387     102.3636     -16.5116     263.4095 1533238455 9999999.9999
     375.0    1403.4431       0.0000      81.6423      79.6852     100.9388      -6.0250     103.2472      -8.2217     269.5113 1533238456 9999999.9999
     376.0    1400.6475       0.0000      90.6615      76.3668     101.3405       2.6510     103.6489       0.6428     275.6131 1533238457 9999999.9999
     377.0    1397.8628       0.0000      99.2303      80.2884     101.0593      10.9253     103.3677       9.0969     282.1229 1533238458 9999999.9999
     378.0    1389.5751       0.0000     106.4673      96.1471      98.9305      18.5168     101.2389      16.8534     288.2247 1533238459 9999999.9999
     379.0    1381.3850       0.0000     112.8374    -999.2500      94.2310      26.2288      96.5394      24.7329     294.3265 1533238460 9999999.9999
     380.0    1381.3850       0.0000     118.1358    -999.2500      88.2863      33.6597      90.5947      32.3252     300.4283 1533238461 9999999.9999
     381.0    1378.6765       0.0000     122.8363    -999.2500      81.1367      41.0503      83.4451      39.8765     306.5301 1533238462 9999999.9999
     382.0    1374.6334       0.0000     127.3653    -999.2500      72.3603      48.4410      74.6687      47.4277     312.6319 1533238463 9999999.9999
     383.0    1367.9475       0.0000     132.4525    -999.2500      60.6517      55.4300      62.9601      54.5686     318.7337 1533238464 9999999.9999
     384.0    1367.9475       0.0000     140.1308    -999.2500      50.2887      72.5008      52.5971      72.0103     324.8487 1533238465 9999999.9999
     385.0    1357.3842       0.0000     143.9231    -999.2500      43.7013      81.2170      46.0097      80.9158     330.9505 1533238466 9999999.9999
     386.0    1352.1635       0.0000     147.7753    -999.2500      36.7525      88.7282      39.0609      88.5902     337.0523 1533238467 9999999.9999
     387.0    1352.1635       0.0000     152.2193    -999.2500      29.3217      95.4360      31.6301      95.4438     343.1541 1533238468 9999999.9999
     388.0    1349.5681       0.0000     157.6235    -999.2500      21.5293     100.8585      23.8377     100.9841     349.2559 1533238469 9999999.9999
     389.0    1346.9828       0.0000     164.0626      85.5823      13.7370     104.3530      16.0454     104.5545     355.7533 1533238470 9999999.9999
     390.0    1344.4073       0.0000     171.7922      76.2768       5.6635     105.7187       7.9719     105.9499       1.8551 1533238471 9999999.9999
     391.0    1341.8416       0.0000     179.5200      73.7287      -1.8477     106.0400       0.4607     106.2782       7.9569 1533238472 9999999.9999
     392.0    1339.2858       0.0000    -171.6800      76.6828     -10.4032     105.4375      -8.0948     105.6626      14.0465 1533238473 9999999.9999
     393.0    1339.2858       0.0000    -164.0747      94.6659     -18.5168     101.8225     -16.2084     101.9690      20.1483 1533238474 9999999.9999
     394.0    1339.2858       0.0000    -157.3848    -999.2500     -26.7510      96.6008     -24.4426      96.6339      26.2501 1533238475 9999999.9999
     395.0    1339.2858       0.0000    -151.4757    -999.2500     -35.2262      89.2102     -32.9178      89.0827      32.3519 1533238476 9999999.9999
     396.0    1339.2858       0.0000    -146.6974    -999.2500     -42.8177      81.6990     -40.5093      81.4083      38.4538 1533238477 9999999.9999
     397.0    1349.5681       0.0000    -142.1119    -999.2500     -50.2083      72.9427     -47.8999      72.4617      44.5556 1533238478 9999999.9999
     398.0    1349.5681       0.0000    -136.8702    -999.2500     -57.3982      61.8165     -55.0898      61.0938      50.6574 1533238479 9999999.9999
     399.0    1352.1635       0.0000    -129.4605    -999.2500     -72.5812      51.7347     -70.2728      50.7929      56.7592 1533238480 9999999.9999
     400.0    1352.1635       0.0000    -125.2040    -999.2500     -81.2170      44.9063     -78.9086      43.8162      62.8610 1533238481 9999999.9999
     401.0    1360.0098       0.0000    -120.7723    -999.2500     -88.8888      37.7165     -86.5804      36.4702      69.3708 1533238482 9999999.9999
     402.0    1360.0098       0.0000    -115.7264    -999.2500     -95.5565      30.1652     -93.2481      28.7548      75.4726 1533238483 9999999.9999
     403.0    1370.6140       0.0000    -109.6293    -999.2500    -101.2602      22.2122     -98.9518      20.6290      81.5744 1533238484 9999999.9999
     404.0    1373.2910       0.0000    -102.5378      83.5518    -104.7145      14.2993    -102.4061      12.5442      87.6762 1533238485 9999999.9999
     405.0    1373.2910       0.0000     -94.2760      77.3627    -105.6383       6.1053    -103.3299       4.1722      93.7911 1533238486 9999999.9999
     406.0    1381.3850       0.0000     -85.5301      77.5145    -105.5580      -2.2493    -103.2496      -4.3640      99.8929 1533238487 9999999.9999
     407.0    1389.5751       0.0000     -76.6969      87.7942    -104.7145     -11.0458    -102.4061     -13.3516     105.9947 1533238488 9999999.9999
     408.0    1392.3268       0.0000     -69.8121    -999.2500    -101.6618     -18.7980     -99.3534     -21.2722     112.0965 1533238489 9999999.9999
     409.0    1397.8628       0.0000     -63.8802    -999.2500     -96.5205     -26.6305     -94.2121     -29.2749     118.1982 1533238490 9999999.9999
     410.0    1406.2500       0.0000     -58.9720    -999.2500     -90.1742     -34.1417     -87.8658     -36.9492     124.3031 1533238491 9999999.9999
     411.0    1411.8976       0.0000     -54.7325    -999.2500     -82.9843     -41.2913     -80.6759     -44.2543     130.4149 1533238492 9999999.9999
     412.0    1411.8976       0.0000     -50.7094    -999.2500     -74.5493     -48.0795     -72.2409     -51.1899     136.5044 1533238493 9999999.9999
     413.0    1420.4546       0.0000     -46.1234    -999.2500     -63.9052     -54.5062     -61.5968     -57.7562     143.0144 1533238494 9999999.9999
     414.0    1426.2170       0.0000     -37.6652    -999.2500     -50.8510     -72.5008     -48.5426     -76.1419     149.1193 1533238495 9999999.9999
     415.0    1429.1158       0.0000     -33.5999    -999.2500     -43.7817     -81.5785     -41.4733     -85.4167     155.2182 1533238496 9999999.9999
     416.0    1434.9490       0.0000     -29.4960    -999.2500     -36.7123     -88.7683     -34.4039     -92.7628     161.3201 1533238497 9999999.9999
     417.0    1434.9490       0.0000     -24.7409    -999.2500     -29.4020     -94.6327     -27.0936     -98.7545     167.4227 1533238498 9999999.9999
     418.0    1434.9490       0.0000     -19.1742    -999.2500     -22.1318     -98.5690     -19.8234    -102.7764     173.5246 1533238499 9999999.9999
     419.0    1440.8298       0.0000     -11.9152      81.7491     -14.0985    -100.2158     -11.7901    -104.4590     179.6265 1533238500 9999999.9999
     420.0    1443.7886       0.0000      -3.2991      75.5352      -5.5028    -100.5773      -3.1944    -104.8284     185.7284 1533238501 9999999.9999
     421.0    1443.7886       0.0000       6.0867      76.7238       3.6150    -100.3363       5.9234    -104.5821     191.8303 1533238502 9999999.9999
     422.0    1434.9490       0.0000      13.6198      85.4841      11.3270     -99.1313      13.6354    -103.3510     197.9454 1533238503 9999999.9999
     423.0    1443.7886       0.0000      20.1346    -999.2500      18.8382     -96.1188      21.1466    -100.2730     204.0473 1533238504 9999999.9999
