~VERSION INFORMATION
VERS.           2.0   :CWLS Log ASCII Standard - VERSION 2.0
WRAP.           NO    :One Line per depth step
PROD.  Schlumberger   :LAS Producer
PROG.  DLIS to ASCII 19C2-270                          :LAS Program name and version
CREA.        2017/09/16 17:42                          :LAS Creation date {YYYY/MM/DD hh:mm}
DLIS_CREA.  2017-Sep-15 17:32                          :DLIS Creation date and time {YYYY-MMM-DD hh:mm}
SOURCE.     LPC_S4-1_A5.DLIS                           :DLIS File Name
FILE-ID.     PERFO_Perfo_WPGRT_048LTP                  :File Identification Number
#--------------------------------------------------
~WELL INFORMATION
#MNEM.UNIT      DATA             DESCRIPTION
#---- ------ --------------   -----------------------------
STRT .S         1889.0       :START TIME      
STOP .S         2373.0       :STOP TIME      
STEP .S            1.0       :STEP     
NULL .          -999.25      :NULL VALUE
COMP .        SHELL INTERNATIONAL E P                  :COMPANY
WELL .        WPP TEST 2                               :WELL
FLD  .        WILDCAT                                  :FIELD
LOC  .        NA                                       :LOCATION
CNTY .        HARRIS                                   :COUNTY
STAT .        TEXAS                                    :STATE
CTRY .                                                 :COUNTRY
API  .        NA                                       :API NUMBER
UWI  .                                                 :UNIQUE WELL ID
DATE .        15-Sep-2017                              :LOG DATE {DD-MMM-YYYY}
SRVC .        Schlumberger                             :SERVICE COMPANY
LATI .DEG                                              :LATITUDE
LONG .DEG                                              :LONGITUDE
GDAT .                                                 :GeoDetic Datum
SECT .        NA                                       :Section
RANG .        NA                                       :Range
TOWN .        NA                                       :Township
#-----------------------------------------------------------------------------
~PARAMETER INFORMATION
#MNEM.UNIT    VALUE                      DESCRIPTION
#---- -----   --------------------       ------------------------
U-PHASE_B_COMP_PER_YT.                 0 :Phase B Comparator Period Yt
U-PHASE_A_COMP_PER_XT.                 0 :Phase A Comparator Period Xt
U-MAX_EXC_CUR_LIMIT.MA       240.00000   :Requested CM Current Limit
U-REQ_EXC_FQ.HZ              50          :Requested CM Frequency
U-TILT_Y_OFFSET.           0.19916       :WPTET Tilt Y Offset
U-TILT_Y_GAIN.           1.01796         :WPTET Tilt Y Gain
U-TILT_X_OFFSET.          -1.77103       :WPTET Tilt X Offset
U-TILT_X_GAIN.           1.00000         :WPTET Tilt X Gain
U-TILT_OFFSET_TOL.           0.00100     :WPTET Tilt Offset Calibration Tolerance
U-NO_TILT_CAL_ROTATIONS.                 3 :Number of Rotations for Tilt Calibration
HAZI .DEG        0.00000                 :Hole Azimuth
U-STD_TOL_TILT.           0.01000        :Tilt Standard Deviation Tolerance
U-GUN_POS_TOL.DEG        5.00000         :Gun Position Tolerance
ROT_ANGLE_THRESHOLD.DEG        5.00000   :Rotation Stop Angle Tolerance
STOP_ROT_ANGLE.DEG        0.00000        :Rotation Stop Angle
WITN .        MR. DHRUA ARORA            :Witness's Name
ENGI .        MORRIS MOORE               :Engineer's Name
COUN .        HARRIS                     :County or Rig Name
FN   .        WILDCAT                    :Field Name
WN   .        WPP TEST 2                 :Well Name
CN   .        SHELL INTERNATIONAL E P    :Company Name
CLAB .        County                     :County/Rig Label
SLAB .        State                      :State/Province Label
RUN  .          1                        :RUN NUMBER
PDAT .        GROUND LEVEL               :Permanent Datum
EPD  .                                   :Elevation of Permanent Datum above Mean Sea Level
LMF  .          NA                       :Logging Measured From (Name of Logging Elevation Reference)
APD  .                                   :Elevation of Depth Reference (LMF) above Permanent Datum
#-----------------------------------------------------------------------------
~CURVE INFORMATION
#MNEM.UNIT   API CODE                                  DESCRIPTION
#---- -----  --------                                  -----------------------
TIME .S                                                :TIME {F10.1}
FREQ_EMF_SL.HZ                                         :Electromagnetic Field Frequency {F13.4}
PH_SH_WPPCM_SL.DEG                                     :WPPCM Phase Shift {F13.4}
FREQ_EXC_REQ_SL.HZ                                     :Requested Exciter Frequency {F13.4}
RB_SL.DEG                                              :Relative Bearing {F13.4}
SDEV_SL.DEG                                            :Sonde Deviation {F13.4}
TILX_SL.DEG                                            :X-axis Tilt {F13.4}
TILY_SL.DEG                                            :Y-axis Tilt {F13.4}
ROTA_SL.DEG                                            :Motor Rotation Angle {F13.4}
MSPE_SL.RPM                                            :Motor Speed {F13.4}
#-----------------------------------------------------------------------------
# 
#     TIME    FREQ_EMF_SL  PH_SH_WPPCM_ FREQ_EXC_REQ    RB_SL       SDEV_SL      TILX_SL      TILY_SL      ROTA_SL      MSPE_SL
#                          SL           _SL
~A  
# ...
    1952.0    1807.4323       0.0000      50.8611    -172.9966       3.9868      -0.4857       3.9570     181.9781       1.0332
    1953.0    1784.2450       0.0000      50.8611    -170.3133       3.8531      -0.6479       3.7981     188.0801       1.0226
    1954.0    1749.0671       0.0000      50.8611    -164.7681       3.8479      -1.0101       3.7125     194.1819       1.0226
    1955.0    1714.9390       0.0000      50.8611    -154.9908       4.1006      -1.7324       3.7155     200.2970       1.0226
    1956.0    1674.0326       0.0000      50.8611    -146.7029       4.2517      -2.3326       3.5527     206.3989       1.0226
    1957.0    1635.0325       0.0000      50.8611    -143.2443       4.4340      -2.6517       3.5512     212.5008       1.0226
    1958.0    1590.6463       0.0000      50.8611    -139.2396       4.3133      -2.8146       3.2658     218.6027       1.0226
    1959.0    1541.8775       0.0000      50.8611    -132.7361       4.2745      -3.1382       2.8993     225.1257       1.0226
    1960.0    1489.5538       0.0000      50.8611    -125.6459       4.5572      -3.7020       2.6540     231.2282       1.0226
    1961.0    1452.4041       0.0000      50.8611    -120.6861       4.7222      -4.0598       2.4079     237.3332       1.0226
    1962.0    1403.4431       0.0000      50.8611    -115.7987       4.6878      -4.2197       2.0383     243.4320       1.0226
    1963.0    1362.4977       0.0000      50.8611    -112.1594       4.6478      -4.3038       1.7514     249.5471       1.0226
    1964.0    1316.4845       0.0000      50.8611    -104.2204       4.8139      -4.6660       1.1812     255.6490       1.0226
    1965.0    1236.5054       0.0000      50.8611     -98.5001       5.0805      -5.0245       0.7500     261.7639       1.0226
    1966.0    1139.3132       0.0000      50.8611     -93.2629       4.9948      -4.9866       0.2840     267.8654       1.0122
    1967.0    1050.6333       0.0000      50.8611     -89.9368       4.7941      -4.7941      -0.0053     273.9552       1.0226
    1968.0     999.9668       0.0000      50.8611     -83.5275       5.1385      -5.1056      -0.5785     280.0570       1.0226
    1969.0     960.4798       0.0000      50.8611     -79.7428       5.3491      -5.2633      -0.9511     286.1588       1.0226
    1970.0     920.3207       0.0000      50.8611     -73.4248       5.3260      -5.1041      -1.5174     292.2606       1.0226
    1971.0     905.9370       0.0000      50.8611     -69.6380       5.1897      -4.8646      -1.8036     298.7458       1.0226
    1972.0     885.4440       0.0000      50.8611     -66.1115       5.2736      -4.8207      -2.1330     304.8476       1.0226
    1973.0     867.0455       0.0000      50.8611     -57.7149       5.3755      -4.5425      -2.8682     310.9494       1.0226
    1974.0     852.3115       0.0000      50.8611     -53.1009       5.3306      -4.2606      -3.1976     317.0512       1.0226
    1975.0     842.0848       0.0000      50.8611     -48.1944       5.2860      -3.9378      -3.5209     323.1531       1.0226
    1976.0     837.9582       0.0000      50.8611     -46.0232       5.2533      -3.7779      -3.6451     329.2426       1.0226
    1977.0     831.8961       0.0000      50.8611     -39.0419       5.1597      -3.2473      -4.0053     335.3329       1.0226
    1978.0     834.0562       0.0000      50.8611     -36.9809       5.3380      -3.2080      -4.2615     341.4347       1.0226
    1979.0     836.1143       0.0000      50.8611     -29.2794       4.9340      -2.4107      -4.3024     347.5273       1.0226
    1980.0     843.1136       0.0000      50.8611     -26.5637       5.0366      -2.2500      -4.5037     353.6260       1.0226
    1981.0     851.3186       0.0000      50.8611     -21.1867       5.0090      -1.8082      -4.6696     352.9784       1.0122
    1982.0     864.8724       0.0000      50.8611     -13.7156       5.0977      -1.2072      -4.9520       5.8181       1.0226
    1983.0     877.9123       0.0000      50.8611      -8.6263       4.8457      -0.7259      -4.7907      11.9437       1.0226
    1984.0     899.2453       0.0000      50.8611      -4.4888       4.6809      -0.3659      -4.6665      18.4429       1.0224
    1985.0     921.6180       0.0000      50.8611      -2.3554       4.8321      -0.1985      -4.8278      24.5324       1.0226
    1986.0     955.3086       0.0000      50.8611       5.3186       4.7658       0.4412      -4.7452      30.6218       1.0122
    1987.0     986.2282       0.0000      50.8611      12.8960       4.4939       1.0020      -4.3803      36.7368       1.0226
    1988.0    1018.0865       0.0000      50.8611      15.7609       4.2953       1.1657      -4.1334      42.8386       1.0226
    1989.0    1115.3146       0.0000      50.8611      22.2306       4.3226       1.6340      -4.0007      48.9535       1.0226
    1990.0    1231.6375       0.0000      50.8611      28.9935       4.3077       2.0865      -3.7670      55.0556       1.0332
    1991.0    1297.3687       0.0000      50.8611      36.6287       4.0328       2.4048      -3.2354      61.1834       1.0228
    1992.0    1339.5272       0.0000      50.8611      42.6823       3.8484       2.6079      -2.8281      67.3377       1.0226
    1993.0    1381.5902       0.0000      50.8611      47.0410       3.7314       2.7299      -2.5419      73.4526       1.0226
    1994.0    1429.2252       0.0000      50.8611      53.3685       3.8495       3.0884      -2.2958      79.5544       1.0226
    1995.0    1477.2702       0.0000      50.8611      60.9216       3.7148       3.2460      -1.8044      85.6636       1.0224
    1996.0    1528.7209       0.0000      50.8611      68.3840       3.4527       3.2096      -1.2713      92.1540       1.0332
    1997.0    1573.2529       0.0000      50.8611      71.2480       3.4333       3.2506      -1.1031      98.2826       1.0226
    1998.0    1631.3805       0.0000      50.8611      81.7568       3.4446       3.4090      -0.4936     104.3976       1.0226
    1999.0    1674.2574       0.0000      50.8611      89.2451       3.3297       3.3294      -0.0439     110.4994       1.0226
    2000.0    1702.8730       0.0000      50.8611      98.4207       3.3221       3.2862       0.4861     116.6019       1.0226
    2001.0    1744.8698       0.0000      50.8611     106.6657       3.2645       3.1272       0.9357     122.7036       1.0226
    2002.0    1780.0632       0.0000      50.8611     110.6486       3.1299       2.9285       1.1033     128.8186       1.0226
    2003.0    1798.4470       0.0000      50.8611     123.1273       3.2087       2.6867       1.7529     134.9336       1.0226
    2004.0    1826.3880       0.0000      50.8611     131.2731       3.0955       2.3260       2.0414     141.0353       1.0122
    2005.0    1835.7459       0.0000      50.8611     138.5659       3.2135       2.1259       2.4086     147.1381       1.0226
    2006.0    1855.0285       0.0000      50.8611     145.1112       3.4319       1.9622       2.8145     153.2400       1.0226
    2007.0    1855.2111       0.0000      50.8611     152.5369       3.2254       1.4870       2.8615     159.3326       1.0226
    2008.0    1845.5635       0.0000      50.8611     160.3881       3.3393       1.1202       3.1454     165.8395       1.0226
    2009.0    1850.1473       0.0000      50.8611     169.5707       3.5278       0.6382       3.4694     171.9544       1.0226
    2010.0    1835.6568       0.0000      50.8611     174.9465       3.6084       0.3176       3.5944     178.0563       1.0226
    2011.0    1812.2657       0.0000      50.8611    -179.3121       3.7173      -0.0446       3.7171     184.1582       1.0226
    2012.0    1780.1479       0.0000      50.8611    -172.5920       3.7873      -0.4880       3.7556     190.2733       1.0226
    2013.0    1770.8056       0.0000      50.8611    -165.4917       3.8804      -0.9715       3.7564     196.3638       1.0227
    2014.0    1727.5004       0.0000      50.8611    -157.3772       3.9823      -1.5308       3.6754     202.4786       1.0226
