~VERSION INFORMATION
VERS.           2.0   :CWLS Log ASCII Standard - VERSION 2.0
WRAP.           NO    :One Line per depth step
PROD.  Schlumberger   :LAS Producer
PROG.  DLIS to ASCII 19C2-270                          :LAS Program name and version
CREA.        2017/09/16 17:42                          :LAS Creation date {YYYY/MM/DD hh:mm}
DLIS_CREA.  2017-Sep-15 16:29                          :DLIS Creation date and time {YYYY-MMM-DD hh:mm}
SOURCE.     LPC_S3-1_2AV.DLIS                          :DLIS File Name
FILE-ID.     PERFO_Perfo_WPGRT_041LTP                  :File Identification Number
#--------------------------------------------------
~WELL INFORMATION
#MNEM.UNIT      DATA             DESCRIPTION
#---- ------ --------------   -----------------------------
STRT .S         3547.0       :START TIME      
STOP .S         3943.0       :STOP TIME      
STEP .S            1.0       :STEP     
NULL .          -999.25      :NULL VALUE
COMP .        SHELL INTERNATIONAL E P                  :COMPANY
WELL .        WPP TEST 2                               :WELL
FLD  .        WILDCAT                                  :FIELD
LOC  .                                                 :LOCATION
CNTY .        HARRIS                                   :COUNTY
STAT .        TEXAS                                    :STATE
CTRY .                                                 :COUNTRY
API  .                                                 :API NUMBER
UWI  .                                                 :UNIQUE WELL ID
DATE .                                                 :LOG DATE
SRVC .        Schlumberger                             :SERVICE COMPANY
LATI .DEG                                              :LATITUDE
LONG .DEG                                              :LONGITUDE
GDAT .                                                 :GeoDetic Datum
#-----------------------------------------------------------------------------
~PARAMETER INFORMATION
#MNEM.UNIT    VALUE                      DESCRIPTION
#---- -----   --------------------       ------------------------
U-PHASE_B_COMP_PER_YT.                 0 :Phase B Comparator Period Yt
U-PHASE_A_COMP_PER_XT.                 0 :Phase A Comparator Period Xt
U-MAX_EXC_CUR_LIMIT.MA       240.00000   :Requested CM Current Limit
U-REQ_EXC_FQ.HZ              50          :Requested CM Frequency
U-TILT_Y_OFFSET.           0.19916       :WPTET Tilt Y Offset
U-TILT_Y_GAIN.           1.01796         :WPTET Tilt Y Gain
U-TILT_X_OFFSET.          -1.77103       :WPTET Tilt X Offset
U-TILT_X_GAIN.           1.00000         :WPTET Tilt X Gain
U-TILT_OFFSET_TOL.           0.00100     :WPTET Tilt Offset Calibration Tolerance
U-NO_TILT_CAL_ROTATIONS.                 3 :Number of Rotations for Tilt Calibration
HAZI .DEG        0.00000                 :Hole Azimuth
U-STD_TOL_TILT.           0.01000        :Tilt Standard Deviation Tolerance
U-GUN_POS_TOL.DEG        5.00000         :Gun Position Tolerance
ROT_ANGLE_THRESHOLD.DEG        5.00000   :Rotation Stop Angle Tolerance
STOP_ROT_ANGLE.DEG        0.00000        :Rotation Stop Angle
WITN .                                   :Witness's Name
ENGI .                                   :Engineer's Name
COUN .        HARRIS                     :County or Rig Name
FN   .        WILDCAT                    :Field Name
WN   .        WPP TEST 2                 :Well Name
CN   .        SHELL INTERNATIONAL E P    :Company Name
CLAB .        County                     :County/Rig Label
SLAB .        State                      :State/Province Label
RUN  .          1                        :RUN NUMBER
PDAT .        GROUND LEVEL               :Permanent Datum
EPD  .                                   :Elevation of Permanent Datum above Mean Sea Level
LMF  .                                   :Logging Measured From (Name of Logging Elevation Reference)
APD  .                                   :Elevation of Depth Reference (LMF) above Permanent Datum
#-----------------------------------------------------------------------------
~CURVE INFORMATION
#MNEM.UNIT   API CODE                                  DESCRIPTION
#---- -----  --------                                  -----------------------
TIME .S                                                :TIME {F10.1}
FREQ_EMF_SL.HZ                                         :Electromagnetic Field Frequency {F13.4}
PH_SH_WPPCM_SL.DEG                                     :WPPCM Phase Shift {F13.4}
FREQ_EXC_REQ_SL.HZ                                     :Requested Exciter Frequency {F13.4}
RB_SL.DEG                                              :Relative Bearing {F13.4}
SDEV_SL.DEG                                            :Sonde Deviation {F13.4}
TILX_SL.DEG                                            :X-axis Tilt {F13.4}
TILY_SL.DEG                                            :Y-axis Tilt {F13.4}
ROTA_SL.DEG                                            :Motor Rotation Angle {F13.4}
MSPE_SL.RPM                                            :Motor Speed {F13.4}
#-----------------------------------------------------------------------------
# 
#     TIME    FREQ_EMF_SL  PH_SH_WPPCM_ FREQ_EXC_REQ    RB_SL       SDEV_SL      TILX_SL      TILY_SL      ROTA_SL      MSPE_SL
#                          SL           _SL
~A  
# ...
    3673.0    1391.2605       0.0000      50.8611     -58.7935       1.1323      -0.9677      -0.5869     206.0651       1.0185
    3674.0    1376.5896       0.0000      50.8611     -53.8187       1.1875      -0.9587      -0.7004     212.1622       1.0226
    3675.0    1380.7798       0.0000      50.8611     -58.5860       1.1550      -0.9873      -0.5869     218.2555       1.0185
    3676.0    1369.4326       0.0000      50.8611     -53.8187       1.1875      -0.9587      -0.7004     224.3401       1.0226
    3677.0    1367.9475       0.0000      50.8611     -52.1915       1.1428      -0.9029      -0.7004     230.7058       1.0226
    3678.0    1369.5807       0.0000      50.8611     -53.3389       1.1572      -0.9275      -0.6912     236.9670       1.0226
    3679.0    1357.3842       0.0000      50.8611     -59.9372       1.3262      -1.1489      -0.6503     243.0677       1.0226
    3680.0    1357.8210       0.0000      50.8611     -57.4500       1.1675      -0.9833      -0.6278     249.1715       1.0226
    3681.0    1348.5663       0.0000      50.8611     -49.7049       1.1422      -0.8693      -0.7346     255.2592       1.0292
    3682.0    1351.7517       0.0000      50.8611     -57.6767       1.2657      -1.0701      -0.6753     261.3873       1.0226
    3683.0    1342.6265       0.0000      50.8611     -52.6485       0.9932      -0.7886      -0.6031     267.4892       1.0226
    3684.0    1331.6761       0.0000      50.8611     -50.8936       1.0622      -0.8251      -0.6687     273.5867       1.0268
    3685.0    1332.2484       0.0000      50.8611     -49.9156       1.0968      -0.8382      -0.7070     279.6973       1.0226
    3686.0    1324.1526       0.0000      50.8611     -48.8952       1.0517      -0.7915      -0.6912     285.7830       1.0226
    3687.0    1320.5642       0.0000      50.8611     -48.6969       1.0984      -0.8331      -0.7004     291.8725       1.0226
    3688.0    1312.7505       0.0000      50.8611     -50.4189       1.0992      -0.8472      -0.7004     297.9743       1.0226
    3689.0    1304.4990       0.0000      50.8611     -49.7188       0.9027      -0.6865      -0.5844     304.3272       1.0226
    3690.0    1304.4990       0.0000      50.8611     -51.9969       1.0566      -0.8316      -0.6503     310.5859       1.0226
    3691.0    1314.2523       0.0000      50.8611     -51.3941       0.8501      -0.6644      -0.5302     316.6877       1.0226
    3692.0    1316.7135       0.0000      50.8611     -54.4009       1.0759      -0.8693      -0.6212     322.7895       1.0226
    3693.0    1314.2523       0.0000      50.8611     -42.1200       0.9904      -0.6619      -0.7346     328.8925       1.0226
    3694.0    1312.2080       0.0000      50.8611     -48.4587       0.9185      -0.6865      -0.6094     334.9939       1.0226
    3695.0    1320.5642       0.0000      50.8611     -44.8147       0.9524      -0.6710      -0.6753     341.0957       1.0226
    3696.0    1331.2766       0.0000      50.8611     -50.7308       0.9786      -0.7578      -0.6186     347.1975       1.0226
    3697.0    1326.0925       0.0000      50.8611     -55.9513       0.9145      -0.7578      -0.5118     353.2871       1.0226
    3698.0    1337.1629       0.0000      50.8611     -58.3132       0.7417      -0.6308      -0.3891     359.3889       1.0226
    3699.0    1341.2704       0.0000      50.8611     -53.1591       0.9510      -0.7603      -0.5711       5.4907       1.0226
    3700.0    1349.1580       0.0000      50.8611     -55.5704       0.8925      -0.7357      -0.5051      11.5862       1.0185
    3701.0    1346.9828       0.0000      50.8611     -53.8775       0.9380      -0.7578      -0.5527      17.6913       1.0292
    3702.0    1352.0307       0.0000      50.8611     -55.2503       0.8856      -0.7267      -0.5051      24.2080       1.0226
    3703.0    1359.4229       0.0000      50.8611     -54.9260       0.9073      -0.7423      -0.5210      30.3068       1.0226
    3704.0    1364.2660       0.0000      50.8611     -63.7488       0.9232      -0.8226      -0.4116      36.3963       1.0226
    3705.0    1366.5049       0.0000      50.8611     -68.5633       0.9571      -0.8874      -0.3508      42.4982       1.0292
    3706.0    1375.3779       0.0000      50.8611     -65.6176       0.8173      -0.7423      -0.3390      48.6139       1.0268
    3707.0    1375.1546       0.0000      50.8611     -59.4029       0.8651      -0.7459      -0.4329      54.7238       1.0268
    3708.0    1380.3355       0.0000      50.8611     -58.7714       0.9257      -0.7915      -0.4801      60.8315       1.0226
    3709.0    1385.7765       0.0000      50.8611     -64.7788       0.9916      -0.8964      -0.4234      66.9302       1.0268
    3710.0    1387.4552       0.0000      50.8611     -73.8437       0.9564      -0.9185      -0.2665      73.0371       1.0226
    3711.0    1389.5751       0.0000      50.8611     -63.4873       0.9478      -0.8472      -0.4234      79.1520       1.0268
    3712.0    1398.4936       0.0000      50.8611     -57.5973       0.9871      -0.8316      -0.5302      85.2538       1.0226
    3713.0    1396.7880       0.0000      50.8611     -64.7137       1.0331      -0.9341      -0.4392      91.3556       1.0226
    3714.0    1398.9419       0.0000      50.8611     -57.1027       0.8657      -0.6710      -0.4883      97.8642       1.0226
    3715.0    1395.7176       0.0000      50.8611     -66.4456       1.0127      -0.9275      -0.4050     102.8394       0.0006
    3716.0    1400.6475       0.0000      50.8611     -67.0469       0.9975      -0.9185      -0.3891     102.8394       0.0005
    3717.0    1401.7308       0.0000      50.8611     -58.9710       0.9132      -0.7824      -0.4709     102.8394       0.0005
    3718.0    1403.0000       0.0000      50.8611     -64.8455       1.0023      -0.9054      -0.4208     102.8394       0.0005
    3719.0    1404.0790       0.0000      50.8611     -62.8395       1.1255      -1.0013      -0.5118     102.8394       0.0005
    3720.0    1398.3264       0.0000      50.8611     -70.2057       1.0548      -0.9923      -0.3574     102.8394       0.0005
    3721.0    1402.8184       0.0000      50.8611     -60.6394       0.9181      -0.7980      -0.4484     102.8394       0.0005
    3722.0    1405.8052       0.0000      50.8611     -57.1661       0.9607      -0.8070      -0.5210     102.8394       0.0005
    3723.0    1401.7308       0.0000      50.8611     -66.0481       1.0591      -0.9677      -0.4300     102.8394       0.0005
    3724.0    1400.6475       0.0000      50.8611     -62.8499       0.9973      -0.8874      -0.4551     102.8394       0.0005
    3725.0    1402.8184       0.0000      50.8611     -69.9547       1.0894      -1.0234      -0.3733     102.8394       0.0005
    3726.0    1405.8052       0.0000      50.8611     -59.3331       0.9458      -0.8136      -0.4801     102.8394       0.0005
    3727.0    1398.4936       0.0000      50.8611     -62.5749       0.9894      -0.8783      -0.4551     102.8394       0.0005
    3728.0    1397.2430       0.0000      50.8611     -59.7088       1.0763      -0.9275      -0.5435     102.8394       0.0005
    3729.0    1399.4140       0.0000      50.8611     -60.6671       1.3195      -1.1505      -0.6436     102.8394       0.0005
    3730.0    1401.2807       0.0000      50.8611     -63.8976       0.9982      -0.8964      -0.4392     102.8394       0.0005
    3731.0    1399.5684       0.0000      50.8611     -57.4100       0.9377      -0.7824      -0.5092     102.8394       0.0005
    3732.0    1399.5684       0.0000      50.8611     -57.2254       1.1138      -0.9366      -0.6028     102.8394       0.0005
    3733.0    1399.5684       0.0000      50.8611     -64.3603       1.0094      -0.8989      -0.4510     102.8394       0.0005
    3734.0    1398.9419       0.0000      50.8611     -70.2960       0.8356      -0.7849      -0.2849     102.8394       0.0005
    3735.0    1405.1623       0.0000      50.8611     -59.0158       0.9808      -0.8407      -0.5051     102.8394       0.0005
