~VERSION INFORMATION
VERS.           2.0   :CWLS Log ASCII Standard - VERSION 2.0
WRAP.           NO    :One Line per depth step
PROD.  Schlumberger   :LAS Producer
PROG.  DLIS to ASCII 19C2-270                          :LAS Program name and version
CREA.        2017/09/16 17:42                          :LAS Creation date {YYYY/MM/DD hh:mm}
DLIS_CREA.  2017-Sep-15 12:00                          :DLIS Creation date and time {YYYY-MMM-DD hh:mm}
SOURCE.     LPC_S1-1_A5.DLIS                           :DLIS File Name
FILE-ID.     PERFO_Perfo_WPGRT_019LTP                  :File Identification Number
#--------------------------------------------------
~WELL INFORMATION
#MNEM.UNIT      DATA             DESCRIPTION
#---- ------ --------------   -----------------------------
STRT .S         4414.0       :START TIME      
STOP .S         5447.0       :STOP TIME      
STEP .S            1.0       :STEP     
NULL .          -999.25      :NULL VALUE
COMP .        SHELL INTERNATIONAL E P                  :COMPANY
WELL .        WPP TEST 2                               :WELL
FLD  .        WILDCAT                                  :FIELD
LOC  .                                                 :LOCATION
CNTY .        HARRIS                                   :COUNTY
STAT .        TEXAS                                    :STATE
CTRY .                                                 :COUNTRY
API  .                                                 :API NUMBER
UWI  .                                                 :UNIQUE WELL ID
DATE .                                                 :LOG DATE
SRVC .        Schlumberger                             :SERVICE COMPANY
LATI .DEG                                              :LATITUDE
LONG .DEG                                              :LONGITUDE
GDAT .                                                 :GeoDetic Datum
#-----------------------------------------------------------------------------
~PARAMETER INFORMATION
#MNEM.UNIT    VALUE                      DESCRIPTION
#---- -----   --------------------       ------------------------
U-PHASE_B_COMP_PER_YT.                 0 :Phase B Comparator Period Yt
U-PHASE_A_COMP_PER_XT.                 0 :Phase A Comparator Period Xt
U-MAX_EXC_CUR_LIMIT.MA       240.00000   :Requested CM Current Limit
U-REQ_EXC_FQ.HZ              50          :Requested CM Frequency
U-TILT_Y_OFFSET.           0.19916       :WPTET Tilt Y Offset
U-TILT_Y_GAIN.           1.01796         :WPTET Tilt Y Gain
U-TILT_X_OFFSET.          -1.77103       :WPTET Tilt X Offset
U-TILT_X_GAIN.           1.00000         :WPTET Tilt X Gain
U-TILT_OFFSET_TOL.           0.00100     :WPTET Tilt Offset Calibration Tolerance
U-NO_TILT_CAL_ROTATIONS.                 3 :Number of Rotations for Tilt Calibration
HAZI .DEG        0.00000                 :Hole Azimuth
U-STD_TOL_TILT.           0.01000        :Tilt Standard Deviation Tolerance
U-GUN_POS_TOL.DEG        5.00000         :Gun Position Tolerance
ROT_ANGLE_THRESHOLD.DEG        5.00000   :Rotation Stop Angle Tolerance
STOP_ROT_ANGLE.DEG       80.00000        :Rotation Stop Angle
WITN .                                   :Witness's Name
ENGI .                                   :Engineer's Name
COUN .        HARRIS                     :County or Rig Name
FN   .        WILDCAT                    :Field Name
WN   .        WPP TEST 2                 :Well Name
CN   .        SHELL INTERNATIONAL E P    :Company Name
CLAB .        County                     :County/Rig Label
SLAB .        State                      :State/Province Label
RUN  .          1                        :RUN NUMBER
PDAT .        GROUND LEVEL               :Permanent Datum
EPD  .                                   :Elevation of Permanent Datum above Mean Sea Level
LMF  .                                   :Logging Measured From (Name of Logging Elevation Reference)
APD  .                                   :Elevation of Depth Reference (LMF) above Permanent Datum
#-----------------------------------------------------------------------------
~CURVE INFORMATION
#MNEM.UNIT   API CODE                                  DESCRIPTION
#---- -----  --------                                  -----------------------
TIME .S                                                :TIME {F10.1}
FREQ_EMF_SL.HZ                                         :Electromagnetic Field Frequency {F13.4}
PH_SH_WPPCM_SL.DEG                                     :WPPCM Phase Shift {F13.4}
FREQ_EXC_REQ_SL.HZ                                     :Requested Exciter Frequency {F13.4}
RB_SL.DEG                                              :Relative Bearing {F13.4}
SDEV_SL.DEG                                            :Sonde Deviation {F13.4}
TILX_SL.DEG                                            :X-axis Tilt {F13.4}
TILY_SL.DEG                                            :Y-axis Tilt {F13.4}
ROTA_SL.DEG                                            :Motor Rotation Angle {F13.4}
MSPE_SL.RPM                                            :Motor Speed {F13.4}
#-----------------------------------------------------------------------------
# 
#     TIME    FREQ_EMF_SL  PH_SH_WPPCM_ FREQ_EXC_REQ    RB_SL       SDEV_SL      TILX_SL      TILY_SL      ROTA_SL      MSPE_SL
#                          SL           _SL
~A  
# ...
    4477.0    1570.2742       0.0000      50.8611    -150.5004       4.2336      -2.0832       3.6839     179.1181       1.0226
    4478.0    1546.8818       0.0000      50.8611    -144.8748       4.3057      -2.4757       3.5204     185.2200       1.0226
    4479.0    1517.5990       0.0000      50.8611    -139.7475       4.3178      -2.7879       3.2937     191.3242       1.0226
    4480.0    1505.6210       0.0000      50.8611    -132.6156       4.4031      -3.2389       2.9795     197.4261       1.0226
    4481.0    1476.4488       0.0000      50.8611    -126.6218       4.5493      -3.6497       2.7119     203.5412       1.0226
    4482.0    1446.5087       0.0000      50.8611    -122.7501       4.6386      -3.8999       2.5075     209.6431       1.0226
    4483.0    1422.4250       0.0000      50.8611    -117.4999       4.7459      -4.2084       2.1897     216.1412       1.0144
    4484.0    1396.3537       0.0000      50.8611    -110.3730       4.8601      -4.5553       1.6897     222.2405       1.0226
    4485.0    1365.8956       0.0000      50.8611    -106.0077       4.9522      -4.7597       1.3626     228.3431       1.0226
    4486.0    1328.1768       0.0000      50.8611    -100.5350       5.0517      -4.9661       0.9222     234.4320       1.0226
    4487.0    1304.2940       0.0000      50.8611     -96.9637       5.0215      -4.9844       0.6080     240.5477       1.0144
    4488.0    1233.8671       0.0000      50.8611     -90.3566       5.2076      -5.2071       0.0319     246.6277       1.0144
    4489.0    1153.3737       0.0000      50.8611     -84.8752       5.2466      -5.2254      -0.4680     252.7268       1.0226
    4490.0    1079.9806       0.0000      50.8611     -80.0545       5.1923      -5.1140      -0.8955     258.8287       1.0226
    4491.0    1032.8344       0.0000      50.8611     -74.4676       5.2670      -5.0738      -1.4085     264.9312       1.0144
    4492.0    1000.6329       0.0000      50.8611     -70.6238       5.2942      -4.9935      -1.7542     271.0223       1.0226
    4493.0     971.3598       0.0000      50.8611     -63.4864       5.2297      -4.6777      -2.3303     277.1241       1.0226
    4494.0     954.8195       0.0000      50.8611     -59.3827       5.3234      -4.5791      -2.7076     283.2260       1.0226
    4495.0     941.8399       0.0000      50.8611     -55.9399       5.2388      -4.3381      -2.9306     289.7458       1.0226
    4496.0     931.2914       0.0000      50.8611     -50.3917       5.3268      -4.1007      -3.3934     295.8476       1.0226
    4497.0     920.3207       0.0000      50.8611     -44.1788       5.3332      -3.7137      -3.8208     301.9494       1.0226
    4498.0     916.8922       0.0000      50.8611     -39.6357       5.4798      -3.4927      -4.2167     308.0543       1.0226
    4499.0     915.7989       0.0000      50.8611     -36.0501       5.2075      -3.0619      -4.2074     314.1668       1.0250
    4500.0     916.5635       0.0000      50.8611     -32.5218       5.1265      -2.7533      -4.3208     320.2686       1.0309
    4501.0     917.5399       0.0000      50.8611     -23.6201       5.1736      -2.0705      -4.7390     326.3836       1.0226
    4502.0     923.1233       0.0000      50.8611     -18.7533       5.2552      -1.6871      -4.9750     332.4854       1.0226
    4503.0     933.2022       0.0000      50.8611     -14.9254       5.0326      -1.2945      -4.8617     338.5872       1.0226
    4504.0     942.5268       0.0000      50.8611     -11.4231       4.8004      -0.9513      -4.7037     344.6768       1.0226
    4505.0     957.6395       0.0000      50.8611      -6.6720       4.9585      -0.5752      -4.9248     350.7786       1.0226
    4506.0     975.3351       0.0000      50.8611       3.4829       4.9760       0.3030      -4.9657     356.8828       1.0226
    4507.0     988.6081       0.0000      50.8611       6.3239       4.6641       0.5130      -4.6349       3.3930       1.0202
    4508.0    1018.1657       0.0000      50.8611       9.7647       4.5920       0.7778      -4.5252       9.4797       1.0202
    4509.0    1043.3580       0.0000      50.8611      15.3617       4.5148       1.1958      -4.3524      15.5697       1.0226
    4510.0    1106.8519       0.0000      50.8611      22.5869       4.4211       1.6961      -4.0811      21.6708       1.0226
    4511.0    1192.5903       0.0000      50.8611      28.7949       4.3969       2.1160      -3.8524      27.7765       1.0226
    4512.0    1249.6009       0.0000      50.8611      33.9695       4.1489       2.3168      -3.4399      33.8767       1.0202
    4513.0    1290.8123       0.0000      50.8611      37.4517       3.9800       2.4191      -3.1583      39.9793       1.0309
    4514.0    1329.3983       0.0000      50.8611      44.2029       3.8875       2.7094      -2.7857      46.0967       1.0226
    4515.0    1357.0461       0.0000      50.8611      55.9528       3.8434       3.1841      -2.1501      52.1985       1.0226
    4516.0    1381.3850       0.0000      50.8611      60.4373       3.7163       3.2315      -1.8323      58.2979       1.0226
    4517.0    1411.2539       0.0000      50.8611      65.8098       3.6071       3.2900      -1.4773      64.3997       1.0226
    4518.0    1438.8271       0.0000      50.8611      70.0985       3.4902       3.2808      -1.1874      70.5063       1.0226
    4519.0    1464.1509       0.0000      50.8611      80.7586       3.4018       3.3576      -0.5461      77.0106       1.0226
    4520.0    1484.3907       0.0000      50.8611      90.2329       3.3212       3.3210       0.0133      83.1124       1.0226
    4521.0    1516.8480       0.0000      50.8611      98.9672       3.5300       3.4853       0.5522      89.2142       1.0226
    4522.0    1545.3296       0.0000      50.8611     100.8245       3.3035       3.2443       0.6210      95.3167       1.0226
    4523.0    1569.8127       0.0000      50.8611     109.8925       3.1768       2.9869       1.0801     101.4315       1.0226
    4524.0    1584.7608       0.0000      50.8611     122.6779       3.2890       2.7678       1.7752     107.5310       1.0309
    4525.0    1606.2795       0.0000      50.8611     130.5349       3.2787       2.4912       2.1302     113.6358       1.0226
    4526.0    1622.1468       0.0000      50.8611     133.5333       3.2593       2.3625       2.2436     119.7376       1.0226
    4527.0    1631.3805       0.0000      50.8611     142.0450       3.3411       2.0539       2.6338     125.8417       1.0226
    4528.0    1641.9441       0.0000      50.8611     152.1988       3.3854       1.5775       2.9925     131.9412       1.0226
    4529.0    1644.9164       0.0000      50.8611     163.5734       3.7924       1.0717       3.6374     138.0455       1.0226
    4530.0    1642.8153       0.0000      50.8611     168.3100       3.6597       0.7412       3.5836     144.1474       1.0226
    4531.0    1639.8571       0.0000      50.8611     171.5198       3.6459       0.5368       3.6058     150.5621       1.0226
    4532.0    1635.1744       0.0000      50.8611     -98.1584       3.7249       0.0054       3.7248     156.7568       1.0226
    4533.0    1624.7005       0.0000      50.8611    -170.2218       3.9660      -0.6719       3.9070     162.8682       1.0250
    4534.0    1615.5359       0.0000      50.8611    -166.0217       4.1012      -0.9896       3.9795     168.9738       1.0226
    4535.0    1598.0114       0.0000      50.8611    -161.2146       4.0349      -1.2982       3.8196     175.0780       1.0226
    4536.0    1583.3167       0.0000      50.8611    -155.6821       4.0330      -1.6597       3.6746     181.1863       1.0359
    4537.0    1557.7018       0.0000      50.8611    -146.1270       4.2701      -2.3785       3.5441     187.2688       1.0226
    4538.0    1532.6237       0.0000      50.8611    -139.0677       4.3613      -2.8555       3.2937     193.3714       1.0226
    4539.0    1509.5901       0.0000      50.8611    -136.2216       4.3691      -3.0217       3.1524     199.4733       1.0226
