~VERSION INFORMATION
VERS.           2.0   :CWLS Log ASCII Standard - VERSION 2.0
WRAP.           NO    :One Line per depth step
PROD.  Schlumberger   :LAS Producer
PROG.  DLIS to ASCII 19C2-270                          :LAS Program name and version
CREA.        2017/09/16 17:42                          :LAS Creation date {YYYY/MM/DD hh:mm}
DLIS_CREA.  2017-Sep-15 13:58                          :DLIS Creation date and time {YYYY-MMM-DD hh:mm}
SOURCE.     LPC_S1-1_2BV.DLIS                          :DLIS File Name
FILE-ID.     PERFO_Perfo_WPGRT_027LTP                  :File Identification Number
#--------------------------------------------------
~WELL INFORMATION
#MNEM.UNIT      DATA             DESCRIPTION
#---- ------ --------------   -----------------------------
STRT .S        11467.0       :START TIME      
STOP .S        11862.0       :STOP TIME      
STEP .S            1.0       :STEP     
NULL .          -999.25      :NULL VALUE
COMP .        SHELL INTERNATIONAL E P                  :COMPANY
WELL .        WPP TEST 2                               :WELL
FLD  .        WILDCAT                                  :FIELD
LOC  .                                                 :LOCATION
CNTY .        HARRIS                                   :COUNTY
STAT .        TEXAS                                    :STATE
CTRY .                                                 :COUNTRY
API  .                                                 :API NUMBER
UWI  .                                                 :UNIQUE WELL ID
DATE .                                                 :LOG DATE
SRVC .        Schlumberger                             :SERVICE COMPANY
LATI .DEG                                              :LATITUDE
LONG .DEG                                              :LONGITUDE
GDAT .                                                 :GeoDetic Datum
#-----------------------------------------------------------------------------
~PARAMETER INFORMATION
#MNEM.UNIT    VALUE                      DESCRIPTION
#---- -----   --------------------       ------------------------
U-PHASE_B_COMP_PER_YT.                 0 :Phase B Comparator Period Yt
U-PHASE_A_COMP_PER_XT.                 0 :Phase A Comparator Period Xt
U-MAX_EXC_CUR_LIMIT.MA       240.00000   :Requested CM Current Limit
U-REQ_EXC_FQ.HZ              50          :Requested CM Frequency
U-TILT_Y_OFFSET.           0.19916       :WPTET Tilt Y Offset
U-TILT_Y_GAIN.           1.01796         :WPTET Tilt Y Gain
U-TILT_X_OFFSET.          -1.77103       :WPTET Tilt X Offset
U-TILT_X_GAIN.           1.00000         :WPTET Tilt X Gain
U-TILT_OFFSET_TOL.           0.00100     :WPTET Tilt Offset Calibration Tolerance
U-NO_TILT_CAL_ROTATIONS.                 3 :Number of Rotations for Tilt Calibration
HAZI .DEG        0.00000                 :Hole Azimuth
U-STD_TOL_TILT.           0.01000        :Tilt Standard Deviation Tolerance
U-GUN_POS_TOL.DEG        5.00000         :Gun Position Tolerance
ROT_ANGLE_THRESHOLD.DEG        5.00000   :Rotation Stop Angle Tolerance
STOP_ROT_ANGLE.DEG       80.00000        :Rotation Stop Angle
WITN .                                   :Witness's Name
ENGI .                                   :Engineer's Name
COUN .        HARRIS                     :County or Rig Name
FN   .        WILDCAT                    :Field Name
WN   .        WPP TEST 2                 :Well Name
CN   .        SHELL INTERNATIONAL E P    :Company Name
CLAB .        County                     :County/Rig Label
SLAB .        State                      :State/Province Label
RUN  .          1                        :RUN NUMBER
PDAT .        GROUND LEVEL               :Permanent Datum
EPD  .                                   :Elevation of Permanent Datum above Mean Sea Level
LMF  .                                   :Logging Measured From (Name of Logging Elevation Reference)
APD  .                                   :Elevation of Depth Reference (LMF) above Permanent Datum
#-----------------------------------------------------------------------------
~CURVE INFORMATION
#MNEM.UNIT   API CODE                                  DESCRIPTION
#---- -----  --------                                  -----------------------
TIME .S                                                :TIME {F10.1}
FREQ_EMF_SL.HZ                                         :Electromagnetic Field Frequency {F13.4}
PH_SH_WPPCM_SL.DEG                                     :WPPCM Phase Shift {F13.4}
FREQ_EXC_REQ_SL.HZ                                     :Requested Exciter Frequency {F13.4}
RB_SL.DEG                                              :Relative Bearing {F13.4}
SDEV_SL.DEG                                            :Sonde Deviation {F13.4}
TILX_SL.DEG                                            :X-axis Tilt {F13.4}
TILY_SL.DEG                                            :Y-axis Tilt {F13.4}
ROTA_SL.DEG                                            :Motor Rotation Angle {F13.4}
MSPE_SL.RPM                                            :Motor Speed {F13.4}
#-----------------------------------------------------------------------------
# 
#     TIME    FREQ_EMF_SL  PH_SH_WPPCM_ FREQ_EXC_REQ    RB_SL       SDEV_SL      TILX_SL      TILY_SL      ROTA_SL      MSPE_SL
#                          SL           _SL
~A  
# ...
   11782.0    1389.4982       0.0000      50.8611     -55.5466       1.0502      -0.8631      -0.5802      33.5799       1.0226
   11783.0    1399.2134       0.0000      50.8611     -43.4372       0.9163      -0.6293      -0.6583      39.6758       1.0224
   11784.0    1407.5435       0.0000      50.8611     -47.6472       1.0019      -0.7279      -0.6756      45.7973       1.0226
   11785.0    1417.4423       0.0000      50.8611     -56.3406       1.0435      -0.8679      -0.5789      51.8745       1.0172
   11786.0    1424.9151       0.0000      50.8611     -48.2606       0.8704      -0.6488      -0.5802      57.9897       1.0226
   11787.0    1427.7099       0.0000      50.8611     -55.3419       0.8321      -0.6841      -0.4737      64.0916       1.0226
   11788.0    1436.2321       0.0000      50.8611     -52.4435       0.6543      -0.5210      -0.3745      70.1932       1.0226
   11789.0    1442.2648       0.0000      50.8611     -56.5166       0.8974      -0.7474      -0.4947      76.7030       1.0226
   11790.0    1451.2849       0.0000      50.8611     -56.3446       1.0451      -0.8691      -0.5765      82.8182       1.0226
   11791.0    1445.3185       0.0000      50.8611     -51.7527       0.8991      -0.7060      -0.5567      88.9199       1.0226
   11792.0    1451.1950       0.0000      50.8611     -56.0103       0.8544      -0.7084      -0.4749      95.0216       1.0226
   11793.0    1455.5302       0.0000      50.8611     -53.0192       1.0282      -0.8070      -0.6235     101.1367       1.0226
   11794.0    1454.6507       0.0000      50.8611     -53.4158       0.9979      -0.8010      -0.5938     107.2386       1.0226
   11795.0    1452.7377       0.0000      50.8611     -48.0381       0.9036      -0.6695      -0.5963     113.3533       1.0226
   11796.0    1467.8164       0.0000      50.8611     -60.7718       1.0594      -0.9251      -0.5158     119.4550       1.0226
   11797.0    1455.7454       0.0000      50.8611     -56.0888       0.9243      -0.7669      -0.5158     125.5569       1.0278
   11798.0    1454.3892       0.0000      50.8611     -56.6340       0.9395      -0.7851      -0.5158     131.6595       1.0226
   11799.0    1445.3185       0.0000      50.8611     -57.9063       0.9339      -0.7875      -0.4984     137.7613       1.0226
   11800.0    1454.1964       0.0000      50.8611     -57.6342       1.0042      -0.8484      -0.5368     143.8508       1.0226
   11801.0    1442.2648       0.0000      50.8611     -59.6782       0.9835      -0.8484      -0.4972     150.3488       1.0224
   11802.0    1439.5014       0.0000      50.8611     -65.7148       0.9080      -0.8277      -0.3733     156.4510       1.0226
   11803.0    1432.1199       0.0000      50.8611     -64.9490       0.9376      -0.8496      -0.3931     162.5413       1.0281
   11804.0    1423.4223       0.0000      50.8611     -67.4345       0.9177      -0.8472      -0.3522     168.6310       1.0226
   11805.0    1414.5906       0.0000      50.8611     -62.7996       0.8625      -0.7669      -0.3943     174.7300       1.0278
   11806.0    1400.7367       0.0000      50.8611     -65.5490       1.0423      -0.9470      -0.4328     180.8356       1.0226
   11807.0    1393.7494       0.0000      50.8611     -62.7076       1.0446      -0.9263      -0.4773     186.9374       1.0226
   11808.0    1380.1633       0.0000      50.8611     -69.7426       0.9498      -0.8874      -0.3299     193.0394       1.0226
   11809.0    1365.3760       0.0000      50.8611     -62.8853       0.9521      -0.8472      -0.4340     199.1414       1.0226
   11810.0    1343.1629       0.0000      50.8611     -63.8315       1.0796      -0.9689      -0.4761     205.2309       1.0226
   11811.0    1315.6028       0.0000      50.8611     -66.9788       1.0099      -0.9275      -0.3956     211.3391       1.0278
   11812.0    1287.9336       0.0000      50.8611     -75.3195       1.1623      -1.1247      -0.2915     217.4355       1.0278
   11813.0    1266.9645       0.0000      50.8611     -63.1343       1.0161      -0.9056      -0.4563     223.9717       1.0226
   11814.0    1246.6755       0.0000      50.8611     -58.3434       0.9465      -0.8058      -0.4959     230.0735       1.0226
   11815.0    1226.0574       0.0000      50.8611     -59.1619       1.1271      -0.9677      -0.5777     236.1755       1.0226
   11816.0    1206.0464       0.0000      50.8611     -54.5791       1.0643      -0.8667      -0.6174     242.2775       1.0226
   11817.0    1198.9489       0.0000      50.8611     -60.3225       1.0000      -0.8679      -0.4947     248.3793       1.0226
   11818.0    1182.7473       0.0000      50.8611     -62.3663       1.0725      -0.9494      -0.4947     254.4811       1.0226
   11819.0    1167.0423       0.0000      50.8611     -51.8418       1.0024      -0.7875      -0.6198     260.5893       1.0281
   11820.0    1162.3915       0.0000      50.8611     -57.3950       1.0286      -0.8655      -0.5554     266.6978       1.0226
   11821.0    1156.5158       0.0000      50.8611     -59.9296       1.1906      -1.0285      -0.5963     272.7993       1.0226
   11822.0    1144.1022       0.0000      50.8611     -60.9965       1.1549      -1.0103      -0.5567     278.9017       1.0226
   11823.0    1145.1547       0.0000      50.8611     -55.7308       0.9778      -0.8046      -0.5542     285.0035       1.0226
   11824.0    1147.2188       0.0000      50.8611     -60.0436       1.1172      -0.9677      -0.5579     291.1052       1.0226
   11825.0    1148.9564       0.0000      50.8611     -58.0101       1.0956      -0.9299      -0.5777     297.6147       1.0226
   11826.0    1147.0820       0.0000      50.8611     -58.2648       1.1363      -0.9665      -0.5975     303.7295       1.0226
   11827.0    1152.5630       0.0000      50.8611     -54.7660       1.1082      -0.9056      -0.6384     309.8313       1.0226
   11828.0    1163.3156       0.0000      50.8611     -57.7732       1.1212      -0.9482      -0.5975     315.9329       1.0226
   11829.0    1167.1069       0.0000      50.8611     -58.6404       1.1127      -0.9494      -0.5765     322.0286       1.0281
   11830.0    1180.6488       0.0000      50.8611     -54.0449       1.1180      -0.9044      -0.6570     328.1437       1.0281
   11831.0    1198.8806       0.0000      50.8611     -50.6196       1.0712      -0.8277      -0.6793     334.2463       1.0172
   11832.0    1210.0874       0.0000      50.8611     -50.0030       1.0289      -0.7887      -0.6595     340.3416       1.0226
   11833.0    1219.6136       0.0000      50.8611     -53.7938       1.1524      -0.9287      -0.6818     346.4562       1.0226
   11834.0    1253.4923       0.0000      50.8611     -55.6553       1.0298      -0.8496      -0.5765     352.5580       1.0226
   11835.0    1270.3607       0.0000      50.8611     -55.7373       1.1012      -0.9092      -0.6174     358.6728       1.0226
   11836.0    1299.5003       0.0000      50.8611     -51.6524       1.0308      -0.8082      -0.6384       4.7622       1.0226
   11837.0    1325.2426       0.0000      50.8611     -52.7750       0.9876      -0.7863      -0.5975      11.2721       1.0226
   11838.0    1345.7337       0.0000      50.8611     -50.9315       1.0129      -0.7863      -0.6384      17.3740       1.0226
   11839.0    1364.0080       0.0000      50.8611     -54.0179       0.9504      -0.7669      -0.5591      23.4895       1.0281
   11840.0    1371.9124       0.0000      50.8611     -56.0187       1.0581      -0.8556      -0.5307      29.5790       1.0226
   11841.0    1381.3090       0.0000      50.8611     -49.9307       1.0675      -0.8106      -0.6769      35.6809       1.0226
   11842.0    1389.5751       0.0000      50.8611     -58.6048       1.0359      -0.8849      -0.5368      41.7959       1.0226
   11843.0    1404.8887       0.0000      50.8611     -62.6558       0.9388      -0.8277      -0.4315      47.4956       1.0226
   11844.0    1409.0682       0.0000      50.8611     -56.4205       0.9764      -0.8094      -0.5344      53.6015       1.0175
