~VERSION INFORMATION
VERS.           2.0   :CWLS Log ASCII Standard - VERSION 2.0
WRAP.           NO    :One Line per depth step
PROD.  Schlumberger   :LAS Producer
PROG.  DLIS to ASCII 19C2-270                          :LAS Program name and version
CREA.        2017/09/16 17:42                          :LAS Creation date {YYYY/MM/DD hh:mm}
DLIS_CREA.  2017-Sep-15 18:59                          :DLIS Creation date and time {YYYY-MMM-DD hh:mm}
SOURCE.     LPC_S5-1_A5.DLIS                           :DLIS File Name
FILE-ID.     PERFO_Perfo_WPGRT_058LTP                  :File Identification Number
#--------------------------------------------------
~WELL INFORMATION
#MNEM.UNIT      DATA             DESCRIPTION
#---- ------ --------------   -----------------------------
STRT .S         7119.0       :START TIME      
STOP .S         7636.0       :STOP TIME      
STEP .S            1.0       :STEP     
NULL .          -999.25      :NULL VALUE
COMP .        SHELL INTERNATIONAL E P                  :COMPANY
WELL .        WPP TEST 2                               :WELL
FLD  .        WILDCAT                                  :FIELD
LOC  .        NA                                       :LOCATION
CNTY .        HARRIS                                   :COUNTY
STAT .        TEXAS                                    :STATE
CTRY .                                                 :COUNTRY
API  .        NA                                       :API NUMBER
UWI  .                                                 :UNIQUE WELL ID
DATE .        15-Sep-2017                              :LOG DATE {DD-MMM-YYYY}
SRVC .        Schlumberger                             :SERVICE COMPANY
LATI .DEG                                              :LATITUDE
LONG .DEG                                              :LONGITUDE
GDAT .                                                 :GeoDetic Datum
SECT .        NA                                       :Section
RANG .        NA                                       :Range
TOWN .        NA                                       :Township
#-----------------------------------------------------------------------------
~PARAMETER INFORMATION
#MNEM.UNIT    VALUE                      DESCRIPTION
#---- -----   --------------------       ------------------------
U-PHASE_B_COMP_PER_YT.                 0 :Phase B Comparator Period Yt
U-PHASE_A_COMP_PER_XT.                 0 :Phase A Comparator Period Xt
U-MAX_EXC_CUR_LIMIT.MA       240.00000   :Requested CM Current Limit
U-REQ_EXC_FQ.HZ              50          :Requested CM Frequency
U-TILT_Y_OFFSET.           0.19916       :WPTET Tilt Y Offset
U-TILT_Y_GAIN.           1.01796         :WPTET Tilt Y Gain
U-TILT_X_OFFSET.          -1.77103       :WPTET Tilt X Offset
U-TILT_X_GAIN.           1.00000         :WPTET Tilt X Gain
U-TILT_OFFSET_TOL.           0.00100     :WPTET Tilt Offset Calibration Tolerance
U-NO_TILT_CAL_ROTATIONS.                 3 :Number of Rotations for Tilt Calibration
HAZI .DEG        0.00000                 :Hole Azimuth
U-STD_TOL_TILT.           0.01000        :Tilt Standard Deviation Tolerance
U-GUN_POS_TOL.DEG        5.00000         :Gun Position Tolerance
ROT_ANGLE_THRESHOLD.DEG        5.00000   :Rotation Stop Angle Tolerance
STOP_ROT_ANGLE.DEG        0.00000        :Rotation Stop Angle
WITN .        MR. DHRUA ARORA            :Witness's Name
ENGI .        MORRIS MOORE               :Engineer's Name
COUN .        HARRIS                     :County or Rig Name
FN   .        WILDCAT                    :Field Name
WN   .        WPP TEST 2                 :Well Name
CN   .        SHELL INTERNATIONAL E P    :Company Name
CLAB .        County                     :County/Rig Label
SLAB .        State                      :State/Province Label
RUN  .          1                        :RUN NUMBER
PDAT .        GROUND LEVEL               :Permanent Datum
EPD  .                                   :Elevation of Permanent Datum above Mean Sea Level
LMF  .          NA                       :Logging Measured From (Name of Logging Elevation Reference)
APD  .                                   :Elevation of Depth Reference (LMF) above Permanent Datum
#-----------------------------------------------------------------------------
~CURVE INFORMATION
#MNEM.UNIT   API CODE                                  DESCRIPTION
#---- -----  --------                                  -----------------------
TIME .S                                                :TIME {F10.1}
FREQ_EMF_SL.HZ                                         :Electromagnetic Field Frequency {F13.4}
PH_SH_WPPCM_SL.DEG                                     :WPPCM Phase Shift {F13.4}
FREQ_EXC_REQ_SL.HZ                                     :Requested Exciter Frequency {F13.4}
RB_SL.DEG                                              :Relative Bearing {F13.4}
SDEV_SL.DEG                                            :Sonde Deviation {F13.4}
TILX_SL.DEG                                            :X-axis Tilt {F13.4}
TILY_SL.DEG                                            :Y-axis Tilt {F13.4}
ROTA_SL.DEG                                            :Motor Rotation Angle {F13.4}
MSPE_SL.RPM                                            :Motor Speed {F13.4}
#-----------------------------------------------------------------------------
# 
#     TIME    FREQ_EMF_SL  PH_SH_WPPCM_ FREQ_EXC_REQ    RB_SL       SDEV_SL      TILX_SL      TILY_SL      ROTA_SL      MSPE_SL
#                          SL           _SL
~A  
# ...
    7245.0    1529.9979       0.0000      50.8611    -134.7622       4.6148      -3.2749       3.2478      28.1444       1.0226
    7246.0    1527.0738       0.0000      50.8611    -123.4675       4.7401      -3.9529       2.6115      34.2593       1.0226
    7247.0    1523.3681       0.0000      50.8611    -117.9304       4.9053      -4.3321       2.2943      40.7810       1.0226
    7248.0    1515.7546       0.0000      50.8611    -116.7271       5.0229      -4.4847       2.2566      46.8959       1.0226
    7249.0    1505.6210       0.0000      50.8611    -111.2400       5.0368      -4.6936       1.8216      52.9985       1.0226
    7250.0    1496.0106       0.0000      50.8611    -103.8274       4.9869      -4.8414       1.1903      59.0950       1.0180
    7251.0    1483.7682       0.0000      50.8611     -94.3198       5.2084      -5.1932       0.3905      65.2031       1.0286
    7252.0    1478.5217       0.0000      50.8611     -93.3260       5.3327      -5.3234       0.3087      71.3062       1.0226
    7253.0    1459.5607       0.0000      50.8611     -90.2466       5.3500      -5.3499       0.0233      77.4097       1.0226
    7254.0    1447.4982       0.0000      50.8611     -82.1669       5.2796      -5.2302      -0.7184      83.5098       1.0226
    7255.0    1439.5334       0.0000      50.8611     -77.2067       5.4240      -5.2880      -1.1992      89.6116       1.0226
    7256.0    1418.8509       0.0000      50.8611     -69.9924       5.4963      -5.1627      -1.8780      95.7133       1.0226
    7257.0    1400.6475       0.0000      50.8611     -68.2682       5.6403      -5.2382      -2.0857     101.8151       1.0226
    7258.0    1391.4571       0.0000      50.8611     -64.0171       5.5025      -4.9442      -2.4079     107.9169       1.0226
    7259.0    1366.4600       0.0000      50.8611     -57.8760       5.4229      -4.5907      -2.8805     114.1969       1.0226
    7260.0    1354.4606       0.0000      50.8611     -50.5345       5.6107      -4.3288      -3.5625     120.5271       1.0226
    7261.0    1324.4565       0.0000      50.8611     -46.7653       5.6608      -4.1216      -3.8717     126.6289       1.0226
    7262.0    1294.4398       0.0000      50.8611     -44.7126       5.5039      -3.8693      -3.9076     132.7308       1.0226
    7263.0    1260.3557       0.0000      50.8611     -38.6274       5.2143      -3.2524      -4.0712     138.8226       1.0286
    7264.0    1234.0090       0.0000      50.8611     -34.4759       5.6012      -3.1704      -4.6076     144.9179       1.0214
    7265.0    1202.7509       0.0000      50.8611     -25.5448       5.5117      -2.3735      -4.9715     151.0272       1.0226
    7266.0    1184.2038       0.0000      50.8611     -22.9898       5.3872      -2.1020      -4.9576     157.1291       1.0226
    7267.0    1164.3487       0.0000      50.8611     -18.8512       5.2394      -1.6907      -4.9576     163.2310       1.0180
    7268.0    1137.7427       0.0000      50.8611     -12.0003       5.2037      -1.0866      -5.0868     169.3336       1.0226
    7269.0    1123.9936       0.0000      50.8611      -5.1390       5.2835      -0.4728      -5.2618     175.4486       1.0226
    7270.0    1123.7837       0.0000      50.8611      -0.8346       4.9536      -0.0712      -4.9527     181.5514       1.0226
    7271.0    1121.1997       0.0000      50.8611       1.9578       4.7630       0.1602      -4.7581     187.8315       1.0226
    7272.0    1106.1051       0.0000      50.8611       7.9925       4.6946       0.6518      -4.6485     194.1619       1.0226
    7273.0    1127.1820       0.0000      50.8611      16.5401       4.8685       1.3845      -4.6665     200.2487       1.0180
    7274.0    1122.9904       0.0000      50.8611      22.6725       4.6841       1.8038      -4.3214     206.3356       1.0180
    7275.0    1122.4147       0.0000      50.8611      23.6193       4.3494       1.7411      -3.9845     212.4437       1.0226
    7276.0    1132.4681       0.0000      50.8611      29.2010       4.3815       2.1332      -3.8226     218.5332       1.0167
    7277.0    1155.1830       0.0000      50.8611      38.3540       4.4251       2.7445      -3.4673     224.6373       1.0167
    7278.0    1178.1789       0.0000      50.8611      46.2993       4.3371       3.1341      -2.9950     230.7379       1.0226
    7279.0    1196.2191       0.0000      50.8611      50.3937       3.8665       2.9783      -2.4635     236.8411       1.0226
    7280.0    1234.7667       0.0000      50.8611      54.4185       3.7442       3.0442      -2.1773     242.9574       1.0226
    7281.0    1269.6626       0.0000      50.8611      61.8704       3.8886       3.4281      -1.8322     249.0657       1.0167
    7282.0    1289.5869       0.0000      50.8611      71.5584       3.9300       3.7270      -1.2417     255.1484       1.0180
    7283.0    1312.8792       0.0000      50.8611      78.1340       3.5447       3.4683      -0.7282     261.4237       1.0180
    7284.0    1330.5685       0.0000      50.8611      83.5125       3.3801       3.3575      -0.3831     267.7479       1.0286
    7285.0    1353.6224       0.0000      50.8611      91.0825       3.5550       3.5535       0.0667     273.8628       1.0226
    7286.0    1360.8633       0.0000      50.8611     101.5758       3.7373       3.6611       0.7487     279.9777       1.0226
    7287.0    1371.4812       0.0000      50.8611     110.9873       3.3622       3.1389       1.2034     286.0809       1.0226
    7288.0    1391.4571       0.0000      50.8611     116.2803       3.2216       2.8883       1.4258     292.1827       1.0180
    7289.0    1405.9408       0.0000      50.8611     122.6623       3.3569       2.8252       1.8114     298.2800       1.0238
    7290.0    1417.2535       0.0000      50.8611     131.6681       3.4914       2.6071       2.3204     304.4069       1.0286
    7291.0    1432.0265       0.0000      50.8611     141.8571       3.5171       2.1701       2.7653     310.5161       1.0226
    7292.0    1443.4388       0.0000      50.8611     149.1851       3.3902       1.7363       2.9108     316.6055       1.0226
    7293.0    1458.7655       0.0000      50.8611     152.1191       3.5047       1.6383       3.0973     322.7073       1.0226
    7294.0    1469.2531       0.0000      50.8611     160.5996       3.8919       1.2913       3.6697     328.8091       1.0226
    7295.0    1480.6437       0.0000      50.8611     170.3031       3.7235       0.6261       3.6697     334.9241       1.0226
    7296.0    1491.4428       0.0000      50.8611     178.4865       3.7447       0.0991       3.7433     341.4326       1.0226
    7297.0    1502.0255       0.0000      50.8611    -175.6141       3.8811      -0.2977       3.8693     347.5344       1.0226
    7298.0    1509.9042       0.0000      50.8611    -172.5893       4.1778      -0.5387       4.1424     353.6382       1.0226
    7299.0    1517.5953       0.0000      50.8611    -165.1185       4.2792      -1.0962       4.1342     201.3532       1.0226
    7300.0    1530.3976       0.0000      50.8611    -156.7880       4.1481      -1.6329       3.8120       5.8498       1.0273
    7301.0    1531.0909       0.0000      50.8611    -151.3420       4.2352      -2.0297       3.7155      11.9522       1.0226
    7302.0    1528.9386       0.0000      50.8611    -146.6235       4.4725      -2.4587       3.7335      18.0547       1.0167
    7303.0    1535.6170       0.0000      50.8611    -140.5632       4.6604      -2.9584       3.5978      24.1628       1.0226
    7304.0    1533.3344       0.0000      50.8611    -132.6741       4.6139      -3.3905       3.1251      30.2646       1.0226
    7305.0    1531.8628       0.0000      50.8611    -126.6276       4.6550      -3.7344       2.7751      36.3540       1.0226
    7306.0    1525.2169       0.0000      50.8611    -123.5501       4.8532      -4.0429       2.6802      42.4312       1.0226
    7307.0    1523.7643       0.0000      50.8611    -117.7401       4.9727      -4.3995       2.3122      48.5330       1.0226
