~VERSION INFORMATION
VERS.           2.0   :CWLS Log ASCII Standard - VERSION 2.0
WRAP.           NO    :One Line per depth step
PROD.  Schlumberger   :LAS Producer
PROG.  DLIS to ASCII 19C2-270                          :LAS Program name and version
CREA.        2017/09/16 17:42                          :LAS Creation date {YYYY/MM/DD hh:mm}
DLIS_CREA.  2017-Sep-15 15:10                          :DLIS Creation date and time {YYYY-MMM-DD hh:mm}
SOURCE.     LPC_S2-1_2A5.DLIS                          :DLIS File Name
FILE-ID.     PERFO_Perfo_WPGRT_033LTP                  :File Identification Number
#--------------------------------------------------
~WELL INFORMATION
#MNEM.UNIT      DATA             DESCRIPTION
#---- ------ --------------   -----------------------------
STRT .S        15770.0       :START TIME      
STOP .S        16224.0       :STOP TIME      
STEP .S            1.0       :STEP     
NULL .          -999.25      :NULL VALUE
COMP .        SHELL INTERNATIONAL E P                  :COMPANY
WELL .        WPP TEST 2                               :WELL
FLD  .        WILDCAT                                  :FIELD
LOC  .                                                 :LOCATION
CNTY .        HARRIS                                   :COUNTY
STAT .        TEXAS                                    :STATE
CTRY .                                                 :COUNTRY
API  .                                                 :API NUMBER
UWI  .                                                 :UNIQUE WELL ID
DATE .                                                 :LOG DATE
SRVC .        Schlumberger                             :SERVICE COMPANY
LATI .DEG                                              :LATITUDE
LONG .DEG                                              :LONGITUDE
GDAT .                                                 :GeoDetic Datum
#-----------------------------------------------------------------------------
~PARAMETER INFORMATION
#MNEM.UNIT    VALUE                      DESCRIPTION
#---- -----   --------------------       ------------------------
U-PHASE_B_COMP_PER_YT.                 0 :Phase B Comparator Period Yt
U-PHASE_A_COMP_PER_XT.                 0 :Phase A Comparator Period Xt
U-MAX_EXC_CUR_LIMIT.MA       240.00000   :Requested CM Current Limit
U-REQ_EXC_FQ.HZ              50          :Requested CM Frequency
U-TILT_Y_OFFSET.           0.19916       :WPTET Tilt Y Offset
U-TILT_Y_GAIN.           1.01796         :WPTET Tilt Y Gain
U-TILT_X_OFFSET.          -1.77103       :WPTET Tilt X Offset
U-TILT_X_GAIN.           1.00000         :WPTET Tilt X Gain
U-TILT_OFFSET_TOL.           0.00100     :WPTET Tilt Offset Calibration Tolerance
U-NO_TILT_CAL_ROTATIONS.                 3 :Number of Rotations for Tilt Calibration
HAZI .DEG        0.00000                 :Hole Azimuth
U-STD_TOL_TILT.           0.01000        :Tilt Standard Deviation Tolerance
U-GUN_POS_TOL.DEG        5.00000         :Gun Position Tolerance
ROT_ANGLE_THRESHOLD.DEG        5.00000   :Rotation Stop Angle Tolerance
STOP_ROT_ANGLE.DEG       80.00000        :Rotation Stop Angle
WITN .                                   :Witness's Name
ENGI .                                   :Engineer's Name
COUN .        HARRIS                     :County or Rig Name
FN   .        WILDCAT                    :Field Name
WN   .        WPP TEST 2                 :Well Name
CN   .        SHELL INTERNATIONAL E P    :Company Name
CLAB .        County                     :County/Rig Label
SLAB .        State                      :State/Province Label
RUN  .          1                        :RUN NUMBER
PDAT .        GROUND LEVEL               :Permanent Datum
EPD  .                                   :Elevation of Permanent Datum above Mean Sea Level
LMF  .                                   :Logging Measured From (Name of Logging Elevation Reference)
APD  .                                   :Elevation of Depth Reference (LMF) above Permanent Datum
#-----------------------------------------------------------------------------
~CURVE INFORMATION
#MNEM.UNIT   API CODE                                  DESCRIPTION
#---- -----  --------                                  -----------------------
TIME .S                                                :TIME {F10.1}
FREQ_EMF_SL.HZ                                         :Electromagnetic Field Frequency {F13.4}
PH_SH_WPPCM_SL.DEG                                     :WPPCM Phase Shift {F13.4}
FREQ_EXC_REQ_SL.HZ                                     :Requested Exciter Frequency {F13.4}
RB_SL.DEG                                              :Relative Bearing {F13.4}
SDEV_SL.DEG                                            :Sonde Deviation {F13.4}
TILX_SL.DEG                                            :X-axis Tilt {F13.4}
TILY_SL.DEG                                            :Y-axis Tilt {F13.4}
ROTA_SL.DEG                                            :Motor Rotation Angle {F13.4}
MSPE_SL.RPM                                            :Motor Speed {F13.4}
#-----------------------------------------------------------------------------
# 
#     TIME    FREQ_EMF_SL  PH_SH_WPPCM_ FREQ_EXC_REQ    RB_SL       SDEV_SL      TILX_SL      TILY_SL      ROTA_SL      MSPE_SL
#                          SL           _SL
~A  
# ...
   16022.0    1499.4417       0.0000      50.8611     132.6029       3.4379       2.5298       2.3264     128.6609       1.0226
   16023.0    1508.7712       0.0000      50.8611     139.7427       3.5884       2.3179       2.7373     134.7657       1.0226
   16024.0    1515.3556       0.0000      50.8611     146.4566       3.6259       2.0026       3.0214     140.8702       1.0028
   16025.0    1515.3556       0.0000      50.8611     152.7849       3.6763       1.6803       3.2688     146.9843       1.0226
   16026.0    1515.4374       0.0000      50.8611     161.3532       3.6250       1.1581       3.4344     153.0710       1.0226
   16027.0    1512.3423       0.0000      50.8611     170.0025       3.8975       0.6761       3.8382     159.1758       1.0226
   16028.0    1515.1930       0.0000      50.8611     177.1333       3.9249       0.1961       3.9200     165.2806       1.0226
   16029.0    1505.5405       0.0000      50.8611    -176.9981       3.9274      -0.2055       3.9220     171.7980       1.0226
   16030.0    1499.3610       0.0000      50.8611    -170.4377       4.1422      -0.6875       4.0845     177.9028       1.0226
   16031.0    1499.1207       0.0000      50.8611    -164.4942       4.2392      -1.1324       4.0845     184.0076       1.0226
   16032.0    1483.4645       0.0000      50.8611    -156.4952       4.3591      -1.7369       3.9966     190.1198       1.0226
   16033.0    1489.4364       0.0000      50.8611    -151.7878       4.2696      -2.0170       3.7615     196.2187       1.0226
   16034.0    1471.1274       0.0000      50.8611    -146.2390       4.5654      -2.5352       3.7942     202.3296       1.0229
   16035.0    1455.8967       0.0000      50.8611    -139.6561       4.6062      -2.9800       3.5090     208.4415       1.0226
   16036.0    1443.7886       0.0000      50.8611    -132.6071       4.6502      -3.4209       3.1462     214.5159       1.0123
   16037.0    1426.2170       0.0000      50.8611    -128.9108       4.8089      -3.7402       3.0184     220.6149       1.0226
   16038.0    1420.4546       0.0000      50.8611    -122.1378       4.9868      -4.2212       2.6504     226.7197       1.0226
   16039.0    1409.0682       0.0000      50.8611    -117.3173       4.9807      -4.4240       2.2834     232.8245       1.0226
   16040.0    1395.1586       0.0000      50.8611    -112.8033       5.1456      -4.7424       1.9921     238.9112       1.0226
   16041.0    1378.4750       0.0000      50.8611    -105.5123       5.1733      -4.9844       1.3818     245.4221       1.0226
   16042.0    1357.2536       0.0000      50.8611     -99.8837       5.2228      -5.1450       0.8953     251.5269       1.0226
   16043.0    1334.0769       0.0000      50.8611     -96.0537       5.3376      -5.3077       0.5620     257.6259       1.0226
   16044.0    1297.1593       0.0000      50.8611     -90.7487       5.6265      -5.6260       0.0734     263.7246       1.0226
   16045.0    1264.5566       0.0000      50.8611     -85.5977       5.4433      -5.4272      -0.4172     269.8045       1.0022
   16046.0    1253.0107       0.0000      50.8611     -80.5650       5.5406      -5.4654      -0.9069     275.9091       1.0226
   16047.0    1208.2227       0.0000      50.8611     -74.9049       5.5355      -5.3439      -1.4394     282.0078       1.0226
   16048.0    1187.6611       0.0000      50.8611     -69.3334       5.5837      -5.2234      -1.9679     288.0817       1.0226
   16049.0    1171.5849       0.0000      50.8611     -65.7372       5.5999      -5.1039      -2.2981     294.1863       1.0226
   16050.0    1158.0307       0.0000      50.8611     -59.7218       5.5414      -4.7835      -2.7908     300.2905       1.0226
   16051.0    1137.7888       0.0000      50.8611     -54.9401       5.5045      -4.5034      -3.1588     306.3905       1.0226
   16052.0    1116.2946       0.0000      50.8611     -50.2568       5.6464      -4.3387      -3.6065     312.4891       1.0226
   16053.0    1105.4558       0.0000      50.8611     -43.9058       5.5732      -3.8617      -4.0123     318.9925       1.0229
   16054.0    1103.4646       0.0000      50.8611     -40.6565       5.6148      -3.6548      -4.2566     325.1040       1.0226
   16055.0    1081.7307       0.0000      50.8611     -35.2815       5.5668      -3.2120      -4.5418     331.2028       1.0226
   16056.0    1078.4126       0.0000      50.8611     -30.8772       5.4882      -2.8134      -4.7084     337.3087       1.0331
   16057.0    1062.1223       0.0000      50.8611     -25.6305       5.3167      -2.2972      -4.7922     343.4151       1.0226
   16058.0    1078.2891       0.0000      50.8611     -20.5952       5.3814      -1.8905      -5.0365     349.5266       1.0229
   16059.0    1090.0321       0.0000      50.8611     -14.9075       5.2995      -1.3613      -5.1204     355.6387       1.0229
   16060.0    1105.4558       0.0000      50.8611     -10.2296       5.4454      -0.9657      -5.3585       1.7438       1.0226
   16061.0    1102.2944       0.0000      50.8611      -4.0592       5.1661      -0.3652      -5.1531       7.8361       1.0226
   16062.0    1121.5012       0.0000      50.8611       0.8893       5.0750       0.0786      -5.0744      13.9350       1.0226
   16063.0    1143.3393       0.0000      50.8611       3.1970       5.1563       0.2865      -5.1480      20.0339       1.0226
   16064.0    1154.6041       0.0000      50.8611      12.2591       4.8970       1.0386      -4.7851      26.1386       1.0226
   16065.0    1172.0716       0.0000      50.8611      16.8667       4.7058       1.3640      -4.5030      32.6615       1.0226
   16066.0    1202.1300       0.0000      50.8611      24.0388       4.5307       1.8440      -4.1370      38.7604       1.0226
   16067.0    1231.5549       0.0000      50.8611      28.9010       4.4920       2.1693      -3.9316      44.8408       1.0123
   16068.0    1271.5313       0.0000      50.8611      35.2453       4.3135       2.4876      -3.5216      50.9330       1.0226
   16069.0    1309.6032       0.0000      50.8611      40.2143       4.2908       2.7688      -3.2753      57.0319       1.0226
   16070.0    1347.1774       0.0000      50.8611      46.4526       4.1016       2.9717      -2.8245      63.1447       1.0226
   16071.0    1363.0462       0.0000      50.8611      53.5053       3.9950       3.2106      -2.3747      69.2627       1.0331
   16072.0    1392.3268       0.0000      50.8611      60.8749       3.9510       3.4506      -1.9219      75.3674       1.0226
   16073.0    1403.5133       0.0000      50.8611      67.1511       3.7013       3.4105      -1.4364      81.4722       1.0226
   16074.0    1420.5987       0.0000      50.8611      74.8899       3.7793       3.6485      -0.9845      87.5782       1.0226
   16075.0    1426.5824       0.0000      50.8611      82.8331       3.6418       3.6133      -0.4540      93.6585       1.0331
   16076.0    1446.5374       0.0000      50.8611      90.5911       3.6517       3.6515       0.0376      99.7634       1.0226
   16077.0    1461.7983       0.0000      50.8611      97.8217       3.5611       3.5280       0.4844     106.2679       1.0223
   16078.0    1474.2118       0.0000      50.8611     105.3889       3.5375       3.4105       0.9382     112.3797       1.0226
   16079.0    1480.4984       0.0000      50.8611     114.0051       3.5117       3.2076       1.4278     118.4784       1.0226
   16080.0    1492.9935       0.0000      50.8611     121.1694       3.4713       2.9696       1.7958     124.5773       1.0226
   16081.0    1502.2440       0.0000      50.8611     130.7711       3.4979       2.6483       2.2834     130.6762       1.0226
   16082.0    1505.7017       0.0000      50.8611     136.9598       3.5226       2.4033       2.5737     136.7810       1.0226
   16083.0    1512.0157       0.0000      50.8611     144.5796       3.7092       2.1492       3.0204     142.8737       1.0226
   16084.0    1518.6285       0.0000      50.8611     155.2158       3.6415       1.5257       3.3056     148.9854       1.0223
