~VERSION INFORMATION
VERS.           2.0   :CWLS Log ASCII Standard - VERSION 2.0
WRAP.           NO    :One Line per depth step
PROD.  Schlumberger   :LAS Producer
PROG.  DLIS to ASCII 19C2-270                          :LAS Program name and version
CREA.        2017/09/16 17:42                          :LAS Creation date {YYYY/MM/DD hh:mm}
DLIS_CREA.  2017-Sep-15 16:38                          :DLIS Creation date and time {YYYY-MMM-DD hh:mm}
SOURCE.     LPC_S3-1_2A5.DLIS                          :DLIS File Name
FILE-ID.     PERFO_Perfo_WPGRT_042LTP                  :File Identification Number
#--------------------------------------------------
~WELL INFORMATION
#MNEM.UNIT      DATA             DESCRIPTION
#---- ------ --------------   -----------------------------
STRT .S         4115.0       :START TIME      
STOP .S         4682.0       :STOP TIME      
STEP .S            1.0       :STEP     
NULL .          -999.25      :NULL VALUE
COMP .        SHELL INTERNATIONAL E P                  :COMPANY
WELL .        WPP TEST 2                               :WELL
FLD  .        WILDCAT                                  :FIELD
LOC  .                                                 :LOCATION
CNTY .        HARRIS                                   :COUNTY
STAT .        TEXAS                                    :STATE
CTRY .                                                 :COUNTRY
API  .                                                 :API NUMBER
UWI  .                                                 :UNIQUE WELL ID
DATE .                                                 :LOG DATE
SRVC .        Schlumberger                             :SERVICE COMPANY
LATI .DEG                                              :LATITUDE
LONG .DEG                                              :LONGITUDE
GDAT .                                                 :GeoDetic Datum
#-----------------------------------------------------------------------------
~PARAMETER INFORMATION
#MNEM.UNIT    VALUE                      DESCRIPTION
#---- -----   --------------------       ------------------------
U-PHASE_B_COMP_PER_YT.                 0 :Phase B Comparator Period Yt
U-PHASE_A_COMP_PER_XT.                 0 :Phase A Comparator Period Xt
U-MAX_EXC_CUR_LIMIT.MA       240.00000   :Requested CM Current Limit
U-REQ_EXC_FQ.HZ              50          :Requested CM Frequency
U-TILT_Y_OFFSET.           0.19916       :WPTET Tilt Y Offset
U-TILT_Y_GAIN.           1.01796         :WPTET Tilt Y Gain
U-TILT_X_OFFSET.          -1.77103       :WPTET Tilt X Offset
U-TILT_X_GAIN.           1.00000         :WPTET Tilt X Gain
U-TILT_OFFSET_TOL.           0.00100     :WPTET Tilt Offset Calibration Tolerance
U-NO_TILT_CAL_ROTATIONS.                 3 :Number of Rotations for Tilt Calibration
HAZI .DEG        0.00000                 :Hole Azimuth
U-STD_TOL_TILT.           0.01000        :Tilt Standard Deviation Tolerance
U-GUN_POS_TOL.DEG        5.00000         :Gun Position Tolerance
ROT_ANGLE_THRESHOLD.DEG        5.00000   :Rotation Stop Angle Tolerance
STOP_ROT_ANGLE.DEG        0.00000        :Rotation Stop Angle
WITN .                                   :Witness's Name
ENGI .                                   :Engineer's Name
COUN .        HARRIS                     :County or Rig Name
FN   .        WILDCAT                    :Field Name
WN   .        WPP TEST 2                 :Well Name
CN   .        SHELL INTERNATIONAL E P    :Company Name
CLAB .        County                     :County/Rig Label
SLAB .        State                      :State/Province Label
RUN  .          1                        :RUN NUMBER
PDAT .        GROUND LEVEL               :Permanent Datum
EPD  .                                   :Elevation of Permanent Datum above Mean Sea Level
LMF  .                                   :Logging Measured From (Name of Logging Elevation Reference)
APD  .                                   :Elevation of Depth Reference (LMF) above Permanent Datum
#-----------------------------------------------------------------------------
~CURVE INFORMATION
#MNEM.UNIT   API CODE                                  DESCRIPTION
#---- -----  --------                                  -----------------------
TIME .S                                                :TIME {F10.1}
FREQ_EMF_SL.HZ                                         :Electromagnetic Field Frequency {F13.4}
PH_SH_WPPCM_SL.DEG                                     :WPPCM Phase Shift {F13.4}
FREQ_EXC_REQ_SL.HZ                                     :Requested Exciter Frequency {F13.4}
RB_SL.DEG                                              :Relative Bearing {F13.4}
SDEV_SL.DEG                                            :Sonde Deviation {F13.4}
TILX_SL.DEG                                            :X-axis Tilt {F13.4}
TILY_SL.DEG                                            :Y-axis Tilt {F13.4}
ROTA_SL.DEG                                            :Motor Rotation Angle {F13.4}
MSPE_SL.RPM                                            :Motor Speed {F13.4}
#-----------------------------------------------------------------------------
# 
#     TIME    FREQ_EMF_SL  PH_SH_WPPCM_ FREQ_EXC_REQ    RB_SL       SDEV_SL      TILX_SL      TILY_SL      ROTA_SL      MSPE_SL
#                          SL           _SL
~A  
# ...
    4367.0    1429.2032       0.0000      50.8611     153.1974       4.4413       2.0010       3.9633     113.9232       0.0005
    4368.0    1429.2032       0.0000      50.8611     154.7677       4.5151       1.9231       4.0835     113.9232       0.0005
    4369.0    1426.3040       0.0000      50.8611     154.0799       4.3164       1.8853       3.8815     113.9232       0.0005
    4370.0    1429.2032       0.0000      50.8611     154.2969       4.2577       1.8452       3.8357     113.9232       0.0005
    4371.0    1435.0370       0.0000      50.8611     154.2545       4.4368       1.9255       3.9956     113.9232       0.0005
    4372.0    1431.9392       0.0000      50.8611     155.6269       4.5669       1.8829       4.1592     113.9232       0.0005
    4373.0    1423.5035       0.0000      50.8611     154.7735       4.4244       1.8841       4.0017     113.9232       0.0005
    4374.0    1426.5670       0.0000      50.8611     154.7654       4.3343       1.8464       3.9200     113.9232       0.0005
    4375.0    1431.9392       0.0000      50.8611     153.4203       4.4729       1.9998       3.9993     113.9232       0.0005
    4376.0    1431.7656       0.0000      50.8611     154.2876       4.5318       1.9645       4.0823     113.9232       0.0005
    4377.0    1426.3040       0.0000      50.8611     155.2314       4.4107       1.8464       4.0042     113.9232       0.0005
    4378.0    1429.2908       0.0000      50.8611     155.2394       4.4063       1.8440       4.0005     113.9232       0.0005
    4379.0    1434.8613       0.0000      50.8611     153.5841       4.2463       1.8878       3.8022     113.9232       0.0005
    4380.0    1431.6793       0.0000      50.8611     154.2768       4.4428       1.9267       4.0017     113.9232       0.0005
    4381.0    1429.1158       0.0000      50.8611     155.4723       4.3572       1.8074       3.9633     113.9232       0.0005
    4382.0    1426.3040       0.0000      50.8611     154.0747       4.3994       1.9219       3.9559     113.9232       0.0005
    4383.0    1429.1158       0.0000      50.8611     154.3269       4.4369       1.9207       3.9981     113.9232       0.0005
    4384.0    1431.7656       0.0000      50.8611     152.6738       4.4579       2.0448       3.9596     113.9232       0.0005
    4385.0    1426.3913       0.0000      50.8611     152.7139       4.3712       2.0022       3.8840     113.9232       0.0005
    4386.0    1426.2170       0.0000      50.8611     155.3208       4.3148       1.8002       3.9200     113.9232       0.0005
    4387.0    1426.3040       0.0000      50.8611     154.3328       4.4407       1.9219       4.0017     113.9232       0.0005
    4388.0    1429.2908       0.0000      50.8611     154.0885       4.4044       1.9231       3.9609     113.9232       0.0005
    4389.0    1429.1158       0.0000      50.8611     155.4808       4.3501       1.8038       3.9572     113.9232       0.0005
    4390.0    1434.6870       0.0000      50.8611     154.7724       4.3354       1.8464       3.9212     113.9232       0.0005
    4391.0    1429.2032       0.0000      50.8611     152.0845       4.4388       2.0765       3.9212     113.9232       0.0005
    4392.0    1431.9392       0.0000      50.8611     155.7552       4.3012       1.7648       3.9212     113.9232       0.0005
    4393.0    1426.3913       0.0000      50.8611     156.6594       4.0169       1.5929       3.6844     113.9232       0.0005
    4394.0    1434.7740       0.0000      50.8611     147.2310       4.7121       2.5489       3.9596     113.9232       0.0005
    4395.0    1429.1158       0.0000      50.8611     155.6590       4.4350       1.8271       4.0389     113.9232       0.0005
    4396.0    1429.2032       0.0000      50.8611     155.1619       4.4079       1.8500       3.9993     113.9232       0.0005
    4397.0    1432.1142       0.0000      50.8611     155.2326       4.4052       1.8440       3.9993     113.9232       0.0005
    4398.0    1431.8522       0.0000      50.8611     154.0941       4.3159       1.8841       3.8815     113.9232       0.0005
    4399.0    1426.3040       0.0000      50.8611     153.9040       4.2815       1.8817       3.8443     113.9232       0.0015
    4400.0    1429.4673       0.0000      50.8611     159.2724       4.3257       1.5299       4.0451     118.5991       0.7650
    4401.0    1432.0265       0.0000      50.8611     164.2483       4.4558       1.2085       4.2880     123.8321       0.9902
    4402.0    1440.6534       0.0000      50.8611     172.2984       4.5286       0.6060       4.4875     129.9101       1.0226
    4403.0    1435.0370       0.0000      50.8611     177.5969       4.7370       0.1983       4.7328     136.0090       1.0124
    4404.0    1437.9718       0.0000      50.8611    -175.3204       4.9141      -0.4005       4.8976     142.5066       1.0124
    4405.0    1440.8298       0.0000      50.8611    -167.8449       4.7631      -1.0018       4.6559     148.5962       1.0226
    4406.0    1443.6114       0.0000      50.8611    -162.4310       4.7998      -1.4473       4.5754     154.6981       1.0226
    4407.0    1449.3864       0.0000      50.8611    -155.6614       5.0678      -2.0863       4.6163     160.8131       1.0226
    4408.0    1443.8777       0.0000      50.8611    -150.8569       4.9662      -2.4161       4.3362     166.9281       1.0226
    4409.0    1440.9186       0.0000      50.8611    -145.9616       5.3220      -2.9760       4.4082     173.0458       1.0330
    4410.0    1435.1254       0.0000      50.8611    -137.5984       5.4214      -3.6528       4.0005     179.1582       1.0226
    4411.0    1440.8298       0.0000      50.8611    -130.7733       5.5730      -4.2176       3.6362     185.2601       1.0226
    4412.0    1443.6998       0.0000      50.8611    -126.5167       5.7025      -4.5803       3.3896     191.3497       1.0226
    4413.0    1434.7740       0.0000      50.8611    -120.2771       5.6782      -4.9016       2.8593     197.4516       1.0226
    4414.0    1426.4790       0.0000      50.8611    -115.3128       5.6515      -5.1073       2.4132     203.5289       1.0226
    4415.0    1423.5035       0.0000      50.8611    -110.5305       5.8306      -5.4591       2.0416     209.6319       1.0223
    4416.0    1420.3687       0.0000      50.8611    -104.1306       6.0444      -5.8608       1.4728     216.1415       1.0124
    4417.0    1409.2383       0.0000      50.8611     -98.0322       5.8860      -5.8279       0.8211     222.2442       1.0226
    4418.0    1403.6967       0.0000      50.8611     -94.3963       5.8085      -5.7913       0.4445     228.3470       1.0223
    4419.0    1398.0302       0.0000      50.8611     -88.8248       6.0714      -6.0701      -0.1243     234.4519       1.0226
    4420.0    1386.9991       0.0000      50.8611     -82.3000       6.1636      -6.1078      -0.8243     240.5508       1.0226
    4421.0    1378.6765       0.0000      50.8611     -78.7756       6.3478      -6.2259      -1.2331     246.6527       1.0226
    4422.0    1370.9371       0.0000      50.8611     -79.5579       5.2055      -5.1141      -0.9514     252.7546       1.0226
    4423.0    1368.0275       0.0000      50.8611     -66.6806       5.2497      -4.8185      -2.0779     258.8445       1.0124
    4424.0    1352.1635       0.0000      50.8611     -62.4232       5.9687      -5.2884      -2.7595     264.9218       1.0223
    4425.0    1346.9828       0.0000      50.8611     -57.1039       5.9621      -5.0036      -3.2330     271.0232       1.0226
    4426.0    1324.3783       0.0000      50.8611     -54.1193       6.1066      -4.9442      -3.5748     277.1036       1.0124
    4427.0    1321.6636       0.0000      50.8611     -48.6501       6.3243      -4.7434      -4.1734     283.2020       1.0226
    4428.0    1292.6524       0.0000      50.8611     -43.4599       6.3721      -4.3782      -4.6207     289.7119       1.0226
    4429.0    1292.2966       0.0000      50.8611     -38.6377       6.4491      -4.0216      -5.0333     295.8137       1.0226
