~VERSION INFORMATION
VERS.           2.0   :CWLS Log ASCII Standard - VERSION 2.0
WRAP.           NO    :One Line per depth step
PROD.  Schlumberger   :LAS Producer
PROG.  DLIS to ASCII 19C2-270                          :LAS Program name and version
CREA.        2017/09/16 17:42                          :LAS Creation date {YYYY/MM/DD hh:mm}
DLIS_CREA.  2017-Sep-15 19:44                          :DLIS Creation date and time {YYYY-MMM-DD hh:mm}
SOURCE.     LPC_S5-1_2A5.DLIS                          :DLIS File Name
FILE-ID.     PERFO_Perfo_WPGRT_063LTP                  :File Identification Number
#--------------------------------------------------
~WELL INFORMATION
#MNEM.UNIT      DATA             DESCRIPTION
#---- ------ --------------   -----------------------------
STRT .S         1302.0       :START TIME      
STOP .S         1712.0       :STOP TIME      
STEP .S            1.0       :STEP     
NULL .          -999.25      :NULL VALUE
COMP .        SHELL INTERNATIONAL E P                  :COMPANY
WELL .        WPP TEST 2                               :WELL
FLD  .        WILDCAT                                  :FIELD
LOC  .        NA                                       :LOCATION
CNTY .        HARRIS                                   :COUNTY
STAT .        TEXAS                                    :STATE
CTRY .                                                 :COUNTRY
API  .        NA                                       :API NUMBER
UWI  .                                                 :UNIQUE WELL ID
DATE .        15-Sep-2017                              :LOG DATE {DD-MMM-YYYY}
SRVC .        Schlumberger                             :SERVICE COMPANY
LATI .DEG                                              :LATITUDE
LONG .DEG                                              :LONGITUDE
GDAT .                                                 :GeoDetic Datum
SECT .        NA                                       :Section
RANG .        NA                                       :Range
TOWN .        NA                                       :Township
#-----------------------------------------------------------------------------
~PARAMETER INFORMATION
#MNEM.UNIT    VALUE                      DESCRIPTION
#---- -----   --------------------       ------------------------
U-PHASE_B_COMP_PER_YT.                 0 :Phase B Comparator Period Yt
U-PHASE_A_COMP_PER_XT.                 0 :Phase A Comparator Period Xt
U-MAX_EXC_CUR_LIMIT.MA       240.00000   :Requested CM Current Limit
U-REQ_EXC_FQ.HZ              50          :Requested CM Frequency
U-TILT_Y_OFFSET.           0.19916       :WPTET Tilt Y Offset
U-TILT_Y_GAIN.           1.01796         :WPTET Tilt Y Gain
U-TILT_X_OFFSET.          -1.77103       :WPTET Tilt X Offset
U-TILT_X_GAIN.           1.00000         :WPTET Tilt X Gain
U-TILT_OFFSET_TOL.           0.00100     :WPTET Tilt Offset Calibration Tolerance
U-NO_TILT_CAL_ROTATIONS.                 3 :Number of Rotations for Tilt Calibration
HAZI .DEG        0.00000                 :Hole Azimuth
U-STD_TOL_TILT.           0.01000        :Tilt Standard Deviation Tolerance
U-GUN_POS_TOL.DEG        5.00000         :Gun Position Tolerance
ROT_ANGLE_THRESHOLD.DEG        5.00000   :Rotation Stop Angle Tolerance
STOP_ROT_ANGLE.DEG        0.00000        :Rotation Stop Angle
WITN .        MR. DHRUA ARORA            :Witness's Name
ENGI .        MORRIS MOORE               :Engineer's Name
COUN .        HARRIS                     :County or Rig Name
FN   .        WILDCAT                    :Field Name
WN   .        WPP TEST 2                 :Well Name
CN   .        SHELL INTERNATIONAL E P    :Company Name
CLAB .        County                     :County/Rig Label
SLAB .        State                      :State/Province Label
RUN  .          1                        :RUN NUMBER
PDAT .        GROUND LEVEL               :Permanent Datum
EPD  .                                   :Elevation of Permanent Datum above Mean Sea Level
LMF  .          NA                       :Logging Measured From (Name of Logging Elevation Reference)
APD  .                                   :Elevation of Depth Reference (LMF) above Permanent Datum
#-----------------------------------------------------------------------------
~CURVE INFORMATION
#MNEM.UNIT   API CODE                                  DESCRIPTION
#---- -----  --------                                  -----------------------
TIME .S                                                :TIME {F10.1}
FREQ_EMF_SL.HZ                                         :Electromagnetic Field Frequency {F13.4}
PH_SH_WPPCM_SL.DEG                                     :WPPCM Phase Shift {F13.4}
FREQ_EXC_REQ_SL.HZ                                     :Requested Exciter Frequency {F13.4}
RB_SL.DEG                                              :Relative Bearing {F13.4}
SDEV_SL.DEG                                            :Sonde Deviation {F13.4}
TILX_SL.DEG                                            :X-axis Tilt {F13.4}
TILY_SL.DEG                                            :Y-axis Tilt {F13.4}
ROTA_SL.DEG                                            :Motor Rotation Angle {F13.4}
MSPE_SL.RPM                                            :Motor Speed {F13.4}
#-----------------------------------------------------------------------------
# 
#     TIME    FREQ_EMF_SL  PH_SH_WPPCM_ FREQ_EXC_REQ    RB_SL       SDEV_SL      TILX_SL      TILY_SL      ROTA_SL      MSPE_SL
#                          SL           _SL
~A  
# ...
    1491.0    1462.4307       0.0000      50.8611     176.9119       4.6887       0.2524       4.6818     196.9331       0.0005
    1492.0    1462.8245       0.0000      50.8611     176.0585       4.6260       0.3176       4.6151     196.9331       0.0005
    1493.0    1465.8742       0.0000      50.8611     178.0324       4.5769       0.1570       4.5742     196.9331       0.0005
    1494.0    1466.3658       0.0000      50.8611     177.1127       4.7166       0.2373       4.7106     196.9331       0.0005
    1495.0    1463.8218       0.0000      50.8611     175.9037       4.7497       0.3379       4.7374     196.9331       0.0005
    1496.0    1459.2754       0.0000      50.8611     175.6576       4.5537       0.3447       4.5402     196.9331       0.0005
    1497.0    1463.8593       0.0000      50.8611     174.6787       4.6555       0.4314       4.6353     196.9331       0.0005
    1498.0    1465.8742       0.0000      50.8611     177.5763       4.6882       0.1975       4.6831     196.9331       0.0005
    1499.0    1465.8580       0.0000      50.8611     176.1927       4.7892       0.3176       4.7786     196.9331       0.0005
    1500.0    1462.8245       0.0000      50.8611     175.8927       5.4176       0.3781       5.4035     196.9331       0.0005
    1501.0    1465.8742       0.0000      50.8611     176.6188       4.7123       0.2775       4.7041     196.9331       0.0005
    1502.0    1469.9424       0.0000      50.8611     174.7558       4.6636       0.4243       4.6426     196.9331       0.0005
    1503.0    1462.9427       0.0000      50.8611     175.3426       4.6319       0.3758       4.6151     196.9331       0.0005
    1504.0    1459.7874       0.0000      50.8611     175.7664       4.5732       0.3375       4.5604     196.9331       0.0005
    1505.0    1463.8593       0.0000      50.8611     178.8053       4.6977       0.0969       4.6965     196.9331       0.0005
    1506.0    1462.3103       0.0000      50.8611     176.6304       4.6093       0.2707       4.6013     196.9331       0.0005
    1507.0    1464.3317       0.0000      50.8611     177.8568       4.7749       0.1772       4.7714     196.9331       0.0005
    1508.0    1464.8438       0.0000      50.8611     176.9607       4.7376       0.2508       4.7308     196.9331       0.0005
    1509.0    1467.3877       0.0000      50.8611     177.5807       4.5108       0.1907       4.5061     196.9331       0.0005
    1510.0    1462.3103       0.0000      50.8611     176.8700       4.5949       0.2508       4.5879     196.9331       0.0005
    1511.0    1459.7874       0.0000      50.8611     177.2209       4.7640       0.2306       4.7583     196.9331       0.0005
    1512.0    1467.3877       0.0000      50.8611     177.0270       4.7101       0.2441       4.7037     196.9331       0.0005
    1513.0    1462.8245       0.0000      50.8611     174.0563       4.4964       0.4648       4.4721     196.9331       0.0005
    1514.0    1464.8438       0.0000      50.8611     176.8975       4.6357       0.2508       4.6288     196.9331       0.0005
    1515.0    1465.8742       0.0000      50.8611     176.6933       4.6978       0.2707       4.6900     196.9331       0.0005
    1516.0    1464.8438       0.0000      50.8611     177.1510       4.6483       0.2306       4.6426     196.9331       0.0005
    1517.0    1463.8218       0.0000      50.8611     175.6628       4.5602       0.3443       4.5470     196.9331       0.0005
    1518.0    1459.7874       0.0000      50.8611     176.7753       4.5951       0.2576       4.5876     196.9331       0.0005
    1519.0    1463.3408       0.0000      50.8611     174.5259       4.6572       0.4445       4.6353     196.9331       0.0005
    1520.0    1467.3877       0.0000      50.8611     176.8369       4.6702       0.2576       4.6628     196.9331       0.0005
    1521.0    1466.3658       0.0000      50.8611     176.3752       4.6107       0.2910       4.6013     196.9331       0.0005
    1522.0    1464.8438       0.0000      50.8611     175.6911       4.5873       0.3443       4.5742     196.9331       0.0005
    1523.0    1457.7892       0.0000      50.8611     175.6454       4.6285       0.3511       4.6151     196.9331       0.0005
    1524.0    1464.3317       0.0000      50.8611     176.9607       4.7376       0.2508       4.7308     196.9331       0.0005
    1525.0    1471.9957       0.0000      50.8611     178.2137       4.6380       0.1438       4.6353     197.8616       0.5089
    1526.0    1467.3877       0.0000      50.8611    -177.9115       4.6868      -0.1708       4.6831     201.9556       0.8220
    1527.0    1454.7730       0.0000      50.8611    -171.5559       4.9011      -0.7196       4.8466     207.5413       1.0208
    1528.0    1464.3317       0.0000      50.8611    -166.6948       4.9386      -1.1351       4.8058     213.6432       1.0226
    1529.0    1461.2884       0.0000      50.8611    -158.8564       4.9352      -1.7774       4.6017     219.7560       1.0315
    1530.0    1442.3282       0.0000      50.8611    -153.4504       5.0007      -2.2331       4.4721     225.8601       1.0138
    1531.0    1452.7377       0.0000      50.8611    -147.8525       5.1951      -2.7617       4.3969     231.9633       1.0226
    1532.0    1438.3788       0.0000      50.8611    -141.8307       5.2324      -3.2302       4.1110     238.0652       1.0226
    1533.0    1418.5557       0.0000      50.8611    -135.3903       5.3094      -3.7257       3.7770     244.1696       1.0226
    1534.0    1419.9731       0.0000      50.8611    -129.1568       5.5337      -4.2880       3.4908     250.6765       1.0226
    1535.0    1396.0237       0.0000      50.8611    -123.3592       5.5620      -4.6428       3.0548     256.7783       1.0226
    1536.0    1390.5021       0.0000      50.8611    -117.9021       5.7935      -5.1180       2.7071     262.8911       1.0315
    1537.0    1371.5159       0.0000      50.8611    -111.9100       5.7855      -5.3658       2.1553     269.0083       1.0226
    1538.0    1357.8256       0.0000      50.8611    -107.6976       5.8657      -5.5869       1.7804     275.1101       1.0226
    1539.0    1332.9555       0.0000      50.8611    -101.7122       5.9933      -5.8680       1.2145     281.1878       1.0226
    1540.0    1321.6636       0.0000      50.8611     -96.0350       5.9950      -5.9615       0.6287     287.2890       1.0226
    1541.0    1301.7148       0.0000      50.8611     -91.1751       6.0702      -6.0689       0.1243     293.3899       1.0244
    1542.0    1296.8769       0.0000      50.8611     -83.9273       6.1169      -6.0824      -0.6457     299.5077       1.0244
    1543.0    1258.2055       0.0000      50.8611     -80.7670       6.2032      -6.1225      -0.9935     305.6098       1.0226
    1544.0    1240.8174       0.0000      50.8611     -74.8876       6.2526      -6.0354      -1.6271     311.7124       1.0226
    1545.0    1225.7268       0.0000      50.8611     -69.5372       6.1647      -5.7742      -2.1517     317.8143       1.0226
    1546.0    1213.3442       0.0000      50.8611     -64.6623       6.2804      -5.6739      -2.6833     324.3367       1.0226
    1547.0    1188.3762       0.0000      50.8611     -59.0292       6.3630      -5.4529      -3.2694     330.4385       1.0226
    1548.0    1177.1255       0.0000      50.8611     -54.7224       6.3067      -5.1450      -3.6374     336.5403       1.0226
    1549.0    1172.2039       0.0000      50.8611     -50.0768       6.3127      -4.8372      -4.0463     342.6421       1.0226
    1550.0    1156.1363       0.0000      50.8611     -43.5727       6.3345      -4.3616      -4.5847     348.7439       1.0226
    1551.0    1140.8157       0.0000      50.8611     -39.6236       6.3122      -4.0207      -4.8572     354.8457       1.0226
    1552.0    1131.7070       0.0000      50.8611     -34.2355       6.2503      -3.5117      -5.1640      61.4726       1.0226
    1553.0    1128.6421       0.0000      50.8611     -28.5658       6.2626      -2.9895      -5.4977       7.0519       1.0226
