~VERSION INFORMATION
VERS.           2.0   :CWLS Log ASCII Standard - VERSION 2.0
WRAP.           NO    :One Line per depth step
PROD.  Schlumberger   :LAS Producer
PROG.  DLIS to ASCII 19C2-270                          :LAS Program name and version
CREA.        2017/09/16 17:42                          :LAS Creation date {YYYY/MM/DD hh:mm}
DLIS_CREA.  2017-Sep-15 18:24                          :DLIS Creation date and time {YYYY-MMM-DD hh:mm}
SOURCE.     LPC_S4-1_2B5.DLIS                          :DLIS File Name
FILE-ID.     PERFO_Perfo_WPGRT_055LTP                  :File Identification Number
#--------------------------------------------------
~WELL INFORMATION
#MNEM.UNIT      DATA             DESCRIPTION
#---- ------ --------------   -----------------------------
STRT .S         5021.0       :START TIME      
STOP .S         5478.0       :STOP TIME      
STEP .S            1.0       :STEP     
NULL .          -999.25      :NULL VALUE
COMP .        SHELL INTERNATIONAL E P                  :COMPANY
WELL .        WPP TEST 2                               :WELL
FLD  .        WILDCAT                                  :FIELD
LOC  .        NA                                       :LOCATION
CNTY .        HARRIS                                   :COUNTY
STAT .        TEXAS                                    :STATE
CTRY .                                                 :COUNTRY
API  .        NA                                       :API NUMBER
UWI  .                                                 :UNIQUE WELL ID
DATE .        15-Sep-2017                              :LOG DATE {DD-MMM-YYYY}
SRVC .        Schlumberger                             :SERVICE COMPANY
LATI .DEG                                              :LATITUDE
LONG .DEG                                              :LONGITUDE
GDAT .                                                 :GeoDetic Datum
SECT .        NA                                       :Section
RANG .        NA                                       :Range
TOWN .        NA                                       :Township
#-----------------------------------------------------------------------------
~PARAMETER INFORMATION
#MNEM.UNIT    VALUE                      DESCRIPTION
#---- -----   --------------------       ------------------------
U-PHASE_B_COMP_PER_YT.                 0 :Phase B Comparator Period Yt
U-PHASE_A_COMP_PER_XT.                 0 :Phase A Comparator Period Xt
U-MAX_EXC_CUR_LIMIT.MA       240.00000   :Requested CM Current Limit
U-REQ_EXC_FQ.HZ              50          :Requested CM Frequency
U-TILT_Y_OFFSET.           0.19916       :WPTET Tilt Y Offset
U-TILT_Y_GAIN.           1.01796         :WPTET Tilt Y Gain
U-TILT_X_OFFSET.          -1.77103       :WPTET Tilt X Offset
U-TILT_X_GAIN.           1.00000         :WPTET Tilt X Gain
U-TILT_OFFSET_TOL.           0.00100     :WPTET Tilt Offset Calibration Tolerance
U-NO_TILT_CAL_ROTATIONS.                 3 :Number of Rotations for Tilt Calibration
HAZI .DEG        0.00000                 :Hole Azimuth
U-STD_TOL_TILT.           0.01000        :Tilt Standard Deviation Tolerance
U-GUN_POS_TOL.DEG        5.00000         :Gun Position Tolerance
ROT_ANGLE_THRESHOLD.DEG        5.00000   :Rotation Stop Angle Tolerance
STOP_ROT_ANGLE.DEG        0.00000        :Rotation Stop Angle
WITN .        MR. DHRUA ARORA            :Witness's Name
ENGI .        MORRIS MOORE               :Engineer's Name
COUN .        HARRIS                     :County or Rig Name
FN   .        WILDCAT                    :Field Name
WN   .        WPP TEST 2                 :Well Name
CN   .        SHELL INTERNATIONAL E P    :Company Name
CLAB .        County                     :County/Rig Label
SLAB .        State                      :State/Province Label
RUN  .          1                        :RUN NUMBER
PDAT .        GROUND LEVEL               :Permanent Datum
EPD  .                                   :Elevation of Permanent Datum above Mean Sea Level
LMF  .          NA                       :Logging Measured From (Name of Logging Elevation Reference)
APD  .                                   :Elevation of Depth Reference (LMF) above Permanent Datum
#-----------------------------------------------------------------------------
~CURVE INFORMATION
#MNEM.UNIT   API CODE                                  DESCRIPTION
#---- -----  --------                                  -----------------------
TIME .S                                                :TIME {F10.1}
FREQ_EMF_SL.HZ                                         :Electromagnetic Field Frequency {F13.4}
PH_SH_WPPCM_SL.DEG                                     :WPPCM Phase Shift {F13.4}
FREQ_EXC_REQ_SL.HZ                                     :Requested Exciter Frequency {F13.4}
RB_SL.DEG                                              :Relative Bearing {F13.4}
SDEV_SL.DEG                                            :Sonde Deviation {F13.4}
TILX_SL.DEG                                            :X-axis Tilt {F13.4}
TILY_SL.DEG                                            :Y-axis Tilt {F13.4}
ROTA_SL.DEG                                            :Motor Rotation Angle {F13.4}
MSPE_SL.RPM                                            :Motor Speed {F13.4}
#-----------------------------------------------------------------------------
# 
#     TIME    FREQ_EMF_SL  PH_SH_WPPCM_ FREQ_EXC_REQ    RB_SL       SDEV_SL      TILX_SL      TILY_SL      ROTA_SL      MSPE_SL
#                          SL           _SL
~A  
# ...
    5084.0    1215.3973       0.0000      50.8611     -15.3033       5.8163      -1.5336      -5.6082      96.1962       1.0226
    5085.0    1218.6545       0.0000      50.8611     -10.7014       5.7699      -1.0699      -5.6689     102.2872       1.0226
    5086.0    1221.7327       0.0000      50.8611      -6.2135       5.6528      -0.6413      -5.5969     108.3882       1.0226
    5087.0    1227.0942       0.0000      50.8611       0.9909       5.5669       0.0961      -5.5660     114.4900       1.0226
    5088.0    1228.0778       0.0000      50.8611       6.6986       5.6472       0.6573      -5.6082     120.5672       1.0226
    5089.0    1245.4808       0.0000      50.8611      11.0256       5.3570       1.0224      -5.2575     126.6566       1.0226
    5090.0    1250.7638       0.0000      50.8611      16.3586       5.1458       1.4475      -4.9369     132.7477       1.0226
    5091.0    1271.4090       0.0000      50.8611      23.2830       5.1272       2.0241      -4.7086     138.8496       1.0175
    5092.0    1274.8984       0.0000      50.8611      29.5453       5.0855       2.5049      -4.4224     144.9455       1.0281
    5093.0    1307.0012       0.0000      50.8611      34.9064       4.8433       2.7690      -3.9702     151.0542       1.0226
    5094.0    1331.5439       0.0000      50.8611      39.3503       4.7136       2.9869      -3.6431     157.1561       1.0226
    5095.0    1332.8355       0.0000      50.8611      45.9828       4.6323       3.3289      -3.2168     163.2580       1.0226
    5096.0    1347.0651       0.0000      50.8611      54.9781       4.6806       3.8316      -2.6841     169.5563       1.0226
    5097.0    1358.7363       0.0000      50.8611      60.3224       4.4355       3.8523      -2.1946     175.8420       1.0226
    5098.0    1369.1711       0.0000      50.8611      64.9849       4.2766       3.8730      -1.8080     181.9485       1.0226
    5099.0    1371.7831       0.0000      50.8611      73.7269       4.2621       4.0909      -1.1923     188.0474       1.0226
    5100.0    1381.4719       0.0000      50.8611      80.4192       4.2118       4.1530      -0.7004     194.1493       1.0226
    5101.0    1392.4149       0.0000      50.8611      89.9264       4.1140       4.1140      -0.0053     200.2527       1.0226
    5102.0    1402.3628       0.0000      50.8611      96.4154       4.0189       3.9935       0.4485     206.3423       1.0226
    5103.0    1406.2500       0.0000      50.8611     104.3692       4.0209       3.8949       0.9971     212.4458       1.0226
    5104.0    1418.8425       0.0000      50.8611     111.9423       4.0258       3.7318       1.5039     218.5593       1.0281
    5105.0    1426.2170       0.0000      50.8611     119.6842       3.9989       3.4737       1.9784     224.6612       1.0226
    5106.0    1424.7302       0.0000      50.8611     127.5675       3.9530       3.1329       2.4071     230.7631       1.0226
    5107.0    1432.0265       0.0000      50.8611     130.7908       4.0652       3.0745       2.6488     236.8657       1.0175
    5108.0    1443.7886       0.0000      50.8611     142.3399       4.1758       2.5487       3.3042     243.1779       1.0226
    5109.0    1449.7422       0.0000      50.8611     150.0022       4.1753       2.0862       3.6151     249.5031       1.0281
    5110.0    1449.7422       0.0000      50.8611     156.5401       4.1851       1.6650       3.8382     255.6050       1.0226
    5111.0    1451.1175       0.0000      50.8611     163.0528       4.2682       1.2427       4.0823     261.7199       1.0226
    5112.0    1452.8338       0.0000      50.8611     169.0640       4.3483       0.8239       4.2669     267.8217       1.0226
    5113.0    1457.2101       0.0000      50.8611     176.8542       4.3380       0.2385       4.3313     273.9366       1.0226
    5114.0    1452.4716       0.0000      50.8611    -174.8437       4.5336      -0.4066       4.5135     280.0471       1.0133
    5115.0    1455.8420       0.0000      50.8611    -168.6771       4.6248      -0.9068       4.5345     286.1435       1.0281
    5116.0    1452.6537       0.0000      50.8611    -163.5378       4.6843      -1.3268       4.4912     292.2583       1.0226
    5117.0    1448.1289       0.0000      50.8611    -156.5935       4.7640      -1.8903       4.3710     298.3601       1.0175
    5118.0    1446.8547       0.0000      50.8611    -149.3973       4.9356      -2.5111       4.2458     304.4496       1.0226
    5119.0    1452.8338       0.0000      50.8611    -145.1809       5.0759      -2.8957       4.1653     310.5514       1.0226
    5120.0    1442.3536       0.0000      50.8611    -139.4182       5.1644      -3.3570       3.9200     316.8496       1.0175
    5121.0    1440.7474       0.0000      50.8611    -132.9002       5.1045      -3.7368       3.4714     323.1490       1.0226
    5122.0    1432.2252       0.0000      50.8611    -126.2465       5.3596      -4.3198       3.1654     329.2523       1.0226
    5123.0    1430.7140       0.0000      50.8611    -122.2135       5.4542      -4.6144       2.8978     335.3541       1.0226
    5124.0    1429.0346       0.0000      50.8611    -115.9996       5.5014      -4.9430       2.4083     341.4690       1.0226
    5125.0    1411.8976       0.0000      50.8611    -110.4487       5.5545      -5.2035       1.9375     347.5708       1.0226
    5126.0    1404.4636       0.0000      50.8611    -104.5700       5.6171      -5.4359       1.4109     353.6726       1.0226
    5127.0    1390.9097       0.0000      50.8611     -99.1889       5.7411      -5.6672       0.9153     185.1744       1.0226
    5128.0    1386.8344       0.0000      50.8611     -94.3153       5.9276      -5.9106       0.4457       5.8762       1.0226
    5129.0    1378.6007       0.0000      50.8611     -88.7349       5.7491      -5.7475      -0.1267      11.9780       1.0226
    5130.0    1378.5355       0.0000      50.8611     -83.6513       5.7831      -5.7475      -0.6384      18.0739       1.0175
    5131.0    1362.6454       0.0000      50.8611     -77.9559       6.0039      -5.8704      -1.2493      24.1569       1.0172
    5132.0    1339.2858       0.0000      50.8611     -73.5606       6.0975      -5.8473      -1.7226      30.2587       1.0226
    5133.0    1326.7308       0.0000      50.8611     -67.4571       6.0480      -5.5844      -2.3148      36.7671       1.0226
    5134.0    1304.6622       0.0000      50.8611     -62.7190       6.0406      -5.3665      -2.7646      42.8629       1.0172
    5135.0    1285.4205       0.0000      50.8611     -57.7502       6.1129      -5.1669      -3.2577      48.9599       1.0226
    5136.0    1278.4092       0.0000      50.8611     -53.6591       6.0478      -4.8663      -3.5787      55.0494       1.0226
    5137.0    1260.0170       0.0000      50.8611     -48.7231       6.0251      -4.5242      -3.9702      61.1512       1.0226
    5138.0    1247.8159       0.0000      50.8611     -42.0066       5.9277      -3.9631      -4.4001      67.2530       1.0226
    5139.0    1245.4808       0.0000      50.8611     -37.7905       5.8807      -3.5992      -4.6442      73.3425       1.0226
    5140.0    1233.6214       0.0000      50.8611     -33.0467       5.9850      -3.2596      -5.0134      79.4351       1.0226
    5141.0    1219.7479       0.0000      50.8611     -27.7852       5.9230      -2.7569      -5.2377      85.5338       1.0226
    5142.0    1218.5278       0.0000      50.8611     -23.4549       5.9793      -2.3759      -5.4830      91.6233       1.0226
    5143.0    1207.9639       0.0000      50.8611     -17.5007       5.8374      -1.7527      -5.5660      97.7250       1.0226
    5144.0    1217.5650       0.0000      50.8611     -11.3332       5.6564      -1.1199      -5.5389     103.8209       1.0172
    5145.0    1213.3000       0.0000      50.8611      -6.5820       5.6660      -0.6488      -5.6280     110.3229       1.0226
    5146.0    1222.7133       0.0000      50.8611      -1.3003       5.6925      -0.1290      -5.6887     116.4261       1.0226
