~VERSION INFORMATION
VERS.           2.0   :CWLS Log ASCII Standard - VERSION 2.0
WRAP.           NO    :One Line per depth step
PROD.  Schlumberger   :LAS Producer
PROG.  DLIS to ASCII 19C2-270                          :LAS Program name and version
CREA.        2017/09/16 17:42                          :LAS Creation date {YYYY/MM/DD hh:mm}
DLIS_CREA.  2017-Sep-15 12:43                          :DLIS Creation date and time {YYYY-MMM-DD hh:mm}
SOURCE.     LPC_S1-1_BV.DLIS                           :DLIS File Name
FILE-ID.     PERFO_Perfo_WPGRT_021LTP                  :File Identification Number
#--------------------------------------------------
~WELL INFORMATION
#MNEM.UNIT      DATA             DESCRIPTION
#---- ------ --------------   -----------------------------
STRT .S         6992.0       :START TIME      
STOP .S         7825.0       :STOP TIME      
STEP .S            1.0       :STEP     
NULL .          -999.25      :NULL VALUE
COMP .        SHELL INTERNATIONAL E P                  :COMPANY
WELL .        WPP TEST 2                               :WELL
FLD  .        WILDCAT                                  :FIELD
LOC  .                                                 :LOCATION
CNTY .        HARRIS                                   :COUNTY
STAT .        TEXAS                                    :STATE
CTRY .                                                 :COUNTRY
API  .                                                 :API NUMBER
UWI  .                                                 :UNIQUE WELL ID
DATE .                                                 :LOG DATE
SRVC .        Schlumberger                             :SERVICE COMPANY
LATI .DEG                                              :LATITUDE
LONG .DEG                                              :LONGITUDE
GDAT .                                                 :GeoDetic Datum
#-----------------------------------------------------------------------------
~PARAMETER INFORMATION
#MNEM.UNIT    VALUE                      DESCRIPTION
#---- -----   --------------------       ------------------------
U-PHASE_B_COMP_PER_YT.                 0 :Phase B Comparator Period Yt
U-PHASE_A_COMP_PER_XT.                 0 :Phase A Comparator Period Xt
U-MAX_EXC_CUR_LIMIT.MA       240.00000   :Requested CM Current Limit
U-REQ_EXC_FQ.HZ              50          :Requested CM Frequency
U-TILT_Y_OFFSET.           0.19916       :WPTET Tilt Y Offset
U-TILT_Y_GAIN.           1.01796         :WPTET Tilt Y Gain
U-TILT_X_OFFSET.          -1.77103       :WPTET Tilt X Offset
U-TILT_X_GAIN.           1.00000         :WPTET Tilt X Gain
U-TILT_OFFSET_TOL.           0.00100     :WPTET Tilt Offset Calibration Tolerance
U-NO_TILT_CAL_ROTATIONS.                 3 :Number of Rotations for Tilt Calibration
HAZI .DEG        0.00000                 :Hole Azimuth
U-STD_TOL_TILT.           0.01000        :Tilt Standard Deviation Tolerance
U-GUN_POS_TOL.DEG        5.00000         :Gun Position Tolerance
ROT_ANGLE_THRESHOLD.DEG        5.00000   :Rotation Stop Angle Tolerance
STOP_ROT_ANGLE.DEG       80.00000        :Rotation Stop Angle
WITN .                                   :Witness's Name
ENGI .                                   :Engineer's Name
COUN .        HARRIS                     :County or Rig Name
FN   .        WILDCAT                    :Field Name
WN   .        WPP TEST 2                 :Well Name
CN   .        SHELL INTERNATIONAL E P    :Company Name
CLAB .        County                     :County/Rig Label
SLAB .        State                      :State/Province Label
RUN  .          1                        :RUN NUMBER
PDAT .        GROUND LEVEL               :Permanent Datum
EPD  .                                   :Elevation of Permanent Datum above Mean Sea Level
LMF  .                                   :Logging Measured From (Name of Logging Elevation Reference)
APD  .                                   :Elevation of Depth Reference (LMF) above Permanent Datum
#-----------------------------------------------------------------------------
~CURVE INFORMATION
#MNEM.UNIT   API CODE                                  DESCRIPTION
#---- -----  --------                                  -----------------------
TIME .S                                                :TIME {F10.1}
FREQ_EMF_SL.HZ                                         :Electromagnetic Field Frequency {F13.4}
PH_SH_WPPCM_SL.DEG                                     :WPPCM Phase Shift {F13.4}
FREQ_EXC_REQ_SL.HZ                                     :Requested Exciter Frequency {F13.4}
RB_SL.DEG                                              :Relative Bearing {F13.4}
SDEV_SL.DEG                                            :Sonde Deviation {F13.4}
TILX_SL.DEG                                            :X-axis Tilt {F13.4}
TILY_SL.DEG                                            :Y-axis Tilt {F13.4}
ROTA_SL.DEG                                            :Motor Rotation Angle {F13.4}
MSPE_SL.RPM                                            :Motor Speed {F13.4}
#-----------------------------------------------------------------------------
# 
#     TIME    FREQ_EMF_SL  PH_SH_WPPCM_ FREQ_EXC_REQ    RB_SL       SDEV_SL      TILX_SL      TILY_SL      ROTA_SL      MSPE_SL
#                          SL           _SL
~A  
# ...
    7622.0    1100.3006       0.0000      50.8611     -56.3520       1.1143      -0.9275      -0.6174     145.7299       1.0226
    7623.0    1122.7253       0.0000      50.8611     -63.7187       1.1255      -1.0091      -0.4984     151.8327       1.0229
    7624.0    1143.0711       0.0000      50.8611     -60.9870       1.1987      -1.0480      -0.5814     157.9483       1.0334
    7625.0    1187.5912       0.0000      50.8611     -57.3601       1.1536      -0.9713      -0.6223     164.0504       1.0226
    7626.0    1220.5134       0.0000      50.8611     -47.7514       1.0957      -0.8106      -0.7364     170.1684       1.0226
    7627.0    1264.2753       0.0000      50.8611     -61.6262       1.0517      -0.9251      -0.4996     176.2815       1.0127
    7628.0    1278.1323       0.0000      50.8611     -60.2061       1.1628      -1.0091      -0.5777     182.3710       1.0226
    7629.0    1297.2069       0.0000      50.8611     -50.8452       1.0468      -0.8118      -0.6607     188.4738       1.0226
    7630.0    1321.5151       0.0000      50.8611     -50.5295       1.1021      -0.8508      -0.7004     194.5757       1.0226
    7631.0    1339.2858       0.0000      50.8611     -56.8788       1.0596      -0.8874      -0.5789     200.6909       1.0330
    7632.0    1357.3057       0.0000      50.8611     -47.7151       0.9891      -0.7315      -0.6656     206.7932       1.0226
    7633.0    1373.3716       0.0000      50.8611     -44.5955       0.8653      -0.6074      -0.6161     212.8951       1.0226
    7634.0    1397.6142       0.0000      50.8611     -51.8739       1.1441      -0.9006      -0.7053     219.4049       1.0226
    7635.0    1414.6532       0.0000      50.8611     -50.4474       1.1019      -0.8496      -0.7016     225.5068       1.0124
    7636.0    1426.1304       0.0000      50.8611     -47.6887       1.0387      -0.7681      -0.6992     231.5964       1.0226
    7637.0    1443.9672       0.0000      50.8611     -51.0535       0.9861      -0.7669      -0.6198     237.6983       1.0226
    7638.0    1461.7983       0.0000      50.8611     -49.1383       1.0687      -0.8082      -0.6992     243.8132       1.0226
    7639.0    1476.9679       0.0000      50.8611     -44.5663       0.9834      -0.6901      -0.7004     249.9151       1.0226
    7640.0    1486.7115       0.0000      50.8611     -39.4930       0.9523      -0.6050      -0.7351     256.0171       1.0226
    7641.0    1502.5003       0.0000      50.8611     -51.0622       0.9844      -0.7657      -0.6186     262.1070       1.0223
    7642.0    1515.1605       0.0000      50.8611     -44.6542       0.9279      -0.6524      -0.6595     268.2108       1.0121
    7643.0    1521.6210       0.0000      50.8611     -45.8306       0.8840      -0.6355      -0.6137     274.3119       1.0226
    7644.0    1535.0072       0.0000      50.8611     -46.3086       0.8956      -0.6476      -0.6186     280.4137       1.0226
    7645.0    1531.9631       0.0000      50.8611     -53.5637       0.9018      -0.7255      -0.5356     286.5185       1.0226
    7646.0    1541.5386       0.0000      50.8611     -51.0118       1.0404      -0.8082      -0.6546     293.0385       1.0229
    7647.0    1525.1179       0.0000      50.8611     -53.9704       0.8492      -0.6865      -0.4996     299.1543       1.0226
    7648.0    1525.5166       0.0000      50.8611     -42.6155       0.7822      -0.5295      -0.5753     305.2591       1.0226
    7649.0    1525.4163       0.0000      50.8611     -54.7828       0.7912      -0.6464      -0.4563     311.3579       1.0226
    7650.0    1518.5304       0.0000      50.8611     -57.0888       0.9106      -0.7644      -0.4947     317.4597       1.0226
    7651.0    1505.8152       0.0000      50.8611     -57.9450       0.8574      -0.7267      -0.4551     323.5746       1.0226
    7652.0    1502.5003       0.0000      50.8611     -57.7659       0.8578      -0.7255      -0.4575     329.6896       1.0226
    7653.0    1490.0536       0.0000      50.8611     -57.9450       0.8574      -0.7267      -0.4551     335.7914       1.0226
    7654.0    1486.3343       0.0000      50.8611     -54.2249       0.8462      -0.6865      -0.4947     341.8813       1.0223
    7655.0    1471.0654       0.0000      50.8611     -62.8116       0.8170      -0.7267      -0.3733     347.9887       1.0226
    7656.0    1452.8279       0.0000      50.8611     -64.0446       0.8529      -0.7669      -0.3733     354.0846       1.0226
    7657.0    1452.3804       0.0000      50.8611     -66.6443       0.8353      -0.7669      -0.3312      10.9906       1.0124
    7658.0    1429.2908       0.0000      50.8611     -63.0112       0.8209      -0.7315      -0.3720       6.6970       1.0226
    7659.0    1414.9961       0.0000      50.8611     -60.4312       0.8369      -0.7279      -0.4129      12.7988       1.0226
    7660.0    1397.7796       0.0000      50.8611     -62.8826       0.8191      -0.7291      -0.3733      18.8882       1.0223
    7661.0    1376.1407       0.0000      50.8611     -57.9067       0.9980      -0.8448      -0.5307      24.9901       1.0226
    7662.0    1360.2479       0.0000      50.8611     -63.0948       0.9942      -0.8862      -0.4501      31.0920       1.0226
    7663.0    1347.0603       0.0000      50.8611     -61.9891       0.9613      -0.8484      -0.4514      37.1821       1.0223
    7664.0    1334.1272       0.0000      50.8611     -70.7115       0.8947      -0.8442      -0.2952      43.2839       1.0226
    7665.0    1307.0701       0.0000      50.8611     -64.1598       0.9454      -0.8508      -0.4117      49.3989       1.0226
    7666.0    1283.5009       0.0000      50.8611     -62.0611       0.8716      -0.7693      -0.4080      55.5007       1.0226
    7667.0    1269.4556       0.0000      50.8611     -74.1405       1.0835      -1.0420      -0.2952      61.6025       1.0226
    7668.0    1253.2754       0.0000      50.8611     -52.7791       0.8191      -0.6524      -0.4947      67.7043       1.0226
    7669.0    1210.3233       0.0000      50.8611     -67.8590       1.0003      -0.9263      -0.3770      73.8061       1.0226
    7670.0    1176.0917       0.0000      50.8611     -69.9869       1.1153      -1.0468      -0.3819      80.3290       1.0226
    7671.0    1141.4924       0.0000      50.8611     -66.8287       1.0526      -0.9677      -0.4142      86.4440       1.0226
    7672.0    1117.6865       0.0000      50.8611     -63.8291       1.1217      -1.0067      -0.4947      92.5590       1.0226
    7673.0    1091.8599       0.0000      50.8611     -57.6846       1.0067      -0.8508      -0.5381      98.6668       1.0226
    7674.0    1073.8212       0.0000      50.8611     -62.8503       1.0000      -0.8898      -0.4563     104.7625       1.0226
    7675.0    1058.8754       0.0000      50.8611     -68.2951       1.1295      -1.0492      -0.4178     110.8643       1.0226
    7676.0    1052.4294       0.0000      50.8611     -64.7026       1.1592      -1.0480      -0.4953     116.9662       1.0226
    7677.0    1049.3000       0.0000      50.8611     -62.8370       1.0890      -0.9689      -0.4972     123.0680       1.0226
    7678.0    1046.4578       0.0000      50.8611     -56.3633       1.1169      -0.9299      -0.6186     129.1578       1.0223
    7679.0    1052.5823       0.0000      50.8611     -58.5161       1.1847      -1.0103      -0.6186     135.2482       1.0327
    7680.0    1066.7165       0.0000      50.8611     -63.7187       1.1255      -1.0091      -0.4984     141.3629       1.0226
    7681.0    1084.8698       0.0000      50.8611     -59.8938       1.0750      -0.9299      -0.5393     147.4677       1.0226
    7682.0    1103.8069       0.0000      50.8611     -57.3962       1.3831      -1.1649      -0.7449     153.9886       1.0437
    7683.0    1133.9631       0.0000      50.8611     -57.8951       1.2387      -1.0492      -0.6583     160.1035       1.0226
    7684.0    1160.0440       0.0000      50.8611     -62.7882       1.1744      -1.0444      -0.5368     166.2054       1.0226
