~VERSION INFORMATION
VERS.           2.0   :CWLS Log ASCII Standard - VERSION 2.0
WRAP.           NO    :One Line per depth step
PROD.  Schlumberger   :LAS Producer
PROG.  DLIS to ASCII 19C2-270                          :LAS Program name and version
CREA.        2017/09/16 17:42                          :LAS Creation date {YYYY/MM/DD hh:mm}
DLIS_CREA.  2017-Sep-15 16:48                          :DLIS Creation date and time {YYYY-MMM-DD hh:mm}
SOURCE.     LPC_S3-1_2B5.DLIS                          :DLIS File Name
FILE-ID.     PERFO_Perfo_WPGRT_043LTP                  :File Identification Number
#--------------------------------------------------
~WELL INFORMATION
#MNEM.UNIT      DATA             DESCRIPTION
#---- ------ --------------   -----------------------------
STRT .S         4703.0       :START TIME      
STOP .S         5168.0       :STOP TIME      
STEP .S            1.0       :STEP     
NULL .          -999.25      :NULL VALUE
COMP .        SHELL INTERNATIONAL E P                  :COMPANY
WELL .        WPP TEST 2                               :WELL
FLD  .        WILDCAT                                  :FIELD
LOC  .                                                 :LOCATION
CNTY .        HARRIS                                   :COUNTY
STAT .        TEXAS                                    :STATE
CTRY .                                                 :COUNTRY
API  .                                                 :API NUMBER
UWI  .                                                 :UNIQUE WELL ID
DATE .                                                 :LOG DATE
SRVC .        Schlumberger                             :SERVICE COMPANY
LATI .DEG                                              :LATITUDE
LONG .DEG                                              :LONGITUDE
GDAT .                                                 :GeoDetic Datum
#-----------------------------------------------------------------------------
~PARAMETER INFORMATION
#MNEM.UNIT    VALUE                      DESCRIPTION
#---- -----   --------------------       ------------------------
U-PHASE_B_COMP_PER_YT.                 0 :Phase B Comparator Period Yt
U-PHASE_A_COMP_PER_XT.                 0 :Phase A Comparator Period Xt
U-MAX_EXC_CUR_LIMIT.MA       240.00000   :Requested CM Current Limit
U-REQ_EXC_FQ.HZ              50          :Requested CM Frequency
U-TILT_Y_OFFSET.           0.19916       :WPTET Tilt Y Offset
U-TILT_Y_GAIN.           1.01796         :WPTET Tilt Y Gain
U-TILT_X_OFFSET.          -1.77103       :WPTET Tilt X Offset
U-TILT_X_GAIN.           1.00000         :WPTET Tilt X Gain
U-TILT_OFFSET_TOL.           0.00100     :WPTET Tilt Offset Calibration Tolerance
U-NO_TILT_CAL_ROTATIONS.                 3 :Number of Rotations for Tilt Calibration
HAZI .DEG        0.00000                 :Hole Azimuth
U-STD_TOL_TILT.           0.01000        :Tilt Standard Deviation Tolerance
U-GUN_POS_TOL.DEG        5.00000         :Gun Position Tolerance
ROT_ANGLE_THRESHOLD.DEG        5.00000   :Rotation Stop Angle Tolerance
STOP_ROT_ANGLE.DEG        0.00000        :Rotation Stop Angle
WITN .                                   :Witness's Name
ENGI .                                   :Engineer's Name
COUN .        HARRIS                     :County or Rig Name
FN   .        WILDCAT                    :Field Name
WN   .        WPP TEST 2                 :Well Name
CN   .        SHELL INTERNATIONAL E P    :Company Name
CLAB .        County                     :County/Rig Label
SLAB .        State                      :State/Province Label
RUN  .          1                        :RUN NUMBER
PDAT .        GROUND LEVEL               :Permanent Datum
EPD  .                                   :Elevation of Permanent Datum above Mean Sea Level
LMF  .                                   :Logging Measured From (Name of Logging Elevation Reference)
APD  .                                   :Elevation of Depth Reference (LMF) above Permanent Datum
#-----------------------------------------------------------------------------
~CURVE INFORMATION
#MNEM.UNIT   API CODE                                  DESCRIPTION
#---- -----  --------                                  -----------------------
TIME .S                                                :TIME {F10.1}
FREQ_EMF_SL.HZ                                         :Electromagnetic Field Frequency {F13.4}
PH_SH_WPPCM_SL.DEG                                     :WPPCM Phase Shift {F13.4}
FREQ_EXC_REQ_SL.HZ                                     :Requested Exciter Frequency {F13.4}
RB_SL.DEG                                              :Relative Bearing {F13.4}
SDEV_SL.DEG                                            :Sonde Deviation {F13.4}
TILX_SL.DEG                                            :X-axis Tilt {F13.4}
TILY_SL.DEG                                            :Y-axis Tilt {F13.4}
ROTA_SL.DEG                                            :Motor Rotation Angle {F13.4}
MSPE_SL.RPM                                            :Motor Speed {F13.4}
#-----------------------------------------------------------------------------
# 
#     TIME    FREQ_EMF_SL  PH_SH_WPPCM_ FREQ_EXC_REQ    RB_SL       SDEV_SL      TILX_SL      TILY_SL      ROTA_SL      MSPE_SL
#                          SL           _SL
~A  
# ...
    4829.0    1444.0714       0.0000      50.8611    -130.4054       5.9246      -4.5081       3.8362     208.1868       1.0226
    4830.0    1443.3687       0.0000      50.8611    -125.8649       5.9136      -4.7892       3.4605     214.6938       1.0226
    4831.0    1434.8102       0.0000      50.8611    -120.5894       6.0779      -5.2292       3.0886     220.7964       1.0231
    4832.0    1429.2541       0.0000      50.8611    -113.5050       6.1381      -5.6270       2.4441     226.9108       1.0226
    4833.0    1420.7283       0.0000      50.8611    -107.9245       6.2129      -5.9101       1.9087     233.0288       1.0226
    4834.0    1411.3632       0.0000      50.8611    -102.9978       6.3175      -6.1549       1.4180     239.1212       1.0226
    4835.0    1409.0682       0.0000      50.8611     -97.6612       6.3708      -6.3137       0.8475     245.2078       1.0226
    4836.0    1400.5152       0.0000      50.8611     -91.3604       6.3519      -6.3500       0.1505     251.3071       1.0226
    4837.0    1392.1961       0.0000      50.8611     -86.5792       6.3653      -6.3538      -0.3791     257.4086       1.0226
    4838.0    1378.9343       0.0000      50.8611     -81.2625       6.5469      -6.4705      -0.9924     263.5235       1.0328
    4839.0    1368.2013       0.0000      50.8611     -75.8030       6.7049      -6.4992      -1.6408     269.6285       1.0226
    4840.0    1352.1635       0.0000      50.8611     -70.4391       6.5296      -6.1511      -2.1821     275.7432       1.0226
    4841.0    1342.0858       0.0000      50.8611     -66.0581       6.5111      -5.9484      -2.6377     281.8451       1.0226
    4842.0    1309.2419       0.0000      50.8611     -60.7640       6.7240      -5.8642      -3.2783     288.3396       1.0226
    4843.0    1301.5159       0.0000      50.8611     -54.8336       6.7506      -5.5142      -3.8819     294.4414       1.0226
    4844.0    1280.8487       0.0000      50.8611     -50.3565       6.6332      -5.1030      -4.2265     300.5461       1.0226
    4845.0    1255.5803       0.0000      50.8611     -46.0858       6.5760      -4.7319      -4.5555     306.6327       1.0226
    4846.0    1248.8899       0.0000      50.8611     -40.5935       6.7933      -4.4144      -5.1533     312.7222       1.0226
    4847.0    1238.1039       0.0000      50.8611     -34.5617       6.6621      -3.7736      -5.4823     318.8240       1.0226
    4848.0    1222.5246       0.0000      50.8611     -29.3328       6.5779      -3.2170      -5.7315     324.9012       1.0226
    4849.0    1202.0208       0.0000      50.8611     -22.9922       6.4948      -2.5323      -5.9769     330.9935       1.0226
    4850.0    1193.8571       0.0000      50.8611     -18.7332       6.6112      -2.1192      -6.2592     337.0831       1.0226
    4851.0    1187.4267       0.0000      50.8611     -12.4840       6.3735      -1.3751      -6.2222     343.1849       1.0226
    4852.0    1185.4248       0.0000      50.8611      -8.8200       6.2989      -0.9639      -6.2241     349.2998       1.0226
    4853.0    1185.5189       0.0000      50.8611      -2.2826       6.1083      -0.2428      -6.1034     355.4017       1.0226
    4854.0    1182.0072       0.0000      50.8611       2.9137       6.3005       0.3195      -6.2923       1.9085       1.0226
    4855.0    1177.7638       0.0000      50.8611       7.7198       6.0338       0.8092      -5.9788       8.0103       1.0226
    4856.0    1191.3561       0.0000      50.8611      12.8563       5.9594       1.3237      -5.8094      14.1027       1.0226
    4857.0    1201.7286       0.0000      50.8611      19.5042       5.7779       1.9262      -5.4453      20.2016       1.0226
    4858.0    1198.6140       0.0000      50.8611      23.8385       5.6824       2.2934      -5.1961      26.3034       1.0226
    4859.0    1212.3840       0.0000      50.8611      30.7358       5.5832       2.8500      -4.7969      32.4052       1.0226
    4860.0    1229.3418       0.0000      50.8611      35.6921       5.3918       3.1427      -4.3764      38.5099       1.0226
    4861.0    1246.7807       0.0000      50.8611      42.9198       5.2565       3.5769      -3.8468      44.6117       1.0226
    4862.0    1267.0005       0.0000      50.8611      50.1423       5.2382       4.0187      -3.3542      50.7142       1.0328
    4863.0    1297.3925       0.0000      50.8611      55.8084       5.2355       4.3286      -2.9395      56.8416       1.0226
    4864.0    1312.2688       0.0000      50.8611      61.8795       5.0438       4.4472      -2.3748      62.9566       1.0226
    4865.0    1339.2858       0.0000      50.8611      70.0416       4.9152       4.6193      -1.6759      69.0590       1.0328
    4866.0    1349.5681       0.0000      50.8611      75.3477       4.9849       4.8220      -1.2592      75.5783       1.0226
    4867.0    1357.5089       0.0000      50.8611      83.2441       4.8829       4.8488      -0.5738      81.6932       1.0226
    4868.0    1365.5441       0.0000      50.8611      90.5852       4.5854       4.5848       0.0473      87.7959       1.0226
    4869.0    1373.1639       0.0000      50.8611      96.2490       4.5181       4.4912       0.4912      93.8980       1.0226
    4870.0    1378.4207       0.0000      50.8611     106.0425       4.7134       4.5294       1.3012     100.0127       1.0226
    4871.0    1395.0892       0.0000      50.8611     110.9982       4.5925       4.2865       1.6438     106.1050       1.0226
    4872.0    1403.5764       0.0000      50.8611     120.8794       4.6370       3.9786       2.3779     112.2198       1.0226
    4873.0    1403.8447       0.0000      50.8611     129.3768       4.5674       3.5291       2.8958     118.3210       1.0126
    4874.0    1420.0481       0.0000      50.8611     136.0069       4.6073       3.1982       3.3125     124.4111       1.0226
    4875.0    1426.3547       0.0000      50.8611     143.7130       4.6741       2.7640       3.7661     130.5130       1.0226
    4876.0    1429.3929       0.0000      50.8611     150.1469       4.6692       2.3222       4.0485     136.6148       1.0226
    4877.0    1432.3047       0.0000      50.8611     156.5532       4.7257       1.8784       4.3347     142.7167       1.0221
    4878.0    1443.5081       0.0000      50.8611     164.7378       4.8669       1.2797       4.6949     149.2113       1.0226
    4879.0    1440.5505       0.0000      50.8611     170.9055       5.0408       0.7958       4.9772     155.3132       1.0226
    4880.0    1446.7593       0.0000      50.8611     176.0901       5.1101       0.3483       5.0979     161.4151       1.0226
    4881.0    1444.2137       0.0000      50.8611    -179.0475       5.1804      -0.0859       5.1797     163.7991       0.0005
    4882.0    1446.4776       0.0000      50.8611     162.5917       5.0261       0.0269       5.0259     163.7991       0.0005
    4883.0    1449.7422       0.0000      50.8611    -179.0831       5.0285      -0.0802       5.0278     163.7991       0.0005
    4884.0    1451.0256       0.0000      50.8611    -179.3961       5.0748      -0.0534       5.0746     163.7991       0.0005
    4885.0    1446.9010       0.0000      50.8611    -179.0335       4.9876      -0.0840       4.9869     163.7991       0.0005
    4886.0    1449.7422       0.0000      50.8611    -179.4680       5.1449      -0.0477       5.1447     163.7991       0.0005
    4887.0    1443.9297       0.0000      50.8611    -177.3590       5.0724      -0.2332       5.0668     163.7991       0.0005
    4888.0    1449.4594       0.0000      50.8611     162.5367       5.1390       0.0327       5.1388     163.7991       0.0005
    4889.0    1444.0714       0.0000      50.8611     162.5980       5.1040       0.0269       5.1038     163.7991       0.0005
    4890.0    1449.6005       0.0000      50.8611    -178.5946       5.0702      -0.1242       5.0687     163.7991       0.0005
    4891.0    1446.9010       0.0000      50.8611    -178.2660       5.1842      -0.1567       5.1817     163.7991       0.0005
