~VERSION INFORMATION
VERS.           2.0   :CWLS Log ASCII Standard - VERSION 2.0
WRAP.           NO    :One Line per depth step
PROD.  Schlumberger   :LAS Producer
PROG.  DLIS to ASCII 19C2-270                          :LAS Program name and version
CREA.        2017/09/16 17:42                          :LAS Creation date {YYYY/MM/DD hh:mm}
DLIS_CREA.  2017-Sep-15 17:22                          :DLIS Creation date and time {YYYY-MMM-DD hh:mm}
SOURCE.     LPC_S4-1_AV.DLIS                           :DLIS File Name
FILE-ID.     PERFO_Perfo_WPGRT_047LTP                  :File Identification Number
#--------------------------------------------------
~WELL INFORMATION
#MNEM.UNIT      DATA             DESCRIPTION
#---- ------ --------------   -----------------------------
STRT .S         1296.0       :START TIME      
STOP .S         1779.0       :STOP TIME      
STEP .S            1.0       :STEP     
NULL .          -999.25      :NULL VALUE
COMP .        SHELL INTERNATIONAL E P                  :COMPANY
WELL .        WPP TEST 2                               :WELL
FLD  .        WILDCAT                                  :FIELD
LOC  .        NA                                       :LOCATION
CNTY .        HARRIS                                   :COUNTY
STAT .        TEXAS                                    :STATE
CTRY .                                                 :COUNTRY
API  .        NA                                       :API NUMBER
UWI  .                                                 :UNIQUE WELL ID
DATE .        15-Sep-2017                              :LOG DATE {DD-MMM-YYYY}
SRVC .        Schlumberger                             :SERVICE COMPANY
LATI .DEG                                              :LATITUDE
LONG .DEG                                              :LONGITUDE
GDAT .                                                 :GeoDetic Datum
SECT .        NA                                       :Section
RANG .        NA                                       :Range
TOWN .        NA                                       :Township
#-----------------------------------------------------------------------------
~PARAMETER INFORMATION
#MNEM.UNIT    VALUE                      DESCRIPTION
#---- -----   --------------------       ------------------------
U-PHASE_B_COMP_PER_YT.                 0 :Phase B Comparator Period Yt
U-PHASE_A_COMP_PER_XT.                 0 :Phase A Comparator Period Xt
U-MAX_EXC_CUR_LIMIT.MA       240.00000   :Requested CM Current Limit
U-REQ_EXC_FQ.HZ              50          :Requested CM Frequency
U-TILT_Y_OFFSET.           0.19916       :WPTET Tilt Y Offset
U-TILT_Y_GAIN.           1.01796         :WPTET Tilt Y Gain
U-TILT_X_OFFSET.          -1.77103       :WPTET Tilt X Offset
U-TILT_X_GAIN.           1.00000         :WPTET Tilt X Gain
U-TILT_OFFSET_TOL.           0.00100     :WPTET Tilt Offset Calibration Tolerance
U-NO_TILT_CAL_ROTATIONS.                 3 :Number of Rotations for Tilt Calibration
HAZI .DEG        0.00000                 :Hole Azimuth
U-STD_TOL_TILT.           0.01000        :Tilt Standard Deviation Tolerance
U-GUN_POS_TOL.DEG        5.00000         :Gun Position Tolerance
ROT_ANGLE_THRESHOLD.DEG        5.00000   :Rotation Stop Angle Tolerance
STOP_ROT_ANGLE.DEG        0.00000        :Rotation Stop Angle
WITN .        MR. DHRUA ARORA            :Witness's Name
ENGI .        MORRIS MOORE               :Engineer's Name
COUN .        HARRIS                     :County or Rig Name
FN   .        WILDCAT                    :Field Name
WN   .        WPP TEST 2                 :Well Name
CN   .        SHELL INTERNATIONAL E P    :Company Name
CLAB .        County                     :County/Rig Label
SLAB .        State                      :State/Province Label
RUN  .          1                        :RUN NUMBER
PDAT .        GROUND LEVEL               :Permanent Datum
EPD  .                                   :Elevation of Permanent Datum above Mean Sea Level
LMF  .          NA                       :Logging Measured From (Name of Logging Elevation Reference)
APD  .                                   :Elevation of Depth Reference (LMF) above Permanent Datum
#-----------------------------------------------------------------------------
~CURVE INFORMATION
#MNEM.UNIT   API CODE                                  DESCRIPTION
#---- -----  --------                                  -----------------------
TIME .S                                                :TIME {F10.1}
FREQ_EMF_SL.HZ                                         :Electromagnetic Field Frequency {F13.4}
PH_SH_WPPCM_SL.DEG                                     :WPPCM Phase Shift {F13.4}
FREQ_EXC_REQ_SL.HZ                                     :Requested Exciter Frequency {F13.4}
RB_SL.DEG                                              :Relative Bearing {F13.4}
SDEV_SL.DEG                                            :Sonde Deviation {F13.4}
TILX_SL.DEG                                            :X-axis Tilt {F13.4}
TILY_SL.DEG                                            :Y-axis Tilt {F13.4}
ROTA_SL.DEG                                            :Motor Rotation Angle {F13.4}
MSPE_SL.RPM                                            :Motor Speed {F13.4}
#-----------------------------------------------------------------------------
# 
#     TIME    FREQ_EMF_SL  PH_SH_WPPCM_ FREQ_EXC_REQ    RB_SL       SDEV_SL      TILX_SL      TILY_SL      ROTA_SL      MSPE_SL
#                          SL           _SL
~A  
# ...
    1674.0     829.1445       0.0000      50.8611     -71.9252       1.2550      -1.1911      -0.3722     323.1441       1.0226
    1675.0     830.1235       0.0000      50.8611     -62.5085       1.0533      -0.9292      -0.4741     329.6508       1.0226
    1676.0     837.1053       0.0000      50.8611     -64.2308       1.1411      -1.0277      -0.4959     335.7541       1.0226
    1677.0     841.6487       0.0000      50.8611     -61.5050       1.1233      -0.9869      -0.5363     341.8691       1.0226
    1678.0     854.3594       0.0000      50.8611     -61.6464       1.2141      -1.0678      -0.5772     347.9709       1.0226
    1679.0     865.8854       0.0000      50.8611     -60.5789       1.1788      -1.0271      -0.5777     354.0735       1.0226
    1680.0     883.3812       0.0000      50.8611     -60.5731       1.1346      -0.9881      -0.5576     177.7003       1.0226
    1681.0     904.3682       0.0000      50.8611     -57.2331       1.2941      -1.0882      -0.7004       6.2717       1.0173
    1682.0     930.0999       0.0000      50.8611     -59.4476       1.2170      -1.0480      -0.6186      12.3674       1.0226
    1683.0     956.0666       0.0000      50.8611     -60.2223       1.2070      -1.0475      -0.5984      18.4692       1.0226
    1684.0     989.6801       0.0000      50.8611     -56.7570       1.2042      -1.0073      -0.6595      24.5710       1.0226
    1685.0    1041.7183       0.0000      50.8611     -55.5480       1.1270      -0.9275      -0.6382      30.6867       1.0226
    1686.0    1147.2871       0.0000      50.8611     -56.8006       1.2045      -1.0079      -0.6595      36.7951       1.0279
    1687.0    1247.9983       0.0000      50.8611     -53.4357       1.1783      -0.9468      -0.7004      43.3114       1.0226
    1688.0    1309.5643       0.0000      50.8611     -51.3195       1.1872      -0.9270      -0.7413      49.4117       1.0226
    1689.0    1352.2550       0.0000      50.8611     -51.3168       1.1887      -0.9270      -0.7418      55.5150       1.0226
    1690.0    1400.6913       0.0000      50.8611     -52.7946       1.1919      -0.9479      -0.7217      61.6168       1.0226
    1691.0    1449.7896       0.0000      50.8611     -48.7972       1.1265      -0.8477      -0.7413      67.7317       1.0226
    1692.0    1496.2941       0.0000      50.8611     -51.2123       1.2155      -0.9473      -0.7614      73.8335       1.0226
    1693.0    1557.3346       0.0000      50.8611     -51.0586       1.1147      -0.8670      -0.7004      79.9229       1.0226
    1694.0    1609.0408       0.0000      50.8611     -45.1409       1.1389      -0.8076      -0.8029      86.0525       1.0226
    1695.0    1658.3137       0.0000      50.8611     -48.2133       1.0556      -0.7861      -0.7009      92.1404       1.0174
    1696.0    1696.3515       0.0000      50.8611     -44.4290       1.0082      -0.7058      -0.7200      98.2176       1.0174
    1697.0    1738.2892       0.0000      50.8611     -47.4153       1.1257      -0.8274      -0.7626     104.3456       1.0226
    1698.0    1771.0958       0.0000      50.8611     -44.4974       1.0381      -0.7267      -0.7407     110.4474       1.0226
    1699.0    1800.8085       0.0000      50.8611     -43.2978       1.0258      -0.7052      -0.7413     116.9556       1.0280
    1700.0    1833.4780       0.0000      50.8611     -49.0824       1.0435      -0.7861      -0.6808     123.0788       1.0280
    1701.0    1835.8356       0.0000      50.8611     -47.7327       0.9599      -0.7080      -0.6382     129.1871       1.0226
    1702.0    1850.3290       0.0000      50.8611     -51.9737       0.9778      -0.7680      -0.5973     135.3021       1.0226
    1703.0    1857.6988       0.0000      50.8611     -44.3431       0.9306      -0.6453      -0.6606     141.3982       1.0280
    1704.0    1860.0644       0.0000      50.8611     -53.0306       0.8597      -0.6871      -0.5167     147.5066       1.0226
    1705.0    1855.1567       0.0000      50.8611     -48.0395       0.9226      -0.6854      -0.6175     153.6085       1.0280
    1706.0    1847.8673       0.0000      50.8611     -54.2216       0.6029      -0.4857      -0.3537     159.7236       1.0226
    1707.0    1823.9656       0.0000      50.8611     -48.9561       1.0991      -0.8268      -0.7217     165.8255       1.0226
    1708.0    1802.8329       0.0000      50.8611     -47.1314       0.8815      -0.6458      -0.5984     171.9027       1.0280
    1709.0    1789.1222       0.0000      50.8611     -57.7307       0.8056      -0.6667      -0.4326     178.0115       1.0173
    1710.0    1757.7630       0.0000      50.8611     -55.3896       0.8371      -0.6865      -0.4763     184.1204       1.0226
    1711.0    1712.8814       0.0000      50.8611     -49.3631       0.7982      -0.6073      -0.5167     190.6311       1.0226
    1712.0    1676.0247       0.0000      50.8611     -59.1444       0.7435      -0.6254      -0.3918     196.7330       1.0226
    1713.0    1644.6777       0.0000      50.8611     -64.8521       0.7855      -0.7063      -0.3335     202.8547       1.0280
    1714.0    1592.5594       0.0000      50.8611     -64.6644       0.8251      -0.7459      -0.3525     208.9589       1.0229
    1715.0    1543.6119       0.0000      50.8611     -60.8384       0.8537      -0.7459      -0.4142     215.0723       1.0280
    1716.0    1488.0286       0.0000      50.8611     -61.4037       0.7401      -0.6469      -0.3520     221.1684       1.0226
    1717.0    1443.7538       0.0000      50.8611     -59.9207       0.8658      -0.7471      -0.4354     227.2703       1.0226
    1718.0    1404.8659       0.0000      50.8611     -61.0979       0.8995      -0.7872      -0.4343     233.3722       1.0226
    1719.0    1350.8223       0.0000      50.8611     -65.6920       0.9072      -0.8268      -0.3733     239.4741       1.0226
    1720.0    1298.4291       0.0000      50.8611     -65.0706       0.8466      -0.7680      -0.3525     245.5760       1.0226
    1721.0    1220.6494       0.0000      50.8611     -71.5765       0.7879      -0.7465      -0.2500     251.6779       1.0226
    1722.0    1130.3814       0.0000      50.8611     -65.1435       1.1125      -1.0101      -0.4545     257.7798       1.0226
    1723.0    1048.6165       0.0000      50.8611     -68.5745       1.0176      -0.9468      -0.3727     264.2896       1.0226
    1724.0     991.6683       0.0000      50.8611     -72.1348       0.9541      -0.9072      -0.2921     270.3791       1.0174
    1725.0     961.2193       0.0000      50.8611     -72.8226       0.9106      -0.8681      -0.2719     276.4884       1.0279
    1726.0     929.4368       0.0000      50.8611     -67.6764       0.9908      -0.9083      -0.3716     282.5909       1.0229
    1727.0     900.8274       0.0000      50.8611     -67.1360       1.0126      -0.9275      -0.3951     288.6869       1.0226
    1728.0     886.0986       0.0000      50.8611     -71.0276       0.9604      -0.9083      -0.3122     294.7887       1.0226
    1729.0     869.1043       0.0000      50.8611     -72.8132       1.0557      -1.0084      -0.3122     300.8906       1.0226
    1730.0     855.8692       0.0000      50.8611     -72.1957       1.0358      -0.9864      -0.3122     306.9800       1.0226
    1731.0     842.0984       0.0000      50.8611     -61.1384       1.1975      -1.0480      -0.5783     313.0818       1.0226
    1732.0     839.5594       0.0000      50.8611     -62.4838       1.0237      -0.9066      -0.4747     319.1713       1.0280
    1733.0     829.6284       0.0000      50.8611     -69.5535       1.1515      -1.0695      -0.3918     325.2805       1.0279
    1734.0     833.1012       0.0000      50.8611     -73.0479       1.5346      -1.4673      -0.4354     331.3826       1.0174
    1735.0     834.1261       0.0000      50.8611     -66.6663       1.0979      -1.0079      -0.4349     337.8994       1.0226
    1736.0     839.5594       0.0000      50.8611     -61.3070       1.2414      -1.0876      -0.5973     343.9997       1.0226
