~VERSION INFORMATION
VERS.           2.0   :CWLS Log ASCII Standard - VERSION 2.0
WRAP.           NO    :One Line per depth step
PROD.  Schlumberger   :LAS Producer
PROG.  DLIS to ASCII 19C2-270                          :LAS Program name and version
CREA.        2017/09/16 17:42                          :LAS Creation date {YYYY/MM/DD hh:mm}
DLIS_CREA.  2017-Sep-15 11:44                          :DLIS Creation date and time {YYYY-MMM-DD hh:mm}
SOURCE.     LPC_S1-1_AV_4TH-LOG.DLIS                   :DLIS File Name
FILE-ID.     PERFO_Perfo_WPGRT_017LTP                  :File Identification Number
#--------------------------------------------------
~WELL INFORMATION
#MNEM.UNIT      DATA             DESCRIPTION
#---- ------ --------------   -----------------------------
STRT .S         3425.0       :START TIME      
STOP .S         3810.0       :STOP TIME      
STEP .S            1.0       :STEP     
NULL .          -999.25      :NULL VALUE
COMP .        SHELL INTERNATIONAL E P                  :COMPANY
WELL .        WPP TEST 2                               :WELL
FLD  .        WILDCAT                                  :FIELD
LOC  .                                                 :LOCATION
CNTY .        HARRIS                                   :COUNTY
STAT .        TEXAS                                    :STATE
CTRY .                                                 :COUNTRY
API  .                                                 :API NUMBER
UWI  .                                                 :UNIQUE WELL ID
DATE .                                                 :LOG DATE
SRVC .        Schlumberger                             :SERVICE COMPANY
LATI .DEG                                              :LATITUDE
LONG .DEG                                              :LONGITUDE
GDAT .                                                 :GeoDetic Datum
#-----------------------------------------------------------------------------
~PARAMETER INFORMATION
#MNEM.UNIT    VALUE                      DESCRIPTION
#---- -----   --------------------       ------------------------
U-PHASE_B_COMP_PER_YT.                 0 :Phase B Comparator Period Yt
U-PHASE_A_COMP_PER_XT.                 0 :Phase A Comparator Period Xt
U-MAX_EXC_CUR_LIMIT.MA       240.00000   :Requested CM Current Limit
U-REQ_EXC_FQ.HZ              50          :Requested CM Frequency
U-TILT_Y_OFFSET.           0.19916       :WPTET Tilt Y Offset
U-TILT_Y_GAIN.           1.01796         :WPTET Tilt Y Gain
U-TILT_X_OFFSET.          -1.77103       :WPTET Tilt X Offset
U-TILT_X_GAIN.           1.00000         :WPTET Tilt X Gain
U-TILT_OFFSET_TOL.           0.00100     :WPTET Tilt Offset Calibration Tolerance
U-NO_TILT_CAL_ROTATIONS.                 3 :Number of Rotations for Tilt Calibration
HAZI .DEG        0.00000                 :Hole Azimuth
U-STD_TOL_TILT.           0.01000        :Tilt Standard Deviation Tolerance
U-GUN_POS_TOL.DEG        5.00000         :Gun Position Tolerance
ROT_ANGLE_THRESHOLD.DEG        5.00000   :Rotation Stop Angle Tolerance
STOP_ROT_ANGLE.DEG       80.00000        :Rotation Stop Angle
WITN .                                   :Witness's Name
ENGI .                                   :Engineer's Name
COUN .        HARRIS                     :County or Rig Name
FN   .        WILDCAT                    :Field Name
WN   .        WPP TEST 2                 :Well Name
CN   .        SHELL INTERNATIONAL E P    :Company Name
CLAB .        County                     :County/Rig Label
SLAB .        State                      :State/Province Label
RUN  .          1                        :RUN NUMBER
PDAT .        GROUND LEVEL               :Permanent Datum
EPD  .                                   :Elevation of Permanent Datum above Mean Sea Level
LMF  .                                   :Logging Measured From (Name of Logging Elevation Reference)
APD  .                                   :Elevation of Depth Reference (LMF) above Permanent Datum
#-----------------------------------------------------------------------------
~CURVE INFORMATION
#MNEM.UNIT   API CODE                                  DESCRIPTION
#---- -----  --------                                  -----------------------
TIME .S                                                :TIME {F10.1}
FREQ_EMF_SL.HZ                                         :Electromagnetic Field Frequency {F13.4}
PH_SH_WPPCM_SL.DEG                                     :WPPCM Phase Shift {F13.4}
FREQ_EXC_REQ_SL.HZ                                     :Requested Exciter Frequency {F13.4}
RB_SL.DEG                                              :Relative Bearing {F13.4}
SDEV_SL.DEG                                            :Sonde Deviation {F13.4}
TILX_SL.DEG                                            :X-axis Tilt {F13.4}
TILY_SL.DEG                                            :Y-axis Tilt {F13.4}
ROTA_SL.DEG                                            :Motor Rotation Angle {F13.4}
MSPE_SL.RPM                                            :Motor Speed {F13.4}
#-----------------------------------------------------------------------------
# 
#     TIME    FREQ_EMF_SL  PH_SH_WPPCM_ FREQ_EXC_REQ    RB_SL       SDEV_SL      TILX_SL      TILY_SL      ROTA_SL      MSPE_SL
#                          SL           _SL
~A  
# ...
    3614.0    1428.2824       0.0000      50.8611     -56.4047       1.2444      -1.0365      -0.6886     185.2868       1.0226
    3615.0    1397.4641       0.0000      50.8611     -55.5502       1.1454      -0.9446      -0.6477     191.4018       1.0226
    3616.0    1372.9059       0.0000      50.8611     -59.1619       1.1271      -0.9677      -0.5777     197.5169       1.0226
    3617.0    1344.7699       0.0000      50.8611     -57.0581       1.0731      -0.8989      -0.5833     203.6188       1.0257
    3618.0    1311.0980       0.0000      50.8611     -49.5489       1.1435      -0.8703      -0.7413     209.7360       1.0226
    3619.0    1244.7791       0.0000      50.8611     -54.3357       1.2413      -1.0079      -0.7239     216.2305       1.0151
    3620.0    1181.7312       0.0000      50.8611     -57.2466       1.2484      -1.0475      -0.6656     222.3288       1.0196
    3621.0    1107.2891       0.0000      50.8611     -49.6959       0.9356      -0.7156      -0.6012     228.4219       1.0226
    3622.0    1050.1254       0.0000      50.8611     -58.0591       1.0429      -0.8818      -0.5547     234.5114       1.0151
    3623.0    1015.4454       0.0000      50.8611     -50.0885       1.2837      -0.9848      -0.8230     240.6010       1.0151
    3624.0     983.5843       0.0000      50.8611     -50.6934       1.1325      -0.8758      -0.7178     246.7036       1.0151
    3625.0     967.1596       0.0000      50.8611     -57.0748       0.9888      -0.8301      -0.5368     252.8072       1.0257
    3626.0     946.3324       0.0000      50.8611     -53.7934       1.0378      -0.8356      -0.6130     258.9221       1.0226
    3627.0     934.8256       0.0000      50.8611     -46.2462       1.0393      -0.7498      -0.7178     265.0239       1.0226
    3628.0     928.8318       0.0000      50.8611     -41.6393       1.1432      -0.7608      -0.8522     271.1222       1.0182
    3629.0     919.3031       0.0000      50.8611     -51.2741       1.0779      -0.8412      -0.6712     277.2282       1.0226
    3630.0     910.6244       0.0000      50.8611     -48.7792       1.0650      -0.8015      -0.7004     283.3300       1.0226
    3631.0     914.3368       0.0000      50.8611     -45.5281       1.0419      -0.7438      -0.7295     289.8266       1.0226
    3632.0     912.8089       0.0000      50.8611     -45.6562       0.9767      -0.6981      -0.6830     295.9262       1.0226
    3633.0     917.9485       0.0000      50.8611     -36.9969       0.8648      -0.5203      -0.6886     302.0280       1.0226
    3634.0     922.0637       0.0000      50.8611     -55.4603       1.0213      -0.8417      -0.5777     308.1357       1.0257
    3635.0     932.8826       0.0000      50.8611     -55.7027       0.9836      -0.8125      -0.5542     314.2468       1.0226
    3636.0     944.6958       0.0000      50.8611     -46.6763       0.9440      -0.6865      -0.6477     320.3363       1.0226
    3637.0     963.3888       0.0000      50.8611     -39.9565       0.9053      -0.5776      -0.6942     326.4512       1.0303
    3638.0     978.5259       0.0000      50.8611     -51.7265       0.9042      -0.7096      -0.5603     332.5539       1.0196
    3639.0     998.9766       0.0000      50.8611     -53.9943       1.1033      -0.8929      -0.6477     338.6434       1.0226
    3640.0    1023.7023       0.0000      50.8611     -50.3954       0.9013      -0.6920      -0.5721     344.7452       1.0226
    3641.0    1058.3058       0.0000      50.8611     -52.9317       0.7743      -0.6177      -0.4668     350.8470       1.0226
    3642.0    1129.9481       0.0000      50.8611     -48.4727       0.8097      -0.6062      -0.5368     356.9488       1.0226
    3643.0    1229.5743       0.0000      50.8611     -50.5071       1.0006      -0.7724      -0.6360       3.4556       1.0226
    3644.0    1274.8091       0.0000      50.8611     -54.9945       0.9440      -0.7724      -0.5424       9.5596       1.0226
    3645.0    1306.5981       0.0000      50.8611     -58.0810       0.7279      -0.6177      -0.3850      15.6723       1.0226
    3646.0    1333.1319       0.0000      50.8611     -52.1022       0.7936      -0.6233      -0.4898      21.7763       1.0226
    3647.0    1363.4061       0.0000      50.8611     -57.2608       0.9391      -0.7900      -0.5077      27.8827       1.0334
    3648.0    1393.9184       0.0000      50.8611     -63.0101       0.9219      -0.8186      -0.4203      33.9817       1.0257
    3649.0    1423.7815       0.0000      50.8611     -58.2674       0.7816      -0.6634      -0.4125      40.0966       1.0226
    3650.0    1452.7377       0.0000      50.8611     -65.8932       0.7984      -0.7267      -0.3268      46.2022       1.0303
    3651.0    1476.2630       0.0000      50.8611     -61.9737       0.8818      -0.7784      -0.4142      52.3142       1.0226
    3652.0    1510.7217       0.0000      50.8611     -57.6386       1.1046      -0.9330      -0.5895      58.4182       1.0226
    3653.0    1535.7345       0.0000      50.8611     -60.3201       0.8702      -0.7553      -0.4315      64.5179       1.0226
    3654.0    1558.0438       0.0000      50.8611     -68.9212       0.9700      -0.9044      -0.3498      70.6197       1.0226
    3655.0    1576.5134       0.0000      50.8611     -74.1148       1.0552      -1.0134      -0.2859      77.1140       1.0226
    3656.0    1596.4760       0.0000      50.8611     -64.9378       0.9361      -0.8472      -0.3968      83.2073       1.0303
    3657.0    1608.9817       0.0000      50.8611     -57.8355       0.9536      -0.8070      -0.5077      89.3215       1.0226
    3658.0    1620.1036       0.0000      50.8611     -66.7907       1.0220      -0.9391      -0.4024      95.4225       1.0226
    3659.0    1630.2948       0.0000      50.8611     -69.9094       0.9327      -0.8758      -0.3206     101.5280       1.0303
    3660.0    1637.3712       0.0000      50.8611     -71.5922       0.9597      -0.9105      -0.3033     107.6391       1.0226
    3661.0    1642.1321       0.0000      50.8611     -64.4877       1.0196      -0.9160      -0.4393     113.7417       1.0226
    3662.0    1642.2692       0.0000      50.8611     -61.9416       1.0570      -0.9330      -0.4959     119.8426       1.0226
    3663.0    1642.8153       0.0000      50.8611     -71.3449       1.0532      -0.9963      -0.3380     125.9330       1.0226
    3664.0    1628.6898       0.0000      50.8611     -66.4186       1.0818      -0.9908      -0.4315     132.0339       1.0226
    3665.0    1617.4500       0.0000      50.8611     -68.6521       1.1743      -1.0937      -0.4259     138.1367       1.0226
    3666.0    1603.2104       0.0000      50.8611     -57.7664       1.0288      -0.8703      -0.5486     144.2386       1.0226
    3667.0    1583.6149       0.0000      50.8611     -63.2103       0.9959      -0.8874      -0.4494     150.4569       1.0226
    3668.0    1569.4755       0.0000      50.8611     -60.2114       1.2019      -1.0425      -0.5951     156.8495       1.0226
    3669.0    1549.2165       0.0000      50.8611     -60.0632       1.1829      -1.0249      -0.5895     162.9514       1.0226
    3670.0    1517.6876       0.0000      50.8611     -57.2301       1.0896      -0.9160      -0.5895     169.0533       1.0226
    3671.0    1494.1882       0.0000      50.8611     -57.5695       1.0991      -0.9275      -0.5895     175.1684       1.0226
    3672.0    1465.7230       0.0000      50.8611     -56.9793       1.2704      -1.0656      -0.6886     181.2712       1.0226
    3673.0    1448.4671       0.0000      50.8611     -60.0002       1.1747      -1.0202      -0.5809     187.3449       1.0203
    3674.0    1413.9217       0.0000      50.8611     -52.7008       1.1368      -0.9044      -0.6886     193.4371       1.0226
    3675.0    1384.1044       0.0000      50.8611     -55.0782       1.1314      -0.9275      -0.6477     199.5520       1.0226
    3676.0    1353.6533       0.0000      50.8611     -57.5616       1.2081      -1.0194      -0.6477     205.6548       1.0226
