~VERSION INFORMATION
VERS.           2.0   :CWLS Log ASCII Standard - VERSION 2.0
WRAP.           NO    :One Line per depth step
PROD.  Schlumberger   :LAS Producer
PROG.  DLIS to ASCII 19C2-270                          :LAS Program name and version
CREA.        2017/09/16 17:42                          :LAS Creation date {YYYY/MM/DD hh:mm}
DLIS_CREA.  2017-Sep-15 18:33                          :DLIS Creation date and time {YYYY-MMM-DD hh:mm}
SOURCE.     LPC_S4-1_2BV.DLIS                          :DLIS File Name
FILE-ID.     PERFO_Perfo_WPGRT_056LTP                  :File Identification Number
#--------------------------------------------------
~WELL INFORMATION
#MNEM.UNIT      DATA             DESCRIPTION
#---- ------ --------------   -----------------------------
STRT .S         5560.0       :START TIME      
STOP .S         6042.0       :STOP TIME      
STEP .S            1.0       :STEP     
NULL .          -999.25      :NULL VALUE
COMP .        SHELL INTERNATIONAL E P                  :COMPANY
WELL .        WPP TEST 2                               :WELL
FLD  .        WILDCAT                                  :FIELD
LOC  .        NA                                       :LOCATION
CNTY .        HARRIS                                   :COUNTY
STAT .        TEXAS                                    :STATE
CTRY .                                                 :COUNTRY
API  .        NA                                       :API NUMBER
UWI  .                                                 :UNIQUE WELL ID
DATE .        15-Sep-2017                              :LOG DATE {DD-MMM-YYYY}
SRVC .        Schlumberger                             :SERVICE COMPANY
LATI .DEG                                              :LATITUDE
LONG .DEG                                              :LONGITUDE
GDAT .                                                 :GeoDetic Datum
SECT .        NA                                       :Section
RANG .        NA                                       :Range
TOWN .        NA                                       :Township
#-----------------------------------------------------------------------------
~PARAMETER INFORMATION
#MNEM.UNIT    VALUE                      DESCRIPTION
#---- -----   --------------------       ------------------------
U-PHASE_B_COMP_PER_YT.                 0 :Phase B Comparator Period Yt
U-PHASE_A_COMP_PER_XT.                 0 :Phase A Comparator Period Xt
U-MAX_EXC_CUR_LIMIT.MA       240.00000   :Requested CM Current Limit
U-REQ_EXC_FQ.HZ              50          :Requested CM Frequency
U-TILT_Y_OFFSET.           0.19916       :WPTET Tilt Y Offset
U-TILT_Y_GAIN.           1.01796         :WPTET Tilt Y Gain
U-TILT_X_OFFSET.          -1.77103       :WPTET Tilt X Offset
U-TILT_X_GAIN.           1.00000         :WPTET Tilt X Gain
U-TILT_OFFSET_TOL.           0.00100     :WPTET Tilt Offset Calibration Tolerance
U-NO_TILT_CAL_ROTATIONS.                 3 :Number of Rotations for Tilt Calibration
HAZI .DEG        0.00000                 :Hole Azimuth
U-STD_TOL_TILT.           0.01000        :Tilt Standard Deviation Tolerance
U-GUN_POS_TOL.DEG        5.00000         :Gun Position Tolerance
ROT_ANGLE_THRESHOLD.DEG        5.00000   :Rotation Stop Angle Tolerance
STOP_ROT_ANGLE.DEG        0.00000        :Rotation Stop Angle
WITN .        MR. DHRUA ARORA            :Witness's Name
ENGI .        MORRIS MOORE               :Engineer's Name
COUN .        HARRIS                     :County or Rig Name
FN   .        WILDCAT                    :Field Name
WN   .        WPP TEST 2                 :Well Name
CN   .        SHELL INTERNATIONAL E P    :Company Name
CLAB .        County                     :County/Rig Label
SLAB .        State                      :State/Province Label
RUN  .          1                        :RUN NUMBER
PDAT .        GROUND LEVEL               :Permanent Datum
EPD  .                                   :Elevation of Permanent Datum above Mean Sea Level
LMF  .          NA                       :Logging Measured From (Name of Logging Elevation Reference)
APD  .                                   :Elevation of Depth Reference (LMF) above Permanent Datum
#-----------------------------------------------------------------------------
~CURVE INFORMATION
#MNEM.UNIT   API CODE                                  DESCRIPTION
#---- -----  --------                                  -----------------------
TIME .S                                                :TIME {F10.1}
FREQ_EMF_SL.HZ                                         :Electromagnetic Field Frequency {F13.4}
PH_SH_WPPCM_SL.DEG                                     :WPPCM Phase Shift {F13.4}
FREQ_EXC_REQ_SL.HZ                                     :Requested Exciter Frequency {F13.4}
RB_SL.DEG                                              :Relative Bearing {F13.4}
SDEV_SL.DEG                                            :Sonde Deviation {F13.4}
TILX_SL.DEG                                            :X-axis Tilt {F13.4}
TILY_SL.DEG                                            :Y-axis Tilt {F13.4}
ROTA_SL.DEG                                            :Motor Rotation Angle {F13.4}
MSPE_SL.RPM                                            :Motor Speed {F13.4}
#-----------------------------------------------------------------------------
# 
#     TIME    FREQ_EMF_SL  PH_SH_WPPCM_ FREQ_EXC_REQ    RB_SL       SDEV_SL      TILX_SL      TILY_SL      ROTA_SL      MSPE_SL
#                          SL           _SL
~A  
# ...
    5749.0    1422.7019       0.0000      50.8611     -62.0792       1.1131      -0.9834      -0.5209       6.8832       1.0226
    5750.0    1419.3377       0.0000      50.8611     -65.1296       1.0226      -0.9275      -0.4301      12.9727       1.0185
    5751.0    1416.9677       0.0000      50.8611     -60.6668       0.9616      -0.8384      -0.4710      19.0757       1.0226
    5752.0    1410.1717       0.0000      50.8611     -63.6247       1.0804      -0.9677      -0.4800      25.1720       1.0292
    5753.0    1405.6369       0.0000      50.8611     -64.2360       1.0473      -0.9432      -0.4551      31.2802       1.0226
    5754.0    1386.8344       0.0000      50.8611     -59.2601       1.0506      -0.9030      -0.5368      37.7888       1.0226
    5755.0    1391.8698       0.0000      50.8611     -62.9499       1.0037      -0.8942      -0.4551      43.8782       1.0226
    5756.0    1374.9304       0.0000      50.8611     -65.0111       0.8120      -0.7267      -0.3463      49.9801       1.0226
    5757.0    1368.9874       0.0000      50.8611     -63.2360       1.1564      -1.0324      -0.5209      56.0950       1.0226
    5758.0    1349.4683       0.0000      50.8611     -59.4773       1.0680      -0.9187      -0.5438      62.1969       1.0226
    5759.0    1350.0193       0.0000      50.8611     -60.8360       1.1189      -0.9765      -0.5458      68.2986       1.0226
    5760.0    1332.6616       0.0000      50.8611     -57.0711       1.1092      -0.9323      -0.6006      74.4004       1.0226
    5761.0    1324.1526       0.0000      50.8611     -60.3110       1.1531      -1.0010      -0.5687      80.5022       1.0226
    5762.0    1294.8895       0.0000      50.8611     -60.0121       1.0429      -0.9030      -0.5209      86.5929       1.0226
    5763.0    1288.1851       0.0000      50.8611     -56.1644       1.1117      -0.9099      -0.6137      92.6812       1.0162
    5764.0    1273.6867       0.0000      50.8611     -62.8992       1.1527      -1.0099      -0.5168      98.7719       1.0226
    5765.0    1268.2868       0.0000      50.8611     -55.3484       1.0598      -0.8717      -0.6027     104.8737       1.0226
    5766.0    1249.7566       0.0000      50.8611     -57.3867       1.1014      -0.9275      -0.5937     111.3699       1.0226
    5767.0    1250.6263       0.0000      50.8611     -58.2044       1.0842      -0.9207      -0.5687     117.4593       1.0226
    5768.0    1240.8566       0.0000      50.8611     -63.6455       1.1878      -1.0637      -0.5278     123.5611       1.0226
    5769.0    1238.8704       0.0000      50.8611     -57.5267       1.1547      -0.9745      -0.6186     129.6629       1.0226
    5770.0    1234.5200       0.0000      50.8611     -52.1998       0.9048      -0.7130      -0.5438     135.7648       1.0226
    5771.0    1229.2395       0.0000      50.8611     -52.2249       1.1031      -0.8717      -0.6754     141.8667       1.0226
    5772.0    1237.0477       0.0000      50.8611     -54.2947       1.0343      -0.8404      -0.6027     147.9818       1.0226
    5773.0    1243.6116       0.0000      50.8611     -50.0044       1.0139      -0.7757      -0.6505     154.0916       1.0292
    5774.0    1241.0572       0.0000      50.8611     -54.3527       1.0618      -0.8629      -0.6186     160.1986       1.0226
    5775.0    1249.3819       0.0000      50.8611     -53.8581       0.9799      -0.7914      -0.5777     166.3005       1.0226
    5776.0    1263.7279       0.0000      50.8611     -54.9118       1.0054      -0.8227      -0.5777     172.3901       1.0226
    5777.0    1275.1873       0.0000      50.8611     -51.6618       0.9976      -0.7825      -0.6186     178.4932       1.0226
    5778.0    1294.8895       0.0000      50.8611     -52.5200       1.0686      -0.8472      -0.6505     184.9897       1.0226
    5779.0    1312.3434       0.0000      50.8611     -54.0575       1.0963      -0.8874      -0.6435     191.1053       1.0268
    5780.0    1330.5855       0.0000      50.8611     -51.7909       0.9679      -0.7580      -0.6006     197.2072       1.0226
    5781.0    1344.9777       0.0000      50.8611     -51.4689       0.9692      -0.7580      -0.6027     203.3091       1.0226
    5782.0    1347.5554       0.0000      50.8611     -51.2248       0.9757      -0.7600      -0.6117     209.4110       1.0226
    5783.0    1363.6773       0.0000      50.8611     -50.7382       0.9787      -0.7580      -0.6186     215.5209       1.0292
    5784.0    1372.4244       0.0000      50.8611     -48.4960       0.9582      -0.7179      -0.6345     221.6278       1.0226
    5785.0    1377.6243       0.0000      50.8611     -53.4379       0.8866      -0.7110      -0.5278     227.7297       1.0292
    5786.0    1379.6418       0.0000      50.8611     -54.6422       0.9111      -0.7424      -0.5278     233.8659       1.0268
    5787.0    1392.9387       0.0000      50.8611     -58.4632       0.9184      -0.7825      -0.4800     239.9729       1.0226
    5788.0    1397.4024       0.0000      50.8611     -45.1229       0.8983      -0.6415      -0.6186     246.0892       1.0268
    5789.0    1404.0650       0.0000      50.8611     -54.3376       0.9572      -0.7737      -0.5548     252.2030       1.0226
    5790.0    1412.3920       0.0000      50.8611     -59.2275       0.9213      -0.7914      -0.4710     258.7129       1.0226
    5791.0    1418.7077       0.0000      50.8611     -55.5373       0.9490      -0.7825      -0.5368     264.8297       1.0226
    5792.0    1420.6325       0.0000      50.8611     -58.7806       0.8783      -0.7512      -0.4551     270.9296       1.0226
    5793.0    1425.7380       0.0000      50.8611     -57.9114       0.8671      -0.7335      -0.4620     277.0314       1.0226
    5794.0    1427.9853       0.0000      50.8611     -60.9011       0.9878      -0.8629      -0.4800     283.1332       1.0226
    5795.0    1433.1663       0.0000      50.8611     -60.4589       0.9884      -0.8608      -0.4800     289.2350       1.0226
    5796.0    1434.3785       0.0000      50.8611     -55.6108       0.9327      -0.7698      -0.5249     290.5273       0.0005
    5797.0    1434.9490       0.0000      50.8611     -55.9530       0.9147      -0.7580      -0.5119     290.5273       0.0005
    5798.0    1434.9490       0.0000      50.8611     -59.6754       0.9177      -0.7914      -0.4640     290.5273       0.0005
    5799.0    1431.3908       0.0000      50.8611     -58.6735       0.9083      -0.7757      -0.4710     290.5273       0.0005
    5800.0    1434.3107       0.0000      50.8611     -58.2652       0.9061      -0.7669      -0.4779     290.5273       0.0005
    5801.0    1436.0934       0.0000      50.8611     -55.8260       0.9272      -0.7669      -0.5209     290.5273       0.0005
    5802.0    1433.8092       0.0000      50.8611     -59.3905       0.9298      -0.8002      -0.4710     290.5273       0.0005
    5803.0    1433.1663       0.0000      50.8611     -57.3547       0.9040      -0.7600      -0.4890     290.5273       0.0005
    5804.0    1433.8092       0.0000      50.8611     -62.0973       0.8854      -0.7825      -0.4142     290.5273       0.0005
    5805.0    1431.3908       0.0000      50.8611     -57.6228       0.9265      -0.7825      -0.4959     290.5273       0.0005
    5806.0    1432.0265       0.0000      50.8611     -57.6228       0.9265      -0.7825      -0.4959     290.5273       0.0005
    5807.0    1432.6741       0.0000      50.8611     -61.6012       0.8907      -0.7825      -0.4232     290.5273       0.0005
    5808.0    1430.8203       0.0000      50.8611     -54.4076       0.9255      -0.7463      -0.5389     290.5273       0.0005
    5809.0    1434.3107       0.0000      50.8611     -52.0593       0.9950      -0.7825      -0.6117     290.5273       0.0005
    5810.0    1439.2014       0.0000      50.8611     -59.6754       0.9177      -0.7914      -0.4640     290.5273       0.0005
    5811.0    1430.8913       0.0000      50.8611     -57.3666       0.8443      -0.7110      -0.4551     290.5273       0.0005
