~VERSION INFORMATION
VERS.           2.0   :CWLS Log ASCII Standard - VERSION 2.0
WRAP.           NO    :One Line per depth step
PROD.  Schlumberger   :LAS Producer
PROG.  DLIS to ASCII 19C2-270                          :LAS Program name and version
CREA.        2017/09/16 17:42                          :LAS Creation date {YYYY/MM/DD hh:mm}
DLIS_CREA.  2017-Sep-15 19:54                          :DLIS Creation date and time {YYYY-MMM-DD hh:mm}
SOURCE.     LPC_S5-1_2B5.DLIS                          :DLIS File Name
FILE-ID.     PERFO_Perfo_WPGRT_064LTP                  :File Identification Number
#--------------------------------------------------
~WELL INFORMATION
#MNEM.UNIT      DATA             DESCRIPTION
#---- ------ --------------   -----------------------------
STRT .S         1886.0       :START TIME      
STOP .S         2307.0       :STOP TIME      
STEP .S            1.0       :STEP     
NULL .          -999.25      :NULL VALUE
COMP .        SHELL INTERNATIONAL E P                  :COMPANY
WELL .        WPP TEST 2                               :WELL
FLD  .        WILDCAT                                  :FIELD
LOC  .        NA                                       :LOCATION
CNTY .        HARRIS                                   :COUNTY
STAT .        TEXAS                                    :STATE
CTRY .                                                 :COUNTRY
API  .        NA                                       :API NUMBER
UWI  .                                                 :UNIQUE WELL ID
DATE .        15-Sep-2017                              :LOG DATE {DD-MMM-YYYY}
SRVC .        Schlumberger                             :SERVICE COMPANY
LATI .DEG                                              :LATITUDE
LONG .DEG                                              :LONGITUDE
GDAT .                                                 :GeoDetic Datum
SECT .        NA                                       :Section
RANG .        NA                                       :Range
TOWN .        NA                                       :Township
#-----------------------------------------------------------------------------
~PARAMETER INFORMATION
#MNEM.UNIT    VALUE                      DESCRIPTION
#---- -----   --------------------       ------------------------
U-PHASE_B_COMP_PER_YT.                 0 :Phase B Comparator Period Yt
U-PHASE_A_COMP_PER_XT.                 0 :Phase A Comparator Period Xt
U-MAX_EXC_CUR_LIMIT.MA       240.00000   :Requested CM Current Limit
U-REQ_EXC_FQ.HZ              50          :Requested CM Frequency
U-TILT_Y_OFFSET.           0.19916       :WPTET Tilt Y Offset
U-TILT_Y_GAIN.           1.01796         :WPTET Tilt Y Gain
U-TILT_X_OFFSET.          -1.77103       :WPTET Tilt X Offset
U-TILT_X_GAIN.           1.00000         :WPTET Tilt X Gain
U-TILT_OFFSET_TOL.           0.00100     :WPTET Tilt Offset Calibration Tolerance
U-NO_TILT_CAL_ROTATIONS.                 3 :Number of Rotations for Tilt Calibration
HAZI .DEG        0.00000                 :Hole Azimuth
U-STD_TOL_TILT.           0.01000        :Tilt Standard Deviation Tolerance
U-GUN_POS_TOL.DEG        5.00000         :Gun Position Tolerance
ROT_ANGLE_THRESHOLD.DEG        5.00000   :Rotation Stop Angle Tolerance
STOP_ROT_ANGLE.DEG        0.00000        :Rotation Stop Angle
WITN .        MR. DHRUA ARORA            :Witness's Name
ENGI .        MORRIS MOORE               :Engineer's Name
COUN .        HARRIS                     :County or Rig Name
FN   .        WILDCAT                    :Field Name
WN   .        WPP TEST 2                 :Well Name
CN   .        SHELL INTERNATIONAL E P    :Company Name
CLAB .        County                     :County/Rig Label
SLAB .        State                      :State/Province Label
RUN  .          1                        :RUN NUMBER
PDAT .        GROUND LEVEL               :Permanent Datum
EPD  .                                   :Elevation of Permanent Datum above Mean Sea Level
LMF  .          NA                       :Logging Measured From (Name of Logging Elevation Reference)
APD  .                                   :Elevation of Depth Reference (LMF) above Permanent Datum
#-----------------------------------------------------------------------------
~CURVE INFORMATION
#MNEM.UNIT   API CODE                                  DESCRIPTION
#---- -----  --------                                  -----------------------
TIME .S                                                :TIME {F10.1}
FREQ_EMF_SL.HZ                                         :Electromagnetic Field Frequency {F13.4}
PH_SH_WPPCM_SL.DEG                                     :WPPCM Phase Shift {F13.4}
FREQ_EXC_REQ_SL.HZ                                     :Requested Exciter Frequency {F13.4}
RB_SL.DEG                                              :Relative Bearing {F13.4}
SDEV_SL.DEG                                            :Sonde Deviation {F13.4}
TILX_SL.DEG                                            :X-axis Tilt {F13.4}
TILY_SL.DEG                                            :Y-axis Tilt {F13.4}
ROTA_SL.DEG                                            :Motor Rotation Angle {F13.4}
MSPE_SL.RPM                                            :Motor Speed {F13.4}
#-----------------------------------------------------------------------------
# 
#     TIME    FREQ_EMF_SL  PH_SH_WPPCM_ FREQ_EXC_REQ    RB_SL       SDEV_SL      TILX_SL      TILY_SL      ROTA_SL      MSPE_SL
#                          SL           _SL
~A  
    1886.0    1474.0566       0.0000      50.8611    -131.5817       5.1092      -3.8195       3.3884     243.4357       1.0226
    1887.0    1466.2654       0.0000      50.8611    -124.8797       5.6080      -4.5984       3.2029     248.2347       1.0198
    1888.0    1461.2152       0.0000      50.8611    -118.8887       5.7745      -5.0539       2.7861     254.7152       1.0255
    1889.0    1455.1671       0.0000      50.8611    -113.3193       5.8550      -5.3753       2.3144     260.8315       1.0226
    1890.0    1450.5454       0.0000      50.8611    -108.1284       5.8714      -5.5790       1.8237     266.9316       1.0149
    1891.0    1453.3360       0.0000      50.8611    -102.9128       5.8783      -5.7289       1.3111     273.0470       1.0149
    1892.0    1447.5591       0.0000      50.8611     -98.1491       6.0097      -5.9484       0.8504     279.1310       1.0149
    1893.0    1420.4546       0.0000      50.8611     -91.7742       6.0934      -6.0904       0.1882     285.2310       1.0170
    1894.0    1404.0012       0.0000      50.8611     -86.0263       6.0329      -6.0179      -0.4171     291.3378       1.0226
    1895.0    1405.3201       0.0000      50.8611     -81.4563       6.1188      -6.0502      -0.9078     297.4407       1.0198
    1896.0    1383.9236       0.0000      50.8611     -76.4793       6.2507      -6.0767      -1.4583     303.5104       1.0255
    1897.0    1353.3744       0.0000      50.8611     -69.9784       6.2042      -5.8279      -2.1205     309.6315       1.0178
    1898.0    1328.4864       0.0000      50.8611     -65.5675       6.3237      -5.7554      -2.6112     315.7224       1.0178
    1899.0    1298.3930       0.0000      50.8611     -60.0005       6.3835      -5.5252      -3.1865     321.8273       1.0226
    1900.0    1279.9643       0.0000      50.8611     -55.0430       6.3419      -5.1930      -3.6283     328.3341       1.0226
    1901.0    1264.4612       0.0000      50.8611     -50.4231       6.3400      -4.8825      -4.0342     334.4359       1.0226
    1902.0    1230.8151       0.0000      50.8611     -44.3914       6.2816      -4.3897      -4.4840     340.5312       1.0255
    1903.0    1217.4589       0.0000      50.8611     -40.3430       6.2749      -4.0576      -4.7782     346.6403       1.0226
    1904.0    1191.7373       0.0000      50.8611     -35.0119       6.2643      -3.5893      -5.1272     352.7410       1.0198
    1905.0    1176.1849       0.0000      50.8611     -29.5887       6.2592      -3.0858      -5.4404     358.8347       1.0226
    1906.0    1148.3720       0.0000      50.8611     -24.0495       6.1830      -2.5156      -5.6443       4.9495       1.0226
    1907.0    1141.9344       0.0000      50.8611     -17.6656       6.1368      -1.8592      -5.8463      11.0275       1.0226
    1908.0    1123.4513       0.0000      50.8611     -14.7215       6.0663      -1.5379      -5.8662      17.1316       1.0226
    1909.0    1101.9600       0.0000      50.8611      -7.9802       5.9762      -0.8286      -5.9180      23.2286       1.0149
    1910.0    1091.4822       0.0000      50.8611      -3.7673       5.8571      -0.3838      -5.8443      29.3222       1.0149
    1911.0    1078.7407       0.0000      50.8611       1.1038       5.7350       0.1119      -5.7326      35.4371       1.0226
    1912.0    1075.4408       0.0000      50.8611       7.6441       5.7403       0.7624      -5.6887      41.6475       1.0226
    1913.0    1061.2646       0.0000      50.8611      13.3059       5.7255       1.3140      -5.5711      48.0446       1.0198
    1914.0    1058.6155       0.0000      50.8611      18.2779       5.5824       1.7479      -5.2988      54.1473       1.0198
    1915.0    1050.5883       0.0000      50.8611      23.4903       5.3455       2.1281      -4.9009      60.2409       1.0226
    1916.0    1057.6462       0.0000      50.8611      29.4811       5.2215       2.5670      -4.5438      66.3427       1.0226
    1917.0    1054.8957       0.0000      50.8611      36.7829       5.1143       3.0597      -4.0941      72.4198       1.0149
    1918.0    1067.0827       0.0000      50.8611      42.8303       5.0691       3.4438      -3.7151      78.5216       1.0226
    1919.0    1064.7270       0.0000      50.8611      48.2401       5.0017       3.7289      -3.3282      84.6147       1.0305
    1920.0    1078.7407       0.0000      50.8611      54.9103       4.6739       3.8229      -2.6849      90.7146       1.0226
    1921.0    1087.6500       0.0000      50.8611      60.4475       4.6734       4.0639      -2.3030      96.8123       1.0149
    1922.0    1101.4206       0.0000      50.8611      66.7660       4.5986       4.2246      -1.8124     102.9059       1.0226
    1923.0    1115.3987       0.0000      50.8611      75.1603       4.5261       4.3745      -1.1581     109.0085       1.0226
    1924.0    1133.2272       0.0000      50.8611      81.9956       4.3483       4.3049      -0.6047     115.2093       1.0255
    1925.0    1149.4012       0.0000      50.8611      89.9689       4.2948       4.2941      -0.0023     121.6170       1.0226
    1926.0    1161.8200       0.0000      50.8611      96.2772       4.1862       4.1579       0.4614     127.7223       1.0284
    1927.0    1185.7083       0.0000      50.8611     102.4069       4.3358       4.2324       0.9301     133.8492       1.0226
    1928.0    1201.9231       0.0000      50.8611     114.2916       4.2099       3.8357       1.7259     139.9388       1.0226
    1929.0    1223.8160       0.0000      50.8611     119.9848       4.1931       3.6299       2.0939     146.0407       1.0255
    1930.0    1242.5648       0.0000      50.8611     126.4873       4.2251       3.3943       2.5110     152.1557       1.0226
    1931.0    1266.2809       0.0000      50.8611     136.0036       4.3034       2.9873       3.0942     158.2496       1.0334
    1932.0    1289.6824       0.0000      50.8611     143.2185       4.2046       2.5160       3.3665     164.3741       1.0226
    1933.0    1299.4237       0.0000      50.8611     150.1391       4.3674       2.1732       3.7863     170.4760       1.0226
    1934.0    1328.6758       0.0000      50.8611     156.7673       4.5218       1.7823       4.1543     176.5779       1.0255
    1935.0    1358.0881       0.0000      50.8611     164.1837       4.5310       1.2336       4.3588     182.6938       1.0226
    1936.0    1390.3129       0.0000      50.8611     171.5891       4.5001       0.6576       4.4515     188.9069       1.0255
    1937.0    1404.1957       0.0000      50.8611     177.3012       4.5904       0.2158       4.5851     195.3183       1.0255
    1938.0    1414.7384       0.0000      50.8611    -175.7950       4.8034      -0.3515       4.7896     201.4297       1.0226
    1939.0    1420.4546       0.0000      50.8611    -169.6305       4.8970      -0.8795       4.8165     207.5470       1.0305
    1940.0    1443.7886       0.0000      50.8611    -163.6453       4.8299      -1.3586       4.6340     213.6489       1.0226
    1941.0    1433.0500       0.0000      50.8611    -156.8919       5.0640      -1.9855       4.6559     219.7384       1.0226
    1942.0    1448.5635       0.0000      50.8611    -150.8758       5.1354      -2.4969       4.4842     225.8447       1.0248
    1943.0    1466.2654       0.0000      50.8611    -144.7501       5.2542      -3.0299       4.2880     231.9438       1.0226
    1944.0    1458.7655       0.0000      50.8611    -138.0942       5.3665      -3.5814       3.9908     238.0334       1.0226
    1945.0    1457.1493       0.0000      50.8611    -133.3759       5.4434      -3.9537       3.7345     244.1353       1.0226
    1946.0    1461.5978       0.0000      50.8611    -126.5602       5.6121      -4.5053       3.3395     250.2363       1.0226
    1947.0    1468.7253       0.0000      50.8611    -121.7322       5.6871      -4.8345       2.9875     256.3390       1.0226
    1948.0    1465.6637       0.0000      50.8611    -115.5622       5.7945      -5.2254       2.4969     262.4320       1.0305
