~VERSION INFORMATION
VERS.           2.0   :CWLS Log ASCII Standard - VERSION 2.0
WRAP.           NO    :One Line per depth step
PROD.  Schlumberger   :LAS Producer
PROG.  DLIS to ASCII 19C2-270                          :LAS Program name and version
CREA.        2017/09/16 17:42                          :LAS Creation date {YYYY/MM/DD hh:mm}
DLIS_CREA.  2017-Sep-15 15:51                          :DLIS Creation date and time {YYYY-MMM-DD hh:mm}
SOURCE.     LPC_S3-1_AV.DLIS                           :DLIS File Name
FILE-ID.     PERFO_Perfo_WPGRT_037LTP                  :File Identification Number
#--------------------------------------------------
~WELL INFORMATION
#MNEM.UNIT      DATA             DESCRIPTION
#---- ------ --------------   -----------------------------
STRT .S         1283.0       :START TIME      
STOP .S         1755.0       :STOP TIME      
STEP .S            1.0       :STEP     
NULL .          -999.25      :NULL VALUE
COMP .        SHELL INTERNATIONAL E P                  :COMPANY
WELL .        WPP TEST 2                               :WELL
FLD  .        WILDCAT                                  :FIELD
LOC  .                                                 :LOCATION
CNTY .        HARRIS                                   :COUNTY
STAT .        TEXAS                                    :STATE
CTRY .                                                 :COUNTRY
API  .                                                 :API NUMBER
UWI  .                                                 :UNIQUE WELL ID
DATE .                                                 :LOG DATE
SRVC .        Schlumberger                             :SERVICE COMPANY
LATI .DEG                                              :LATITUDE
LONG .DEG                                              :LONGITUDE
GDAT .                                                 :GeoDetic Datum
#-----------------------------------------------------------------------------
~PARAMETER INFORMATION
#MNEM.UNIT    VALUE                      DESCRIPTION
#---- -----   --------------------       ------------------------
U-PHASE_B_COMP_PER_YT.                 0 :Phase B Comparator Period Yt
U-PHASE_A_COMP_PER_XT.                 0 :Phase A Comparator Period Xt
U-MAX_EXC_CUR_LIMIT.MA       240.00000   :Requested CM Current Limit
U-REQ_EXC_FQ.HZ              50          :Requested CM Frequency
U-TILT_Y_OFFSET.           0.19916       :WPTET Tilt Y Offset
U-TILT_Y_GAIN.           1.01796         :WPTET Tilt Y Gain
U-TILT_X_OFFSET.          -1.77103       :WPTET Tilt X Offset
U-TILT_X_GAIN.           1.00000         :WPTET Tilt X Gain
U-TILT_OFFSET_TOL.           0.00100     :WPTET Tilt Offset Calibration Tolerance
U-NO_TILT_CAL_ROTATIONS.                 3 :Number of Rotations for Tilt Calibration
HAZI .DEG        0.00000                 :Hole Azimuth
U-STD_TOL_TILT.           0.01000        :Tilt Standard Deviation Tolerance
U-GUN_POS_TOL.DEG        5.00000         :Gun Position Tolerance
ROT_ANGLE_THRESHOLD.DEG        5.00000   :Rotation Stop Angle Tolerance
STOP_ROT_ANGLE.DEG        0.00000        :Rotation Stop Angle
WITN .                                   :Witness's Name
ENGI .                                   :Engineer's Name
COUN .        HARRIS                     :County or Rig Name
FN   .        WILDCAT                    :Field Name
WN   .        WPP TEST 2                 :Well Name
CN   .        SHELL INTERNATIONAL E P    :Company Name
CLAB .        County                     :County/Rig Label
SLAB .        State                      :State/Province Label
RUN  .          1                        :RUN NUMBER
PDAT .        GROUND LEVEL               :Permanent Datum
EPD  .                                   :Elevation of Permanent Datum above Mean Sea Level
LMF  .                                   :Logging Measured From (Name of Logging Elevation Reference)
APD  .                                   :Elevation of Depth Reference (LMF) above Permanent Datum
#-----------------------------------------------------------------------------
~CURVE INFORMATION
#MNEM.UNIT   API CODE                                  DESCRIPTION
#---- -----  --------                                  -----------------------
TIME .S                                                :TIME {F10.1}
FREQ_EMF_SL.HZ                                         :Electromagnetic Field Frequency {F13.4}
PH_SH_WPPCM_SL.DEG                                     :WPPCM Phase Shift {F13.4}
FREQ_EXC_REQ_SL.HZ                                     :Requested Exciter Frequency {F13.4}
RB_SL.DEG                                              :Relative Bearing {F13.4}
SDEV_SL.DEG                                            :Sonde Deviation {F13.4}
TILX_SL.DEG                                            :X-axis Tilt {F13.4}
TILY_SL.DEG                                            :Y-axis Tilt {F13.4}
ROTA_SL.DEG                                            :Motor Rotation Angle {F13.4}
MSPE_SL.RPM                                            :Motor Speed {F13.4}
#-----------------------------------------------------------------------------
# 
#     TIME    FREQ_EMF_SL  PH_SH_WPPCM_ FREQ_EXC_REQ    RB_SL       SDEV_SL      TILX_SL      TILY_SL      ROTA_SL      MSPE_SL
#                          SL           _SL
~A  
# ...
    1661.0    1489.6716       0.0000      50.8611     -52.1331       1.0460      -0.8250      -0.6411       7.6758       1.0226
    1662.0    1502.7520       0.0000      50.8611     -45.8477       1.0390      -0.7447      -0.7229      13.7907       1.0226
    1663.0    1506.6864       0.0000      50.8611     -48.4143       0.9181      -0.6865      -0.6094      19.8949       1.0226
    1664.0    1508.8519       0.0000      50.8611     -44.8079       0.8854      -0.6242      -0.6278      26.4148       1.0226
    1665.0    1517.5682       0.0000      50.8611     -50.7218       0.9274      -0.7177      -0.5869      32.5297       1.0226
    1666.0    1525.2169       0.0000      50.8611     -51.7513       0.9172      -0.7087      -0.5693      38.6447       1.0226
    1667.0    1525.2169       0.0000      50.8611     -58.8827       0.9340      -0.7980      -0.4826      44.7576       1.0286
    1668.0    1535.2074       0.0000      50.8611     -59.0532       0.7818      -0.6685      -0.4008      50.8631       1.0226
    1669.0    1525.9609       0.0000      50.8611     -50.4103       0.8330      -0.6422      -0.5277      56.9774       1.0226
    1670.0    1519.3661       0.0000      50.8611     -56.8591       0.8351      -0.6997      -0.4551      63.0930       1.0226
    1671.0    1523.4003       0.0000      50.8611     -61.6889       0.8642      -0.7578      -0.4100      69.2050       1.0309
    1672.0    1525.2169       0.0000      50.8611     -57.4385       0.8624      -0.7267      -0.4642      75.3227       1.0250
    1673.0    1514.6244       0.0000      50.8611     -60.6129       0.8443      -0.7357      -0.4142      81.4238       1.0226
    1674.0    1500.6410       0.0000      50.8611     -62.8792       1.3823      -1.2267      -0.6328      87.5365       1.0250
    1675.0    1487.9384       0.0000      50.8611     -61.8443       0.9161      -0.8070      -0.4325      93.6290       1.0309
    1676.0    1488.9650       0.0000      50.8611     -63.0827       0.9152      -0.8160      -0.4142     100.1519       1.0226
    1677.0    1474.7515       0.0000      50.8611     -68.1130       1.0346      -0.9587      -0.3866     106.2407       1.0226
    1678.0    1456.1401       0.0000      50.8611     -60.8872       0.8725      -0.7627      -0.4233     112.3555       1.0226
    1679.0    1444.4551       0.0000      50.8611     -63.2880       0.9501      -0.8472      -0.4275     118.4573       1.0226
    1680.0    1431.3734       0.0000      50.8611     -63.3588       0.9031      -0.8070      -0.4050     124.5591       1.0226
    1681.0    1415.3784       0.0000      50.8611     -61.2622       1.0325      -0.9054      -0.4959     130.6363       1.0226
    1682.0    1396.3364       0.0000      50.8611     -65.2446       1.0116      -0.9185      -0.4233     136.7484       1.0250
    1683.0    1375.1071       0.0000      50.8611     -66.4403       0.9785      -0.8964      -0.3916     142.8415       1.0226
    1684.0    1362.0540       0.0000      50.8611     -64.8112       1.0257      -0.9275      -0.4367     148.9434       1.0226
    1685.0    1345.8292       0.0000      50.8611     -65.1700       1.0425      -0.9455      -0.4367     155.0448       1.0250
    1686.0    1321.4220       0.0000      50.8611     -62.0922       1.0863      -0.9587      -0.5093     161.1480       1.0226
    1687.0    1284.9871       0.0000      50.8611     -64.1144       1.0963      -0.9857      -0.4776     167.2374       1.0226
    1688.0    1258.8399       0.0000      50.8611     -64.9971       1.0341      -0.9365      -0.4367     173.7569       1.0250
    1689.0    1212.7543       0.0000      50.8611     -64.6449       1.0485      -0.9455      -0.4509     179.8617       1.0226
    1690.0    1181.5284       0.0000      50.8611     -67.7476       1.2904      -1.1948      -0.4868     185.9513       1.0226
    1691.0    1153.0886       0.0000      50.8611     -62.0577       1.0576      -0.9316      -0.4917     192.0532       1.0226
    1692.0    1132.2463       0.0000      50.8611     -58.1365       1.0517      -0.8923      -0.5502     198.1551       1.0226
    1693.0    1108.2475       0.0000      50.8611     -62.6702       1.1696      -1.0390      -0.5368     204.2351       1.0144
    1694.0    1085.0695       0.0000      50.8611     -63.3650       1.1073      -0.9898      -0.4959     210.3473       1.0226
    1695.0    1069.6772       0.0000      50.8611     -59.0715       1.1308      -0.9677      -0.5819     216.4631       1.0144
    1696.0    1062.6935       0.0000      50.8611     -57.3032       1.1284      -0.9497      -0.6094     222.5403       1.0226
    1697.0    1061.0472       0.0000      50.8611     -59.5444       1.0143      -0.8742      -0.5143     228.6415       1.0226
    1698.0    1063.3687       0.0000      50.8611     -62.1158       1.1214      -0.9898      -0.5235     234.7465       1.0226
    1699.0    1065.3409       0.0000      50.8611     -55.5616       1.2222      -1.0079      -0.6912     240.8484       1.0226
    1700.0    1069.4767       0.0000      50.8611     -55.8727       1.2331      -1.0210      -0.6912     247.3429       1.0226
    1701.0    1078.0420       0.0000      50.8611     -56.3380       1.1737      -0.9767      -0.6503     253.4578       1.0250
    1702.0    1090.2968       0.0000      50.8611     -55.5125       1.2074      -0.9947      -0.6820     259.5597       1.0226
    1703.0    1103.4187       0.0000      50.8611     -56.7908       1.0714      -0.8964      -0.5869     265.6492       1.0226
    1704.0    1128.2057       0.0000      50.8611     -56.4748       1.2023      -0.9988      -0.6645     271.7510       1.0226
    1705.0    1168.1896       0.0000      50.8611     -53.1096       1.0314      -0.8250      -0.6186     277.8560       1.0250
    1706.0    1204.4430       0.0000      50.8611     -61.5037       1.1137      -0.9767      -0.5326     283.9561       1.0226
    1707.0    1235.9538       0.0000      50.8611     -50.1914       1.1435      -0.8783      -0.7321     290.0579       1.0226
    1708.0    1257.3225       0.0000      50.8611     -57.3304       1.1871      -0.9988      -0.6411     296.1501       1.0202
    1709.0    1294.3555       0.0000      50.8611     -44.7624       1.1018      -0.7759      -0.7822     302.2368       1.0226
    1710.0    1321.9312       0.0000      50.8611     -51.4468       1.1787      -0.9185      -0.7363     308.3779       1.0250
    1711.0    1339.5607       0.0000      50.8611     -51.0193       0.9470      -0.7357      -0.5961     314.4821       1.0226
    1712.0    1355.9447       0.0000      50.8611     -46.5044       1.1371      -0.8250      -0.7822     320.9766       1.0226
    1713.0    1375.9785       0.0000      50.8611     -57.4172       1.0903      -0.9185      -0.5869     327.1047       1.0250
    1714.0    1392.9466       0.0000      50.8611     -49.5091       1.0499      -0.7980      -0.6820     333.2065       1.0226
    1715.0    1412.2040       0.0000      50.8611     -46.3577       1.0977      -0.8086      -0.7279     339.2960       1.0226
    1716.0    1421.0998       0.0000      50.8611     -48.0110       1.0617      -0.7890      -0.7096     345.3913       1.0144
    1717.0    1445.4289       0.0000      50.8611     -55.3829       1.0892      -0.8964      -0.6186     351.5010       1.0226
    1718.0    1455.7454       0.0000      50.8611     -45.3039       0.9967      -0.7087      -0.7004     357.6036       1.0226
    1719.0    1466.9109       0.0000      50.8611     -51.1918       1.0880      -0.8472      -0.6820       3.7102       1.0226
    1720.0    1483.3861       0.0000      50.8611     -47.7347       0.9942      -0.7357      -0.6687       9.8204       1.0226
    1721.0    1492.8344       0.0000      50.8611     -51.7463       1.0337      -0.8111      -0.6370      15.9150       1.0144
    1722.0    1501.6851       0.0000      50.8611     -45.1318       0.9048      -0.6422      -0.6370      22.0141       1.0309
    1723.0    1510.3112       0.0000      50.8611     -57.1357       1.0829      -0.9095      -0.5869      28.1290       1.0226
