~VERSION INFORMATION
VERS.           2.0   :CWLS Log ASCII Standard - VERSION 2.0
WRAP.           NO    :One Line per depth step
PROD.  Schlumberger   :LAS Producer
PROG.  DLIS to ASCII 19C2-270                          :LAS Program name and version
CREA.        2017/09/16 17:42                          :LAS Creation date {YYYY/MM/DD hh:mm}
DLIS_CREA.  2017-Sep-15 14:18                          :DLIS Creation date and time {YYYY-MMM-DD hh:mm}
SOURCE.     LPC_S2-1_AV.DLIS                           :DLIS File Name
FILE-ID.     PERFO_Perfo_WPGRT_028LTP                  :File Identification Number
#--------------------------------------------------
~WELL INFORMATION
#MNEM.UNIT      DATA             DESCRIPTION
#---- ------ --------------   -----------------------------
STRT .S        12646.0       :START TIME      
STOP .S        13087.0       :STOP TIME      
STEP .S            1.0       :STEP     
NULL .          -999.25      :NULL VALUE
COMP .        SHELL INTERNATIONAL E P                  :COMPANY
WELL .        WPP TEST 2                               :WELL
FLD  .        WILDCAT                                  :FIELD
LOC  .                                                 :LOCATION
CNTY .        HARRIS                                   :COUNTY
STAT .        TEXAS                                    :STATE
CTRY .                                                 :COUNTRY
API  .                                                 :API NUMBER
UWI  .                                                 :UNIQUE WELL ID
DATE .                                                 :LOG DATE
SRVC .        Schlumberger                             :SERVICE COMPANY
LATI .DEG                                              :LATITUDE
LONG .DEG                                              :LONGITUDE
GDAT .                                                 :GeoDetic Datum
#-----------------------------------------------------------------------------
~PARAMETER INFORMATION
#MNEM.UNIT    VALUE                      DESCRIPTION
#---- -----   --------------------       ------------------------
U-PHASE_B_COMP_PER_YT.                 0 :Phase B Comparator Period Yt
U-PHASE_A_COMP_PER_XT.                 0 :Phase A Comparator Period Xt
U-MAX_EXC_CUR_LIMIT.MA       240.00000   :Requested CM Current Limit
U-REQ_EXC_FQ.HZ              50          :Requested CM Frequency
U-TILT_Y_OFFSET.           0.19916       :WPTET Tilt Y Offset
U-TILT_Y_GAIN.           1.01796         :WPTET Tilt Y Gain
U-TILT_X_OFFSET.          -1.77103       :WPTET Tilt X Offset
U-TILT_X_GAIN.           1.00000         :WPTET Tilt X Gain
U-TILT_OFFSET_TOL.           0.00100     :WPTET Tilt Offset Calibration Tolerance
U-NO_TILT_CAL_ROTATIONS.                 3 :Number of Rotations for Tilt Calibration
HAZI .DEG        0.00000                 :Hole Azimuth
U-STD_TOL_TILT.           0.01000        :Tilt Standard Deviation Tolerance
U-GUN_POS_TOL.DEG        5.00000         :Gun Position Tolerance
ROT_ANGLE_THRESHOLD.DEG        5.00000   :Rotation Stop Angle Tolerance
STOP_ROT_ANGLE.DEG       80.00000        :Rotation Stop Angle
WITN .                                   :Witness's Name
ENGI .                                   :Engineer's Name
COUN .        HARRIS                     :County or Rig Name
FN   .        WILDCAT                    :Field Name
WN   .        WPP TEST 2                 :Well Name
CN   .        SHELL INTERNATIONAL E P    :Company Name
CLAB .        County                     :County/Rig Label
SLAB .        State                      :State/Province Label
RUN  .          1                        :RUN NUMBER
PDAT .        GROUND LEVEL               :Permanent Datum
EPD  .                                   :Elevation of Permanent Datum above Mean Sea Level
LMF  .                                   :Logging Measured From (Name of Logging Elevation Reference)
APD  .                                   :Elevation of Depth Reference (LMF) above Permanent Datum
#-----------------------------------------------------------------------------
~CURVE INFORMATION
#MNEM.UNIT   API CODE                                  DESCRIPTION
#---- -----  --------                                  -----------------------
TIME .S                                                :TIME {F10.1}
FREQ_EMF_SL.HZ                                         :Electromagnetic Field Frequency {F13.4}
PH_SH_WPPCM_SL.DEG                                     :WPPCM Phase Shift {F13.4}
FREQ_EXC_REQ_SL.HZ                                     :Requested Exciter Frequency {F13.4}
RB_SL.DEG                                              :Relative Bearing {F13.4}
SDEV_SL.DEG                                            :Sonde Deviation {F13.4}
TILX_SL.DEG                                            :X-axis Tilt {F13.4}
TILY_SL.DEG                                            :Y-axis Tilt {F13.4}
ROTA_SL.DEG                                            :Motor Rotation Angle {F13.4}
MSPE_SL.RPM                                            :Motor Speed {F13.4}
#-----------------------------------------------------------------------------
# 
#     TIME    FREQ_EMF_SL  PH_SH_WPPCM_ FREQ_EXC_REQ    RB_SL       SDEV_SL      TILX_SL      TILY_SL      ROTA_SL      MSPE_SL
#                          SL           _SL
~A  
   12646.0    1014.6104       0.0000      50.8611     -73.3909       0.5907      -0.5660      -0.1688     181.7408       1.0226
   12647.0    1010.6368       0.0000      50.8611     -78.1484       1.0750      -1.0520      -0.2210     187.1104       1.0355
   12648.0     999.7871       0.0000      50.8611     -66.7673       1.1780      -1.0812      -0.4622     193.2295       1.0256
   12649.0     994.6661       0.0000      50.8611     -77.6498       0.9638      -0.8984      -0.2261     199.3124       1.0150
   12650.0     986.7744       0.0000      50.8611     -89.0771       0.9649      -0.9607      -0.0206     205.4034       1.0121
   12651.0     981.4029       0.0000      50.8611     -69.8099       1.2334      -1.1575      -0.4254     211.5055       1.0209
   12652.0     984.3902       0.0000      50.8611     -57.0365       0.9958      -0.8331      -0.5327     217.6163       1.0286
   12653.0     987.4026       0.0000      50.8611     -65.4931       1.2489      -1.1324      -0.5225     223.6941       1.0226
   12654.0     990.9465       0.0000      50.8611     -62.2751       1.0869      -0.9607      -0.5031     229.8041       1.0256
   12655.0     994.9064       0.0000      50.8611    -101.5905       1.0423      -0.9074       0.0141     235.9116       1.0226
   12656.0    1006.2976       0.0000      50.8611     -57.5597       1.0768      -0.9105      -0.5746     242.4346       1.0226
   12657.0    1023.3295       0.0000      50.8611     -70.7154       0.7803      -0.7387      -0.2394     248.5228       1.0226
   12658.0    1034.2776       0.0000      50.8611     -57.6705       1.5711      -1.3181      -0.8425     254.6138       1.0226
   12659.0    1051.8756       0.0000      50.8611     -50.3768       1.4953      -1.1505      -0.9529     260.7169       1.0226
   12660.0    1098.0028       0.0000      50.8611     -72.3957       1.1291      -1.0661      -0.3406     266.8172       1.0226
   12661.0    1171.9040       0.0000      50.8611     -51.0786       1.2482      -0.9717      -0.7822     272.9175       1.0226
   12662.0    1234.9256       0.0000      50.8611     -47.0324       1.5603      -1.1324      -1.0694     279.0205       1.0226
   12663.0    1268.5498       0.0000      50.8611     -52.3188       1.3234      -1.0159      -0.8322     285.1236       1.0226
   12664.0    1289.0768       0.0000      50.8611     -44.1476       1.3988      -0.9848      -0.9897     291.2388       1.0226
   12665.0    1325.0595       0.0000      50.8611     -41.7047       1.3109      -0.8773      -0.9723     297.3251       1.0150
   12666.0    1347.4433       0.0000      50.8611     -53.3307       1.4447      -1.1605      -0.8598     303.4419       1.0226
   12667.0    1374.5033       0.0000      50.8611     -44.0605       1.2855      -0.8944      -0.9232     309.5466       1.0226
   12668.0    1399.8817       0.0000      50.8611     -33.1576       1.6145      -0.8803      -1.3505     316.0518       1.0226
   12669.0    1429.1158       0.0000      50.8611     -49.7980       1.1172      -0.8392      -0.7086     322.1549       1.0226
   12670.0    1451.0936       0.0000      50.8611     -49.1217       0.5836      -0.4556      -0.3508     328.2332       1.0226
   12671.0    1481.1220       0.0000      50.8611     -51.1905       1.1509      -0.8864      -0.6973     334.3352       1.0226
   12672.0    1510.3159       0.0000      50.8611     -76.3705       0.7234      -0.5871      -0.1484     340.4338       1.0226
   12673.0    1533.3719       0.0000      50.8611    -106.6138       1.4532      -1.2348       0.3556     346.5499       1.0226
   12674.0    1554.0452       0.0000      50.8611     -81.6703       1.2167      -1.0621      -0.1903     352.6440       1.0226
   12675.0    1580.0563       0.0000      50.8611     -44.9146       1.3169      -0.8020      -0.9222     358.7426       1.0226
   12676.0    1595.0354       0.0000      50.8611     -67.2113       1.0690      -0.9446      -0.3671       4.8414       1.0226
   12677.0    1607.9715       0.0000      50.8611     -36.0148       0.8848      -0.4967      -0.7239      10.9576       1.0226
   12678.0    1626.5705       0.0000      50.8611     -59.3235       0.9992      -0.8241      -0.4673      17.0756       1.0226
   12679.0    1629.6860       0.0000      50.8611     -63.1421       0.9277      -0.7879      -0.3968      23.1760       1.0226
   12680.0    1639.6707       0.0000      50.8611     -55.2121       0.6330      -0.5228      -0.3549      29.6972       1.0226
   12681.0    1641.7622       0.0000      50.8611     -63.5432       1.2096      -1.0812      -0.5409      35.8004       1.0226
   12682.0    1632.4238       0.0000      50.8611     -39.9262       0.8406      -0.5972      -0.5511      41.9139       1.0226
   12683.0    1630.7341       0.0000      50.8611     -59.6846       0.8458      -0.7307      -0.4254      48.0188       1.0226
   12684.0    1632.4238       0.0000      50.8611     -62.8789       1.2312      -1.0952      -0.5593      54.1227       1.0197
   12685.0    1615.3598       0.0000      50.8611     -49.1571       0.7100      -0.5399      -0.4551      60.2242       1.0226
   12686.0    1593.7701       0.0000      50.8611     -89.2757       0.5913      -0.5911       0.0060      66.3246       1.0226
   12687.0    1591.7726       0.0000      50.8611     -43.0209       0.6205      -0.4134      -0.4285      72.4364       1.0226
   12688.0    1580.6921       0.0000      50.8611     -72.7668       0.6659      -0.6182      -0.1382      78.5526       1.0226
   12689.0    1562.5000       0.0000      50.8611     -75.2835       0.6913      -0.6644      -0.1729      84.6582       1.0226
   12690.0    1531.2921       0.0000      50.8611     -61.3393       0.9379      -0.8030      -0.4653      90.7586       1.0150
   12691.0    1515.3556       0.0000      50.8611     -62.8183       0.9523      -0.8432      -0.4397      96.8502       1.0197
   12692.0    1490.5414       0.0000      50.8611     -69.0693       0.9089      -0.8472      -0.3252     103.3371       1.0121
   12693.0    1462.6358       0.0000      50.8611     -66.2960       1.1320      -1.0008      -0.4499     109.4341       1.0226
   12694.0    1432.8302       0.0000      50.8611     -47.5300       0.9930      -0.7307      -0.6666     115.5345       1.0226
   12695.0    1405.7681       0.0000      50.8611     -56.1910       1.0248      -0.8512      -0.5706     121.6297       1.0226
   12696.0    1382.1328       0.0000      50.8611     -67.6873       1.1531      -1.0661      -0.4367     127.7284       1.0226
   12697.0    1358.1062       0.0000      50.8611     -56.4894       0.7714      -0.6393      -0.4295     133.8189       1.0226
   12698.0    1331.6761       0.0000      50.8611     -44.5127       1.0436      -0.7320      -0.7438     139.9055       1.0204
   12699.0    1301.4215       0.0000      50.8611     -74.1512       1.1104      -1.0440      -0.3201     146.0088       1.0226
   12700.0    1278.2763       0.0000      50.8611     -71.8695       1.0112      -0.9566      -0.3171     152.1137       1.0226
   12701.0    1225.4312       0.0000      50.8611     -63.6875       0.8209      -0.7297      -0.3477     158.2018       1.0197
   12702.0    1175.4562       0.0000      50.8611     -51.6721       1.1523      -0.8582      -0.7249     164.3051       1.0226
   12703.0    1105.9253       0.0000      50.8611     -58.8212       1.0766      -0.9205      -0.5552     170.4214       1.0150
   12704.0    1057.6796       0.0000      50.8611     -48.2280       1.0733      -0.7960      -0.7157     176.9276       1.0226
   12705.0    1030.2970       0.0000      50.8611     -42.4402       1.2962      -0.8361      -0.9702     183.0282       1.0226
   12706.0    1007.9939       0.0000      50.8611     -51.4273       1.1440      -0.8944      -0.7116     189.1314       1.0226
   12707.0     992.0989       0.0000      50.8611     -86.6053       0.9484      -0.9466      -0.0574     195.2239       1.0197
   12708.0     984.3003       0.0000      50.8611     -64.4603       0.9645      -0.8151      -0.3753     201.3155       1.0275
