~VERSION INFORMATION
VERS.           2.0   :CWLS Log ASCII Standard - VERSION 2.0
WRAP.           NO    :One Line per depth step
PROD.  Schlumberger   :LAS Producer
PROG.  DLIS to ASCII 19C2-270                          :LAS Program name and version
CREA.        2017/09/16 17:42                          :LAS Creation date {YYYY/MM/DD hh:mm}
DLIS_CREA.  2017-Sep-15 14:18                          :DLIS Creation date and time {YYYY-MMM-DD hh:mm}
SOURCE.     LPC_S2-1_AV.DLIS                           :DLIS File Name
FILE-ID.     PERFO_Perfo_WPGRT_028LTP                  :File Identification Number
#--------------------------------------------------
~WELL INFORMATION
#MNEM.UNIT      DATA             DESCRIPTION
#---- ------ --------------   -----------------------------
STRT .S        12646.0       :START TIME      
STOP .S        13087.0       :STOP TIME      
STEP .S            1.0       :STEP     
NULL .          -999.25      :NULL VALUE
COMP .        SHELL INTERNATIONAL E P                  :COMPANY
WELL .        WPP TEST 2                               :WELL
FLD  .        WILDCAT                                  :FIELD
LOC  .                                                 :LOCATION
CNTY .        HARRIS                                   :COUNTY
STAT .        TEXAS                                    :STATE
CTRY .                                                 :COUNTRY
API  .                                                 :API NUMBER
UWI  .                                                 :UNIQUE WELL ID
DATE .                                                 :LOG DATE
SRVC .        Schlumberger                             :SERVICE COMPANY
LATI .DEG                                              :LATITUDE
LONG .DEG                                              :LONGITUDE
GDAT .                                                 :GeoDetic Datum
#-----------------------------------------------------------------------------
~PARAMETER INFORMATION
#MNEM.UNIT    VALUE                      DESCRIPTION
#---- -----   --------------------       ------------------------
U-PHASE_B_COMP_PER_YT.                 0 :Phase B Comparator Period Yt
U-PHASE_A_COMP_PER_XT.                 0 :Phase A Comparator Period Xt
U-MAX_EXC_CUR_LIMIT.MA       240.00000   :Requested CM Current Limit
U-REQ_EXC_FQ.HZ              50          :Requested CM Frequency
U-TILT_Y_OFFSET.           0.19916       :WPTET Tilt Y Offset
U-TILT_Y_GAIN.           1.01796         :WPTET Tilt Y Gain
U-TILT_X_OFFSET.          -1.77103       :WPTET Tilt X Offset
U-TILT_X_GAIN.           1.00000         :WPTET Tilt X Gain
U-TILT_OFFSET_TOL.           0.00100     :WPTET Tilt Offset Calibration Tolerance
U-NO_TILT_CAL_ROTATIONS.                 3 :Number of Rotations for Tilt Calibration
HAZI .DEG        0.00000                 :Hole Azimuth
U-STD_TOL_TILT.           0.01000        :Tilt Standard Deviation Tolerance
U-GUN_POS_TOL.DEG        5.00000         :Gun Position Tolerance
ROT_ANGLE_THRESHOLD.DEG        5.00000   :Rotation Stop Angle Tolerance
STOP_ROT_ANGLE.DEG       80.00000        :Rotation Stop Angle
WITN .                                   :Witness's Name
ENGI .                                   :Engineer's Name
COUN .        HARRIS                     :County or Rig Name
FN   .        WILDCAT                    :Field Name
WN   .        WPP TEST 2                 :Well Name
CN   .        SHELL INTERNATIONAL E P    :Company Name
CLAB .        County                     :County/Rig Label
SLAB .        State                      :State/Province Label
RUN  .          1                        :RUN NUMBER
PDAT .        GROUND LEVEL               :Permanent Datum
EPD  .                                   :Elevation of Permanent Datum above Mean Sea Level
LMF  .                                   :Logging Measured From (Name of Logging Elevation Reference)
APD  .                                   :Elevation of Depth Reference (LMF) above Permanent Datum
#-----------------------------------------------------------------------------
~CURVE INFORMATION
#MNEM.UNIT   API CODE                                  DESCRIPTION
#---- -----  --------                                  -----------------------
TIME .S                                                :TIME {F10.1}
FREQ_EMF_SL.HZ                                         :Electromagnetic Field Frequency {F13.4}
PH_SH_WPPCM_SL.DEG                                     :WPPCM Phase Shift {F13.4}
FREQ_EXC_REQ_SL.HZ                                     :Requested Exciter Frequency {F13.4}
RB_SL.DEG                                              :Relative Bearing {F13.4}
SDEV_SL.DEG                                            :Sonde Deviation {F13.4}
TILX_SL.DEG                                            :X-axis Tilt {F13.4}
TILY_SL.DEG                                            :Y-axis Tilt {F13.4}
ROTA_SL.DEG                                            :Motor Rotation Angle {F13.4}
MSPE_SL.RPM                                            :Motor Speed {F13.4}
#-----------------------------------------------------------------------------
# 
#     TIME    FREQ_EMF_SL  PH_SH_WPPCM_ FREQ_EXC_REQ    RB_SL       SDEV_SL      TILX_SL      TILY_SL      ROTA_SL      MSPE_SL
#                          SL           _SL
~A  
# ...
   13024.0    1548.7335       0.0000      50.8611     -62.1538       1.0249      -0.9054      -0.4775     106.2392       1.0256
   13025.0    1518.9793       0.0000      50.8611     -61.4941       1.0766      -0.9456      -0.5143     112.3256       1.0150
   13026.0    1501.5229       0.0000      50.8611     -58.0636       0.9169      -0.7779      -0.4847     118.4138       1.0226
   13027.0    1475.4537       0.0000      50.8611     -63.0202       0.8484      -0.7558      -0.3845     124.5177       1.0226
   13028.0    1450.0610       0.0000      50.8611     -61.0860       0.9424      -0.8251      -0.4551     130.6104       1.0226
   13029.0    1430.7200       0.0000      50.8611     -63.9819       1.0217      -0.9165      -0.4479     136.7109       1.0226
   13030.0    1402.1882       0.0000      50.8611     -61.9484       1.0063      -0.8874      -0.4735     142.8097       1.0226
   13031.0    1372.0893       0.0000      50.8611     -64.5310       0.9483      -0.8472      -0.4111     149.3224       1.0226
   13032.0    1347.9760       0.0000      50.8611     -59.7229       0.9261      -0.8000      -0.4663     155.4362       1.0179
   13033.0    1320.5502       0.0000      50.8611     -61.9324       1.1172      -0.9858      -0.5256     161.5121       1.0226
   13034.0    1293.8208       0.0000      50.8611     -61.8331       1.0664      -0.9386      -0.5031     167.6164       1.0226
   13035.0    1249.7421       0.0000      50.8611     -60.8257       1.0631      -0.9275      -0.5184     173.7197       1.0226
   13036.0    1182.1629       0.0000      50.8611     -62.6770       1.0566      -0.9386      -0.4847     179.8202       1.0226
   13037.0    1136.4101       0.0000      50.8611     -56.7293       1.0186      -0.8512      -0.5552     185.9207       1.0226
   13038.0    1076.2025       0.0000      50.8611     -60.1831       1.1028      -0.9566      -0.5481     192.0240       1.0226
   13039.0    1031.0667       0.0000      50.8611     -62.3102       1.0573      -0.9346      -0.4888     198.1167       1.0226
   13040.0    1018.3593       0.0000      50.8611     -59.1711       1.0753      -0.9235      -0.5481     204.1960       1.0150
   13041.0    1001.8559       0.0000      50.8611     -63.4595       1.0622      -0.9496      -0.4735     210.2791       1.0226
   13042.0     989.5519       0.0000      50.8611     -63.7161       1.2459      -1.1093      -0.5338     216.3824       1.0150
   13043.0     980.0350       0.0000      50.8611     -56.1394       1.2049      -1.0008      -0.6707     222.8801       1.0226
   13044.0     973.9982       0.0000      50.8611     -59.4228       1.1080      -0.9496      -0.5624     228.9717       1.0197
   13045.0     975.8186       0.0000      50.8611     -61.7737       1.0864      -0.9566      -0.5143     235.0865       1.0226
   13046.0     971.0389       0.0000      50.8611     -55.7479       1.0547      -0.8723      -0.5890     241.2012       1.0150
   13047.0     971.5366       0.0000      50.8611     -59.5803       1.0036      -0.8653      -0.5072     247.3157       1.0226
   13048.0     978.6709       0.0000      50.8611     -61.3181       1.0705      -0.9346      -0.5113     253.4162       1.0226
   13049.0     987.1542       0.0000      50.8611     -59.5195       1.0217      -0.8803      -0.5184     259.5071       1.0226
   13050.0     994.9064       0.0000      50.8611     -56.7778       1.0342      -0.8653      -0.5665     265.6234       1.0226
   13051.0    1003.6773       0.0000      50.8611     -54.8775       1.0868      -0.8874      -0.6258     271.7041       1.0197
   13052.0    1022.2479       0.0000      50.8611     -46.3490       0.9578      -0.6936      -0.6595     277.7993       1.0226
   13053.0    1047.3025       0.0000      50.8611     -55.0873       1.0417      -0.8542      -0.5961     283.9023       1.0150
   13054.0    1099.5779       0.0000      50.8611     -56.8177       1.1587      -0.9566      -0.6401     290.0077       1.0150
   13055.0    1158.1799       0.0000      50.8611     -55.5772       1.1193      -0.9235      -0.6298     296.5139       1.0226
   13056.0    1232.1746       0.0000      50.8611     -55.3670       1.0115      -0.8291      -0.5736     302.6055       1.0197
   13057.0    1264.3989       0.0000      50.8611     -52.7338       1.0513      -0.8361      -0.6370     308.7092       1.0226
   13058.0    1287.7748       0.0000      50.8611     -54.3708       1.0425      -0.8472      -0.6074     314.8094       1.0226
   13059.0    1323.4681       0.0000      50.8611     -50.5085       1.0836      -0.8361      -0.6891     320.9069       1.0275
   13060.0    1346.7405       0.0000      50.8611     -50.9159       0.9648      -0.7488      -0.6074     327.0177       1.0150
   13061.0    1379.8982       0.0000      50.8611     -54.0610       0.9569      -0.7739      -0.5593     333.1305       1.0226
   13062.0    1399.3974       0.0000      50.8611     -50.8920       1.0827      -0.8361      -0.6850     339.2457       1.0226
   13063.0    1431.7537       0.0000      50.8611     -50.3564       1.0288      -0.7890      -0.6554     345.3443       1.0226
   13064.0    1451.0936       0.0000      50.8611     -55.0903       0.9509      -0.7779      -0.5440     351.4474       1.0226
   13065.0    1476.8638       0.0000      50.8611     -55.9935       0.9602      -0.7960      -0.5368     357.5521       1.0226
   13066.0    1506.5095       0.0000      50.8611     -58.2107       0.9626      -0.8181      -0.5072       3.6525       1.0226
   13067.0    1532.7826       0.0000      50.8611     -52.4952       0.9203      -0.7307      -0.5593      10.1484       1.0226
   13068.0    1559.6544       0.0000      50.8611     -56.0936       0.9946      -0.8251      -0.5552      16.2516       1.0226
   13069.0    1581.6620       0.0000      50.8611     -53.5582       0.9645      -0.7739      -0.5706      22.3520       1.0226
   13070.0    1594.3877       0.0000      50.8611     -51.4564       0.9585      -0.7488      -0.5961      28.4657       1.0226
   13071.0    1626.5705       0.0000      50.8611     -56.9344       0.9632      -0.8070      -0.5256      34.5820       1.0226
   13072.0    1628.6426       0.0000      50.8611     -53.9571       0.9226      -0.7448      -0.5440      40.6892       1.0197
   13073.0    1635.1744       0.0000      50.8611     -51.9624       0.8616      -0.6755      -0.5327      46.8009       1.0226
   13074.0    1644.5517       0.0000      50.8611     -53.5094       1.0352      -0.8291      -0.6145      52.0199       0.0006
   13075.0    1650.5282       0.0000      50.8611     -56.9149       0.9846      -0.8251      -0.5368      52.0199       0.0005
   13076.0    1647.7258       0.0000      50.8611     -55.0985       0.8863      -0.7267      -0.5072      52.0199       0.0005
   13077.0    1646.6628       0.0000      50.8611     -52.7751       0.9416      -0.7488      -0.5706      52.0199       0.0005
   13078.0    1648.7938       0.0000      50.8611     -58.9720       0.9699      -0.8321      -0.4959      52.0199       0.0005
   13079.0    1656.1727       0.0000      50.8611     -58.0251       0.8461      -0.7156      -0.4479      52.0199       0.0005
   13080.0    1649.4652       0.0000      50.8611     -56.1768       0.8769      -0.7267      -0.4888      52.0199       0.0005
   13081.0    1651.5962       0.0000      50.8611     -57.8086       0.9321      -0.7890      -0.4959      52.0199       0.0005
   13082.0    1653.3438       0.0000      50.8611     -55.9826       0.8936      -0.7418      -0.4959      52.0199       0.0005
   13083.0    1655.1097       0.0000      50.8611     -55.5843       0.9298      -0.7669      -0.5256      52.0199       0.0005
   13084.0    1647.7258       0.0000      50.8611     -54.7641       0.8806      -0.7197      -0.5072      52.0199       0.0005
   13085.0    1652.1321       0.0000      50.8611     -54.4720       0.9100      -0.7405      -0.5284      52.0199       0.0005
   13086.0    1656.1727       0.0000      50.8611     -55.3803       0.8768      -0.7197      -0.5000      52.0199       0.0005
