~VERSION INFORMATION
VERS.           2.0   :CWLS Log ASCII Standard - VERSION 2.0
WRAP.           NO    :One Line per depth step
PROD.  Schlumberger   :LAS Producer
PROG.  DLIS to ASCII 19C2-270                          :LAS Program name and version
CREA.        2017/09/16 17:42                          :LAS Creation date {YYYY/MM/DD hh:mm}
DLIS_CREA.  2017-Sep-15 19:54                          :DLIS Creation date and time {YYYY-MMM-DD hh:mm}
SOURCE.     LPC_S5-1_2B5.DLIS                          :DLIS File Name
FILE-ID.     PERFO_Perfo_WPGRT_064LTP                  :File Identification Number
#--------------------------------------------------
~WELL INFORMATION
#MNEM.UNIT      DATA             DESCRIPTION
#---- ------ --------------   -----------------------------
STRT .S         1886.0       :START TIME      
STOP .S         2307.0       :STOP TIME      
STEP .S            1.0       :STEP     
NULL .          -999.25      :NULL VALUE
COMP .        SHELL INTERNATIONAL E P                  :COMPANY
WELL .        WPP TEST 2                               :WELL
FLD  .        WILDCAT                                  :FIELD
LOC  .        NA                                       :LOCATION
CNTY .        HARRIS                                   :COUNTY
STAT .        TEXAS                                    :STATE
CTRY .                                                 :COUNTRY
API  .        NA                                       :API NUMBER
UWI  .                                                 :UNIQUE WELL ID
DATE .        15-Sep-2017                              :LOG DATE {DD-MMM-YYYY}
SRVC .        Schlumberger                             :SERVICE COMPANY
LATI .DEG                                              :LATITUDE
LONG .DEG                                              :LONGITUDE
GDAT .                                                 :GeoDetic Datum
SECT .        NA                                       :Section
RANG .        NA                                       :Range
TOWN .        NA                                       :Township
#-----------------------------------------------------------------------------
~PARAMETER INFORMATION
#MNEM.UNIT    VALUE                      DESCRIPTION
#---- -----   --------------------       ------------------------
U-PHASE_B_COMP_PER_YT.                 0 :Phase B Comparator Period Yt
U-PHASE_A_COMP_PER_XT.                 0 :Phase A Comparator Period Xt
U-MAX_EXC_CUR_LIMIT.MA       240.00000   :Requested CM Current Limit
U-REQ_EXC_FQ.HZ              50          :Requested CM Frequency
U-TILT_Y_OFFSET.           0.19916       :WPTET Tilt Y Offset
U-TILT_Y_GAIN.           1.01796         :WPTET Tilt Y Gain
U-TILT_X_OFFSET.          -1.77103       :WPTET Tilt X Offset
U-TILT_X_GAIN.           1.00000         :WPTET Tilt X Gain
U-TILT_OFFSET_TOL.           0.00100     :WPTET Tilt Offset Calibration Tolerance
U-NO_TILT_CAL_ROTATIONS.                 3 :Number of Rotations for Tilt Calibration
HAZI .DEG        0.00000                 :Hole Azimuth
U-STD_TOL_TILT.           0.01000        :Tilt Standard Deviation Tolerance
U-GUN_POS_TOL.DEG        5.00000         :Gun Position Tolerance
ROT_ANGLE_THRESHOLD.DEG        5.00000   :Rotation Stop Angle Tolerance
STOP_ROT_ANGLE.DEG        0.00000        :Rotation Stop Angle
WITN .        MR. DHRUA ARORA            :Witness's Name
ENGI .        MORRIS MOORE               :Engineer's Name
COUN .        HARRIS                     :County or Rig Name
FN   .        WILDCAT                    :Field Name
WN   .        WPP TEST 2                 :Well Name
CN   .        SHELL INTERNATIONAL E P    :Company Name
CLAB .        County                     :County/Rig Label
SLAB .        State                      :State/Province Label
RUN  .          1                        :RUN NUMBER
PDAT .        GROUND LEVEL               :Permanent Datum
EPD  .                                   :Elevation of Permanent Datum above Mean Sea Level
LMF  .          NA                       :Logging Measured From (Name of Logging Elevation Reference)
APD  .                                   :Elevation of Depth Reference (LMF) above Permanent Datum
#-----------------------------------------------------------------------------
~CURVE INFORMATION
#MNEM.UNIT   API CODE                                  DESCRIPTION
#---- -----  --------                                  -----------------------
TIME .S                                                :TIME {F10.1}
FREQ_EMF_SL.HZ                                         :Electromagnetic Field Frequency {F13.4}
PH_SH_WPPCM_SL.DEG                                     :WPPCM Phase Shift {F13.4}
FREQ_EXC_REQ_SL.HZ                                     :Requested Exciter Frequency {F13.4}
RB_SL.DEG                                              :Relative Bearing {F13.4}
SDEV_SL.DEG                                            :Sonde Deviation {F13.4}
TILX_SL.DEG                                            :X-axis Tilt {F13.4}
TILY_SL.DEG                                            :Y-axis Tilt {F13.4}
ROTA_SL.DEG                                            :Motor Rotation Angle {F13.4}
MSPE_SL.RPM                                            :Motor Speed {F13.4}
#-----------------------------------------------------------------------------
# 
#     TIME    FREQ_EMF_SL  PH_SH_WPPCM_ FREQ_EXC_REQ    RB_SL       SDEV_SL      TILX_SL      TILY_SL      ROTA_SL      MSPE_SL
#                          SL           _SL
~A  
# ...
    2138.0    1268.1175       0.0000      50.8611     140.4465       4.3442       2.7650       3.3475     175.7613       1.0226
    2139.0    1291.8748       0.0000      50.8611     147.4269       4.3540       2.3418       3.6666     181.8632       1.0226
    2140.0    1315.5715       0.0000      50.8611     152.8135       4.3837       2.0018       3.8981     187.9659       1.0226
    2141.0    1327.9951       0.0000      50.8611     161.2667       4.4857       1.4395       4.2471     194.0941       1.0226
    2142.0    1344.6027       0.0000      50.8611     167.3157       4.5873       1.0056       4.4734     200.5886       1.0149
    2143.0    1372.0490       0.0000      50.8611     171.6480       4.6476       0.6735       4.5960     206.7169       1.0255
    2144.0    1390.3112       0.0000      50.8611    -177.6377       4.5603      -0.1887       4.5552     212.8342       1.0226
    2145.0    1407.2276       0.0000      50.8611    -172.0983       4.7233      -0.6492       4.6778     218.9305       1.0198
    2146.0    1418.5844       0.0000      50.8611    -165.8310       4.9096      -1.2008       4.7596     225.0256       1.0226
    2147.0    1437.8834       0.0000      50.8611    -159.0195       5.1007      -1.8219       4.7619     231.1374       1.0198
    2148.0    1457.1531       0.0000      50.8611    -152.0030       4.9598      -2.3254       4.3778     237.2310       1.0226
    2149.0    1453.7819       0.0000      50.8611    -146.1955       5.1758      -2.8770       4.2989     243.3321       1.0255
    2150.0    1459.5768       0.0000      50.8611    -142.6965       5.3540      -3.2413       4.2551     249.4471       1.0226
    2151.0    1467.9019       0.0000      50.8611    -135.6712       5.4926      -3.8331       3.9252     255.5367       1.0149
    2152.0    1467.9019       0.0000      50.8611    -129.1164       5.5156      -4.2749       3.4754     261.6393       1.0255
    2153.0    1457.3645       0.0000      50.8611    -122.4201       5.5998      -4.7247       2.9986     267.7543       1.0226
    2154.0    1464.8438       0.0000      50.8611    -117.3315       5.6731      -5.0381       2.6006     274.2487       1.0226
    2155.0    1442.9971       0.0000      50.8611    -112.2479       5.8998      -5.4584       2.2298     280.3667       1.0305
    2156.0    1448.3585       0.0000      50.8611    -106.5065       5.8814      -5.6378       1.6683     286.4743       1.0255
    2157.0    1433.5932       0.0000      50.8611    -100.3742       5.8842      -5.7877       1.0578     292.5834       1.0226
    2158.0    1421.7947       0.0000      50.8611     -95.6181       6.1874      -6.1571       0.6052     298.6852       1.0226
    2159.0    1407.5635       0.0000      50.8611     -91.4096       6.0147      -6.0128       0.1473     304.7870       1.0226
    2160.0    1388.1117       0.0000      50.8611     -84.8298       6.1240      -6.0983      -0.5506     310.8888       1.0226
    2161.0    1354.7688       0.0000      50.8611     -78.9869       6.1452      -6.0315      -1.1720     316.9906       1.0226
    2162.0    1343.0373       0.0000      50.8611     -73.7088       6.1596      -5.9110      -1.7254     323.0924       1.0226
    2163.0    1343.0373       0.0000      50.8611     -69.4764       6.2388      -5.8414      -2.1833     329.1951       1.0226
    2164.0    1316.5553       0.0000      50.8611     -64.2638       6.1286      -5.5173      -2.6578     335.2969       1.0226
    2165.0    1298.2558       0.0000      50.8611     -56.9540       6.2867      -5.2655      -3.4237     341.3822       1.0149
    2166.0    1262.7979       0.0000      50.8611     -53.3233       6.2829      -5.0353      -3.7480     347.8684       1.0226
    2167.0    1237.8961       0.0000      50.8611     -48.5163       6.3233      -4.7326      -4.1839     353.9702       1.0226
    2168.0    1215.7871       0.0000      50.8611     -43.1066       6.2857      -4.2908      -4.5847     263.7618       1.0226
    2169.0    1195.6592       0.0000      50.8611     -40.9246       6.4142      -4.1969      -4.8410       6.1613       1.0226
    2170.0    1205.3658       0.0000      50.8611     -33.4971       6.1683      -3.3992      -5.1410      12.2430       1.0226
    2171.0    1161.5576       0.0000      50.8611     -29.0605       6.3022      -3.0564      -5.5061      18.3426       1.0226
    2172.0    1141.8081       0.0000      50.8611     -23.9519       6.1786      -2.5042      -5.6444      24.4320       1.0226
    2173.0    1126.5862       0.0000      50.8611     -17.5783       6.0345      -1.8191      -5.7515      30.5215       1.0255
    2174.0    1114.3027       0.0000      50.8611     -11.6561       5.9237      -1.1951      -5.8004      36.6365       1.0226
    2175.0    1100.0169       0.0000      50.8611      -6.4827       5.9232      -0.6678      -5.8851      42.7259       1.0226
    2176.0    1100.8135       0.0000      50.8611      -1.8388       5.7246      -0.1830      -5.7215      48.8197       1.0305
    2177.0    1080.3051       0.0000      50.8611       4.1689       5.6381       0.4087      -5.6231      54.9346       1.0305
    2178.0    1074.2378       0.0000      50.8611       8.7110       5.6948       0.8613      -5.6288      61.4385       1.0226
    2179.0    1068.2628       0.0000      50.8611      14.0383       5.5469       1.3433      -5.3806      67.5403       1.0226
    2180.0    1060.5204       0.0000      50.8611      19.5904       5.4519       1.8253      -5.1353      73.6421       1.0226
    2181.0    1062.7736       0.0000      50.8611      25.8301       5.2524       2.2858      -4.7264      79.7339       1.0226
    2182.0    1064.4800       0.0000      50.8611      31.4046       5.2044       2.7090      -4.4402      85.8465       1.0226
    2183.0    1064.5928       0.0000      50.8611      37.4002       5.0775       3.0812      -4.0313      91.9513       1.0198
    2184.0    1064.8726       0.0000      50.8611      43.6702       4.8463       3.3443      -3.5032      98.0166       1.0226
    2185.0    1081.7307       0.0000      50.8611      50.7081       4.7723       3.6916      -3.0201     104.1325       1.0226
    2186.0    1082.6238       0.0000      50.8611      56.0127       4.7983       3.9756      -2.6792     110.2320       1.0226
    2187.0    1089.3330       0.0000      50.8611      62.7985       4.5710       4.0639      -2.0877     116.3346       1.0226
    2188.0    1104.7369       0.0000      50.8611      70.0783       4.4829       4.2138      -1.5262     122.4331       1.0149
    2189.0    1116.2043       0.0000      50.8611      77.2560       4.4148       4.3049      -0.9728     128.5136       1.0226
    2190.0    1136.8896       0.0000      50.8611      86.8056       4.5020       4.4950      -0.2506     134.7238       1.0226
    2191.0    1153.1702       0.0000      50.8611      91.4635       4.1013       4.0984       0.1012     141.1223       1.0226
    2192.0    1173.8313       0.0000      50.8611      99.7980       4.2327       4.1708       0.7198     147.2374       1.0226
    2193.0    1185.8589       0.0000      50.8611     107.7603       4.2759       4.0718       1.3031     153.3393       1.0226
    2194.0    1206.2023       0.0000      50.8611     114.5764       4.2496       3.8631       1.7667     159.4420       1.0226
    2195.0    1225.5283       0.0000      50.8611     122.4883       4.1999       3.5417       2.2545     165.5462       1.0226
    2196.0    1240.2446       0.0000      50.8611     130.8996       4.1949       3.1695       2.7451     171.6612       1.0226
    2197.0    1266.4485       0.0000      50.8611     137.3709       4.2370       2.8668       3.1160     177.7631       1.0226
    2198.0    1277.9576       0.0000      50.8611     144.8783       4.3576       2.5053       3.5629     183.8650       1.0226
    2199.0    1300.9665       0.0000      50.8611     151.8442       4.4222       2.0850       3.8981     189.9799       1.0226
    2200.0    1324.6534       0.0000      50.8611     159.5853       4.4536       1.5521       4.1734     196.1081       1.0226
