~VERSION INFORMATION
VERS.           2.0   :CWLS Log ASCII Standard - VERSION 2.0
WRAP.           NO    :One Line per depth step
PROD.  Schlumberger   :LAS Producer
PROG.  DLIS to ASCII 19C2-270                          :LAS Program name and version
CREA.        2017/09/16 17:42                          :LAS Creation date {YYYY/MM/DD hh:mm}
DLIS_CREA.  2017-Sep-15 12:43                          :DLIS Creation date and time {YYYY-MMM-DD hh:mm}
SOURCE.     LPC_S1-1_BV.DLIS                           :DLIS File Name
FILE-ID.     PERFO_Perfo_WPGRT_021LTP                  :File Identification Number
#--------------------------------------------------
~WELL INFORMATION
#MNEM.UNIT      DATA             DESCRIPTION
#---- ------ --------------   -----------------------------
STRT .S         6992.0       :START TIME      
STOP .S         7825.0       :STOP TIME      
STEP .S            1.0       :STEP     
NULL .          -999.25      :NULL VALUE
COMP .        SHELL INTERNATIONAL E P                  :COMPANY
WELL .        WPP TEST 2                               :WELL
FLD  .        WILDCAT                                  :FIELD
LOC  .                                                 :LOCATION
CNTY .        HARRIS                                   :COUNTY
STAT .        TEXAS                                    :STATE
CTRY .                                                 :COUNTRY
API  .                                                 :API NUMBER
UWI  .                                                 :UNIQUE WELL ID
DATE .                                                 :LOG DATE
SRVC .        Schlumberger                             :SERVICE COMPANY
LATI .DEG                                              :LATITUDE
LONG .DEG                                              :LONGITUDE
GDAT .                                                 :GeoDetic Datum
#-----------------------------------------------------------------------------
~PARAMETER INFORMATION
#MNEM.UNIT    VALUE                      DESCRIPTION
#---- -----   --------------------       ------------------------
U-PHASE_B_COMP_PER_YT.                 0 :Phase B Comparator Period Yt
U-PHASE_A_COMP_PER_XT.                 0 :Phase A Comparator Period Xt
U-MAX_EXC_CUR_LIMIT.MA       240.00000   :Requested CM Current Limit
U-REQ_EXC_FQ.HZ              50          :Requested CM Frequency
U-TILT_Y_OFFSET.           0.19916       :WPTET Tilt Y Offset
U-TILT_Y_GAIN.           1.01796         :WPTET Tilt Y Gain
U-TILT_X_OFFSET.          -1.77103       :WPTET Tilt X Offset
U-TILT_X_GAIN.           1.00000         :WPTET Tilt X Gain
U-TILT_OFFSET_TOL.           0.00100     :WPTET Tilt Offset Calibration Tolerance
U-NO_TILT_CAL_ROTATIONS.                 3 :Number of Rotations for Tilt Calibration
HAZI .DEG        0.00000                 :Hole Azimuth
U-STD_TOL_TILT.           0.01000        :Tilt Standard Deviation Tolerance
U-GUN_POS_TOL.DEG        5.00000         :Gun Position Tolerance
ROT_ANGLE_THRESHOLD.DEG        5.00000   :Rotation Stop Angle Tolerance
STOP_ROT_ANGLE.DEG       80.00000        :Rotation Stop Angle
WITN .                                   :Witness's Name
ENGI .                                   :Engineer's Name
COUN .        HARRIS                     :County or Rig Name
FN   .        WILDCAT                    :Field Name
WN   .        WPP TEST 2                 :Well Name
CN   .        SHELL INTERNATIONAL E P    :Company Name
CLAB .        County                     :County/Rig Label
SLAB .        State                      :State/Province Label
RUN  .          1                        :RUN NUMBER
PDAT .        GROUND LEVEL               :Permanent Datum
EPD  .                                   :Elevation of Permanent Datum above Mean Sea Level
LMF  .                                   :Logging Measured From (Name of Logging Elevation Reference)
APD  .                                   :Elevation of Depth Reference (LMF) above Permanent Datum
#-----------------------------------------------------------------------------
~CURVE INFORMATION
#MNEM.UNIT   API CODE                                  DESCRIPTION
#---- -----  --------                                  -----------------------
TIME .S                                                :TIME {F10.1}
FREQ_EMF_SL.HZ                                         :Electromagnetic Field Frequency {F13.4}
PH_SH_WPPCM_SL.DEG                                     :WPPCM Phase Shift {F13.4}
FREQ_EXC_REQ_SL.HZ                                     :Requested Exciter Frequency {F13.4}
RB_SL.DEG                                              :Relative Bearing {F13.4}
SDEV_SL.DEG                                            :Sonde Deviation {F13.4}
TILX_SL.DEG                                            :X-axis Tilt {F13.4}
TILY_SL.DEG                                            :Y-axis Tilt {F13.4}
ROTA_SL.DEG                                            :Motor Rotation Angle {F13.4}
MSPE_SL.RPM                                            :Motor Speed {F13.4}
#-----------------------------------------------------------------------------
# 
#     TIME    FREQ_EMF_SL  PH_SH_WPPCM_ FREQ_EXC_REQ    RB_SL       SDEV_SL      TILX_SL      TILY_SL      ROTA_SL      MSPE_SL
#                          SL           _SL
~A  
# ...
    7748.0    1304.3543       0.0000      50.8611     -48.8542       1.1267      -0.8484      -0.7413     198.7500       1.0226
    7749.0    1316.7876       0.0000      50.8611     -50.6972       1.1055      -0.8556      -0.6992     204.8621       1.0226
    7750.0    1339.2858       0.0000      50.8611     -50.2377       1.1531      -0.8862      -0.7376     210.9670       1.0226
    7751.0    1357.4629       0.0000      50.8611     -51.5792       1.1329      -0.8874      -0.7041     217.0698       1.0226
    7752.0    1378.7578       0.0000      50.8611     -51.6291       1.1303      -0.8862      -0.7016     223.1595       1.0226
    7753.0    1395.0064       0.0000      50.8611     -51.9772       1.0692      -0.8424      -0.6583     229.2493       1.0223
    7754.0    1417.3351       0.0000      50.8611     -47.9180       0.9824      -0.7291      -0.6583     235.3508       1.0226
    7755.0    1426.3040       0.0000      50.8611     -47.5893       1.0403      -0.7681      -0.7016     241.8576       1.0226
    7756.0    1449.7422       0.0000      50.8611     -51.8709       1.0743      -0.8448      -0.6632     247.9595       1.0226
    7757.0    1464.7524       0.0000      50.8611     -51.9657       1.0726      -0.8448      -0.6607     254.0747       1.0226
    7758.0    1480.1699       0.0000      50.8611     -52.4242       1.0184      -0.8070      -0.6211     260.1641       1.0226
    7759.0    1486.6166       0.0000      50.8611     -51.4576       0.9291      -0.7267      -0.5789     266.2689       1.0226
    7760.0    1499.4900       0.0000      50.8611     -46.1624       1.0076      -0.7267      -0.6979     272.3679       1.0226
    7761.0    1515.1605       0.0000      50.8611     -46.1384       1.0624      -0.7657      -0.7364     278.4957       1.0226
    7762.0    1525.0193       0.0000      50.8611     -48.5063       0.8141      -0.6098      -0.5393     284.5856       1.0223
    7763.0    1531.7629       0.0000      50.8611     -55.0063       0.9361      -0.7669      -0.5368     290.6901       1.0226
    7764.0    1532.0639       0.0000      50.8611     -49.6958       0.9545      -0.7279      -0.6174     296.7949       1.0226
    7765.0    1541.8396       0.0000      50.8611     -50.0278       0.8975      -0.6877      -0.5765     302.8937       1.0226
    7766.0    1535.1071       0.0000      50.8611     -50.1715       0.8401      -0.6452      -0.5381     308.9955       1.0226
    7767.0    1525.2169       0.0000      50.8611     -51.6200       0.9286      -0.7279      -0.5765     315.4779       1.0124
    7768.0    1525.4163       0.0000      50.8611     -51.1990       0.9811      -0.7644      -0.6149     321.5794       1.0226
    7769.0    1518.5304       0.0000      50.8611     -53.7989       0.7074      -0.5708      -0.4178     327.6944       1.0226
    7770.0    1508.6585       0.0000      50.8611     -55.5634       0.7366      -0.6074      -0.4166     333.7962       1.0226
    7771.0    1499.2965       0.0000      50.8611     -52.1553       0.8711      -0.6877      -0.5344     339.8980       1.0226
    7772.0    1493.0253       0.0000      50.8611     -58.5998       0.9417      -0.8034      -0.4910     346.0006       1.0223
    7773.0    1483.3861       0.0000      50.8611     -62.8826       0.8191      -0.7291      -0.3733     352.1037       1.0124
    7774.0    1470.8808       0.0000      50.8611     -63.9787       0.7656      -0.6877      -0.3361     358.2081       1.0226
    7775.0    1449.9223       0.0000      50.8611     -58.4132       0.9446      -0.8046      -0.4947       4.3227       1.0229
    7776.0    1440.9186       0.0000      50.8611     -65.1434       0.8881      -0.8058      -0.3733      10.4125       1.0223
    7777.0    1429.2032       0.0000      50.8611     -66.1897       0.9247      -0.8460      -0.3733      16.5023       1.0327
    7778.0    1409.1531       0.0000      50.8611     -62.9557       0.8186      -0.7291      -0.3720      22.6169       1.0226
    7779.0    1397.9463       0.0000      50.8611     -62.7272       0.9066      -0.8058      -0.4154      29.1237       1.0226
    7780.0    1376.0595       0.0000      50.8611     -71.6751       0.9349      -0.8874      -0.2940      35.2387       1.0226
    7781.0    1360.0888       0.0000      50.8611     -67.5353       0.8760      -0.8094      -0.3348      41.3537       1.0226
    7782.0    1342.1512       0.0000      50.8611     -61.7752       0.8705      -0.7669      -0.4117      47.4555       1.0226
    7783.0    1326.5759       0.0000      50.8611     -69.4228       0.9491      -0.8886      -0.3336      53.5573       1.0226
    7784.0    1311.6540       0.0000      50.8611     -70.8978       1.0203      -0.9641      -0.3336      59.6628       1.0127
    7785.0    1285.7763       0.0000      50.8611     -59.3727       1.0395      -0.8934      -0.5282      65.7526       1.0223
    7786.0    1278.6195       0.0000      50.8611     -75.9046       1.0733      -1.0396      -0.2592      71.8418       1.0226
    7787.0    1246.8755       0.0000      50.8611     -64.9457       0.9809      -0.8886      -0.4154      77.9435       1.0226
    7788.0    1210.3233       0.0000      50.8611     -67.1849       0.9627      -0.8874      -0.3733      84.0453       1.0226
    7789.0    1166.3373       0.0000      50.8611     -60.9797       1.0176      -0.8898      -0.4935      90.1471       1.0226
    7790.0    1136.2382       0.0000      50.8611     -65.5270       1.1048      -1.0054      -0.4575      96.2489       1.0226
    7791.0    1114.2498       0.0000      50.8611     -62.8967       1.0831      -0.9641      -0.4935     102.7557       1.0226
    7792.0    1090.1671       0.0000      50.8611     -64.8747       1.0689      -0.9677      -0.4538     108.8575       1.0226
    7793.0    1068.7259       0.0000      50.8611     -61.9242       1.0540      -0.9299      -0.4959     114.9470       1.0223
    7794.0    1058.8278       0.0000      50.8611     -64.6206       1.1573      -1.0456      -0.4959     121.0488       1.0226
    7795.0    1050.8215       0.0000      50.8611     -65.0079       0.9804      -0.8886      -0.4142     127.1506       1.0226
    7796.0    1041.4368       0.0000      50.8611     -61.2119       1.1972      -1.0492      -0.5765     133.2554       1.0226
    7797.0    1045.0918       0.0000      50.8611     -61.0365       1.1067      -0.9683      -0.5359     139.3573       1.0226
    7798.0    1057.4265       0.0000      50.8611     -53.2221       0.9662      -0.7741      -0.5777     145.4592       1.0226
    7799.0    1074.8699       0.0000      50.8611     -56.3844       1.1153      -0.9287      -0.6174     151.5611       1.0226
    7800.0    1086.5960       0.0000      50.8611     -61.8966       1.2296      -1.0846      -0.5789     157.6765       1.0330
    7801.0    1105.5947       0.0000      50.8611     -60.2583       1.1622      -1.0091      -0.5765     163.7544       1.0223
    7802.0    1135.7949       0.0000      50.8611     -61.7143       1.0564      -0.9299      -0.5008     169.8437       1.0226
    7803.0    1169.8088       0.0000      50.8611     -57.7726       1.2346      -1.0444      -0.6583     176.3392       1.0229
    7804.0    1206.0464       0.0000      50.8611     -54.6705       1.1384      -0.9287      -0.6583     182.4563       1.0226
    7805.0    1255.1810       0.0000      50.8611     -53.4157       1.1066      -0.8886      -0.6595     188.5582       1.0330
    7806.0    1282.7268       0.0000      50.8611     -53.1083       1.1629      -0.9299      -0.6979     194.6732       0.0321
    7807.0    1285.3502       0.0000      50.8611     -50.4474       1.1019      -0.8496      -0.7016     194.7098       0.0005
    7808.0    1287.9168       0.0000      50.8611     -48.9518       1.1251      -0.8484      -0.7388     194.7098       0.0005
    7809.0    1292.3142       0.0000      50.8611     -54.6116       1.1389      -0.9284      -0.6595     194.7098       0.0005
    7810.0    1292.1561       0.0000      50.8611     -53.0769       1.1619      -0.9287      -0.6979     194.7098       0.0005
