~VERSION INFORMATION
VERS.           2.0   :CWLS Log ASCII Standard - VERSION 2.0
WRAP.           NO    :One Line per depth step
PROD.  Schlumberger   :LAS Producer
PROG.  DLIS to ASCII 19C2-270                          :LAS Program name and version
CREA.        2017/09/16 17:42                          :LAS Creation date {YYYY/MM/DD hh:mm}
DLIS_CREA.  2017-Sep-15 20:01                          :DLIS Creation date and time {YYYY-MMM-DD hh:mm}
SOURCE.     LPC_S5-1_2BV.DLIS                          :DLIS File Name
FILE-ID.     PERFO_Perfo_WPGRT_065LTP                  :File Identification Number
#--------------------------------------------------
~WELL INFORMATION
#MNEM.UNIT      DATA             DESCRIPTION
#---- ------ --------------   -----------------------------
STRT .S         2351.0       :START TIME      
STOP .S         2776.0       :STOP TIME      
STEP .S            1.0       :STEP     
NULL .          -999.25      :NULL VALUE
COMP .        SHELL INTERNATIONAL E P                  :COMPANY
WELL .        WPP TEST 2                               :WELL
FLD  .        WILDCAT                                  :FIELD
LOC  .        NA                                       :LOCATION
CNTY .        HARRIS                                   :COUNTY
STAT .        TEXAS                                    :STATE
CTRY .                                                 :COUNTRY
API  .        NA                                       :API NUMBER
UWI  .                                                 :UNIQUE WELL ID
DATE .        15-Sep-2017                              :LOG DATE {DD-MMM-YYYY}
SRVC .        Schlumberger                             :SERVICE COMPANY
LATI .DEG                                              :LATITUDE
LONG .DEG                                              :LONGITUDE
GDAT .                                                 :GeoDetic Datum
SECT .        NA                                       :Section
RANG .        NA                                       :Range
TOWN .        NA                                       :Township
#-----------------------------------------------------------------------------
~PARAMETER INFORMATION
#MNEM.UNIT    VALUE                      DESCRIPTION
#---- -----   --------------------       ------------------------
U-PHASE_B_COMP_PER_YT.                 0 :Phase B Comparator Period Yt
U-PHASE_A_COMP_PER_XT.                 0 :Phase A Comparator Period Xt
U-MAX_EXC_CUR_LIMIT.MA       240.00000   :Requested CM Current Limit
U-REQ_EXC_FQ.HZ              50          :Requested CM Frequency
U-TILT_Y_OFFSET.           0.19916       :WPTET Tilt Y Offset
U-TILT_Y_GAIN.           1.01796         :WPTET Tilt Y Gain
U-TILT_X_OFFSET.          -1.77103       :WPTET Tilt X Offset
U-TILT_X_GAIN.           1.00000         :WPTET Tilt X Gain
U-TILT_OFFSET_TOL.           0.00100     :WPTET Tilt Offset Calibration Tolerance
U-NO_TILT_CAL_ROTATIONS.                 3 :Number of Rotations for Tilt Calibration
HAZI .DEG        0.00000                 :Hole Azimuth
U-STD_TOL_TILT.           0.01000        :Tilt Standard Deviation Tolerance
U-GUN_POS_TOL.DEG        5.00000         :Gun Position Tolerance
ROT_ANGLE_THRESHOLD.DEG        5.00000   :Rotation Stop Angle Tolerance
STOP_ROT_ANGLE.DEG        0.00000        :Rotation Stop Angle
WITN .        MR. DHRUA ARORA            :Witness's Name
ENGI .        MORRIS MOORE               :Engineer's Name
COUN .        HARRIS                     :County or Rig Name
FN   .        WILDCAT                    :Field Name
WN   .        WPP TEST 2                 :Well Name
CN   .        SHELL INTERNATIONAL E P    :Company Name
CLAB .        County                     :County/Rig Label
SLAB .        State                      :State/Province Label
RUN  .          1                        :RUN NUMBER
PDAT .        GROUND LEVEL               :Permanent Datum
EPD  .                                   :Elevation of Permanent Datum above Mean Sea Level
LMF  .          NA                       :Logging Measured From (Name of Logging Elevation Reference)
APD  .                                   :Elevation of Depth Reference (LMF) above Permanent Datum
#-----------------------------------------------------------------------------
~CURVE INFORMATION
#MNEM.UNIT   API CODE                                  DESCRIPTION
#---- -----  --------                                  -----------------------
TIME .S                                                :TIME {F10.1}
FREQ_EMF_SL.HZ                                         :Electromagnetic Field Frequency {F13.4}
PH_SH_WPPCM_SL.DEG                                     :WPPCM Phase Shift {F13.4}
FREQ_EXC_REQ_SL.HZ                                     :Requested Exciter Frequency {F13.4}
RB_SL.DEG                                              :Relative Bearing {F13.4}
SDEV_SL.DEG                                            :Sonde Deviation {F13.4}
TILX_SL.DEG                                            :X-axis Tilt {F13.4}
TILY_SL.DEG                                            :Y-axis Tilt {F13.4}
ROTA_SL.DEG                                            :Motor Rotation Angle {F13.4}
MSPE_SL.RPM                                            :Motor Speed {F13.4}
#-----------------------------------------------------------------------------
# 
#     TIME    FREQ_EMF_SL  PH_SH_WPPCM_ FREQ_EXC_REQ    RB_SL       SDEV_SL      TILX_SL      TILY_SL      ROTA_SL      MSPE_SL
#                          SL           _SL
~A  
# ...
    2414.0    1374.3223       0.0000      50.8611     -52.8508       1.2955      -1.0326      -0.7822     325.0952       1.0226
    2415.0    1372.2637       0.0000      50.8611     -68.3620       1.0988      -0.9523      -0.4261     331.1978       1.0292
    2416.0    1349.4618       0.0000      50.8611     -53.0540       1.1918      -0.9523      -0.7161     337.3046       1.0267
    2417.0    1307.4931       0.0000      50.8611     -48.0035       1.2934      -0.9616      -0.8639     343.4022       1.0226
    2418.0    1293.9761       0.0000      50.8611     -43.9351       1.1645      -0.8070      -0.8388     349.5040       1.0226
    2419.0    1274.6643       0.0000      50.8611     -45.6630       1.1942      -0.8533      -0.8325     355.6070       1.0226
    2420.0    1256.9646       0.0000      50.8611     -47.8651       1.0640      -0.7883      -0.7099       1.7088       1.0226
    2421.0    1236.2293       0.0000      50.8611     -48.3707       1.1276      -0.8439      -0.7475       7.8106       1.0226
    2422.0    1222.3353       0.0000      50.8611     -41.1650       1.1890      -0.7823      -0.8953      13.9002       1.0226
    2423.0    1197.5268       0.0000      50.8611     -42.8704       1.0543      -0.7174      -0.7726      20.0008       1.0226
    2424.0    1183.1381       0.0000      50.8611     -40.8772       1.0570      -0.6926      -0.7978      26.2592       1.0226
    2425.0    1161.0082       0.0000      50.8611     -43.6162       1.0686      -0.7360      -0.7726      32.5982       1.0226
    2426.0    1146.5908       0.0000      50.8611     -40.7412       1.2631      -0.8257      -0.9552      38.7150       1.0226
    2427.0    1128.4816       0.0000      50.8611     -37.7770       0.9896      -0.6062      -0.7822      44.8168       1.0226
    2428.0    1120.4662       0.0000      50.8611     -24.1030       0.8657      -0.3587      -0.7665      50.9186       1.0226
    2429.0    1107.6917       0.0000      50.8611     -41.5339       0.9146      -0.6062      -0.6847      57.0204       1.0226
    2430.0    1096.6553       0.0000      50.8611     -44.6439       0.9083      -0.6371      -0.6470      63.1223       1.0226
    2431.0    1091.5583       0.0000      50.8611     -43.6099       0.8335      -0.5754      -0.6029      69.2240       1.0226
    2432.0    1080.7067       0.0000      50.8611     -47.3127       0.7975      -0.5875      -0.5368      75.3270       1.0226
    2433.0    1079.8236       0.0000      50.8611     -46.9327       0.8308      -0.6095      -0.5620      81.4288       1.0226
    2434.0    1076.5171       0.0000      50.8611     -48.5349       0.7376      -0.5506      -0.4898      87.5306       1.0226
    2435.0    1077.6535       0.0000      50.8611     -38.4262       0.7173      -0.4455      -0.5620      93.6324       1.0226
    2436.0    1075.2679       0.0000      50.8611     -50.4372       0.7546      -0.5814      -0.4802      99.8895       1.0226
    2437.0    1076.3802       0.0000      50.8611     -46.7932       0.6875      -0.5011      -0.4707     106.2285       1.0226
    2438.0    1094.1607       0.0000      50.8611     -57.2793       0.6910      -0.5814      -0.3733     112.3303       1.0226
    2439.0    1094.5567       0.0000      50.8611     -56.7460       0.7321      -0.6123      -0.3985     118.4321       1.0226
    2440.0    1106.0919       0.0000      50.8611     -60.1551       0.6992      -0.6062      -0.3481     124.5235       1.0226
    2441.0    1121.6882       0.0000      50.8611     -57.2786       0.6436      -0.5413      -0.3481     130.6253       1.0226
    2442.0    1129.4172       0.0000      50.8611     -63.7596       0.7128      -0.6387      -0.3150     136.7272       1.0226
    2443.0    1145.8716       0.0000      50.8611     -58.1686       0.8040      -0.6804      -0.4203     142.8433       1.0226
    2444.0    1158.2244       0.0000      50.8611     -63.5559       0.6850      -0.6123      -0.3010     148.9452       1.0226
    2445.0    1174.8931       0.0000      50.8611     -62.6795       0.7462      -0.6618      -0.3419     155.0471       1.0226
    2446.0    1194.5397       0.0000      50.8611     -67.6510       0.7829      -0.7174      -0.2948     161.1622       1.0226
    2447.0    1208.9165       0.0000      50.8611     -72.0707       0.8555      -0.8131      -0.2601     167.2778       1.0226
    2448.0    1231.3923       0.0000      50.8611     -74.7470       0.8553      -0.8164      -0.2221     173.3675       1.0226
    2449.0    1251.4573       0.0000      50.8611     -72.1707       0.8488      -0.8070      -0.2601     179.8696       1.0185
    2450.0    1264.6134       0.0000      50.8611     -79.9424       0.8293      -0.8164      -0.1436     185.9778       1.0292
    2451.0    1287.7748       0.0000      50.8611     -78.9248       0.9894      -0.9677      -0.1907     192.0947       1.0226
    2452.0    1307.8578       0.0000      50.8611     -66.9431       0.9207      -0.8439      -0.3514     198.2097       1.0226
    2453.0    1328.5793       0.0000      50.8611     -71.9616       0.9430      -0.8967      -0.2915     204.2993       1.0226
    2454.0    1348.3836       0.0000      50.8611     -74.1656       1.0361      -0.9969      -0.2797     210.4142       1.0226
    2455.0    1365.7033       0.0000      50.8611     -74.6064       1.0009      -0.9644      -0.2601     216.5292       1.0226
    2456.0    1387.4757       0.0000      50.8611     -89.6976       0.9974      -0.9770       0.0014     222.6323       1.0226
    2457.0    1401.3017       0.0000      50.8611     -69.4255       1.0345      -0.9677      -0.3638     228.7330       1.0226
    2458.0    1421.5580       0.0000      50.8611     -69.6124       1.0732      -1.0046      -0.3671     234.8349       1.0185
    2459.0    1434.2741       0.0000      50.8611     -69.0022       1.2744      -1.1900      -0.4551     240.9275       1.0226
    2460.0    1438.3412       0.0000      50.8611     -66.0631       1.2618      -1.1531      -0.5116     247.0282       1.0226
    2461.0    1445.6193       0.0000      50.8611     -64.1795       1.1987      -1.0789      -0.5211     253.5481       1.0226
    2462.0    1455.3028       0.0000      50.8611     -67.1698       1.1926      -1.0975      -0.4612     259.6499       1.0226
    2463.0    1450.8917       0.0000      50.8611     -67.3984       1.2492      -1.1531      -0.4802     265.7393       1.0226
    2464.0    1449.0535       0.0000      50.8611     -65.1295       1.2776      -1.1592      -0.5368     271.8412       1.0226
    2465.0    1453.0181       0.0000      50.8611     -66.4475       1.3192      -1.2087      -0.5273     277.9580       1.0226
    2466.0    1456.2147       0.0000      50.8611     -57.7500       1.1753      -0.9953      -0.6248     284.0729       1.0226
    2467.0    1453.2049       0.0000      50.8611     -58.7814       1.2725      -1.0882      -0.6595     290.1747       1.0226
    2468.0    1444.9286       0.0000      50.8611     -61.6095       1.3350      -1.1746      -0.6343     296.2777       1.0226
    2469.0    1435.9376       0.0000      50.8611     -55.1053       1.3946      -1.1438      -0.7978     302.3926       1.0226
    2470.0    1421.8121       0.0000      50.8611     -59.0770       1.3450      -1.1531      -0.6909     308.4944       1.0226
    2471.0    1414.7384       0.0000      50.8611     -57.3985       1.3322      -1.1223      -0.7161     314.5962       1.0226
    2472.0    1403.4431       0.0000      50.8611     -55.1148       1.2964      -1.0634      -0.7413     320.6980       1.0226
    2473.0    1380.9861       0.0000      50.8611     -51.9581       1.2715      -1.0018      -0.7822     327.2047       1.0226
    2474.0    1360.6264       0.0000      50.8611     -50.7820       1.3214      -1.0172      -0.8354     333.3077       1.0226
    2475.0    1337.1343       0.0000      50.8611     -47.6366       1.3344      -0.9864      -0.8986     339.4083       1.0226
    2476.0    1330.1248       0.0000      50.8611     -49.6667       1.4945      -1.1410      -0.9647     345.4997       1.0226
