~VERSION INFORMATION
VERS.           2.0   :CWLS Log ASCII Standard - VERSION 2.0
WRAP.           NO    :One Line per depth step
PROD.  Schlumberger   :LAS Producer
PROG.  DLIS to ASCII 19C2-270                          :LAS Program name and version
CREA.        2017/09/16 17:42                          :LAS Creation date {YYYY/MM/DD hh:mm}
DLIS_CREA.  2017-Sep-15 12:43                          :DLIS Creation date and time {YYYY-MMM-DD hh:mm}
SOURCE.     LPC_S1-1_BV.DLIS                           :DLIS File Name
FILE-ID.     PERFO_Perfo_WPGRT_021LTP                  :File Identification Number
#--------------------------------------------------
~WELL INFORMATION
#MNEM.UNIT      DATA             DESCRIPTION
#---- ------ --------------   -----------------------------
STRT .S         6992.0       :START TIME      
STOP .S         7825.0       :STOP TIME      
STEP .S            1.0       :STEP     
NULL .          -999.25      :NULL VALUE
COMP .        SHELL INTERNATIONAL E P                  :COMPANY
WELL .        WPP TEST 2                               :WELL
FLD  .        WILDCAT                                  :FIELD
LOC  .                                                 :LOCATION
CNTY .        HARRIS                                   :COUNTY
STAT .        TEXAS                                    :STATE
CTRY .                                                 :COUNTRY
API  .                                                 :API NUMBER
UWI  .                                                 :UNIQUE WELL ID
DATE .                                                 :LOG DATE
SRVC .        Schlumberger                             :SERVICE COMPANY
LATI .DEG                                              :LATITUDE
LONG .DEG                                              :LONGITUDE
GDAT .                                                 :GeoDetic Datum
#-----------------------------------------------------------------------------
~PARAMETER INFORMATION
#MNEM.UNIT    VALUE                      DESCRIPTION
#---- -----   --------------------       ------------------------
U-PHASE_B_COMP_PER_YT.                 0 :Phase B Comparator Period Yt
U-PHASE_A_COMP_PER_XT.                 0 :Phase A Comparator Period Xt
U-MAX_EXC_CUR_LIMIT.MA       240.00000   :Requested CM Current Limit
U-REQ_EXC_FQ.HZ              50          :Requested CM Frequency
U-TILT_Y_OFFSET.           0.19916       :WPTET Tilt Y Offset
U-TILT_Y_GAIN.           1.01796         :WPTET Tilt Y Gain
U-TILT_X_OFFSET.          -1.77103       :WPTET Tilt X Offset
U-TILT_X_GAIN.           1.00000         :WPTET Tilt X Gain
U-TILT_OFFSET_TOL.           0.00100     :WPTET Tilt Offset Calibration Tolerance
U-NO_TILT_CAL_ROTATIONS.                 3 :Number of Rotations for Tilt Calibration
HAZI .DEG        0.00000                 :Hole Azimuth
U-STD_TOL_TILT.           0.01000        :Tilt Standard Deviation Tolerance
U-GUN_POS_TOL.DEG        5.00000         :Gun Position Tolerance
ROT_ANGLE_THRESHOLD.DEG        5.00000   :Rotation Stop Angle Tolerance
STOP_ROT_ANGLE.DEG       80.00000        :Rotation Stop Angle
WITN .                                   :Witness's Name
ENGI .                                   :Engineer's Name
COUN .        HARRIS                     :County or Rig Name
FN   .        WILDCAT                    :Field Name
WN   .        WPP TEST 2                 :Well Name
CN   .        SHELL INTERNATIONAL E P    :Company Name
CLAB .        County                     :County/Rig Label
SLAB .        State                      :State/Province Label
RUN  .          1                        :RUN NUMBER
PDAT .        GROUND LEVEL               :Permanent Datum
EPD  .                                   :Elevation of Permanent Datum above Mean Sea Level
LMF  .                                   :Logging Measured From (Name of Logging Elevation Reference)
APD  .                                   :Elevation of Depth Reference (LMF) above Permanent Datum
#-----------------------------------------------------------------------------
~CURVE INFORMATION
#MNEM.UNIT   API CODE                                  DESCRIPTION
#---- -----  --------                                  -----------------------
TIME .S                                                :TIME {F10.1}
FREQ_EMF_SL.HZ                                         :Electromagnetic Field Frequency {F13.4}
PH_SH_WPPCM_SL.DEG                                     :WPPCM Phase Shift {F13.4}
FREQ_EXC_REQ_SL.HZ                                     :Requested Exciter Frequency {F13.4}
RB_SL.DEG                                              :Relative Bearing {F13.4}
SDEV_SL.DEG                                            :Sonde Deviation {F13.4}
TILX_SL.DEG                                            :X-axis Tilt {F13.4}
TILY_SL.DEG                                            :Y-axis Tilt {F13.4}
ROTA_SL.DEG                                            :Motor Rotation Angle {F13.4}
MSPE_SL.RPM                                            :Motor Speed {F13.4}
#-----------------------------------------------------------------------------
# 
#     TIME    FREQ_EMF_SL  PH_SH_WPPCM_ FREQ_EXC_REQ    RB_SL       SDEV_SL      TILX_SL      TILY_SL      ROTA_SL      MSPE_SL
#                          SL           _SL
~A  
# ...
    7370.0    1132.3561       0.0000      50.8611     -65.0164       0.9777      -0.8862      -0.4129      69.4133       1.0226
    7371.0    1114.3027       0.0000      50.8611     -68.6913       1.0349      -0.9641      -0.3757      75.5151       1.0226
    7372.0    1095.3130       0.0000      50.8611     -59.8825       1.0723      -0.9275      -0.5381      81.6169       1.0226
    7373.0    1080.3705       0.0000      50.8611     -63.7146       1.2096      -1.0846      -0.5356      87.7191       1.0330
    7374.0    1067.0550       0.0000      50.8611     -65.4713       1.1055      -1.0054      -0.4587      93.8212       1.0226
    7375.0    1055.7909       0.0000      50.8611     -66.4191       1.1436      -1.0480      -0.4575      99.9391       1.0226
    7376.0    1055.6013       0.0000      50.8611     -63.6898       1.2140      -1.0882      -0.5381     106.0380       1.0226
    7377.0    1055.7433       0.0000      50.8611     -55.8085       0.9024      -0.7472      -0.5058     112.1529       1.0124
    7378.0    1063.7292       0.0000      50.8611     -60.0256       1.1593      -1.0042      -0.5789     118.2423       1.0226
    7379.0    1081.7807       0.0000      50.8611     -61.0745       1.1946      -1.0456      -0.5777     124.3572       1.0226
    7380.0    1103.6517       0.0000      50.8611     -60.0739       1.3791      -1.1942      -0.6893     130.8551       1.0327
    7381.0    1124.7854       0.0000      50.8611     -56.8714       1.2022      -1.0067      -0.6570     136.9450       1.0226
    7382.0    1148.7290       0.0000      50.8611     -57.5440       1.1456      -0.9665      -0.6149     143.0626       1.0229
    7383.0    1185.8286       0.0000      50.8611     -56.2985       1.1149      -0.9275      -0.6186     149.1750       1.0226
    7384.0    1241.8793       0.0000      50.8611     -55.0275       1.0815      -0.8862      -0.6198     155.2769       1.0226
    7385.0    1264.4098       0.0000      50.8611     -55.7870       1.3117      -1.0846      -0.7376     161.3795       1.0229
    7386.0    1282.9349       0.0000      50.8611     -63.8091       1.0364      -0.9299      -0.4575     167.4814       1.0226
    7387.0    1297.4952       0.0000      50.8611     -55.0804       1.0807      -0.8862      -0.6186     173.5710       1.0226
    7388.0    1321.8132       0.0000      50.8611     -51.2733       1.2354      -0.9629      -0.7736     179.6635       1.0226
    7389.0    1344.1773       0.0000      50.8611     -63.4036       1.3003      -1.1625      -0.5814     185.7501       1.0226
    7390.0    1357.1497       0.0000      50.8611     -56.2109       1.1146      -0.9263      -0.6198     191.8396       1.0226
    7391.0    1375.8979       0.0000      50.8611     -54.7513       1.0813      -0.8825      -0.6235     197.9415       1.0226
    7392.0    1392.3268       0.0000      50.8611     -44.3804       0.9295      -0.6500      -0.6644     204.4647       1.0124
    7393.0    1414.5683       0.0000      50.8611     -49.0065       1.1288      -0.8520      -0.7400     210.5804       1.0226
    7394.0    1429.1158       0.0000      50.8611     -44.7317       1.2652      -0.8898      -0.8987     216.6823       1.0226
    7395.0    1446.7593       0.0000      50.8611     -41.7895       1.0938      -0.7279      -0.8157     222.7842       1.0226
    7396.0    1455.7454       0.0000      50.8611     -58.0289       1.0934      -0.9275      -0.5789     228.8737       1.0226
    7397.0    1476.7840       0.0000      50.8611     -50.6287       1.1007      -0.8508      -0.6979     234.9888       1.0226
    7398.0    1492.7632       0.0000      50.8611     -52.3373       1.0149      -0.8034      -0.6198     241.1068       1.0226
    7399.0    1505.3327       0.0000      50.8611     -49.3319       0.9535      -0.7231      -0.6211     247.2057       1.0226
    7400.0    1511.9025       0.0000      50.8611     -60.3897       0.9241      -0.8034      -0.4563     252.5321       0.0005
    7401.0    1515.2578       0.0000      50.8611     -53.8652       1.1873      -0.9593      -0.6992     252.5444       0.0005
    7402.0    1512.2928       0.0000      50.8611     -46.5194       0.8959      -0.6500      -0.6161     252.5444       0.0005
    7403.0    1515.3556       0.0000      50.8611     -48.2511       0.8695      -0.6488      -0.5789     252.5444       0.0005
    7404.0    1521.6210       0.0000      50.8611     -50.5295       1.1021      -0.8508      -0.7004     252.5444       0.0005
    7405.0    1508.9493       0.0000      50.8611     -44.4789       0.9226      -0.6464      -0.6583     252.5444       0.0005
    7406.0    1515.5524       0.0000      50.8611     -52.1079       0.8744      -0.6901      -0.5368     252.5444       0.0005
    7407.0    1518.5304       0.0000      50.8611     -48.8135       1.0678      -0.8034      -0.7028     252.5444       0.0005
    7408.0    1518.4326       0.0000      50.8611     -45.6979       1.1189      -0.8010      -0.7809     252.5444       0.0005
    7409.0    1515.3556       0.0000      50.8611     -54.0029       0.9922      -0.8022      -0.5826     252.5444       0.0005
    7410.0    1515.4046       0.0000      50.8611     -49.6886       0.9539      -0.7273      -0.6171     252.5444       0.0005
    7411.0    1515.3556       0.0000      50.8611     -50.7197       1.0379      -0.8034      -0.6570     252.5444       0.0005
    7412.0    1515.1605       0.0000      50.8611     -38.0770       0.9893      -0.6098      -0.7785     252.5444       0.0005
    7413.0    1515.3556       0.0000      50.8611     -46.4025       0.8974      -0.6500      -0.6186     252.5444       0.0005
    7414.0    1515.4538       0.0000      50.8611     -41.0786       0.9297      -0.6110      -0.7004     252.5444       0.0005
    7415.0    1515.3556       0.0000      50.8611     -53.1598       1.1027      -0.8825      -0.6607     252.5444       0.0005
    7416.0    1515.3556       0.0000      50.8611     -50.3560       0.8455      -0.6512      -0.5393     252.5444       0.0005
    7417.0    1512.1946       0.0000      50.8611     -47.8753       0.9815      -0.7279      -0.6583     252.5444       0.0005
    7418.0    1515.4538       0.0000      50.8611     -48.0138       0.9870      -0.7339      -0.6595     252.5444       0.0005
    7419.0    1515.4538       0.0000      50.8611     -51.0869       0.9887      -0.7693      -0.6211     252.5444       0.0005
    7420.0    1515.3556       0.0000      50.8611     -52.8446       0.9625      -0.7669      -0.5814     252.5444       0.0005
    7421.0    1512.1946       0.0000      50.8611     -52.1009       1.0737      -0.8472      -0.6595     252.5444       0.0005
    7422.0    1512.1701       0.0000      50.8611     -44.4836       1.0924      -0.7654      -0.7794     252.5444       0.0005
    7423.0    1515.2578       0.0000      50.8611     -46.2786       0.9564      -0.6913      -0.6607     252.5444       0.0005
    7424.0    1512.1946       0.0000      50.8611     -51.8022       1.1307      -0.8886      -0.6992     252.5444       0.0005
    7425.0    1515.2578       0.0000      50.8611     -45.9013       1.1205      -0.8046      -0.7797     252.5444       0.0005
    7426.0    1521.7187       0.0000      50.8611     -52.9927       0.9618      -0.7681      -0.5789     252.5444       0.0005
    7427.0    1512.0968       0.0000      50.8611     -47.8644       0.9832      -0.7291      -0.6595     252.5444       0.0005
    7428.0    1509.0470       0.0000      50.8611     -53.2114       1.1019      -0.8825      -0.6595     252.5444       0.0005
    7429.0    1515.4538       0.0000      50.8611     -49.0037       1.0098      -0.7620      -0.6619     252.5444       0.0005
    7430.0    1515.2578       0.0000      50.8611     -32.2461       0.7824      -0.4186      -0.6583     252.5444       0.0005
    7431.0    1512.1946       0.0000      50.8611     -49.5389       0.9552      -0.7267      -0.6198     252.5444       0.0005
    7432.0    1506.0112       0.0000      50.8611     -47.9311       1.0385      -0.7705      -0.6955     252.5444       0.0005
