~VERSION INFORMATION
VERS.           2.0   :CWLS Log ASCII Standard - VERSION 2.0
WRAP.           NO    :One Line per depth step
PROD.  Schlumberger   :LAS Producer
PROG.  DLIS to ASCII 19C2-270                          :LAS Program name and version
CREA.        2017/09/16 17:42                          :LAS Creation date {YYYY/MM/DD hh:mm}
DLIS_CREA.  2017-Sep-15 17:02                          :DLIS Creation date and time {YYYY-MMM-DD hh:mm}
SOURCE.     LPC_S3-1_2BV.DLIS                          :DLIS File Name
FILE-ID.     PERFO_Perfo_WPGRT_045LTP                  :File Identification Number
#--------------------------------------------------
~WELL INFORMATION
#MNEM.UNIT      DATA             DESCRIPTION
#---- ------ --------------   -----------------------------
STRT .S          126.0       :START TIME      
STOP .S          554.0       :STOP TIME      
STEP .S            1.0       :STEP     
NULL .          -999.25      :NULL VALUE
COMP .        SHELL INTERNATIONAL E P                  :COMPANY
WELL .        WPP TEST 2                               :WELL
FLD  .        WILDCAT                                  :FIELD
LOC  .        NA                                       :LOCATION
CNTY .        HARRIS                                   :COUNTY
STAT .        TEXAS                                    :STATE
CTRY .                                                 :COUNTRY
API  .        NA                                       :API NUMBER
UWI  .                                                 :UNIQUE WELL ID
DATE .        15-Sep-2017                              :LOG DATE {DD-MMM-YYYY}
SRVC .        Schlumberger                             :SERVICE COMPANY
LATI .DEG                                              :LATITUDE
LONG .DEG                                              :LONGITUDE
GDAT .                                                 :GeoDetic Datum
SECT .        NA                                       :Section
RANG .        NA                                       :Range
TOWN .        NA                                       :Township
#-----------------------------------------------------------------------------
~PARAMETER INFORMATION
#MNEM.UNIT    VALUE                      DESCRIPTION
#---- -----   --------------------       ------------------------
U-PHASE_B_COMP_PER_YT.                 0 :Phase B Comparator Period Yt
U-PHASE_A_COMP_PER_XT.                 0 :Phase A Comparator Period Xt
U-MAX_EXC_CUR_LIMIT.MA       240.00000   :Requested CM Current Limit
U-REQ_EXC_FQ.HZ              50          :Requested CM Frequency
U-TILT_Y_OFFSET.           0.19916       :WPTET Tilt Y Offset
U-TILT_Y_GAIN.           1.01796         :WPTET Tilt Y Gain
U-TILT_X_OFFSET.          -1.77103       :WPTET Tilt X Offset
U-TILT_X_GAIN.           1.00000         :WPTET Tilt X Gain
U-TILT_OFFSET_TOL.           0.00100     :WPTET Tilt Offset Calibration Tolerance
U-NO_TILT_CAL_ROTATIONS.                 3 :Number of Rotations for Tilt Calibration
HAZI .DEG        0.00000                 :Hole Azimuth
U-STD_TOL_TILT.           0.01000        :Tilt Standard Deviation Tolerance
U-GUN_POS_TOL.DEG        5.00000         :Gun Position Tolerance
ROT_ANGLE_THRESHOLD.DEG        5.00000   :Rotation Stop Angle Tolerance
STOP_ROT_ANGLE.DEG        0.00000        :Rotation Stop Angle
WITN .        MR. DHRUA ARORA            :Witness's Name
ENGI .        MORRIS MOORE               :Engineer's Name
COUN .        HARRIS                     :County or Rig Name
FN   .        WILDCAT                    :Field Name
WN   .        WPP TEST 2                 :Well Name
CN   .        SHELL INTERNATIONAL E P    :Company Name
CLAB .        County                     :County/Rig Label
SLAB .        State                      :State/Province Label
RUN  .          1                        :RUN NUMBER
PDAT .        GROUND LEVEL               :Permanent Datum
EPD  .                                   :Elevation of Permanent Datum above Mean Sea Level
LMF  .          NA                       :Logging Measured From (Name of Logging Elevation Reference)
APD  .                                   :Elevation of Depth Reference (LMF) above Permanent Datum
#-----------------------------------------------------------------------------
~CURVE INFORMATION
#MNEM.UNIT   API CODE                                  DESCRIPTION
#---- -----  --------                                  -----------------------
TIME .S                                                :TIME {F10.1}
FREQ_EMF_SL.HZ                                         :Electromagnetic Field Frequency {F13.4}
PH_SH_WPPCM_SL.DEG                                     :WPPCM Phase Shift {F13.4}
FREQ_EXC_REQ_SL.HZ                                     :Requested Exciter Frequency {F13.4}
RB_SL.DEG                                              :Relative Bearing {F13.4}
SDEV_SL.DEG                                            :Sonde Deviation {F13.4}
TILX_SL.DEG                                            :X-axis Tilt {F13.4}
TILY_SL.DEG                                            :Y-axis Tilt {F13.4}
ROTA_SL.DEG                                            :Motor Rotation Angle {F13.4}
MSPE_SL.RPM                                            :Motor Speed {F13.4}
#-----------------------------------------------------------------------------
# 
#     TIME    FREQ_EMF_SL  PH_SH_WPPCM_ FREQ_EXC_REQ    RB_SL       SDEV_SL      TILX_SL      TILY_SL      ROTA_SL      MSPE_SL
#                          SL           _SL
~A  
     126.0    1435.7433       0.0000      50.7854     -67.3889 9999999.9999      -1.2890      -0.5360     218.5680       1.0211
     127.0    1437.5267       0.0000      50.8611     -62.4259       1.4146      -1.2538      -0.6545     223.1183       1.0226
     128.0    1434.7266       0.0000      50.8611     -67.2222       1.4859      -1.3700      -0.5752     229.2334       1.0327
     129.0    1429.1158       0.0000      50.8611     -67.6485       1.5321      -1.4169      -0.5827     235.3353       1.0220
     130.0    1431.4969       0.0000      50.8611     -64.4588       1.3342      -1.2038      -0.5752     241.4379       1.0226
     131.0    1425.5180       0.0000      50.8611     -56.9494       1.3606      -1.1406      -0.7413     247.5398       1.0226
     132.0    1412.2445       0.0000      50.8611     -60.8509       1.5220      -1.3292      -0.7413     253.6418       1.0226
     133.0    1402.7657       0.0000      50.8611     -57.2146       1.5337      -1.2890      -0.8305     259.7436       1.0226
     134.0    1381.0556       0.0000      50.8611     -53.5067       1.4444      -1.1612      -0.8589     265.8701       1.0226
     135.0    1388.9109       0.0000      50.8611     -51.8988       1.3380      -1.0529      -0.8255     272.3559       1.0232
     136.0    1365.4531       0.0000      50.8611     -50.5234       1.3062      -1.0079      -0.8305     278.4671       1.0226
     137.0    1346.5138       0.0000      50.8611     -49.8257       1.4738      -1.1259      -0.9507     284.5747       1.0226
     138.0    1338.5158       0.0000      50.8611     -44.6551       1.5488      -1.0882      -1.1018     290.6613       1.0226
     139.0    1302.0834       0.0000      50.8611     -42.0841       1.2783      -0.8570      -0.9482     296.7633       1.0226
     140.0    1278.6578       0.0000      50.8611     -45.4925       1.3536      -0.9652      -0.9488     302.8649       1.0226
     141.0    1273.2188       0.0000      50.8611     -39.2429       1.4131      -0.8923      -1.0943     308.9698       1.0226
     142.0    1252.8016       0.0000      50.8611     -39.9246       1.3586      -0.8702      -1.0399     315.0685       1.0226
     143.0    1231.1304       0.0000      50.8611     -38.9646       1.1707      -0.7365      -0.9098     321.1582       1.0226
     144.0    1226.7048       0.0000      50.8611     -46.7262       1.3938      -1.0162      -0.9482     327.2600       1.0226
     145.0    1205.6701       0.0000      50.8611     -34.8840       1.2089      -0.6914      -0.9916     333.3611       1.0127
     146.0    1193.6373       0.0000      50.8611     -44.6946       1.3400      -0.9432      -0.9482     339.4514       1.0226
     147.0    1191.7373       0.0000      50.8611     -23.6257       0.9065      -0.3627      -0.8305     345.9610       1.0226
     148.0    1176.1556       0.0000      50.8611     -35.9947       1.0237      -0.6013      -0.8280     352.0599       1.0226
     149.0    1171.8750       0.0000      50.8611     -33.4842       1.0268      -0.5660      -0.8565     358.1646       1.0226
     150.0    1175.6747       0.0000      50.8611     -28.5735       1.0218      -0.4881      -0.8973       4.2543       1.0226
     151.0    1167.9817       0.0000      50.8611     -32.7010       1.0743      -0.5807      -0.9023      10.3692       1.0226
     152.0    1162.3073       0.0000      50.8611     -34.5130       0.8531      -0.4832      -0.7029      16.4710       1.0226
     153.0    1181.8440       0.0000      50.8611     -33.2832       0.8807      -0.4832      -0.7363      22.5729       1.0226
     154.0    1172.3543       0.0000      50.8611     -31.4425       0.7673      -0.4005      -0.6545      28.6747       1.0226
     155.0    1175.9143       0.0000      50.8611     -30.7169       0.8570      -0.4382      -0.7363      34.7765       1.0226
     156.0    1189.2334       0.0000      50.8611     -44.2835       0.7030      -0.4906      -0.5034      40.8783       1.0226
     157.0    1203.7307       0.0000      50.8611       4.9374       0.8631       0.0825      -0.8465      46.9801       1.0226
     158.0    1204.7427       0.0000      50.8611     -41.2920       0.7113      -0.4710      -0.5318      53.0819       1.0226
     159.0    1216.9958       0.0000      50.8611     -33.4305       0.5944      -0.3275      -0.4959      59.6056       1.0226
     160.0    1235.7206       0.0000      50.8611     -41.8586       0.6076      -0.4054      -0.4526      65.6951       1.0226
     161.0    1250.8418       0.0000      50.8611     -47.4584       0.6663      -0.4906      -0.4501      71.8101       1.0226
     162.0    1264.7522       0.0000      50.8611     -51.3836       0.5256      -0.4103      -0.3274      77.9136       1.0334
     163.0    1279.5590       0.0000      50.8611     -61.2468       0.6859      -0.6013      -0.3299      84.0154       1.0226
     164.0    1309.3575       0.0000      50.8611     -60.6636       0.5167      -0.4504      -0.2531      90.1172       1.0226
     165.0    1336.5850       0.0000      50.8611     -60.7704       0.5188      -0.4529      -0.2531      96.2189       1.0226
     166.0    1352.8022       0.0000      50.8611     -75.4603       0.7049      -0.6816      -0.1763     102.3339       1.0327
     167.0    1357.5442       0.0000      50.8611     -82.5747       0.6568      -0.6513      -0.0846     108.4357       1.0226
     168.0    1360.4935       0.0000      50.8611     -88.8293       0.6926      -0.6914      -0.0152     114.5383       1.0226
     169.0    1384.4377       0.0000      50.8611     -82.8279       0.7351      -0.7291      -0.0920     120.6400       1.0226
     170.0    1397.8628       0.0000      50.8611     -75.9253       0.8301      -0.8046      -0.2022     126.7426       1.0232
     171.0    1414.0501       0.0000      50.8611     -86.2283       0.9135      -0.9104      -0.0561     133.2786       1.0232
     172.0    1406.2500       0.0000      50.8611     -86.4462       0.8823      -0.8800      -0.0536     139.3807       1.0226
     173.0    1417.9405       0.0000      50.8611     -81.2267       0.8265      -0.8168      -0.1255     145.4826       1.0226
     174.0    1420.8057       0.0000      50.8611     -82.4143       0.9261      -0.9177      -0.1230     151.6004       1.0327
     175.0    1429.2932       0.0000      50.8611     -78.9487       1.0680      -1.0480      -0.2047     157.6996       1.0226
     176.0    1446.5783       0.0000      50.8611     -89.0420       1.0368      -1.0358      -0.0152     163.8015       1.0226
     177.0    1432.7432       0.0000      50.8611     -85.0395       1.0595      -1.0554      -0.0920     169.9034       1.0226
     178.0    1438.0630       0.0000      50.8611     -81.8653       1.1402      -1.1284      -0.1614     176.0081       1.0226
     179.0    1455.0167       0.0000      50.8611     -76.9669       1.1220      -1.0931      -0.2531     182.1071       1.0226
     180.0    1443.7886       0.0000      50.8611     -83.1475       1.1857      -1.1759      -0.1429     188.2090       1.0226
     181.0    1444.3339       0.0000      50.8611     -76.9535       1.3158      -1.2817      -0.2965     194.2992       1.0226
     182.0    1443.7886       0.0000      50.8611     -79.5062       1.3902      -1.3669      -0.2531     200.4011       1.0226
     183.0    2125.8769       0.0000      50.8611     -76.5088       1.2821      -1.2464      -0.2990     206.5158       1.0226
     184.0    1455.5621       0.0000      50.8611     -72.9126       1.3046      -1.2464      -0.3832     212.6179       1.0226
     185.0    1441.5555       0.0000      50.8611     -70.1129       1.3307      -1.2513      -0.4526     218.7330       1.0226
     186.0    1438.0630       0.0000      50.8611     -67.1563       1.2785      -1.1783      -0.4959     224.8349       1.0226
     187.0    1434.7709       0.0000      50.8611     -67.8751       1.4323      -1.3267      -0.5393     230.9375       1.0226
     188.0    1437.5265       0.0000      50.8611     -64.3581       1.3463      -1.2136      -0.5827     237.0394       1.0226
