~VERSION INFORMATION
VERS.           2.0   :CWLS Log ASCII Standard - VERSION 2.0
WRAP.           NO    :One Line per depth step
PROD.  Schlumberger   :LAS Producer
PROG.  DLIS to ASCII 19C2-270                          :LAS Program name and version
CREA.        2017/09/16 17:42                          :LAS Creation date {YYYY/MM/DD hh:mm}
DLIS_CREA.  2017-Sep-15 16:38                          :DLIS Creation date and time {YYYY-MMM-DD hh:mm}
SOURCE.     LPC_S3-1_2A5.DLIS                          :DLIS File Name
FILE-ID.     PERFO_Perfo_WPGRT_042LTP                  :File Identification Number
#--------------------------------------------------
~WELL INFORMATION
#MNEM.UNIT      DATA             DESCRIPTION
#---- ------ --------------   -----------------------------
STRT .S         4115.0       :START TIME      
STOP .S         4682.0       :STOP TIME      
STEP .S            1.0       :STEP     
NULL .          -999.25      :NULL VALUE
COMP .        SHELL INTERNATIONAL E P                  :COMPANY
WELL .        WPP TEST 2                               :WELL
FLD  .        WILDCAT                                  :FIELD
LOC  .                                                 :LOCATION
CNTY .        HARRIS                                   :COUNTY
STAT .        TEXAS                                    :STATE
CTRY .                                                 :COUNTRY
API  .                                                 :API NUMBER
UWI  .                                                 :UNIQUE WELL ID
DATE .                                                 :LOG DATE
SRVC .        Schlumberger                             :SERVICE COMPANY
LATI .DEG                                              :LATITUDE
LONG .DEG                                              :LONGITUDE
GDAT .                                                 :GeoDetic Datum
#-----------------------------------------------------------------------------
~PARAMETER INFORMATION
#MNEM.UNIT    VALUE                      DESCRIPTION
#---- -----   --------------------       ------------------------
U-PHASE_B_COMP_PER_YT.                 0 :Phase B Comparator Period Yt
U-PHASE_A_COMP_PER_XT.                 0 :Phase A Comparator Period Xt
U-MAX_EXC_CUR_LIMIT.MA       240.00000   :Requested CM Current Limit
U-REQ_EXC_FQ.HZ              50          :Requested CM Frequency
U-TILT_Y_OFFSET.           0.19916       :WPTET Tilt Y Offset
U-TILT_Y_GAIN.           1.01796         :WPTET Tilt Y Gain
U-TILT_X_OFFSET.          -1.77103       :WPTET Tilt X Offset
U-TILT_X_GAIN.           1.00000         :WPTET Tilt X Gain
U-TILT_OFFSET_TOL.           0.00100     :WPTET Tilt Offset Calibration Tolerance
U-NO_TILT_CAL_ROTATIONS.                 3 :Number of Rotations for Tilt Calibration
HAZI .DEG        0.00000                 :Hole Azimuth
U-STD_TOL_TILT.           0.01000        :Tilt Standard Deviation Tolerance
U-GUN_POS_TOL.DEG        5.00000         :Gun Position Tolerance
ROT_ANGLE_THRESHOLD.DEG        5.00000   :Rotation Stop Angle Tolerance
STOP_ROT_ANGLE.DEG        0.00000        :Rotation Stop Angle
WITN .                                   :Witness's Name
ENGI .                                   :Engineer's Name
COUN .        HARRIS                     :County or Rig Name
FN   .        WILDCAT                    :Field Name
WN   .        WPP TEST 2                 :Well Name
CN   .        SHELL INTERNATIONAL E P    :Company Name
CLAB .        County                     :County/Rig Label
SLAB .        State                      :State/Province Label
RUN  .          1                        :RUN NUMBER
PDAT .        GROUND LEVEL               :Permanent Datum
EPD  .                                   :Elevation of Permanent Datum above Mean Sea Level
LMF  .                                   :Logging Measured From (Name of Logging Elevation Reference)
APD  .                                   :Elevation of Depth Reference (LMF) above Permanent Datum
#-----------------------------------------------------------------------------
~CURVE INFORMATION
#MNEM.UNIT   API CODE                                  DESCRIPTION
#---- -----  --------                                  -----------------------
TIME .S                                                :TIME {F10.1}
FREQ_EMF_SL.HZ                                         :Electromagnetic Field Frequency {F13.4}
PH_SH_WPPCM_SL.DEG                                     :WPPCM Phase Shift {F13.4}
FREQ_EXC_REQ_SL.HZ                                     :Requested Exciter Frequency {F13.4}
RB_SL.DEG                                              :Relative Bearing {F13.4}
SDEV_SL.DEG                                            :Sonde Deviation {F13.4}
TILX_SL.DEG                                            :X-axis Tilt {F13.4}
TILY_SL.DEG                                            :Y-axis Tilt {F13.4}
ROTA_SL.DEG                                            :Motor Rotation Angle {F13.4}
MSPE_SL.RPM                                            :Motor Speed {F13.4}
#-----------------------------------------------------------------------------
# 
#     TIME    FREQ_EMF_SL  PH_SH_WPPCM_ FREQ_EXC_REQ    RB_SL       SDEV_SL      TILX_SL      TILY_SL      ROTA_SL      MSPE_SL
#                          SL           _SL
~A  
# ...
    4619.0    1437.7954       0.0000      50.8611     141.0680       4.7197       2.9638       3.6697     121.8776       0.0005
    4620.0    1437.9718       0.0000      50.8611     142.9267       4.6572       2.8056       3.7143     121.8776       0.0005
    4621.0    1437.7954       0.0000      50.8611     144.1621       4.5850       2.6827       3.7155     121.8776       0.0005
    4622.0    1446.4930       0.0000      50.8611     142.9327       4.6599       2.8068       3.7168     121.8776       0.0005
    4623.0    1443.5234       0.0000      50.8611     140.5416       4.6073       2.9261       3.5557     121.8776       0.0005
    4624.0    1437.8834       0.0000      50.8611     142.0824       4.5089       2.7690       3.5557     121.8776       0.0005
    4625.0    1435.0370       0.0000      50.8611     142.2283       4.6491       2.8457       3.6734     121.8776       0.0005
    4626.0    1437.8834       0.0000      50.8611     143.5294       4.5264       2.6887       3.6387     121.8776       0.0005
    4627.0    1437.8834       0.0000      50.8611     142.9656       4.6595       2.8044       3.7180     121.8776       0.0005
    4628.0    1437.7954       0.0000      50.8611     140.9435       4.5250       2.8493       3.5123     121.8776       0.0005
    4629.0    1437.7077       0.0000      50.8611     143.5807       4.4681       2.6509       3.5941     121.8776       0.0005
    4630.0    1429.5560       0.0000      50.8611     143.9888       4.8480       2.8481       3.9200     121.8776       0.0005
    4631.0    1435.2142       0.0000      50.8611     143.3722       4.5791       2.7301       3.6734     121.8776       0.0005
    4632.0    1437.7954       0.0000      50.8611     139.8915       4.5409       2.9237       3.4714     121.8776       0.0005
    4633.0    1440.5657       0.0000      50.8611     142.4200       4.5354       2.7642       3.5929     121.8776       0.0005
    4634.0    1437.8834       0.0000      50.8611     144.1883       4.7318       2.7666       3.8357     121.8776       0.0005
    4635.0    1434.9490       0.0000      50.8611     143.8910       4.7021       2.7690       3.7973     121.8776       0.0005
    4636.0    1440.7414       0.0000      50.8611     139.9765       4.4866       2.8835       3.4342     121.8776       0.0005
    4637.0    1437.7954       0.0000      50.8611     141.5247       4.3867       2.7276       3.4330     121.8776       0.0005
    4638.0    1434.9490       0.0000      50.8611     144.2705       4.6765       2.7288       3.7948     121.8776       0.0005
    4639.0    1432.2022       0.0000      50.8611     143.6045       4.6700       2.7690       3.7576     121.8776       0.0005
    4640.0    1438.0606       0.0000      50.8611     141.5933       4.5915       2.8506       3.5965     121.8776       0.0005
    4641.0    1437.6204       0.0000      50.8611     140.2813       4.5151       2.8835       3.4714     121.8776       0.0005
    4642.0    1432.1142       0.0000      50.8611     142.9664       4.6066       2.7726       3.6759     121.8776       0.0005
    4643.0    1438.0606       0.0000      50.8611     144.0933       4.7896       2.8068       3.8778     121.8776       0.0005
    4644.0    1432.1142       0.0000      50.8611     142.8179       4.5144       2.7264       3.5953     121.8776       0.0005
    4645.0    1437.7954       0.0000      50.8611     140.9597       4.5208       2.8457       3.5099     121.8776       0.0005
    4646.0    1437.7954       0.0000      50.8611     141.9606       4.6174       2.8433       3.6350     121.8776       0.0005
    4647.0    1432.3794       0.0000      50.8611     144.3940       4.6234       2.6899       3.7576     121.8776       0.0005
    4648.0    1437.9718       0.0000      50.8611     144.5758       4.7074       2.7264       3.8345     121.8776       0.0005
    4649.0    1437.7954       0.0000      50.8611     142.9398       4.4015       2.6509       3.5111     121.8776       0.0005
    4650.0    1437.7954       0.0000      50.8611     141.3871       4.5046       2.8092       3.5184     121.8776       0.0005
    4651.0    1435.0370       0.0000      50.8611     143.5003       4.7242       2.8080       3.7961     121.8776       0.0005
    4652.0    1429.2032       0.0000      50.8611     144.0032       4.6463       2.7288       3.7576     121.8776       0.0005
    4653.0    1432.3794       0.0000      50.8611     142.2975       4.5946       2.8080       3.6337     121.8776       0.0005
    4654.0    1437.8834       0.0000      50.8611     142.3641       4.5356       2.7678       3.5904     121.8776       0.0005
    4655.0    1437.6204       0.0000      50.8611     143.2245       4.6916       2.8068       3.7564     121.8776       0.0005
    4656.0    1435.0370       0.0000      50.8611     144.6898       4.6551       2.6887       3.7973     121.8776       0.0005
    4657.0    1432.3794       0.0000      50.8611     142.5002       4.2349       2.5766       3.3586     121.8776       0.0005
    4658.0    1434.8613       0.0000      50.8611     144.7453       4.4068       2.5425       3.5965     121.8776       0.0005
    4659.0    1437.7077       0.0000      50.8611     142.8017       3.9154       2.3649       3.1181     121.8776       0.0005
    4660.0    1382.3856       0.0000      50.8611     150.3665       3.7724       1.8657       3.2768     121.8776       0.0005
    4661.0    1334.2030       0.0000      50.8611     -97.2314       3.5905      -3.0556       0.9969     121.8776       0.0005
    4662.0    1451.4276       0.0000      50.8611     153.9484       7.2399       3.1759       6.4988     121.8776       0.0005
    4663.0    1541.5386       0.0000      50.8611     141.7032       4.0857       2.5292       3.2061     121.8776       0.0005
    4664.0    1548.9391       0.0000      50.8611     149.6409       4.6950       2.3710       4.0500     121.8776       0.0005
    4665.0    1555.6897       0.0000      50.8611     149.9456       4.8138       2.4087       4.1653     121.8776       0.0005
    4666.0    1558.8290       0.0000      50.8611     149.7507       4.9960       2.5148       4.3141     121.8776       0.0005
    4667.0    1555.4832       0.0000      50.8611     148.1978       4.7061       2.4782       3.9981     121.8776       0.0005
    4668.0    1555.6897       0.0000      50.8611     149.5811       4.6000       2.3272       3.9658     121.8776       0.0005
    4669.0    1552.2554       0.0000      50.8611     155.1169       4.9780       2.0910       4.5149     121.8776       0.0005
    4670.0    1538.8718       0.0000      50.8611     155.5009       4.4782       1.8548       4.0745     121.8776       0.0005
    4671.0    1421.1546       0.0000      50.8611     125.2810       4.8894       3.9901       2.8197     121.8776       0.0005
    4672.0    1285.7763       0.0000      50.8611     144.1790       6.0679       3.5410       4.9205     121.8776       0.0005
    4673.0    1278.6195       0.0000      50.8611     166.9090       4.1425       0.9499       4.0189     121.8776       0.0005
    4674.0    1196.0365       0.0000      50.8611     143.3379       4.3515       2.5806       3.4894     121.8776       0.0005
    4675.0    1177.1817       0.0000      50.8611     150.1304       5.1198       2.5461       4.4368     121.8776       0.0005
    4676.0    1375.1862       0.0000      50.8611     148.3766       3.1695       1.6616       2.6958     121.8776       0.0005
    4677.0    1425.9583       0.0000      50.8611     149.0052       4.9041       2.5232       4.2025     121.8776       0.0005
    4678.0    1423.3300       0.0000      50.8611     151.5055       4.8775       2.3248       4.2855     121.8776       0.0005
    4679.0    1423.5909       0.0000      50.8611     149.0542       4.6717       2.4003       4.0054     121.8776       0.0005
    4680.0    1434.8613       0.0000      50.8611     150.1334       4.7532       2.3649       4.1207     121.8776       0.0005
    4681.0    1428.9423       0.0000      50.8611     149.7201       4.7788       2.4075       4.1256     121.8776       0.0005
