~VERSION INFORMATION
VERS.           2.0   :CWLS Log ASCII Standard - VERSION 2.0
WRAP.           NO    :One Line per depth step
PROD.  Schlumberger   :LAS Producer
PROG.  DLIS to ASCII 19C2-270                          :LAS Program name and version
CREA.        2017/09/16 17:42                          :LAS Creation date {YYYY/MM/DD hh:mm}
DLIS_CREA.  2017-Sep-15 17:02                          :DLIS Creation date and time {YYYY-MMM-DD hh:mm}
SOURCE.     LPC_S3-1_2BV.DLIS                          :DLIS File Name
FILE-ID.     PERFO_Perfo_WPGRT_045LTP                  :File Identification Number
#--------------------------------------------------
~WELL INFORMATION
#MNEM.UNIT      DATA             DESCRIPTION
#---- ------ --------------   -----------------------------
STRT .S          126.0       :START TIME      
STOP .S          554.0       :STOP TIME      
STEP .S            1.0       :STEP     
NULL .          -999.25      :NULL VALUE
COMP .        SHELL INTERNATIONAL E P                  :COMPANY
WELL .        WPP TEST 2                               :WELL
FLD  .        WILDCAT                                  :FIELD
LOC  .        NA                                       :LOCATION
CNTY .        HARRIS                                   :COUNTY
STAT .        TEXAS                                    :STATE
CTRY .                                                 :COUNTRY
API  .        NA                                       :API NUMBER
UWI  .                                                 :UNIQUE WELL ID
DATE .        15-Sep-2017                              :LOG DATE {DD-MMM-YYYY}
SRVC .        Schlumberger                             :SERVICE COMPANY
LATI .DEG                                              :LATITUDE
LONG .DEG                                              :LONGITUDE
GDAT .                                                 :GeoDetic Datum
SECT .        NA                                       :Section
RANG .        NA                                       :Range
TOWN .        NA                                       :Township
#-----------------------------------------------------------------------------
~PARAMETER INFORMATION
#MNEM.UNIT    VALUE                      DESCRIPTION
#---- -----   --------------------       ------------------------
U-PHASE_B_COMP_PER_YT.                 0 :Phase B Comparator Period Yt
U-PHASE_A_COMP_PER_XT.                 0 :Phase A Comparator Period Xt
U-MAX_EXC_CUR_LIMIT.MA       240.00000   :Requested CM Current Limit
U-REQ_EXC_FQ.HZ              50          :Requested CM Frequency
U-TILT_Y_OFFSET.           0.19916       :WPTET Tilt Y Offset
U-TILT_Y_GAIN.           1.01796         :WPTET Tilt Y Gain
U-TILT_X_OFFSET.          -1.77103       :WPTET Tilt X Offset
U-TILT_X_GAIN.           1.00000         :WPTET Tilt X Gain
U-TILT_OFFSET_TOL.           0.00100     :WPTET Tilt Offset Calibration Tolerance
U-NO_TILT_CAL_ROTATIONS.                 3 :Number of Rotations for Tilt Calibration
HAZI .DEG        0.00000                 :Hole Azimuth
U-STD_TOL_TILT.           0.01000        :Tilt Standard Deviation Tolerance
U-GUN_POS_TOL.DEG        5.00000         :Gun Position Tolerance
ROT_ANGLE_THRESHOLD.DEG        5.00000   :Rotation Stop Angle Tolerance
STOP_ROT_ANGLE.DEG        0.00000        :Rotation Stop Angle
WITN .        MR. DHRUA ARORA            :Witness's Name
ENGI .        MORRIS MOORE               :Engineer's Name
COUN .        HARRIS                     :County or Rig Name
FN   .        WILDCAT                    :Field Name
WN   .        WPP TEST 2                 :Well Name
CN   .        SHELL INTERNATIONAL E P    :Company Name
CLAB .        County                     :County/Rig Label
SLAB .        State                      :State/Province Label
RUN  .          1                        :RUN NUMBER
PDAT .        GROUND LEVEL               :Permanent Datum
EPD  .                                   :Elevation of Permanent Datum above Mean Sea Level
LMF  .          NA                       :Logging Measured From (Name of Logging Elevation Reference)
APD  .                                   :Elevation of Depth Reference (LMF) above Permanent Datum
#-----------------------------------------------------------------------------
~CURVE INFORMATION
#MNEM.UNIT   API CODE                                  DESCRIPTION
#---- -----  --------                                  -----------------------
TIME .S                                                :TIME {F10.1}
FREQ_EMF_SL.HZ                                         :Electromagnetic Field Frequency {F13.4}
PH_SH_WPPCM_SL.DEG                                     :WPPCM Phase Shift {F13.4}
FREQ_EXC_REQ_SL.HZ                                     :Requested Exciter Frequency {F13.4}
RB_SL.DEG                                              :Relative Bearing {F13.4}
SDEV_SL.DEG                                            :Sonde Deviation {F13.4}
TILX_SL.DEG                                            :X-axis Tilt {F13.4}
TILY_SL.DEG                                            :Y-axis Tilt {F13.4}
ROTA_SL.DEG                                            :Motor Rotation Angle {F13.4}
MSPE_SL.RPM                                            :Motor Speed {F13.4}
#-----------------------------------------------------------------------------
# 
#     TIME    FREQ_EMF_SL  PH_SH_WPPCM_ FREQ_EXC_REQ    RB_SL       SDEV_SL      TILX_SL      TILY_SL      ROTA_SL      MSPE_SL
#                          SL           _SL
~A  
# ...
     252.0    1400.9889       0.0000      50.8611     -59.9455       1.4807      -1.2817      -0.7413     269.6535       1.0226
     253.0    1386.3372       0.0000      50.8611     -52.8378       1.6210      -1.2915      -0.9791     275.7429       1.0226
     254.0    1383.4454       0.0000      50.8611     -52.1639       1.5338      -1.2111      -0.9407     281.8324       1.0232
     255.0    1360.1704       0.0000      50.8611     -41.5020       1.4754      -0.9775      -1.1043     287.9721       1.0226
     256.0    1336.8948       0.0000      50.8611     -47.9356       1.3544      -1.0054      -0.9073     294.4456       1.0226
     257.0    1330.9149       0.0000      50.8611     -43.8085       1.5159      -1.0480      -1.0943     300.5590       1.0220
     258.0    1313.5108       0.0000      50.8611     -47.8617       1.3562      -1.0054      -0.9098     306.6376       1.0232
     259.0    1289.9936       0.0000      50.8611     -41.1133       1.3539      -0.8898      -1.0200     312.7526       1.0226
     260.0    1271.1945       0.0000      50.8611     -36.8666       1.2349      -0.7414      -0.9866     318.8544       1.0226
     261.0    1253.3423       0.0000      50.8611     -47.0072       1.2169      -0.8898      -0.8299     324.9562       1.0226
     262.0    1244.0686       0.0000      50.8611     -39.8528       1.1946      -0.7644      -0.9173     331.0580       1.0226
     263.0    1231.1304       0.0000      50.8611     -46.8707       1.1586      -0.8447      -0.7921     337.1351       1.0226
     264.0    1212.1574       0.0000      50.8611     -37.4504       1.2496      -0.7595      -0.9916     343.2528       1.0226
     265.0    1199.6234       0.0000      50.8611     -34.4510       1.1469      -0.6488      -0.9457     349.3394       1.0226
     266.0    1187.7112       0.0000      50.8611     -37.9023       0.9946      -0.6111      -0.7846     355.4412       1.0226
     267.0    1181.7228       0.0000      50.8611     -26.6752       1.0990      -0.4930      -0.9816       1.5430       1.0226
     268.0    1183.4701       0.0000      50.8611     -34.8416       1.0034      -0.5734      -0.8230       8.0528       1.0226
     269.0    1179.3798       0.0000      50.8611     -26.5702       1.0122      -0.4529      -0.9048      14.1423       1.0226
     270.0    1175.4367       0.0000      50.8611     -29.4579       0.8901      -0.4382      -0.7747      20.2441       1.0226
     271.0    1169.9252       0.0000      50.8611     -33.3960       0.8911      -0.4906      -0.7438      26.3459       1.0226
     272.0    1179.4994       0.0000      50.8611     -27.4590       0.7921      -0.3652      -0.7029      32.4506       1.0226
     273.0    1177.7638       0.0000      50.8611     -29.2484       0.7538      -0.3683      -0.6576      38.5496       1.0226
     274.0    1178.4924       0.0000      50.8611     -32.3154       0.8288      -0.4431      -0.7004      44.6514       1.0226
     275.0    1191.3699       0.0000      50.8611     -34.1193       0.6603      -0.3701      -0.5468      50.7408       1.0226
     276.0    1209.5686       0.0000      50.8611     -24.8016       0.5170      -0.2192      -0.4675      56.8566       1.0232
     277.0    1214.7637       0.0000      50.8611     -31.1045       0.4908      -0.2545      -0.4191      62.9710       1.0226
     278.0    1221.0926       0.0000      50.8611     -44.5242       0.5883      -0.4127      -0.4191      69.0726       1.0226
     279.0    1242.1368       0.0000      50.8611     -49.1844       0.6885      -0.5210      -0.4501      75.1752       1.0232
     280.0    1255.7172       0.0000      50.8611     -50.1842       0.5708      -0.4382      -0.3658      81.6981       1.0220
     281.0    1280.8801       0.0000      50.8611     -56.0874       0.4514      -0.3750      -0.2506      87.8008       1.0226
     282.0    1298.0146       0.0000      50.8611     -45.4766       0.4699      -0.3348      -0.3274      93.9156       1.0327
     283.0    1319.3349       0.0000      50.8611     -62.5159       0.5532      -0.4906      -0.2556      99.9928       1.0226
     284.0    1339.2858       0.0000      50.8611     -77.6448       0.6209      -0.6062      -0.1329     106.1106       1.0327
     285.0    1347.6166       0.0000      50.8611     -81.1373       0.5326      -0.5259      -0.0821     112.2095       1.0226
     286.0    1365.1300       0.0000      50.8611     -91.5922       0.6479      -0.6439       0.0182     118.3113       1.0226
     287.0    1379.0073       0.0000      50.8611     -79.5532       0.6907      -0.6792      -0.1255     124.4123       1.0220
     288.0    1389.7428       0.0000      50.8611     -74.2083       0.7975      -0.7669      -0.2172     130.5026       1.0226
     289.0    1394.9209       0.0000      50.8611     -83.3501       0.7292      -0.7242      -0.0846     136.6044       1.0226
     290.0    1403.4431       0.0000      50.8611     -89.6237       0.8046      -0.8046      -0.0053     142.7063       1.0226
     291.0    1406.4217       0.0000      50.8611     -81.6216       0.8638      -0.8545      -0.1255     148.8214       1.0226
     292.0    1415.2620       0.0000      50.8611     -73.8255       0.9191      -0.8825      -0.2556     155.3313       1.0226
     293.0    1426.3937       0.0000      50.8611     -87.9507       0.9831      -0.9785      -0.0227     161.4463       1.0226
     294.0    1432.3834       0.0000      50.8611     -90.1192       0.8903      -0.8898       0.0022     167.5482       1.0226
     295.0    1440.4715       0.0000      50.8611     -91.4708       1.0612      -1.0603       0.0256     173.6501       1.0226
     296.0    1435.1278       0.0000      50.8611     -83.9098       1.1425      -1.1357      -0.1205     179.7520       1.0226
     297.0    1440.6503       0.0000      50.8611     -76.5509       1.0776      -1.0480      -0.2506     185.8669       1.0226
     298.0    1449.3794       0.0000      50.8611     -81.6373       1.1787      -1.1661      -0.1713     191.9688       1.0226
     299.0    1443.6083       0.0000      50.8611     -78.9872       1.2726      -1.2489      -0.2431     198.0461       0.9603
     300.0    1447.1236       0.0000      50.8611     -75.6830       1.1696      -1.1333      -0.2890     198.8124       0.0005
     301.0    1443.9696       0.0000      50.8611     -75.8780       1.2050      -1.1685      -0.2940     198.8124       0.0005
     302.0    1449.3794       0.0000      50.8611     -75.2814       1.1668      -1.1284      -0.2965     198.8124       0.0005
     303.0    1449.5604       0.0000      50.8611     -82.3414       1.3032      -1.2915      -0.1738     198.8124       0.0005
     304.0    1444.1514       0.0000      50.8611     -80.6894       1.3112      -1.2939      -0.2122     198.8124       0.0005
     305.0    1438.4243       0.0000      50.8611     -79.5618       1.1859      -1.1661      -0.2147     198.8124       0.0005
     306.0    1452.0120       0.0000      50.8611     -72.7349       1.1372      -1.0857      -0.3374     198.8124       0.0005
     307.0    1452.5551       0.0000      50.8611     -74.1309       1.1838      -1.1381      -0.3224     198.8124       0.0005
     308.0    1444.1514       0.0000      50.8611     -80.5208       1.3045      -1.2866      -0.2147     198.8124       0.0005
     309.0    1441.3729       0.0000      50.8611     -78.5672       1.2767      -1.2513      -0.2531     198.8124       0.0005
     310.0    1444.3339       0.0000      50.8611     -75.5141       1.1654      -1.1284      -0.2915     198.8124       0.0005
     311.0    1449.7422       0.0000      50.8611     -76.4657       1.2457      -1.2111      -0.2915     198.8124       0.0005
     312.0    1449.5604       0.0000      50.8611     -77.0107       1.2867      -1.2538      -0.2890     198.8124       0.0005
     313.0    1449.5604       0.0000      50.8611     -80.0909       1.2195      -1.2013      -0.2097     198.8124       0.0005
     314.0    1450.1080       0.0000      50.8611     -78.0151       1.2410      -1.2136      -0.2581     198.8124       0.0005
