~VERSION INFORMATION
VERS.           2.0   :CWLS Log ASCII Standard - VERSION 2.0
WRAP.           NO    :One Line per depth step
PROD.  Schlumberger   :LAS Producer
PROG.  DLIS to ASCII 19C2-270                          :LAS Program name and version
CREA.        2017/09/16 17:42                          :LAS Creation date {YYYY/MM/DD hh:mm}
DLIS_CREA.  2017-Sep-15 17:22                          :DLIS Creation date and time {YYYY-MMM-DD hh:mm}
SOURCE.     LPC_S4-1_AV.DLIS                           :DLIS File Name
FILE-ID.     PERFO_Perfo_WPGRT_047LTP                  :File Identification Number
#--------------------------------------------------
~WELL INFORMATION
#MNEM.UNIT      DATA             DESCRIPTION
#---- ------ --------------   -----------------------------
STRT .S         1296.0       :START TIME      
STOP .S         1779.0       :STOP TIME      
STEP .S            1.0       :STEP     
NULL .          -999.25      :NULL VALUE
COMP .        SHELL INTERNATIONAL E P                  :COMPANY
WELL .        WPP TEST 2                               :WELL
FLD  .        WILDCAT                                  :FIELD
LOC  .        NA                                       :LOCATION
CNTY .        HARRIS                                   :COUNTY
STAT .        TEXAS                                    :STATE
CTRY .                                                 :COUNTRY
API  .        NA                                       :API NUMBER
UWI  .                                                 :UNIQUE WELL ID
DATE .        15-Sep-2017                              :LOG DATE {DD-MMM-YYYY}
SRVC .        Schlumberger                             :SERVICE COMPANY
LATI .DEG                                              :LATITUDE
LONG .DEG                                              :LONGITUDE
GDAT .                                                 :GeoDetic Datum
SECT .        NA                                       :Section
RANG .        NA                                       :Range
TOWN .        NA                                       :Township
#-----------------------------------------------------------------------------
~PARAMETER INFORMATION
#MNEM.UNIT    VALUE                      DESCRIPTION
#---- -----   --------------------       ------------------------
U-PHASE_B_COMP_PER_YT.                 0 :Phase B Comparator Period Yt
U-PHASE_A_COMP_PER_XT.                 0 :Phase A Comparator Period Xt
U-MAX_EXC_CUR_LIMIT.MA       240.00000   :Requested CM Current Limit
U-REQ_EXC_FQ.HZ              50          :Requested CM Frequency
U-TILT_Y_OFFSET.           0.19916       :WPTET Tilt Y Offset
U-TILT_Y_GAIN.           1.01796         :WPTET Tilt Y Gain
U-TILT_X_OFFSET.          -1.77103       :WPTET Tilt X Offset
U-TILT_X_GAIN.           1.00000         :WPTET Tilt X Gain
U-TILT_OFFSET_TOL.           0.00100     :WPTET Tilt Offset Calibration Tolerance
U-NO_TILT_CAL_ROTATIONS.                 3 :Number of Rotations for Tilt Calibration
HAZI .DEG        0.00000                 :Hole Azimuth
U-STD_TOL_TILT.           0.01000        :Tilt Standard Deviation Tolerance
U-GUN_POS_TOL.DEG        5.00000         :Gun Position Tolerance
ROT_ANGLE_THRESHOLD.DEG        5.00000   :Rotation Stop Angle Tolerance
STOP_ROT_ANGLE.DEG        0.00000        :Rotation Stop Angle
WITN .        MR. DHRUA ARORA            :Witness's Name
ENGI .        MORRIS MOORE               :Engineer's Name
COUN .        HARRIS                     :County or Rig Name
FN   .        WILDCAT                    :Field Name
WN   .        WPP TEST 2                 :Well Name
CN   .        SHELL INTERNATIONAL E P    :Company Name
CLAB .        County                     :County/Rig Label
SLAB .        State                      :State/Province Label
RUN  .          1                        :RUN NUMBER
PDAT .        GROUND LEVEL               :Permanent Datum
EPD  .                                   :Elevation of Permanent Datum above Mean Sea Level
LMF  .          NA                       :Logging Measured From (Name of Logging Elevation Reference)
APD  .                                   :Elevation of Depth Reference (LMF) above Permanent Datum
#-----------------------------------------------------------------------------
~CURVE INFORMATION
#MNEM.UNIT   API CODE                                  DESCRIPTION
#---- -----  --------                                  -----------------------
TIME .S                                                :TIME {F10.1}
FREQ_EMF_SL.HZ                                         :Electromagnetic Field Frequency {F13.4}
PH_SH_WPPCM_SL.DEG                                     :WPPCM Phase Shift {F13.4}
FREQ_EXC_REQ_SL.HZ                                     :Requested Exciter Frequency {F13.4}
RB_SL.DEG                                              :Relative Bearing {F13.4}
SDEV_SL.DEG                                            :Sonde Deviation {F13.4}
TILX_SL.DEG                                            :X-axis Tilt {F13.4}
TILY_SL.DEG                                            :Y-axis Tilt {F13.4}
ROTA_SL.DEG                                            :Motor Rotation Angle {F13.4}
MSPE_SL.RPM                                            :Motor Speed {F13.4}
#-----------------------------------------------------------------------------
# 
#     TIME    FREQ_EMF_SL  PH_SH_WPPCM_ FREQ_EXC_REQ    RB_SL       SDEV_SL      TILX_SL      TILY_SL      ROTA_SL      MSPE_SL
#                          SL           _SL
~A  
# ...
    1611.0     851.2280       0.0000      50.8611     -76.2978       1.1721      -1.1273      -0.2892     296.6805       1.0226
    1612.0     842.5940       0.0000      50.8611     -67.6213       1.0892      -1.0073      -0.4142     302.7889       1.0279
    1613.0     835.5437       0.0000      50.8611     -64.7362       1.1147      -1.0079      -0.4758     308.8848       1.0280
    1614.0     830.6196       0.0000      50.8611     -63.2674       1.3323      -1.1883      -0.5990     315.3991       1.0279
    1615.0     833.0640       0.0000      50.8611     -64.1630       1.1409      -1.0271      -0.4959     321.5074       1.0226
    1616.0     831.1317       0.0000      50.8611     -60.6970       1.1099      -0.9633      -0.4775     327.6108       1.0226
    1617.0     836.0903       0.0000      50.8611     -59.8802       1.1908      -1.0282      -0.5973     333.7003       1.0280
    1618.0     842.5940       0.0000      50.8611     -57.9272       1.1653      -0.9875      -0.6186     339.8029       1.0226
    1619.0     853.3071       0.0000      50.8611     -62.4232       1.1600      -1.0282      -0.5368     345.9047       1.0226
    1620.0     871.3902       0.0000      50.8611     -54.0940       0.7808      -0.6271      -0.4539     352.0024       1.0280
    1621.0     887.2951       0.0000      50.8611     -60.6421       1.2246      -1.0673      -0.5984     358.1106       1.0226
    1622.0     911.9650       0.0000      50.8611     -58.1427       1.2101      -1.0277      -0.6388       4.2125       1.0226
    1623.0     944.4558       0.0000      50.8611     -57.8683       1.2385      -1.0480      -0.6589      10.3143       1.0226
    1624.0     973.3045       0.0000      50.8611     -55.9865       1.2167      -1.0084      -0.6797      16.4038       1.0226
    1625.0    1010.3890       0.0000      50.8611     -54.9201       1.1841      -0.9688      -0.6808      22.5071       1.0226
    1626.0    1078.6961       0.0000      50.8611     -52.9155       1.2636      -1.0079      -0.7620      29.0190       1.0280
    1627.0    1206.2772       0.0000      50.8611     -51.3573       1.3175      -1.0282      -0.8225      35.1165       1.0226
    1628.0    1279.6789       0.0000      50.8611     -53.0984       1.2349      -0.9875      -0.7413      41.2187       1.0229
    1629.0    1321.8749       0.0000      50.8611     -52.3379       1.1466      -0.9077      -0.7004      47.3341       1.0279
    1630.0    1368.0414       0.0000      50.8611     -52.9473       1.1660      -0.9270      -0.7015      53.4252       1.0226
    1631.0    1420.4998       0.0000      50.8611     -52.6773       1.1900      -0.9468      -0.7205      59.5270       1.0226
    1632.0    1471.0832       0.0000      50.8611     -50.3034       1.2248      -0.9424      -0.7822      65.6299       1.0320
    1633.0    1523.6487       0.0000      50.8611     -46.6052       1.0832      -0.7861      -0.7418      71.7447       1.0226
    1634.0    1578.3092       0.0000      50.8611     -47.4932       1.0959      -0.8070      -0.7407      77.8465       1.0226
    1635.0    1625.9061       0.0000      50.8611     -48.2503       1.0820      -0.8070      -0.7205      83.9467       1.0226
    1636.0    1674.2548       0.0000      50.8611     -41.8266       1.1158      -0.7487      -0.8236      90.0377       1.0226
    1637.0    1719.2887       0.0000      50.8611     -45.8404       1.1238      -0.8065      -0.7822      96.1658       1.0279
    1638.0    1755.7330       0.0000      50.8611     -48.0607       1.1698      -0.8676      -0.7833     102.6479       1.0226
    1639.0    1786.9684       0.0000      50.8611     -48.3255       1.0546      -0.7867      -0.7009     108.7388       1.0226
    1640.0    1812.3544       0.0000      50.8611     -41.4618       0.9134      -0.6051      -0.6802     114.8391       1.0226
    1641.0    1823.9656       0.0000      50.8611     -42.6297       0.9814      -0.6656      -0.7205     120.9424       1.0226
    1642.0    1845.4724       0.0000      50.8611     -39.9976       0.9427      -0.6056      -0.7211     127.0335       1.0226
    1643.0    1852.8036       0.0000      50.8611     -51.8279       1.0013      -0.7872      -0.6186     133.1357       1.0226
    1644.0    1858.3027       0.0000      50.8611     -52.5113       1.0939      -0.8753      -0.6500     139.2317       1.0173
    1645.0    1857.6313       0.0000      50.8611     -41.4042       1.0398      -0.6860      -0.7810     145.3281       1.0226
    1646.0    1845.4724       0.0000      50.8611     -44.3722       0.8680      -0.6056      -0.6192     151.4243       1.0279
    1647.0    1838.2715       0.0000      50.8611     -45.5071       0.8239      -0.5864      -0.5772     157.5459       1.0279
    1648.0    1819.1815       0.0000      50.8611     -52.1095       0.8425      -0.6656      -0.5161     163.6493       1.0173
    1649.0    1795.9484       0.0000      50.8611     -52.7992       0.7867      -0.6266      -0.4758     169.7374       1.0226
    1650.0    1773.2622       0.0000      50.8611     -52.8889       0.8607      -0.6876      -0.5167     176.0445       1.0226
    1651.0    1740.3326       0.0000      50.8611     -49.2635       0.8534      -0.6464      -0.5570     182.3476       1.0226
    1652.0    1704.4828       0.0000      50.8611     -57.9428       0.8594      -0.7272      -0.4545     188.4495       1.0226
    1653.0    1668.0890       0.0000      50.8611     -58.0155       0.8568      -0.7261      -0.4545     194.5514       1.0226
    1654.0    1621.9488       0.0000      50.8611     -48.9677       0.7871      -0.5858      -0.5178     200.6679       1.0226
    1655.0    1576.4728       0.0000      50.8611     -58.2868       0.8316      -0.7074      -0.4343     206.7780       1.0279
    1656.0    1526.8208       0.0000      50.8611     -58.5431       0.7639      -0.6514      -0.3986     212.8849       1.0226
    1657.0    1474.0206       0.0000      50.8611     -59.8240       0.8637      -0.7465      -0.4343     218.9868       1.0226
    1658.0    1424.7536       0.0000      50.8611     -61.5694       0.7809      -0.6860      -0.3727     225.0887       1.0226
    1659.0    1384.0509       0.0000      50.8611     -67.8747       0.8285      -0.7674      -0.3122     231.2037       1.0226
    1660.0    1340.5050       0.0000      50.8611     -65.9553       0.8187      -0.7465      -0.3329     237.3202       1.0226
    1661.0    1266.8348       0.0000      50.8611     -66.4126       0.8809      -0.8070      -0.3525     243.4206       1.0226
    1662.0    1178.7018       0.0000      50.8611     -70.5257       0.8137      -0.7669      -0.2713     249.5241       1.0173
    1663.0    1087.5784       0.0000      50.8611     -67.2096       0.8543      -0.7867      -0.3318     256.0317       1.0226
    1664.0    1021.2043       0.0000      50.8611     -75.0237       0.7490      -0.7245      -0.1890     262.1335       1.0226
    1665.0     979.9413       0.0000      50.8611     -68.7393       0.9728      -0.9066      -0.3525     268.2369       1.0226
    1666.0     943.7495       0.0000      50.8611     -72.5149       0.9718      -0.9270      -0.2915     274.3387       1.0226
    1667.0     918.4748       0.0000      50.8611     -68.1241       1.1082      -1.0277      -0.4136     280.4343       1.0174
    1668.0     895.9538       0.0000      50.8611     -71.6642       0.9626      -0.9123      -0.3024     286.5301       1.0226
    1669.0     874.5336       0.0000      50.8611     -70.9010       1.3016      -1.2318      -0.4142     292.6195       1.0226
    1670.0     855.8760       0.0000      50.8611     -69.9842       1.0294      -0.9671      -0.3525     298.7213       1.0226
    1671.0     852.2414       0.0000      50.8611     -72.3032       1.1003      -1.0475      -0.3329     304.8363       1.0226
    1672.0     839.5942       0.0000      50.8611     -66.0869       0.9710      -0.8851      -0.3744     310.9513       1.0279
    1673.0     833.1183       0.0000      50.8611     -72.3714       1.3092      -1.2478      -0.3940     317.0407       1.0226
