~VERSION INFORMATION
VERS.           2.0   :CWLS Log ASCII Standard - VERSION 2.0
WRAP.           NO    :One Line per depth step
PROD.  Schlumberger   :LAS Producer
PROG.  DLIS to ASCII 19C2-270                          :LAS Program name and version
CREA.        2017/09/16 17:42                          :LAS Creation date {YYYY/MM/DD hh:mm}
DLIS_CREA.  2017-Sep-15 18:33                          :DLIS Creation date and time {YYYY-MMM-DD hh:mm}
SOURCE.     LPC_S4-1_2BV.DLIS                          :DLIS File Name
FILE-ID.     PERFO_Perfo_WPGRT_056LTP                  :File Identification Number
#--------------------------------------------------
~WELL INFORMATION
#MNEM.UNIT      DATA             DESCRIPTION
#---- ------ --------------   -----------------------------
STRT .S         5560.0       :START TIME      
STOP .S         6042.0       :STOP TIME      
STEP .S            1.0       :STEP     
NULL .          -999.25      :NULL VALUE
COMP .        SHELL INTERNATIONAL E P                  :COMPANY
WELL .        WPP TEST 2                               :WELL
FLD  .        WILDCAT                                  :FIELD
LOC  .        NA                                       :LOCATION
CNTY .        HARRIS                                   :COUNTY
STAT .        TEXAS                                    :STATE
CTRY .                                                 :COUNTRY
API  .        NA                                       :API NUMBER
UWI  .                                                 :UNIQUE WELL ID
DATE .        15-Sep-2017                              :LOG DATE {DD-MMM-YYYY}
SRVC .        Schlumberger                             :SERVICE COMPANY
LATI .DEG                                              :LATITUDE
LONG .DEG                                              :LONGITUDE
GDAT .                                                 :GeoDetic Datum
SECT .        NA                                       :Section
RANG .        NA                                       :Range
TOWN .        NA                                       :Township
#-----------------------------------------------------------------------------
~PARAMETER INFORMATION
#MNEM.UNIT    VALUE                      DESCRIPTION
#---- -----   --------------------       ------------------------
U-PHASE_B_COMP_PER_YT.                 0 :Phase B Comparator Period Yt
U-PHASE_A_COMP_PER_XT.                 0 :Phase A Comparator Period Xt
U-MAX_EXC_CUR_LIMIT.MA       240.00000   :Requested CM Current Limit
U-REQ_EXC_FQ.HZ              50          :Requested CM Frequency
U-TILT_Y_OFFSET.           0.19916       :WPTET Tilt Y Offset
U-TILT_Y_GAIN.           1.01796         :WPTET Tilt Y Gain
U-TILT_X_OFFSET.          -1.77103       :WPTET Tilt X Offset
U-TILT_X_GAIN.           1.00000         :WPTET Tilt X Gain
U-TILT_OFFSET_TOL.           0.00100     :WPTET Tilt Offset Calibration Tolerance
U-NO_TILT_CAL_ROTATIONS.                 3 :Number of Rotations for Tilt Calibration
HAZI .DEG        0.00000                 :Hole Azimuth
U-STD_TOL_TILT.           0.01000        :Tilt Standard Deviation Tolerance
U-GUN_POS_TOL.DEG        5.00000         :Gun Position Tolerance
ROT_ANGLE_THRESHOLD.DEG        5.00000   :Rotation Stop Angle Tolerance
STOP_ROT_ANGLE.DEG        0.00000        :Rotation Stop Angle
WITN .        MR. DHRUA ARORA            :Witness's Name
ENGI .        MORRIS MOORE               :Engineer's Name
COUN .        HARRIS                     :County or Rig Name
FN   .        WILDCAT                    :Field Name
WN   .        WPP TEST 2                 :Well Name
CN   .        SHELL INTERNATIONAL E P    :Company Name
CLAB .        County                     :County/Rig Label
SLAB .        State                      :State/Province Label
RUN  .          1                        :RUN NUMBER
PDAT .        GROUND LEVEL               :Permanent Datum
EPD  .                                   :Elevation of Permanent Datum above Mean Sea Level
LMF  .          NA                       :Logging Measured From (Name of Logging Elevation Reference)
APD  .                                   :Elevation of Depth Reference (LMF) above Permanent Datum
#-----------------------------------------------------------------------------
~CURVE INFORMATION
#MNEM.UNIT   API CODE                                  DESCRIPTION
#---- -----  --------                                  -----------------------
TIME .S                                                :TIME {F10.1}
FREQ_EMF_SL.HZ                                         :Electromagnetic Field Frequency {F13.4}
PH_SH_WPPCM_SL.DEG                                     :WPPCM Phase Shift {F13.4}
FREQ_EXC_REQ_SL.HZ                                     :Requested Exciter Frequency {F13.4}
RB_SL.DEG                                              :Relative Bearing {F13.4}
SDEV_SL.DEG                                            :Sonde Deviation {F13.4}
TILX_SL.DEG                                            :X-axis Tilt {F13.4}
TILY_SL.DEG                                            :Y-axis Tilt {F13.4}
ROTA_SL.DEG                                            :Motor Rotation Angle {F13.4}
MSPE_SL.RPM                                            :Motor Speed {F13.4}
#-----------------------------------------------------------------------------
# 
#     TIME    FREQ_EMF_SL  PH_SH_WPPCM_ FREQ_EXC_REQ    RB_SL       SDEV_SL      TILX_SL      TILY_SL      ROTA_SL      MSPE_SL
#                          SL           _SL
~A  
# ...
    5623.0    1444.9471       0.0000      50.8611     -59.7282       0.9594      -0.8247      -0.4779     314.6928       1.0226
    5624.0    1444.4468       0.0000      50.8611     -62.5802       0.9896      -0.8785      -0.4551     320.8076       1.0226
    5625.0    1441.4856       0.0000      50.8611     -61.0409       0.9402      -0.8227      -0.4551     326.9175       1.0292
    5626.0    1441.9837       0.0000      50.8611     -67.4453       0.9567      -0.8785      -0.3712     333.0244       1.0162
    5627.0    1436.7390       0.0000      50.8611     -66.4020       0.9340      -0.8560      -0.3733     339.1271       1.0226
    5628.0    1434.9490       0.0000      50.8611     -65.4993       1.0367      -0.9432      -0.4301     345.2289       1.0226
    5629.0    1434.9490       0.0000      50.8611     -61.8043       1.0837      -0.9520      -0.5139     351.3439       1.0226
    5630.0    1428.4827       0.0000      50.8611     -68.7047       1.0311      -0.9609      -0.3733     357.4457       1.0226
    5631.0    1419.8291       0.0000      50.8611     -62.1701       1.0201      -0.9010      -0.4779       3.5400       1.0185
    5632.0    1416.9677       0.0000      50.8611     -60.6002       1.0764      -0.9364      -0.5299       9.6370       1.0226
    5633.0    1418.2253       0.0000      50.8611     -64.9584       1.1126      -1.0079      -0.4710      15.7388       1.0226
    5634.0    1402.2329       0.0000      50.8611     -63.2482       1.0488      -0.9364      -0.4710      21.8283       1.0226
    5635.0    1402.8325       0.0000      50.8611     -65.8447       1.0509      -0.9589      -0.4301      27.9320       1.0226
    5636.0    1383.0438       0.0000      50.8611     -60.0296       1.0246      -0.8874      -0.5119      34.0319       1.0226
    5637.0    1361.6175       0.0000      50.8611     -59.1837       1.1460      -0.9834      -0.5867      40.1337       1.0226
    5638.0    1365.8797       0.0000      50.8611     -58.2742       1.0806      -0.9187      -0.5687      46.2412       1.0162
    5639.0    1357.3842       0.0000      50.8611     -64.7992       1.0825      -0.9745      -0.4571      52.3513       1.0226
    5640.0    1343.8466       0.0000      50.8611     -60.5631       1.0711      -0.9295      -0.5188      58.4532       1.0226
    5641.0    1343.8466       0.0000      50.8611     -56.3723       1.0735      -0.8942      -0.5937      64.5474       1.0162
    5642.0    1317.6769       0.0000      50.8611     -56.9333       1.0589      -0.8874      -0.5777      70.6444       1.0226
    5643.0    1306.3938       0.0000      50.8611     -57.5825       1.1363      -0.9589      -0.6096      76.7592       1.0226
    5644.0    1294.3693       0.0000      50.8611     -56.4208       1.1211      -0.9344      -0.6186      82.8610       1.0226
    5645.0    1278.3181       0.0000      50.8611     -61.6238       1.1832      -1.0412      -0.5618      89.3753       1.0226
    5646.0    1259.2016       0.0000      50.8611     -55.9457       1.1332      -0.9364      -0.6366      95.4733       1.0226
    5647.0    1254.3412       0.0000      50.8611     -54.2058       1.2134      -0.9834      -0.7094     101.5647       1.0185
    5648.0    1236.0980       0.0000      50.8611     -55.7360       1.0550      -0.8717      -0.5937     107.6523       1.0250
    5649.0    1239.6020       0.0000      50.8611     -50.2230       1.1046      -0.8472      -0.7073     113.7596       1.0162
    5650.0    1238.8704       0.0000      50.8611     -56.7986       1.0323      -0.8608      -0.5548     119.8697       1.0226
    5651.0    1232.7101       0.0000      50.8611     -57.1727       1.0765      -0.9030      -0.5847     125.9727       1.0226
    5652.0    1225.7902       0.0000      50.8611     -53.4949       0.9854      -0.7914      -0.5867     132.0610       1.0185
    5653.0    1240.9338       0.0000      50.8611     -54.2941       1.1312      -0.9187      -0.6595     138.1760       1.0226
    5654.0    1240.0793       0.0000      50.8611     -49.7933       1.1096      -0.8472      -0.7163     144.2779       1.0226
    5655.0    1236.9525       0.0000      50.8611     -55.3176       1.0820      -0.8894      -0.6096     150.3930       1.0226
    5656.0    1250.7423       0.0000      50.8611     -56.1109       0.9912      -0.8227      -0.5528     156.4826       1.0226
    5657.0    1262.4804       0.0000      50.8611     -52.1824       1.0101      -0.7982      -0.6186     162.9944       1.0226
    5658.0    1276.2297       0.0000      50.8611     -53.5709       1.0746      -0.8649      -0.6345     169.0952       1.0268
    5659.0    1287.2602       0.0000      50.8611     -50.0391       1.0427      -0.7982      -0.6685     175.2101       1.0268
    5660.0    1317.8169       0.0000      50.8611     -53.1174       0.9897      -0.7914      -0.5937     181.3120       1.0226
    5661.0    1333.2175       0.0000      50.8611     -55.0063       0.9361      -0.7669      -0.5368     187.4270       1.0226
    5662.0    1338.2928       0.0000      50.8611     -56.4253       0.8805      -0.7335      -0.4869     193.5289       1.0226
    5663.0    1354.0064       0.0000      50.8611     -50.1244       0.9742      -0.7483      -0.6236     199.6308       1.0226
    5664.0    1363.2315       0.0000      50.8611     -50.0423       0.9886      -0.7580      -0.6345     205.7327       1.0226
    5665.0    1367.5062       0.0000      50.8611     -55.5373       0.9490      -0.7825      -0.5368     211.8346       1.0226
    5666.0    1373.2910       0.0000      50.8611     -55.7187       0.9095      -0.7512      -0.5119     217.9241       1.0226
    5667.0    1382.4456       0.0000      50.8611     -53.2594       1.0074      -0.8070      -0.6027     224.0260       1.0226
    5668.0    1391.8698       0.0000      50.8611     -55.4495       0.9206      -0.7580      -0.5209     230.1298       1.0226
    5669.0    1396.3292       0.0000      50.8611     -53.9177       0.8690      -0.7022      -0.5119     236.6254       1.0226
    5670.0    1401.7378       0.0000      50.8611     -57.4309       0.8829      -0.7444      -0.4710     242.7405       1.0226
    5671.0    1407.8483       0.0000      50.8611     -55.8260       0.9272      -0.7669      -0.5209     248.8300       1.0226
    5672.0    1419.3377       0.0000      50.8611     -48.2139       0.9758      -0.7267      -0.6505     254.9196       1.0292
    5673.0    1419.5290       0.0000      50.8611     -59.8161       0.7311      -0.6327      -0.3663     261.0345       1.0226
    5674.0    1418.7077       0.0000      50.8611     -52.7537       0.9132      -0.7267      -0.5528     267.1443       1.0292
    5675.0    1429.9668       0.0000      50.8611     -59.2756       0.8667      -0.7453      -0.4391     273.2512       1.0226
    5676.0    1436.7390       0.0000      50.8611     -61.7069       0.9265      -0.8159      -0.4391     279.3609       1.0268
    5677.0    1434.9490       0.0000      50.8611     -62.8393       1.0105      -0.8854      -0.4501     285.4678       1.0226
    5678.0    1439.6807       0.0000      50.8611     -60.3793       0.9011      -0.7825      -0.4461     291.5697       1.0226
    5679.0    1441.4856       0.0000      50.8611     -66.8827       1.0806      -0.9942      -0.4232     297.6723       1.0226
    5680.0    1439.6807       0.0000      50.8611     -62.0973       0.9299      -0.8207      -0.4371     303.7742       1.0226
    5681.0    1440.8298       0.0000      50.8611     -62.4528       1.0094      -0.8942      -0.4640     310.1460       1.0268
    5682.0    1446.7593       0.0000      50.8611     -62.2000       0.8680      -0.7669      -0.4052     316.4121       1.0292
    5683.0    1441.9837       0.0000      50.8611     -60.2106       0.9523      -0.8227      -0.4730     322.5227       1.0292
    5684.0    1440.8298       0.0000      50.8611     -65.9221       0.9550      -0.8717      -0.3892     328.6173       1.0226
    5685.0    1436.0934       0.0000      50.8611     -63.4540       1.0378      -0.9275      -0.4640     334.7191       1.0226
