~VERSION INFORMATION
VERS.           2.0   :CWLS Log ASCII Standard - VERSION 2.0
WRAP.           NO    :One Line per depth step
PROD.  Schlumberger   :LAS Producer
PROG.  DLIS to ASCII 19C2-270                          :LAS Program name and version
CREA.        2017/09/16 17:42                          :LAS Creation date {YYYY/MM/DD hh:mm}
DLIS_CREA.  2017-Sep-15 13:29                          :DLIS Creation date and time {YYYY-MMM-DD hh:mm}
SOURCE.     LPC_S1-1_2A5.DLIS                          :DLIS File Name
FILE-ID.     PERFO_Perfo_WPGRT_025LTP                  :File Identification Number
#--------------------------------------------------
~WELL INFORMATION
#MNEM.UNIT      DATA             DESCRIPTION
#---- ------ --------------   -----------------------------
STRT .S         9747.0       :START TIME      
STOP .S        10374.0       :STOP TIME      
STEP .S            1.0       :STEP     
NULL .          -999.25      :NULL VALUE
COMP .        SHELL INTERNATIONAL E P                  :COMPANY
WELL .        WPP TEST 2                               :WELL
FLD  .        WILDCAT                                  :FIELD
LOC  .                                                 :LOCATION
CNTY .        HARRIS                                   :COUNTY
STAT .        TEXAS                                    :STATE
CTRY .                                                 :COUNTRY
API  .                                                 :API NUMBER
UWI  .                                                 :UNIQUE WELL ID
DATE .                                                 :LOG DATE
SRVC .        Schlumberger                             :SERVICE COMPANY
LATI .DEG                                              :LATITUDE
LONG .DEG                                              :LONGITUDE
GDAT .                                                 :GeoDetic Datum
#-----------------------------------------------------------------------------
~PARAMETER INFORMATION
#MNEM.UNIT    VALUE                      DESCRIPTION
#---- -----   --------------------       ------------------------
U-PHASE_B_COMP_PER_YT.                 0 :Phase B Comparator Period Yt
U-PHASE_A_COMP_PER_XT.                 0 :Phase A Comparator Period Xt
U-MAX_EXC_CUR_LIMIT.MA       240.00000   :Requested CM Current Limit
U-REQ_EXC_FQ.HZ              40          :Requested CM Frequency
U-TILT_Y_OFFSET.           0.19916       :WPTET Tilt Y Offset
U-TILT_Y_GAIN.           1.01796         :WPTET Tilt Y Gain
U-TILT_X_OFFSET.          -1.77103       :WPTET Tilt X Offset
U-TILT_X_GAIN.           1.00000         :WPTET Tilt X Gain
U-TILT_OFFSET_TOL.           0.00100     :WPTET Tilt Offset Calibration Tolerance
U-NO_TILT_CAL_ROTATIONS.                 3 :Number of Rotations for Tilt Calibration
HAZI .DEG        0.00000                 :Hole Azimuth
U-STD_TOL_TILT.           0.01000        :Tilt Standard Deviation Tolerance
U-GUN_POS_TOL.DEG        5.00000         :Gun Position Tolerance
ROT_ANGLE_THRESHOLD.DEG        5.00000   :Rotation Stop Angle Tolerance
STOP_ROT_ANGLE.DEG       80.00000        :Rotation Stop Angle
WITN .                                   :Witness's Name
ENGI .                                   :Engineer's Name
COUN .        HARRIS                     :County or Rig Name
FN   .        WILDCAT                    :Field Name
WN   .        WPP TEST 2                 :Well Name
CN   .        SHELL INTERNATIONAL E P    :Company Name
CLAB .        County                     :County/Rig Label
SLAB .        State                      :State/Province Label
RUN  .          1                        :RUN NUMBER
PDAT .        GROUND LEVEL               :Permanent Datum
EPD  .                                   :Elevation of Permanent Datum above Mean Sea Level
LMF  .                                   :Logging Measured From (Name of Logging Elevation Reference)
APD  .                                   :Elevation of Depth Reference (LMF) above Permanent Datum
#-----------------------------------------------------------------------------
~CURVE INFORMATION
#MNEM.UNIT   API CODE                                  DESCRIPTION
#---- -----  --------                                  -----------------------
TIME .S                                                :TIME {F10.1}
FREQ_EMF_SL.HZ                                         :Electromagnetic Field Frequency {F13.4}
PH_SH_WPPCM_SL.DEG                                     :WPPCM Phase Shift {F13.4}
FREQ_EXC_REQ_SL.HZ                                     :Requested Exciter Frequency {F13.4}
RB_SL.DEG                                              :Relative Bearing {F13.4}
SDEV_SL.DEG                                            :Sonde Deviation {F13.4}
TILX_SL.DEG                                            :X-axis Tilt {F13.4}
TILY_SL.DEG                                            :Y-axis Tilt {F13.4}
ROTA_SL.DEG                                            :Motor Rotation Angle {F13.4}
MSPE_SL.RPM                                            :Motor Speed {F13.4}
#-----------------------------------------------------------------------------
# 
#     TIME    FREQ_EMF_SL  PH_SH_WPPCM_ FREQ_EXC_REQ    RB_SL       SDEV_SL      TILX_SL      TILY_SL      ROTA_SL      MSPE_SL
#                          SL           _SL
~A  
# ...
   10314.0    1357.0224       0.0000      50.8611      76.5297       3.2593       3.1695      -0.7588     315.1798       1.0272
   10315.0    1358.5132       0.0000      50.8611      83.7743       3.2288       3.2096      -0.3500     321.2778       1.0226
   10316.0    1369.8511       0.0000      50.8611      91.8275       3.1310       3.1293       0.0998     327.7971       1.0226
   10317.0    1363.0202       0.0000      50.8611      99.4555       3.0968       3.0546       0.5087     333.8992       1.0166
   10318.0    1370.2452       0.0000      50.8611     107.8274       3.1906       3.0373       0.9760     339.9888       1.0226
   10319.0    1377.5164       0.0000      50.8611     116.5741       2.9926       2.6762       1.3383     346.1031       1.0272
   10320.0    1379.4546       0.0000      50.8611     126.4372       3.0892       2.4810       1.8343     352.2177       1.0226
   10321.0    1380.2204       0.0000      50.8611     131.7079       3.1098       2.3204       2.0681     358.3197       1.0226
   10322.0    1379.4726       0.0000      50.8611     140.6924       3.2294       2.0452       2.4946       4.4246       1.0226
   10323.0    1391.9462       0.0000      50.8611     147.8194       3.2593       1.7351       2.7575      10.5322       1.0226
   10324.0    1388.7911       0.0000      50.8611     155.6554       3.2331       1.3331       2.9444      16.6425       1.0226
   10325.0    1391.1435       0.0000      50.8611     162.2211       3.3931       1.0350       3.2306      22.7412       1.0166
   10326.0    1394.7073       0.0000      50.8611     170.8417       3.4797       0.5530       3.4350      28.8337       1.0226
   10327.0    1400.2623       0.0000      50.8611     178.1806       3.5188       0.1112       3.5168      34.9350       1.0226
   10328.0    1395.4823       0.0000      50.8611    -176.0537       3.6307      -0.2503       3.6219      41.4422       1.0226
   10329.0    1401.0436       0.0000      50.8611    -170.5229       3.6841      -0.6062       3.6337      47.5575       1.0272
   10330.0    1404.2684       0.0000      50.8611    -162.1403       3.8301      -1.1741       3.6452      53.6589       1.0226
   10331.0    1409.0682       0.0000      50.8611    -154.9055       3.9102      -1.6561       3.5405      59.7603       1.0226
   10332.0    1407.8564       0.0000      50.8611    -149.7099       4.0129      -2.0233       3.4641      65.8633       1.0181
   10333.0    1410.6810       0.0000      50.8611    -146.0670       4.1011      -2.2872       3.4003      71.9681       1.0226
   10334.0    1407.7655       0.0000      50.8611    -139.3901       4.1734      -2.7151       3.1664      77.6211       0.0011
   10335.0    1406.2500       0.0000      50.8611    -138.4218       4.2192      -2.7981       3.1549      77.7952       0.0005
   10336.0    1406.2500       0.0000      50.8611    -138.7630       4.2123      -2.7752       3.1664      77.7952       0.0005
   10337.0    1405.8619       0.0000      50.8611    -137.8872       4.2243      -2.8322       3.1312      77.7952       0.0005
   10338.0    1405.8619       0.0000      50.8611    -138.9409       4.2009      -2.7579       3.1664      77.7952       0.0005
   10339.0    1409.4691       0.0000      50.8611    -137.4276       4.2145      -2.8499       3.1022      77.7952       0.0005
   10340.0    1407.4618       0.0000      50.8611    -138.4619       4.1619      -2.7579       3.1141      77.7952       0.0005
   10341.0    1408.6785       0.0000      50.8611    -138.4539       4.1781      -2.7696       3.1255      77.7952       0.0005
   10342.0    1405.4473       0.0000      50.8611    -139.5748       4.1227      -2.6720       3.1374      77.7952       0.0005
   10343.0    1403.8409       0.0000      50.8611    -138.7721       4.2043      -2.7696       3.1607      77.7952       0.0005
   10344.0    1405.8619       0.0000      50.8611    -139.6052       4.1969      -2.7178       3.1954      77.7952       0.0005
   10345.0    1408.6785       0.0000      50.8611    -138.3866       4.1896      -2.7808       3.1312      77.7952       0.0005
   10346.0    1407.5542       0.0000      50.8611    -139.0696       4.1967      -2.7480       3.1695      77.7952       0.0005
   10347.0    1409.8814       0.0000      50.8611    -138.3872       4.1983      -2.7868       3.1374      77.7952       0.0005
   10348.0    1403.0566       0.0000      50.8611    -138.4140       4.1254      -2.7350       3.0850      77.7952       0.0005
   10349.0    1406.2500       0.0000      50.8611    -138.8877       4.2055      -2.7639       3.1664      77.7952       0.0005
   10350.0    1407.8564       0.0000      50.8611    -138.1450       4.1273      -2.7523       3.0732      77.7952       0.0005
   10351.0    1405.4473       0.0000      50.8611    -139.3640       4.1666      -2.7121       3.1607      77.7952       0.0005
   10352.0    1402.6811       0.0000      50.8611    -138.7740       4.1341      -2.7234       3.1079      77.7952       0.0005
   10353.0    1407.0785       0.0000      50.8611    -138.3393       4.1854      -2.7808       3.1255      77.7952       0.0005
   10354.0    1406.2500       0.0000      50.8611    -138.1454       4.2215      -2.8154       3.1431      77.7952       0.0005
   10355.0    1405.0430       0.0000      50.8611    -138.6298       4.1665      -2.7523       3.1255      77.7952       0.0005
   10356.0    1404.6501       0.0000      50.8611    -139.7774       4.1485      -2.6776       3.1664      77.7952       0.0005
   10357.0    1410.2849       0.0000      50.8611    -139.3640       4.1666      -2.7121       3.1607      77.7952       0.0005
   10358.0    1408.2589       0.0000      50.8611    -137.9090       4.2375      -2.8383       3.1433      77.7952       0.0005
   10359.0    1405.0430       0.0000      50.8611    -138.8322       4.1926      -2.7579       3.1549      77.7952       0.0005
   10360.0    1408.6785       0.0000      50.8611    -137.2207       4.1726      -2.8326       3.0613      77.7952       0.0005
   10361.0    1405.0430       0.0000      50.8611    -138.5198       4.1659      -2.7579       3.1198      77.7952       0.0005
   10362.0    1403.8409       0.0000      50.8611    -138.8681       4.2135      -2.7696       3.1721      77.7952       0.0005
   10363.0    1407.4618       0.0000      50.8611    -138.3191       4.2181      -2.8037       3.1488      77.7952       0.0005
   10364.0    1410.6810       0.0000      50.8611    -139.1211       4.1896      -2.7406       3.1664      77.7952       0.0005
   10365.0    1406.6494       0.0000      50.8611    -138.4397       4.1865      -2.7752       3.1316      77.7952       0.0005
   10366.0    1403.0566       0.0000      50.8611    -137.3124       4.2061      -2.8499       3.0908      77.7952       0.0005
   10367.0    1405.4850       0.0000      50.8611    -138.3509       4.2073      -2.7925       3.1435      77.7952       0.0005
   10368.0    1408.2622       0.0000      50.8611    -138.3939       4.1816      -2.7752       3.1255      77.7952       0.0005
   10369.0    1405.4473       0.0000      50.8611    -139.5863       4.2833      -2.7752       3.2600      77.7952       0.0005
   10370.0    1407.0613       0.0000      50.8611    -138.9080       4.2177      -2.7695       3.1778      77.7952       0.0005
   10371.0    1408.3001       0.0000      50.8611    -138.3872       4.1983      -2.7868       3.1374      77.7952       0.0005
   10372.0    1407.4618       0.0000      50.8611    -139.6703       4.2550      -2.7523       3.2424      77.7952       0.0005
   10373.0    1405.4473       0.0000      50.8611    -138.5515       4.2645      -2.8210       3.1954      77.7952       0.0005
   10374.0    1407.8564       0.0000      50.8611    -139.3565       4.1746      -2.7178       3.1664      77.7952       0.0005
