~VERSION INFORMATION
VERS.           2.0   :CWLS Log ASCII Standard - VERSION 2.0
WRAP.           NO    :One Line per depth step
PROD.  Schlumberger   :LAS Producer
PROG.  DLIS to ASCII 19C2-270                          :LAS Program name and version
CREA.        2017/09/16 17:42                          :LAS Creation date {YYYY/MM/DD hh:mm}
DLIS_CREA.  2017-Sep-15 14:49                          :DLIS Creation date and time {YYYY-MMM-DD hh:mm}
SOURCE.     LPC_S2-1_BV.DLIS                           :DLIS File Name
FILE-ID.     PERFO_Perfo_WPGRT_031LTP                  :File Identification Number
#--------------------------------------------------
~WELL INFORMATION
#MNEM.UNIT      DATA             DESCRIPTION
#---- ------ --------------   -----------------------------
STRT .S        14524.0       :START TIME      
STOP .S        14987.0       :STOP TIME      
STEP .S            1.0       :STEP     
NULL .          -999.25      :NULL VALUE
COMP .        SHELL INTERNATIONAL E P                  :COMPANY
WELL .        WPP TEST 2                               :WELL
FLD  .        WILDCAT                                  :FIELD
LOC  .                                                 :LOCATION
CNTY .        HARRIS                                   :COUNTY
STAT .        TEXAS                                    :STATE
CTRY .                                                 :COUNTRY
API  .                                                 :API NUMBER
UWI  .                                                 :UNIQUE WELL ID
DATE .                                                 :LOG DATE
SRVC .        Schlumberger                             :SERVICE COMPANY
LATI .DEG                                              :LATITUDE
LONG .DEG                                              :LONGITUDE
GDAT .                                                 :GeoDetic Datum
#-----------------------------------------------------------------------------
~PARAMETER INFORMATION
#MNEM.UNIT    VALUE                      DESCRIPTION
#---- -----   --------------------       ------------------------
U-PHASE_B_COMP_PER_YT.                 0 :Phase B Comparator Period Yt
U-PHASE_A_COMP_PER_XT.                 0 :Phase A Comparator Period Xt
U-MAX_EXC_CUR_LIMIT.MA       240.00000   :Requested CM Current Limit
U-REQ_EXC_FQ.HZ              50          :Requested CM Frequency
U-TILT_Y_OFFSET.           0.19916       :WPTET Tilt Y Offset
U-TILT_Y_GAIN.           1.01796         :WPTET Tilt Y Gain
U-TILT_X_OFFSET.          -1.77103       :WPTET Tilt X Offset
U-TILT_X_GAIN.           1.00000         :WPTET Tilt X Gain
U-TILT_OFFSET_TOL.           0.00100     :WPTET Tilt Offset Calibration Tolerance
U-NO_TILT_CAL_ROTATIONS.                 3 :Number of Rotations for Tilt Calibration
HAZI .DEG        0.00000                 :Hole Azimuth
U-STD_TOL_TILT.           0.01000        :Tilt Standard Deviation Tolerance
U-GUN_POS_TOL.DEG        5.00000         :Gun Position Tolerance
ROT_ANGLE_THRESHOLD.DEG        5.00000   :Rotation Stop Angle Tolerance
STOP_ROT_ANGLE.DEG       80.00000        :Rotation Stop Angle
WITN .                                   :Witness's Name
ENGI .                                   :Engineer's Name
COUN .        HARRIS                     :County or Rig Name
FN   .        WILDCAT                    :Field Name
WN   .        WPP TEST 2                 :Well Name
CN   .        SHELL INTERNATIONAL E P    :Company Name
CLAB .        County                     :County/Rig Label
SLAB .        State                      :State/Province Label
RUN  .          1                        :RUN NUMBER
PDAT .        GROUND LEVEL               :Permanent Datum
EPD  .                                   :Elevation of Permanent Datum above Mean Sea Level
LMF  .                                   :Logging Measured From (Name of Logging Elevation Reference)
APD  .                                   :Elevation of Depth Reference (LMF) above Permanent Datum
#-----------------------------------------------------------------------------
~CURVE INFORMATION
#MNEM.UNIT   API CODE                                  DESCRIPTION
#---- -----  --------                                  -----------------------
TIME .S                                                :TIME {F10.1}
FREQ_EMF_SL.HZ                                         :Electromagnetic Field Frequency {F13.4}
PH_SH_WPPCM_SL.DEG                                     :WPPCM Phase Shift {F13.4}
FREQ_EXC_REQ_SL.HZ                                     :Requested Exciter Frequency {F13.4}
RB_SL.DEG                                              :Relative Bearing {F13.4}
SDEV_SL.DEG                                            :Sonde Deviation {F13.4}
TILX_SL.DEG                                            :X-axis Tilt {F13.4}
TILY_SL.DEG                                            :Y-axis Tilt {F13.4}
ROTA_SL.DEG                                            :Motor Rotation Angle {F13.4}
MSPE_SL.RPM                                            :Motor Speed {F13.4}
#-----------------------------------------------------------------------------
# 
#     TIME    FREQ_EMF_SL  PH_SH_WPPCM_ FREQ_EXC_REQ    RB_SL       SDEV_SL      TILX_SL      TILY_SL      ROTA_SL      MSPE_SL
#                          SL           _SL
~A  
# ...
   14650.0    1478.6747       0.0000      50.8611     -58.6369       0.9924      -0.8472      -0.5166     189.2825       1.0226
   14651.0    1464.8438       0.0000      50.8611     -61.1100       0.8988      -0.7867      -0.4344     195.3910       1.0279
   14652.0    1446.7593       0.0000      50.8611     -74.7448       0.8788      -0.8476      -0.2300     201.5024       1.0226
   14653.0    1427.6347       0.0000      50.8611     -65.9877       1.0166      -0.9279      -0.4146     207.6044       1.0226
   14654.0    1414.7157       0.0000      50.8611     -58.3689       0.9471      -0.8066      -0.4959     213.7128       1.0279
   14655.0    1388.1910       0.0000      50.8611     -67.8589       0.9368      -0.8675      -0.3526     220.0134       1.0226
   14656.0    1366.6695       0.0000      50.8611     -72.4425       0.8268      -0.7875      -0.2510     226.3164       1.0226
   14657.0    1348.2466       0.0000      50.8611     -71.7743       0.9981      -0.9478      -0.3117     232.4183       1.0226
   14658.0    1319.1530       0.0000      50.8611     -67.6329       1.0428      -0.9657      -0.3931     238.5079       1.0226
   14659.0    1302.0637       0.0000      50.8611     -63.9671       1.0361      -0.9275      -0.4559     244.6098       1.0226
   14660.0    1264.6401       0.0000      50.8611     -59.9385       1.0266      -0.8870      -0.5158     250.7148       1.0226
   14661.0    1231.3643       0.0000      50.8611     -61.4677       1.0424      -0.9076      -0.5023     256.8166       1.0186
   14662.0    1178.7289       0.0000      50.8611     -77.6700       1.0217      -0.9295      -0.2952     262.9095       1.0279
   14663.0    1138.6555       0.0000      50.8611     -59.1796       1.0862      -0.9275      -0.5583     269.0177       1.0226
   14664.0    1106.3923       0.0000      50.8611     -62.7175       1.0873      -0.9669      -0.4959     275.0977       1.0226
   14665.0    1067.7764       0.0000      50.8611     -55.2959       1.0098      -0.8269      -0.5769     281.1994       1.0226
   14666.0    1047.8544       0.0000      50.8611     -64.7739       1.0691      -0.9673      -0.4551     287.3011       1.0226
   14667.0    1033.2558       0.0000      50.8611     -52.2196       1.0124      -0.8050      -0.5984     293.3997       1.0226
   14668.0    1005.2084       0.0000      50.8611     -64.6047       1.3392      -1.2079      -0.5769     299.9093       1.0226
   14669.0     995.9278       0.0000      50.8611     -61.9219       1.0522      -0.9275      -0.4955     306.0110       1.0226
   14670.0     995.2164       0.0000      50.8611     -53.4232       1.0336      -0.8269      -0.6178     312.1004       1.0226
   14671.0     986.8357       0.0000      50.8611     -62.8873       1.1325      -1.0079      -0.5162     318.2121       1.0173
   14672.0     998.7733       0.0000      50.8611     -55.2639       0.9363      -0.7665      -0.5360     324.2797       1.0226
   14673.0     992.6391       0.0000      50.8611     -61.0332       1.1184      -0.9778      -0.5416     330.3813       1.0226
   14674.0     992.3970       0.0000      50.8611     -57.1197       1.1042      -0.9271      -0.5984     336.4830       1.0226
   14675.0    1004.4643       0.0000      50.8611     -52.9530       1.1638      -0.9279      -0.7000     342.5877       1.0226
   14676.0    1028.7921       0.0000      50.8611     -52.9498       1.0608      -0.8468      -0.6388     348.7027       1.0226
   14677.0    1054.2615       0.0000      50.8611     -54.7043       0.9648      -0.7871      -0.5571     354.8013       1.0226
   14678.0    1085.0888       0.0000      50.8611     -53.2155       1.0637      -0.8476      -0.6401       0.8907       1.0174
   14679.0    1120.5276       0.0000      50.8611     -52.3169       1.0450      -0.8269      -0.6388       7.0087       1.0226
   14680.0    1161.2407       0.0000      50.8611     -60.5624       1.1834      -1.0273      -0.5785      13.5154       1.0226
   14681.0    1214.4346       0.0000      50.8611     -51.1914       1.0869      -0.8468      -0.6801      19.6120       1.0121
   14682.0    1252.3068       0.0000      50.8611     -57.5021       1.0756      -0.9072      -0.5777      25.7016       1.0173
   14683.0    1283.1025       0.0000      50.8611     -56.4862       1.0876      -0.9068      -0.5984      31.8236       1.0279
   14684.0    1308.1132       0.0000      50.8611     -57.8894       1.0479      -0.8874      -0.5571      37.9385       1.0226
   14685.0    1334.2030       0.0000      50.8611     -53.7087       1.0789      -0.8675      -0.6384      44.0442       1.0226
   14686.0    1352.1945       0.0000      50.8611     -55.3830       1.0539      -0.8671      -0.5984      50.1307       1.0226
   14687.0    1377.3410       0.0000      50.8611     -51.3139       1.0878      -0.8472      -0.6805      56.2485       1.0173
   14688.0    1396.5287       0.0000      50.8611     -44.4943       0.9809      -0.6865      -0.7000      62.3479       1.0173
   14689.0    1417.5908       0.0000      50.8611     -49.7578       0.9255      -0.7064      -0.5980      68.4505       1.0226
   14690.0    1436.4015       0.0000      50.8611     -53.1893       1.0328      -0.8269      -0.6186      74.5564       1.0226
   14691.0    1463.3363       0.0000      50.8611     -48.4174       1.0254      -0.7673      -0.6801      80.6581       1.0226
   14692.0    1480.3009       0.0000      50.8611     -51.4785       0.9290      -0.7271      -0.5777      87.1680       1.0226
   14693.0    1502.4428       0.0000      50.8611     -55.4241       0.9835      -0.8074      -0.5567      93.2798       1.0226
   14694.0    1518.7225       0.0000      50.8611     -46.8418       0.9960      -0.7263      -0.6801      99.3884       1.0173
   14695.0    1530.1622       0.0000      50.8611     -53.6330       0.9774      -0.7875      -0.5777     105.4841       1.0226
   14696.0    1547.0486       0.0000      50.8611     -47.5888       0.7946      -0.5859      -0.5364     111.5796       1.0173
   14697.0    1559.1352       0.0000      50.8611     -52.7530       0.8873      -0.7064      -0.5368     117.6720       1.0173
   14698.0    1567.7102       0.0000      50.8611     -50.4816       0.6553      -0.5064      -0.4142     123.7676       1.0226
   14699.0    1569.5182       0.0000      50.8611     -59.2957       0.9202      -0.7863      -0.4745     129.6618       0.5064
   14700.0    1574.7676       0.0000      50.8611     -60.4825       0.8815      -0.7669      -0.4344     130.0627       0.0005
   14701.0    1576.4861       0.0000      50.8611     -56.0312       0.9250      -0.7673      -0.5166     130.0627       0.0005
   14702.0    1574.7324       0.0000      50.8611     -63.2733       0.8878      -0.7863      -0.3947     130.0627       0.0005
   14703.0    1580.0563       0.0000      50.8611     -60.5825       0.9265      -0.8070      -0.4551     130.0627       0.0005
   14704.0    1578.3026       0.0000      50.8611     -53.2433       0.9322      -0.7466      -0.5575     130.0627       0.0005
   14705.0    1574.7676       0.0000      50.8611     -53.7115       0.9774      -0.7867      -0.5781     130.0627       0.0005
   14706.0    1572.9866       0.0000      50.8611     -55.0063       0.9361      -0.7669      -0.5368     130.0627       0.0005
   14707.0    1578.2671       0.0000      50.8611     -54.1557       0.8469      -0.6865      -0.4959     130.0627       0.0005
   14708.0    1576.5134       0.0000      50.8611     -51.9008       0.8715      -0.6861      -0.5368     130.0627       0.0005
   14709.0    1576.5134       0.0000      50.8611     -52.4108       0.8433      -0.6662      -0.5158     130.0627       0.0005
   14710.0    1578.3026       0.0000      50.8611     -56.5032       0.8246      -0.6865      -0.4555     130.0627       0.0005
   14711.0    1580.0563       0.0000      50.8611     -57.4081       0.9582      -0.8070      -0.5162     130.0627       0.0005
   14712.0    1580.0171       0.0000      50.8611     -58.8280       0.9198      -0.7867      -0.4757     130.0627       0.0005
