~VERSION INFORMATION
VERS.           2.0   :CWLS Log ASCII Standard - VERSION 2.0
WRAP.           NO    :One Line per depth step
PROD.  Schlumberger   :LAS Producer
PROG.  DLIS to ASCII 19C2-270                          :LAS Program name and version
CREA.        2017/09/16 17:42                          :LAS Creation date {YYYY/MM/DD hh:mm}
DLIS_CREA.  2017-Sep-15 14:18                          :DLIS Creation date and time {YYYY-MMM-DD hh:mm}
SOURCE.     LPC_S2-1_AV.DLIS                           :DLIS File Name
FILE-ID.     PERFO_Perfo_WPGRT_028LTP                  :File Identification Number
#--------------------------------------------------
~WELL INFORMATION
#MNEM.UNIT      DATA             DESCRIPTION
#---- ------ --------------   -----------------------------
STRT .S        12646.0       :START TIME      
STOP .S        13087.0       :STOP TIME      
STEP .S            1.0       :STEP     
NULL .          -999.25      :NULL VALUE
COMP .        SHELL INTERNATIONAL E P                  :COMPANY
WELL .        WPP TEST 2                               :WELL
FLD  .        WILDCAT                                  :FIELD
LOC  .                                                 :LOCATION
CNTY .        HARRIS                                   :COUNTY
STAT .        TEXAS                                    :STATE
CTRY .                                                 :COUNTRY
API  .                                                 :API NUMBER
UWI  .                                                 :UNIQUE WELL ID
DATE .                                                 :LOG DATE
SRVC .        Schlumberger                             :SERVICE COMPANY
LATI .DEG                                              :LATITUDE
LONG .DEG                                              :LONGITUDE
GDAT .                                                 :GeoDetic Datum
#-----------------------------------------------------------------------------
~PARAMETER INFORMATION
#MNEM.UNIT    VALUE                      DESCRIPTION
#---- -----   --------------------       ------------------------
U-PHASE_B_COMP_PER_YT.                 0 :Phase B Comparator Period Yt
U-PHASE_A_COMP_PER_XT.                 0 :Phase A Comparator Period Xt
U-MAX_EXC_CUR_LIMIT.MA       240.00000   :Requested CM Current Limit
U-REQ_EXC_FQ.HZ              50          :Requested CM Frequency
U-TILT_Y_OFFSET.           0.19916       :WPTET Tilt Y Offset
U-TILT_Y_GAIN.           1.01796         :WPTET Tilt Y Gain
U-TILT_X_OFFSET.          -1.77103       :WPTET Tilt X Offset
U-TILT_X_GAIN.           1.00000         :WPTET Tilt X Gain
U-TILT_OFFSET_TOL.           0.00100     :WPTET Tilt Offset Calibration Tolerance
U-NO_TILT_CAL_ROTATIONS.                 3 :Number of Rotations for Tilt Calibration
HAZI .DEG        0.00000                 :Hole Azimuth
U-STD_TOL_TILT.           0.01000        :Tilt Standard Deviation Tolerance
U-GUN_POS_TOL.DEG        5.00000         :Gun Position Tolerance
ROT_ANGLE_THRESHOLD.DEG        5.00000   :Rotation Stop Angle Tolerance
STOP_ROT_ANGLE.DEG       80.00000        :Rotation Stop Angle
WITN .                                   :Witness's Name
ENGI .                                   :Engineer's Name
COUN .        HARRIS                     :County or Rig Name
FN   .        WILDCAT                    :Field Name
WN   .        WPP TEST 2                 :Well Name
CN   .        SHELL INTERNATIONAL E P    :Company Name
CLAB .        County                     :County/Rig Label
SLAB .        State                      :State/Province Label
RUN  .          1                        :RUN NUMBER
PDAT .        GROUND LEVEL               :Permanent Datum
EPD  .                                   :Elevation of Permanent Datum above Mean Sea Level
LMF  .                                   :Logging Measured From (Name of Logging Elevation Reference)
APD  .                                   :Elevation of Depth Reference (LMF) above Permanent Datum
#-----------------------------------------------------------------------------
~CURVE INFORMATION
#MNEM.UNIT   API CODE                                  DESCRIPTION
#---- -----  --------                                  -----------------------
TIME .S                                                :TIME {F10.1}
FREQ_EMF_SL.HZ                                         :Electromagnetic Field Frequency {F13.4}
PH_SH_WPPCM_SL.DEG                                     :WPPCM Phase Shift {F13.4}
FREQ_EXC_REQ_SL.HZ                                     :Requested Exciter Frequency {F13.4}
RB_SL.DEG                                              :Relative Bearing {F13.4}
SDEV_SL.DEG                                            :Sonde Deviation {F13.4}
TILX_SL.DEG                                            :X-axis Tilt {F13.4}
TILY_SL.DEG                                            :Y-axis Tilt {F13.4}
ROTA_SL.DEG                                            :Motor Rotation Angle {F13.4}
MSPE_SL.RPM                                            :Motor Speed {F13.4}
#-----------------------------------------------------------------------------
# 
#     TIME    FREQ_EMF_SL  PH_SH_WPPCM_ FREQ_EXC_REQ    RB_SL       SDEV_SL      TILX_SL      TILY_SL      ROTA_SL      MSPE_SL
#                          SL           _SL
~A  
# ...
   12709.0     978.2953       0.0000      50.8611     -58.2819       1.2255      -1.0370      -0.6452     207.4418       1.0226
   12710.0     976.4329       0.0000      50.8611     -52.5439       1.0910      -0.8690      -0.6511     213.5450       1.0226
   12711.0     967.5259       0.0000      50.8611     -61.3878       0.9664      -0.8502      -0.4551     219.6456       1.0226
   12712.0     971.9070       0.0000      50.8611     -63.3622       1.1072      -0.9898      -0.4959     225.7461       1.0226
   12713.0     975.4482       0.0000      50.8611     -54.9934       1.1904      -0.9717      -0.6861     231.8518       1.0256
   12714.0     981.5136       0.0000      50.8611     -59.0469       1.1161      -0.9597      -0.5665     237.9497       1.0226
   12715.0     986.7744       0.0000      50.8611     -63.3301       0.9532      -0.8472      -0.4295     244.0547       1.0226
   12716.0     993.6506       0.0000      50.8611     -51.7749       1.2988      -1.0219      -0.8006     250.4488       1.0226
   12717.0    1010.2371       0.0000      50.8611     -49.9125       0.9886      -0.7558      -0.6370     256.6634       1.0304
   12718.0    1030.0092       0.0000      50.8611     -67.9119       1.2279      -1.1354      -0.4591     262.7707       1.0226
   12719.0    1051.7182       0.0000      50.8611     -26.6415       0.5684      -0.2447      -0.5102     268.8701       1.0226
   12720.0    1107.9138       0.0000      50.8611     -53.8269       1.0216      -0.8141      -0.6104     274.9564       1.0226
   12721.0    1182.4421       0.0000      50.8611     -53.2176       1.0158      -0.8141      -0.6074     281.0727       1.0226
   12722.0    1241.8664       0.0000      50.8611     -58.8983       0.7941      -0.6760      -0.4147     287.1775       1.0226
   12723.0    1276.0889       0.0000      50.8611     -57.1295       0.9730      -0.8110      -0.5338     293.2761       1.0226
   12724.0    1303.8347       0.0000      50.8611     -56.8840       1.0688      -0.8944      -0.5849     299.3639       1.0226
   12725.0    1326.4157       0.0000      50.8611     -63.4024       0.8799      -0.7819      -0.3999     305.4714       1.0226
   12726.0    1348.8572       0.0000      50.8611     -50.8375       1.0323      -0.8000      -0.6523     311.5717       1.0226
   12727.0    1379.4214       0.0000      50.8611     -48.5919       0.9981      -0.7488      -0.6595     317.6815       1.0256
   12728.0    1411.1195       0.0000      50.8611     -53.2861       1.1588      -0.9275      -0.6932     324.0817       1.0226
   12729.0    1440.5540       0.0000      50.8611     -56.0994       0.9045      -0.7488      -0.5031     330.3073       1.0304
   12730.0    1457.1078       0.0000      50.8611     -49.5140       0.9701      -0.7377      -0.6298     336.3987       1.0197
   12731.0    1483.3861       0.0000      50.8611     -52.9306       1.0759      -0.8582      -0.6482     342.4973       1.0304
   12732.0    1527.6209       0.0000      50.8611     -53.6084       0.9749      -0.7849      -0.5777     348.6013       1.0226
   12733.0    1546.8655       0.0000      50.8611     -45.3455       0.9394      -0.6685      -0.6595     354.6972       1.0150
   12734.0    1569.1495       0.0000      50.8611     -61.6026       0.9176      -0.8070      -0.4364      99.8072       1.0226
   12735.0    1593.3958       0.0000      50.8611     -55.4850       1.0664      -0.8793      -0.6033       6.9067       1.0226
   12736.0    1608.9817       0.0000      50.8611     -50.4006       0.9715      -0.7488      -0.6186      13.0194       1.0256
   12737.0    1625.5415       0.0000      50.8611     -57.0850       0.9352      -0.7849      -0.5072      19.1279       1.0304
   12738.0    1635.1744       0.0000      50.8611     -54.5945       0.9495      -0.7739      -0.5481      25.2291       1.0226
   12739.0    1640.0390       0.0000      50.8611     -54.6920       0.9672      -0.7890      -0.5593      31.3200       1.0226
   12740.0    1652.2808       0.0000      50.8611     -58.1300       0.9039      -0.7669      -0.4775      37.4327       1.0256
   12741.0    1648.4072       0.0000      50.8611     -52.4847       0.9671      -0.7669      -0.5890      43.9294       1.0226
   12742.0    1649.4652       0.0000      50.8611     -55.5156       1.0009      -0.8251      -0.5665      50.0298       1.0226
   12743.0    1643.8734       0.0000      50.8611     -58.9133       0.8365      -0.7156      -0.4326      56.1469       1.0256
   12744.0    1624.8790       0.0000      50.8611     -61.0106       0.8559      -0.7488      -0.4142      62.2509       1.0226
   12745.0    1616.3793       0.0000      50.8611     -52.0136       0.9873      -0.7779      -0.6074      68.3541       1.0226
   12746.0    1603.0625       0.0000      50.8611     -58.3173       0.8884      -0.7558      -0.4663      74.4545       1.0226
   12747.0    1590.7806       0.0000      50.8611     -62.8499       0.9973      -0.8874      -0.4551      80.5576       1.0226
   12748.0    1573.9565       0.0000      50.8611     -57.8558       0.9876      -0.8361      -0.5256      86.6581       1.0226
   12749.0    1543.8088       0.0000      50.8611     -59.6634       0.9013      -0.7779      -0.4551      92.7585       1.0226
   12750.0    1523.7353       0.0000      50.8611     -62.4291       0.9442      -0.8361      -0.4367      98.8616       1.0226
   12751.0    1498.3232       0.0000      50.8611     -61.3398       0.8867      -0.7779      -0.4254     104.9656       1.0226
   12752.0    1467.0609       0.0000      50.8611     -61.0304       1.0478      -0.9165      -0.5072     111.0535       1.0226
   12753.0    1444.1045       0.0000      50.8611     -65.2910       0.9607      -0.8723      -0.3958     117.5589       1.0226
   12754.0    1425.7215       0.0000      50.8611     -58.1231       0.9417      -0.8000      -0.4959     123.6620       1.0150
   12755.0    1393.5728       0.0000      50.8611     -60.1306       0.9217      -0.7960      -0.4591     129.7545       1.0226
   12756.0    1366.0217       0.0000      50.8611     -61.0777       1.0549      -0.9235      -0.5072     135.8594       1.0226
   12757.0    1343.9664       0.0000      50.8611     -61.1175       1.0510      -0.9205      -0.5072     141.9469       1.0150
   12758.0    1319.8658       0.0000      50.8611     -59.5615       0.9570      -0.8251      -0.4847     148.0468       1.0226
   12759.0    1286.3239       0.0000      50.8611     -66.4383       0.9394      -0.8582      -0.3774     154.1527       1.0226
   12760.0    1246.5482       0.0000      50.8611     -57.3580       1.1454      -0.9566      -0.6217     160.2532       1.0150
   12761.0    1192.7534       0.0000      50.8611     -57.6389       1.0030      -0.8472      -0.5368     166.3320       1.0150
   12762.0    1136.0977       0.0000      50.8611     -60.2564       1.0222      -0.8874      -0.5072     172.4370       1.0226
   12763.0    1078.4126       0.0000      50.8611     -64.1233       1.0837      -0.9747      -0.4735     178.5375       1.0226
   12764.0    1035.8642       0.0000      50.8611     -62.8572       1.0468      -0.9315      -0.4775     184.6380       1.0150
   12765.0    1012.8967       0.0000      50.8611     -64.0140       1.0629      -0.9526      -0.4591     191.1468       1.0226
   12766.0    1003.0314       0.0000      50.8611     -59.1118       1.0682      -0.9165      -0.5481     197.2518       1.0226
   12767.0     980.6486       0.0000      50.8611     -55.0131       1.1819      -0.9677      -0.6779     203.3523       1.0226
   12768.0     973.2522       0.0000      50.8611     -55.0236       1.0611      -0.8693      -0.6074     209.4556       1.0226
   12769.0     971.5366       0.0000      50.8611     -56.4341       1.0652      -0.8874      -0.5890     215.5589       1.0226
   12770.0     967.2984       0.0000      50.8611     -57.4539       1.0529      -0.8874      -0.5665     221.6505       1.0197
   12771.0     968.2617       0.0000      50.8611     -55.9905       1.0390      -0.8623      -0.5777     227.7476       1.0226
