~VERSION INFORMATION
VERS.           2.0   :CWLS Log ASCII Standard - VERSION 2.0
WRAP.           NO    :One Line per depth step
PROD.  Schlumberger   :LAS Producer
PROG.  DLIS to ASCII 19C2-270                          :LAS Program name and version
CREA.        2017/09/16 17:42                          :LAS Creation date {YYYY/MM/DD hh:mm}
DLIS_CREA.  2017-Sep-15 16:10                          :DLIS Creation date and time {YYYY-MMM-DD hh:mm}
SOURCE.     LPC_S3-1_B5.DLIS                           :DLIS File Name
FILE-ID.     PERFO_Perfo_WPGRT_039LTP                  :File Identification Number
#--------------------------------------------------
~WELL INFORMATION
#MNEM.UNIT      DATA             DESCRIPTION
#---- ------ --------------   -----------------------------
STRT .S         2439.0       :START TIME      
STOP .S         2874.0       :STOP TIME      
STEP .S            1.0       :STEP     
NULL .          -999.25      :NULL VALUE
COMP .        SHELL INTERNATIONAL E P                  :COMPANY
WELL .        WPP TEST 2                               :WELL
FLD  .        WILDCAT                                  :FIELD
LOC  .                                                 :LOCATION
CNTY .        HARRIS                                   :COUNTY
STAT .        TEXAS                                    :STATE
CTRY .                                                 :COUNTRY
API  .                                                 :API NUMBER
UWI  .                                                 :UNIQUE WELL ID
DATE .                                                 :LOG DATE
SRVC .        Schlumberger                             :SERVICE COMPANY
LATI .DEG                                              :LATITUDE
LONG .DEG                                              :LONGITUDE
GDAT .                                                 :GeoDetic Datum
#-----------------------------------------------------------------------------
~PARAMETER INFORMATION
#MNEM.UNIT    VALUE                      DESCRIPTION
#---- -----   --------------------       ------------------------
U-PHASE_B_COMP_PER_YT.                 0 :Phase B Comparator Period Yt
U-PHASE_A_COMP_PER_XT.                 0 :Phase A Comparator Period Xt
U-MAX_EXC_CUR_LIMIT.MA       240.00000   :Requested CM Current Limit
U-REQ_EXC_FQ.HZ              50          :Requested CM Frequency
U-TILT_Y_OFFSET.           0.19916       :WPTET Tilt Y Offset
U-TILT_Y_GAIN.           1.01796         :WPTET Tilt Y Gain
U-TILT_X_OFFSET.          -1.77103       :WPTET Tilt X Offset
U-TILT_X_GAIN.           1.00000         :WPTET Tilt X Gain
U-TILT_OFFSET_TOL.           0.00100     :WPTET Tilt Offset Calibration Tolerance
U-NO_TILT_CAL_ROTATIONS.                 3 :Number of Rotations for Tilt Calibration
HAZI .DEG        0.00000                 :Hole Azimuth
U-STD_TOL_TILT.           0.01000        :Tilt Standard Deviation Tolerance
U-GUN_POS_TOL.DEG        5.00000         :Gun Position Tolerance
ROT_ANGLE_THRESHOLD.DEG        5.00000   :Rotation Stop Angle Tolerance
STOP_ROT_ANGLE.DEG        0.00000        :Rotation Stop Angle
WITN .                                   :Witness's Name
ENGI .                                   :Engineer's Name
COUN .        HARRIS                     :County or Rig Name
FN   .        WILDCAT                    :Field Name
WN   .        WPP TEST 2                 :Well Name
CN   .        SHELL INTERNATIONAL E P    :Company Name
CLAB .        County                     :County/Rig Label
SLAB .        State                      :State/Province Label
RUN  .          1                        :RUN NUMBER
PDAT .        GROUND LEVEL               :Permanent Datum
EPD  .                                   :Elevation of Permanent Datum above Mean Sea Level
LMF  .                                   :Logging Measured From (Name of Logging Elevation Reference)
APD  .                                   :Elevation of Depth Reference (LMF) above Permanent Datum
#-----------------------------------------------------------------------------
~CURVE INFORMATION
#MNEM.UNIT   API CODE                                  DESCRIPTION
#---- -----  --------                                  -----------------------
TIME .S                                                :TIME {F10.1}
FREQ_EMF_SL.HZ                                         :Electromagnetic Field Frequency {F13.4}
PH_SH_WPPCM_SL.DEG                                     :WPPCM Phase Shift {F13.4}
FREQ_EXC_REQ_SL.HZ                                     :Requested Exciter Frequency {F13.4}
RB_SL.DEG                                              :Relative Bearing {F13.4}
SDEV_SL.DEG                                            :Sonde Deviation {F13.4}
TILX_SL.DEG                                            :X-axis Tilt {F13.4}
TILY_SL.DEG                                            :Y-axis Tilt {F13.4}
ROTA_SL.DEG                                            :Motor Rotation Angle {F13.4}
MSPE_SL.RPM                                            :Motor Speed {F13.4}
#-----------------------------------------------------------------------------
# 
#     TIME    FREQ_EMF_SL  PH_SH_WPPCM_ FREQ_EXC_REQ    RB_SL       SDEV_SL      TILX_SL      TILY_SL      ROTA_SL      MSPE_SL
#                          SL           _SL
~A  
    2439.0    1474.3482       0.0000      50.8611    -131.8059       4.8133      -3.5861       3.2063     134.2983       1.0226
    2440.0    1458.9554       0.0000      50.8611    -125.2020       4.9668      -4.0568       2.8607     140.3752       1.0226
    2441.0    1437.7917       0.0000      50.8611    -118.4571       4.8927      -4.3003       2.3292     146.4771       1.0226
    2442.0    1409.2454       0.0000      50.8611    -113.1020       4.8958      -4.5024       1.9190     152.5666       1.0226
    2443.0    1387.0060       0.0000      50.8611    -115.5370       4.8376      -4.3643       2.0826     158.6561       1.0226
    2444.0    1367.9475       0.0000      50.8611    -103.0667       5.2397      -5.1036       1.1830     164.7581       1.0226
    2445.0    1339.2858       0.0000      50.8611     -97.5759       5.2690      -5.2228       0.6936     171.2556       1.0226
    2446.0    1312.1863       0.0000      50.8611     -91.7934       5.1463      -5.1438       0.1608     177.3484       1.0124
    2447.0    1272.2802       0.0000      50.8611     -88.2296       5.3485      -5.3459      -0.1650     183.4478       1.0226
    2448.0    1238.1015       0.0000      50.8611     -84.4477       5.5301      -5.5040      -0.5343     189.5497       1.0226
    2449.0    1172.0590       0.0000      50.8611     -78.1530       5.3793      -5.2643      -1.1029     195.6516       1.0226
    2450.0    1118.2388       0.0000      50.8611     -71.8952       5.2909      -5.0283      -1.6421     201.7535       1.0226
    2451.0    1064.0850       0.0000      50.8611     -67.0891       5.2844      -4.8664      -2.0548     207.8431       1.0226
    2452.0    1037.0575       0.0000      50.8611     -62.4701       5.5775      -4.9442      -2.5748     213.9450       1.0226
    2453.0    1017.4096       0.0000      50.8611     -58.6467       5.5200      -4.7120      -2.8687     220.0600       1.0226
    2454.0     998.9803       0.0000      50.8611     -51.7228       5.4860      -4.3040      -3.3952     226.1628       1.0223
    2455.0     993.2464       0.0000      50.8611     -48.3189       5.6005      -4.1798      -3.7210     232.2659       1.0124
    2456.0     984.6402       0.0000      50.8611     -42.4993       5.7705      -3.8948      -4.2512     238.3674       1.0226
    2457.0     973.8152       0.0000      50.8611     -40.8359       5.4756      -3.5773      -4.1401     244.8526       1.0226
    2458.0     966.1664       0.0000      50.8611     -31.9524       5.2611      -2.7815      -4.4621     250.9425       1.0124
    2459.0     969.8276       0.0000      50.8611     -27.1912       5.3845      -2.4576      -4.7879     257.0572       1.0226
    2460.0     971.1672       0.0000      50.8611     -22.1690       5.4390      -2.0497      -5.0358     263.1590       1.0226
    2461.0     979.2402       0.0000      50.8611     -20.2813       5.3628      -1.8564      -5.0294     269.2500       1.0024
    2462.0     978.1347       0.0000      50.8611     -15.1105       5.2550      -1.3681      -5.0728     275.3510       1.0226
    2463.0     990.2734       0.0000      50.8611      -6.6370       4.9464      -0.5710      -4.9131     281.4656       1.0127
    2464.0     998.8460       0.0000      50.8611      -0.9147       5.1182      -0.0815      -5.1176     287.5685       1.0226
    2465.0    1019.0679       0.0000      50.8611       1.8857       4.9223       0.1620      -4.9195     293.6703       1.0226
    2466.0    1036.7263       0.0000      50.8611       7.6721       4.7553       0.6340      -4.7125     299.7982       1.0124
    2467.0    1063.3317       0.0000      50.8611      14.4055       4.6522       1.1561      -4.5055     305.9139       1.0229
    2468.0    1112.1587       0.0000      50.8611      20.5338       4.7635       1.6695      -4.4595     312.0157       1.0226
    2469.0    1195.6011       0.0000      50.8611      25.6209       4.5471       1.9645      -4.0992     318.5255       1.0226
    2470.0    1255.2331       0.0000      50.8611      30.0545       4.4020       2.2030      -3.8091     324.6154       1.0223
    2471.0    1289.6263       0.0000      50.8611      35.3979       4.0220       2.3285      -3.2776     330.7324       1.0330
    2472.0    1314.0233       0.0000      50.8611      43.5336       4.0750       2.8055      -2.9531     336.8455       1.0226
    2473.0    1341.7617       0.0000      50.8611      50.4421       4.3145       3.3251      -2.7461     342.9734       1.0229
    2474.0    1367.8645       0.0000      50.8611      57.2268       3.7334       3.1381      -2.0203     349.0752       1.0226
    2475.0    1400.3014       0.0000      50.8611      60.9398       3.7141       3.2460      -1.8031     355.1902       1.0226
    2476.0    1428.6665       0.0000      50.8611      68.9918       3.7774       3.5260      -1.3533       1.3052       1.0124
    2477.0    1443.7886       0.0000      50.8611      78.9664       3.8828       3.8109      -0.7425       7.3946       1.0226
    2478.0    1470.8769       0.0000      50.8611      83.5202       3.6725       3.6490      -0.4142      13.4842       1.0124
    2479.0    1495.7141       0.0000      50.8611      93.3389       3.3786       3.3728       0.1966      19.5613       1.0226
    2480.0    1511.9954       0.0000      50.8611     101.9807       3.4842       3.4080       0.7230      25.6508       1.0226
    2481.0    1541.8354       0.0000      50.8611     108.8199       3.5186       3.3301       1.1345      32.1620       1.0229
    2482.0    1565.7628       0.0000      50.8611     117.9577       3.6374       3.2122       1.7043      38.2642       1.0226
    2483.0    1572.8769       0.0000      50.8611     121.9237       3.3090       2.8080       1.7491      44.3792       1.0226
    2484.0    1594.6147       0.0000      50.8611     131.0979       3.2957       2.4829       2.1656      50.4810       1.0226
    2485.0    1605.3082       0.0000      50.8611     140.9150       3.5714       2.2507       2.7713      56.5710       1.0124
    2486.0    1605.4230       0.0000      50.8611     148.1584       3.6540       1.9268       3.1035      62.6724       1.0226
    2487.0    1619.9873       0.0000      50.8611     156.3622       3.6057       1.4448       3.3028      68.7742       1.0330
    2488.0    1616.4957       0.0000      50.8611     162.3314       3.6785       1.1160       3.5047      74.8891       1.0226
    2489.0    1620.2206       0.0000      50.8611     169.3714       3.9393       0.7256       3.8714      80.9909       1.0226
    2490.0    1619.9873       0.0000      50.8611     176.5663       4.0077       0.2398       4.0005      87.1061       1.0229
    2491.0    1608.9817       0.0000      50.8611    -176.3313       3.8077      -0.2434       3.7999      93.2085       1.0226
    2492.0    1591.2346       0.0000      50.8611    -168.5030       3.8309      -0.7631       3.7539      99.3237       1.0226
    2493.0    1590.5567       0.0000      50.8611    -162.8504       4.2258      -1.2451       4.0375     105.8470       1.0226
    2494.0    1583.3929       0.0000      50.8611    -156.9149       4.3091      -1.6882       3.9634     111.9488       1.0226
    2495.0    1555.6940       0.0000      50.8611    -150.6353       4.2701      -2.0924       3.7206     118.0506       1.0226
    2496.0    1538.7781       0.0000      50.8611    -140.8420       4.3239      -2.7287       3.3514     124.1655       1.0330
    2497.0    1531.6551       0.0000      50.8611    -140.1348       4.5732      -2.9296       3.5085     130.2561       1.0223
    2498.0    1508.7510       0.0000      50.8611    -133.7730       4.7846      -3.4530       3.3079     136.3707       1.0226
    2499.0    1471.2632       0.0000      50.8611    -127.8749       4.7900      -3.7794       2.9387     142.4726       1.0226
    2500.0    1455.7454       0.0000      50.8611    -120.4128       4.8453      -4.1773       2.4506     148.5745       1.0226
    2501.0    1429.2068       0.0000      50.8611    -116.5625       4.9395      -4.4170       2.2065     154.6640       1.0124
