~VERSION INFORMATION
VERS.           2.0   :CWLS Log ASCII Standard - VERSION 2.0
WRAP.           NO    :One Line per depth step
PROD.  Schlumberger   :LAS Producer
PROG.  DLIS to ASCII 19C2-270                          :LAS Program name and version
CREA.        2017/09/16 17:42                          :LAS Creation date {YYYY/MM/DD hh:mm}
DLIS_CREA.  2017-Sep-15 16:20                          :DLIS Creation date and time {YYYY-MMM-DD hh:mm}
SOURCE.     LPC_S3-1_BV.DLIS                           :DLIS File Name
FILE-ID.     PERFO_Perfo_WPGRT_040LTP                  :File Identification Number
#--------------------------------------------------
~WELL INFORMATION
#MNEM.UNIT      DATA             DESCRIPTION
#---- ------ --------------   -----------------------------
STRT .S         2992.0       :START TIME      
STOP .S         3401.0       :STOP TIME      
STEP .S            1.0       :STEP     
NULL .          -999.25      :NULL VALUE
COMP .        SHELL INTERNATIONAL E P                  :COMPANY
WELL .        WPP TEST 2                               :WELL
FLD  .        WILDCAT                                  :FIELD
LOC  .                                                 :LOCATION
CNTY .        HARRIS                                   :COUNTY
STAT .        TEXAS                                    :STATE
CTRY .                                                 :COUNTRY
API  .                                                 :API NUMBER
UWI  .                                                 :UNIQUE WELL ID
DATE .                                                 :LOG DATE
SRVC .        Schlumberger                             :SERVICE COMPANY
LATI .DEG                                              :LATITUDE
LONG .DEG                                              :LONGITUDE
GDAT .                                                 :GeoDetic Datum
#-----------------------------------------------------------------------------
~PARAMETER INFORMATION
#MNEM.UNIT    VALUE                      DESCRIPTION
#---- -----   --------------------       ------------------------
U-PHASE_B_COMP_PER_YT.                 0 :Phase B Comparator Period Yt
U-PHASE_A_COMP_PER_XT.                 0 :Phase A Comparator Period Xt
U-MAX_EXC_CUR_LIMIT.MA       240.00000   :Requested CM Current Limit
U-REQ_EXC_FQ.HZ              50          :Requested CM Frequency
U-TILT_Y_OFFSET.           0.19916       :WPTET Tilt Y Offset
U-TILT_Y_GAIN.           1.01796         :WPTET Tilt Y Gain
U-TILT_X_OFFSET.          -1.77103       :WPTET Tilt X Offset
U-TILT_X_GAIN.           1.00000         :WPTET Tilt X Gain
U-TILT_OFFSET_TOL.           0.00100     :WPTET Tilt Offset Calibration Tolerance
U-NO_TILT_CAL_ROTATIONS.                 3 :Number of Rotations for Tilt Calibration
HAZI .DEG        0.00000                 :Hole Azimuth
U-STD_TOL_TILT.           0.01000        :Tilt Standard Deviation Tolerance
U-GUN_POS_TOL.DEG        5.00000         :Gun Position Tolerance
ROT_ANGLE_THRESHOLD.DEG        5.00000   :Rotation Stop Angle Tolerance
STOP_ROT_ANGLE.DEG        0.00000        :Rotation Stop Angle
WITN .                                   :Witness's Name
ENGI .                                   :Engineer's Name
COUN .        HARRIS                     :County or Rig Name
FN   .        WILDCAT                    :Field Name
WN   .        WPP TEST 2                 :Well Name
CN   .        SHELL INTERNATIONAL E P    :Company Name
CLAB .        County                     :County/Rig Label
SLAB .        State                      :State/Province Label
RUN  .          1                        :RUN NUMBER
PDAT .        GROUND LEVEL               :Permanent Datum
EPD  .                                   :Elevation of Permanent Datum above Mean Sea Level
LMF  .                                   :Logging Measured From (Name of Logging Elevation Reference)
APD  .                                   :Elevation of Depth Reference (LMF) above Permanent Datum
#-----------------------------------------------------------------------------
~CURVE INFORMATION
#MNEM.UNIT   API CODE                                  DESCRIPTION
#---- -----  --------                                  -----------------------
TIME .S                                                :TIME {F10.1}
FREQ_EMF_SL.HZ                                         :Electromagnetic Field Frequency {F13.4}
PH_SH_WPPCM_SL.DEG                                     :WPPCM Phase Shift {F13.4}
FREQ_EXC_REQ_SL.HZ                                     :Requested Exciter Frequency {F13.4}
RB_SL.DEG                                              :Relative Bearing {F13.4}
SDEV_SL.DEG                                            :Sonde Deviation {F13.4}
TILX_SL.DEG                                            :X-axis Tilt {F13.4}
TILY_SL.DEG                                            :Y-axis Tilt {F13.4}
ROTA_SL.DEG                                            :Motor Rotation Angle {F13.4}
MSPE_SL.RPM                                            :Motor Speed {F13.4}
#-----------------------------------------------------------------------------
# 
#     TIME    FREQ_EMF_SL  PH_SH_WPPCM_ FREQ_EXC_REQ    RB_SL       SDEV_SL      TILX_SL      TILY_SL      ROTA_SL      MSPE_SL
#                          SL           _SL
~A  
    2992.0    1587.6312       0.0000      50.8611     -58.3336       0.9664      -0.8225      -0.5060      86.6398       1.0266
    2993.0    1590.7806       0.0000      50.8611     -64.6774       0.8745      -0.7872      -0.3727      93.1620       1.0307
    2994.0    1590.7806       0.0000      50.8611     -66.1191       1.0256      -0.9380      -0.4142      99.2670       1.0226
    2995.0    1595.2800       0.0000      50.8611     -60.4453       1.0077      -0.8769      -0.4959     105.3818       1.0226
    2996.0    1591.6689       0.0000      50.8611     -69.4178       0.9712      -0.9077      -0.3431     111.4943       1.0252
    2997.0    1595.3465       0.0000      50.8611     -59.3771       0.9150      -0.7872      -0.4651     117.5994       1.0226
    2998.0    1574.7275       0.0000      50.8611     -59.5751       1.0407      -0.8972      -0.5268     123.7011       1.0226
    2999.0    1576.2959       0.0000      50.8611     -67.0763       1.0586      -0.9726      -0.4135     129.8037       1.0226
    3000.0    1559.8887       0.0000      50.8611     -65.6301       0.9058      -0.8256      -0.3727     135.9063       1.0226
    3001.0    1546.1678       0.0000      50.8611     -61.4699       1.1856      -1.0381      -0.5683     142.0090       1.0226
    3002.0    1529.3527       0.0000      50.8611     -60.6552       1.0534      -0.9176      -0.5167     148.1101       1.0226
    3003.0    1508.8519       0.0000      50.8611     -65.5025       1.1736      -1.0678      -0.4859     154.2120       1.0226
    3004.0    1490.4505       0.0000      50.8611     -63.2745       1.1512      -1.0276      -0.5167     160.3139       1.0226
    3005.0    1471.7323       0.0000      50.8611     -57.4488       1.2448      -1.0480      -0.6702     166.8231       1.0226
    3006.0    1451.2205       0.0000      50.8611     -64.5448       1.1059      -0.9980      -0.4758     172.9250       1.0226
    3007.0    1435.0106       0.0000      50.8611     -64.7291       1.0703      -0.9683      -0.4551     179.0269       1.0226
    3008.0    1416.8884       0.0000      50.8611     -52.2207       1.2142      -0.9572      -0.7419     185.1288       1.0226
    3009.0    1386.1291       0.0000      50.8611     -57.7321       1.0842      -0.9170      -0.5777     191.2330       1.0226
    3010.0    1358.6797       0.0000      50.8611     -60.3173       1.2070      -1.0480      -0.5979     197.3203       1.0226
    3011.0    1331.2110       0.0000      50.8611     -60.7234       1.0980      -0.9578      -0.5368     203.4105       1.0246
    3012.0    1285.9842       0.0000      50.8611     -56.4177       1.1380      -0.9479      -0.6287     209.5131       1.0146
    3013.0    1252.2027       0.0000      50.8611     -55.6149       1.1982      -0.9869      -0.6790     215.6027       1.0226
    3014.0    1205.5378       0.0000      50.8611     -58.8591       1.6555      -1.4182      -0.8532     221.7054       1.0252
    3015.0    1155.9880       0.0000      50.8611     -25.7841       0.7600      -0.3622      -0.6085     227.8073       1.0226
    3016.0    1109.8914       0.0000      50.8611     -45.7816       1.2244      -0.8775      -0.8539     233.8968       1.0226
    3017.0    1068.1591       0.0000      50.8611     -63.4358       1.4750      -1.3193      -0.6595     240.2939       1.0226
    3018.0    1039.7474       0.0000      50.8611     -46.3146       1.1029      -0.7971      -0.7620     246.4955       1.0226
    3019.0    1014.6104       0.0000      50.8611     -41.7620       1.0241      -0.6940      -0.7211     252.5859       1.0226
    3020.0    1001.9421       0.0000      50.8611     -52.9087       1.0995      -0.8781      -0.6595     258.7009       1.0226
    3021.0     991.6986       0.0000      50.8611     -59.8271       1.1087      -0.9578      -0.5570     264.8035       1.0226
    3022.0     984.4298       0.0000      50.8611     -50.2163       0.9988      -0.7669      -0.6394     270.8930       1.0200
    3023.0     978.9762       0.0000      50.8611     -48.4941       1.1174      -0.8367      -0.7389     276.9792       1.0107
    3024.0     969.4813       0.0000      50.8611     -52.5538       1.1185      -0.8874      -0.6802     283.0734       1.0226
    3025.0     973.5256       0.0000      50.8611     -47.2818       0.9742      -0.7162      -0.6595     289.1543       1.0200
    3026.0     980.3122       0.0000      50.8611     -42.9695       0.9719      -0.6569      -0.7098     295.2547       1.0307
    3027.0     979.2828       0.0000      50.8611     -52.3240       1.0457      -0.8274      -0.6394     301.3704       1.0226
    3028.0     989.9739       0.0000      50.8611     -52.9587       1.1125      -0.8880      -0.6702     307.4798       1.0252
    3029.0    1003.7932       0.0000      50.8611     -53.0264       1.0253      -0.8169      -0.6180     313.8924       1.0226
    3030.0    1009.8615       0.0000      50.8611     -50.0985       1.0128      -0.7767      -0.6494     320.0939       1.0226
    3031.0    1034.4086       0.0000      50.8611     -51.7012       0.9295      -0.7267      -0.5771     326.2088       1.0226
    3032.0    1069.8404       0.0000      50.8611     -51.2548       0.9200      -0.7162      -0.5771     332.3260       1.0226
    3033.0    1114.3375       0.0000      50.8611     -53.6914       0.9767      -0.7872      -0.5777     338.4264       1.0226
    3034.0    1148.4772       0.0000      50.8611     -53.1238       1.0257      -0.8163      -0.6091     344.5336       1.0146
    3035.0    1214.3770       0.0000      50.8611     -50.7748       0.8279      -0.6411      -0.5238     350.6461       1.0226
    3036.0    1278.4564       0.0000      50.8611     -54.6288       0.8921      -0.7267      -0.5167     356.7481       1.0226
    3037.0    1313.7057       0.0000      50.8611     -57.1082       0.9133      -0.7669      -0.4959       2.8506       1.0226
    3038.0    1340.5852       0.0000      50.8611     -56.4419       0.9328      -0.7767      -0.5161       8.9387       1.0226
    3039.0    1362.6454       0.0000      50.8611     -52.4030       0.9813      -0.7767      -0.5985      15.0412       1.0226
    3040.0    1395.1470       0.0000      50.8611     -59.4470       0.8563      -0.7366      -0.4349      21.1439       1.0146
    3041.0    1420.5147       0.0000      50.8611     -53.6671       0.9404      -0.7570      -0.5576      27.2465       1.0146
    3042.0    1434.2293       0.0000      50.8611     -59.3148       0.8917      -0.7669      -0.4551      33.7562       1.0226
    3043.0    1452.7377       0.0000      50.8611     -59.5287       0.8554      -0.7366      -0.4343      39.8581       1.0226
    3044.0    1474.0566       0.0000      50.8611     -65.9640       0.9168      -0.8373      -0.3733      45.9574       1.0252
    3045.0    1500.8295       0.0000      50.8611     -52.4552       0.9418      -0.7588      -0.5475      52.0293       1.0175
    3046.0    1518.6986       0.0000      50.8611     -61.9239       0.8803      -0.7767      -0.4142      58.1511       1.0307
    3047.0    1531.0428       0.0000      50.8611     -59.5454       1.0187      -0.8775      -0.5161      64.2561       1.0226
    3048.0    1550.4722       0.0000      50.8611     -66.8012       0.9219      -0.8472      -0.3632      70.3710       1.0226
    3049.0    1563.3569       0.0000      50.8611     -62.0430       0.9816      -0.8682      -0.4551      76.4751       1.0226
    3050.0    1582.7386       0.0000      50.8611     -53.6276       0.9175      -0.7360      -0.5374      82.5746       1.0226
    3051.0    1585.4330       0.0000      50.8611     -57.7215       0.8954      -0.7564      -0.4758      88.6927       1.0252
    3052.0    1592.6152       0.0000      50.8611     -61.0499       1.1087      -0.9677      -0.5374      94.8075       1.0226
    3053.0    1590.7806       0.0000      50.8611     -66.4583       0.9349      -0.8571      -0.3733     100.9224       1.0146
    3054.0    1590.7508       0.0000      50.8611     -64.8342       0.9726      -0.8775      -0.4135     107.4206       1.0146
