~VERSION INFORMATION
VERS.           2.0   :CWLS Log ASCII Standard - VERSION 2.0
WRAP.           NO    :One Line per depth step
PROD.  Schlumberger   :LAS Producer
PROG.  DLIS to ASCII 19C2-270                          :LAS Program name and version
CREA.        2017/09/16 17:42                          :LAS Creation date {YYYY/MM/DD hh:mm}
DLIS_CREA.  2017-Sep-15 19:35                          :DLIS Creation date and time {YYYY-MMM-DD hh:mm}
SOURCE.     LPC_S5-1_2AV.DLIS                          :DLIS File Name
FILE-ID.     PERFO_Perfo_WPGRT_062LTP                  :File Identification Number
#--------------------------------------------------
~WELL INFORMATION
#MNEM.UNIT      DATA             DESCRIPTION
#---- ------ --------------   -----------------------------
STRT .S          757.0       :START TIME      
STOP .S         1169.0       :STOP TIME      
STEP .S            1.0       :STEP     
NULL .          -999.25      :NULL VALUE
COMP .        SHELL INTERNATIONAL E P                  :COMPANY
WELL .        WPP TEST 2                               :WELL
FLD  .        WILDCAT                                  :FIELD
LOC  .        NA                                       :LOCATION
CNTY .        HARRIS                                   :COUNTY
STAT .        TEXAS                                    :STATE
CTRY .                                                 :COUNTRY
API  .        NA                                       :API NUMBER
UWI  .                                                 :UNIQUE WELL ID
DATE .        15-Sep-2017                              :LOG DATE {DD-MMM-YYYY}
SRVC .        Schlumberger                             :SERVICE COMPANY
LATI .DEG                                              :LATITUDE
LONG .DEG                                              :LONGITUDE
GDAT .                                                 :GeoDetic Datum
SECT .        NA                                       :Section
RANG .        NA                                       :Range
TOWN .        NA                                       :Township
#-----------------------------------------------------------------------------
~PARAMETER INFORMATION
#MNEM.UNIT    VALUE                      DESCRIPTION
#---- -----   --------------------       ------------------------
U-PHASE_B_COMP_PER_YT.                 0 :Phase B Comparator Period Yt
U-PHASE_A_COMP_PER_XT.                 0 :Phase A Comparator Period Xt
U-MAX_EXC_CUR_LIMIT.MA       240.00000   :Requested CM Current Limit
U-REQ_EXC_FQ.HZ              50          :Requested CM Frequency
U-TILT_Y_OFFSET.           0.19916       :WPTET Tilt Y Offset
U-TILT_Y_GAIN.           1.01796         :WPTET Tilt Y Gain
U-TILT_X_OFFSET.          -1.77103       :WPTET Tilt X Offset
U-TILT_X_GAIN.           1.00000         :WPTET Tilt X Gain
U-TILT_OFFSET_TOL.           0.00100     :WPTET Tilt Offset Calibration Tolerance
U-NO_TILT_CAL_ROTATIONS.                 3 :Number of Rotations for Tilt Calibration
HAZI .DEG        0.00000                 :Hole Azimuth
U-STD_TOL_TILT.           0.01000        :Tilt Standard Deviation Tolerance
U-GUN_POS_TOL.DEG        5.00000         :Gun Position Tolerance
ROT_ANGLE_THRESHOLD.DEG        5.00000   :Rotation Stop Angle Tolerance
STOP_ROT_ANGLE.DEG        0.00000        :Rotation Stop Angle
WITN .        MR. DHRUA ARORA            :Witness's Name
ENGI .        MORRIS MOORE               :Engineer's Name
COUN .        HARRIS                     :County or Rig Name
FN   .        WILDCAT                    :Field Name
WN   .        WPP TEST 2                 :Well Name
CN   .        SHELL INTERNATIONAL E P    :Company Name
CLAB .        County                     :County/Rig Label
SLAB .        State                      :State/Province Label
RUN  .          1                        :RUN NUMBER
PDAT .        GROUND LEVEL               :Permanent Datum
EPD  .                                   :Elevation of Permanent Datum above Mean Sea Level
LMF  .          NA                       :Logging Measured From (Name of Logging Elevation Reference)
APD  .                                   :Elevation of Depth Reference (LMF) above Permanent Datum
#-----------------------------------------------------------------------------
~CURVE INFORMATION
#MNEM.UNIT   API CODE                                  DESCRIPTION
#---- -----  --------                                  -----------------------
TIME .S                                                :TIME {F10.1}
FREQ_EMF_SL.HZ                                         :Electromagnetic Field Frequency {F13.4}
PH_SH_WPPCM_SL.DEG                                     :WPPCM Phase Shift {F13.4}
FREQ_EXC_REQ_SL.HZ                                     :Requested Exciter Frequency {F13.4}
RB_SL.DEG                                              :Relative Bearing {F13.4}
SDEV_SL.DEG                                            :Sonde Deviation {F13.4}
TILX_SL.DEG                                            :X-axis Tilt {F13.4}
TILY_SL.DEG                                            :Y-axis Tilt {F13.4}
ROTA_SL.DEG                                            :Motor Rotation Angle {F13.4}
MSPE_SL.RPM                                            :Motor Speed {F13.4}
#-----------------------------------------------------------------------------
# 
#     TIME    FREQ_EMF_SL  PH_SH_WPPCM_ FREQ_EXC_REQ    RB_SL       SDEV_SL      TILX_SL      TILY_SL      ROTA_SL      MSPE_SL
#                          SL           _SL
~A  
# ...
     820.0    1332.9624       0.0000      50.8611     -51.8690       1.2751      -1.0029      -0.7872     267.0843       1.0226
     821.0    1315.8055       0.0000      50.8611     -49.1424       1.2665      -0.9578      -0.8281     273.1964       1.0213
     822.0    1300.2718       0.0000      50.8611     -53.7195       1.2442      -1.0029      -0.7362     279.2859       1.0226
     823.0    1283.0748       0.0000      50.8611     -50.3996       1.2436      -0.9578      -0.7922     285.3904       1.0226
     824.0    1262.9468       0.0000      50.8611     -50.9893       1.1368      -0.8824      -0.7155     291.4895       1.0226
     825.0    1262.9468       0.0000      50.8611     -41.5461       1.1583      -0.7619      -0.8685     297.5790       1.0134
     826.0    1241.4618       0.0000      50.8611     -43.6957       1.0462      -0.7217      -0.7564     303.6685       1.0226
     827.0    1220.7031       0.0000      50.8611     -49.4234       1.1558      -0.8774      -0.7514     309.7596       1.0239
     828.0    1220.4420       0.0000      50.8611     -44.9796       1.1996      -0.8472      -0.8488     315.8740       1.0134
     829.0    1209.6854       0.0000      50.8611     -40.6943       0.8832      -0.5759      -0.6696     321.9659       1.0226
     830.0    1199.3683       0.0000      50.8611     -46.8141       1.0389      -0.7569      -0.7105     328.0681       1.0226
     831.0    1193.2620       0.0000      50.8611     -47.4319       1.0958      -0.8070      -0.7413     334.5749       1.0226
     832.0    1183.7122       0.0000      50.8611     -45.3432       1.0493      -0.7470      -0.7362     340.6647       1.0226
     833.0    1176.0374       0.0000      50.8611     -40.6683       0.8762      -0.5710      -0.6645     346.7668       1.0239
     834.0    1177.2784       0.0000      50.8611     -51.2673       0.9878      -0.7723      -0.6136     352.8822       1.0226
     835.0    1172.1165       0.0000      50.8611     -39.9122       0.9675      -0.6211      -0.7413     314.5461       1.0226
     836.0    1169.6853       0.0000      50.8611     -44.4200       0.8732      -0.6111      -0.6236       5.0854       1.0239
     837.0    1170.1659       0.0000      50.8611     -42.8148       0.8921      -0.6062      -0.6544      11.1880       1.0226
     838.0    1184.7276       0.0000      50.8611     -43.9434       0.7660      -0.5308      -0.5520      17.2775       1.0239
     839.0    1189.2255       0.0000      50.8611     -43.1418       0.9459      -0.6464      -0.6903      23.3952       1.0226
     840.0    1191.4811       0.0000      50.8611     -43.0416       0.8956      -0.6111      -0.6544      29.4954       1.0134
     841.0    1196.0422       0.0000      50.8611     -49.5637       0.8364      -0.6364      -0.5419      35.5745       1.0226
     842.0    1200.1252       0.0000      50.8611     -49.3847       0.6992      -0.5308      -0.4551      41.6760       1.0226
     843.0    1219.4064       0.0000      50.8611     -52.5334       0.7644      -0.6062      -0.4651      48.1831       1.0226
     844.0    1218.0543       0.0000      50.8611     -51.4222       0.7882      -0.6161      -0.4909      54.2849       1.0226
     845.0    1228.4276       0.0000      50.8611     -55.7832       0.8729      -0.7217      -0.4909      60.3743       1.0226
     846.0    1257.5493       0.0000      50.8611     -60.3425       0.6926      -0.6012      -0.3425      66.4761       1.0226
     847.0    1275.8035       0.0000      50.8611     -68.5989       0.6033      -0.5611      -0.2198      72.5779       1.0226
     848.0    1283.6550       0.0000      50.8611     -81.8690       0.9517      -0.9137      -0.0658      78.6690       1.0239
     849.0    1301.7795       0.0000      50.8611     -59.9930       0.7464      -0.6464      -0.3733      84.7822       1.0226
     850.0    1326.9605       0.0000      50.8611     -67.7763       0.7961      -0.7366      -0.3016      90.8883       1.0239
     851.0    1352.1635       0.0000      50.8611     -69.1115       0.8315      -0.7768      -0.2965      96.9892       1.0226
     852.0    1367.9475       0.0000      50.8611     -74.9777       0.7890      -0.7619      -0.2047     103.0944       1.0226
     853.0    1382.0577       0.0000      50.8611     -69.2360       0.9383      -0.8774      -0.3324     109.1951       1.0239
     854.0    1395.4316       0.0000      50.8611     -70.8748       0.8599      -0.8120      -0.2814     115.2980       1.0320
     855.0    1398.2065       0.0000      50.8611     -74.6613       0.8322      -0.8021      -0.2198     121.8172       1.0320
     856.0    1405.5584       0.0000      50.8611     -82.4280       0.9712      -0.9627      -0.1279     127.9190       1.0226
     857.0    1413.6906       0.0000      50.8611     -69.7544       0.9459      -0.8874      -0.3273     134.0209       1.0226
     858.0    1414.7384       0.0000      50.8611     -72.5987       1.0093      -0.9627      -0.3016     140.1228       1.0226
     859.0    1426.9341       0.0000      50.8611     -23.2679       0.5999      -0.2437      -0.5116     146.2267       1.0239
     860.0    1423.6863       0.0000      50.8611     -66.9829       1.0461      -0.9627      -0.4091     152.3274       1.0226
     861.0    1431.3094       0.0000      50.8611     -72.0024       1.1657      -1.1080      -0.3581     158.4293       1.0226
     862.0    1436.8012       0.0000      50.8611     -67.3219       1.0174      -0.9374      -0.3935     164.5328       1.0320
     863.0    1425.1264       0.0000      50.8611     -67.0826       1.1815      -1.0882      -0.4601     170.6489       1.0226
     864.0    1435.3112       0.0000      50.8611     -72.0866       1.1121      -1.0579      -0.3425     176.7508       1.0226
     865.0    1440.1039       0.0000      50.8611     -71.9564       1.3033      -1.2389      -0.4041     182.8527       1.0226
     866.0    1437.5212       0.0000      50.8611     -69.3712       1.1384      -1.0629      -0.4036     188.9422       1.0226
     867.0    1433.1132       0.0000      50.8611     -63.9857       1.2276      -1.1036      -0.5368     195.4521       1.0226
     868.0    1434.9490       0.0000      50.8611     -61.5584       1.2439      -1.0931      -0.5929     201.5513       1.0226
     869.0    1423.3300       0.0000      50.8611     -64.8924       1.3738      -1.2439      -0.5828     207.6532       1.0213
     870.0    1434.2289       0.0000      50.8611     -63.8899       1.2345      -1.1085      -0.5419     213.7558       1.0239
     871.0    1419.0134       0.0000      50.8611     -56.8006       1.2045      -1.0079      -0.6595     219.8709       1.0226
     872.0    1406.5979       0.0000      50.8611     -57.7223       1.1391      -0.9627      -0.6085     225.9858       1.0226
     873.0    1413.7642       0.0000      50.8611     -65.9224       1.3034      -1.1900      -0.5318     232.0877       1.0226
     874.0    1405.5584       0.0000      50.8611     -57.6240       1.2410      -1.0480      -0.6645     238.1927       1.0226
     875.0    1391.6488       0.0000      50.8611     -57.4367       1.2439      -1.0480      -0.6696     244.2942       1.0226
     876.0    1386.4974       0.0000      50.8611     -54.6738       1.2907      -1.0530      -0.7463     250.4092       1.0226
     877.0    1352.4850       0.0000      50.8611     -57.1675       1.2359      -1.0381      -0.6696     256.5111       1.0226
     878.0    1336.4265       0.0000      50.8611     -54.0695       1.2891      -1.0431      -0.7564     262.6287       1.0226
     879.0    1319.1838       0.0000      50.8611     -53.3428       1.2503      -1.0029      -0.7463     269.1335       1.0226
     880.0    1312.1030       0.0000      50.8611     -45.8403       1.2834      -0.9176      -0.8942     275.2349       1.0226
     881.0    1301.7863       0.0000      50.8611     -48.7783       1.3595      -1.0232      -0.8947     281.3367       1.0226
     882.0    1286.0470       0.0000      50.8611     -49.2310       1.1443      -0.8670      -0.7463     287.4370       1.0213
