~VERSION INFORMATION
VERS.           2.0   :CWLS Log ASCII Standard - VERSION 2.0
WRAP.           NO    :One Line per depth step
PROD.  Schlumberger   :LAS Producer
PROG.  DLIS to ASCII 19C2-270                          :LAS Program name and version
CREA.        2017/09/16 17:42                          :LAS Creation date {YYYY/MM/DD hh:mm}
DLIS_CREA.  2017-Sep-15 11:44                          :DLIS Creation date and time {YYYY-MMM-DD hh:mm}
SOURCE.     LPC_S1-1_AV_4TH-LOG.DLIS                   :DLIS File Name
FILE-ID.     PERFO_Perfo_WPGRT_017LTP                  :File Identification Number
#--------------------------------------------------
~WELL INFORMATION
#MNEM.UNIT      DATA             DESCRIPTION
#---- ------ --------------   -----------------------------
STRT .S         3425.0       :START TIME      
STOP .S         3810.0       :STOP TIME      
STEP .S            1.0       :STEP     
NULL .          -999.25      :NULL VALUE
COMP .        SHELL INTERNATIONAL E P                  :COMPANY
WELL .        WPP TEST 2                               :WELL
FLD  .        WILDCAT                                  :FIELD
LOC  .                                                 :LOCATION
CNTY .        HARRIS                                   :COUNTY
STAT .        TEXAS                                    :STATE
CTRY .                                                 :COUNTRY
API  .                                                 :API NUMBER
UWI  .                                                 :UNIQUE WELL ID
DATE .                                                 :LOG DATE
SRVC .        Schlumberger                             :SERVICE COMPANY
LATI .DEG                                              :LATITUDE
LONG .DEG                                              :LONGITUDE
GDAT .                                                 :GeoDetic Datum
#-----------------------------------------------------------------------------
~PARAMETER INFORMATION
#MNEM.UNIT    VALUE                      DESCRIPTION
#---- -----   --------------------       ------------------------
U-PHASE_B_COMP_PER_YT.                 0 :Phase B Comparator Period Yt
U-PHASE_A_COMP_PER_XT.                 0 :Phase A Comparator Period Xt
U-MAX_EXC_CUR_LIMIT.MA       240.00000   :Requested CM Current Limit
U-REQ_EXC_FQ.HZ              50          :Requested CM Frequency
U-TILT_Y_OFFSET.           0.19916       :WPTET Tilt Y Offset
U-TILT_Y_GAIN.           1.01796         :WPTET Tilt Y Gain
U-TILT_X_OFFSET.          -1.77103       :WPTET Tilt X Offset
U-TILT_X_GAIN.           1.00000         :WPTET Tilt X Gain
U-TILT_OFFSET_TOL.           0.00100     :WPTET Tilt Offset Calibration Tolerance
U-NO_TILT_CAL_ROTATIONS.                 3 :Number of Rotations for Tilt Calibration
HAZI .DEG        0.00000                 :Hole Azimuth
U-STD_TOL_TILT.           0.01000        :Tilt Standard Deviation Tolerance
U-GUN_POS_TOL.DEG        5.00000         :Gun Position Tolerance
ROT_ANGLE_THRESHOLD.DEG        5.00000   :Rotation Stop Angle Tolerance
STOP_ROT_ANGLE.DEG       80.00000        :Rotation Stop Angle
WITN .                                   :Witness's Name
ENGI .                                   :Engineer's Name
COUN .        HARRIS                     :County or Rig Name
FN   .        WILDCAT                    :Field Name
WN   .        WPP TEST 2                 :Well Name
CN   .        SHELL INTERNATIONAL E P    :Company Name
CLAB .        County                     :County/Rig Label
SLAB .        State                      :State/Province Label
RUN  .          1                        :RUN NUMBER
PDAT .        GROUND LEVEL               :Permanent Datum
EPD  .                                   :Elevation of Permanent Datum above Mean Sea Level
LMF  .                                   :Logging Measured From (Name of Logging Elevation Reference)
APD  .                                   :Elevation of Depth Reference (LMF) above Permanent Datum
#-----------------------------------------------------------------------------
~CURVE INFORMATION
#MNEM.UNIT   API CODE                                  DESCRIPTION
#---- -----  --------                                  -----------------------
TIME .S                                                :TIME {F10.1}
FREQ_EMF_SL.HZ                                         :Electromagnetic Field Frequency {F13.4}
PH_SH_WPPCM_SL.DEG                                     :WPPCM Phase Shift {F13.4}
FREQ_EXC_REQ_SL.HZ                                     :Requested Exciter Frequency {F13.4}
RB_SL.DEG                                              :Relative Bearing {F13.4}
SDEV_SL.DEG                                            :Sonde Deviation {F13.4}
TILX_SL.DEG                                            :X-axis Tilt {F13.4}
TILY_SL.DEG                                            :Y-axis Tilt {F13.4}
ROTA_SL.DEG                                            :Motor Rotation Angle {F13.4}
MSPE_SL.RPM                                            :Motor Speed {F13.4}
#-----------------------------------------------------------------------------
# 
#     TIME    FREQ_EMF_SL  PH_SH_WPPCM_ FREQ_EXC_REQ    RB_SL       SDEV_SL      TILX_SL      TILY_SL      ROTA_SL      MSPE_SL
#                          SL           _SL
~A  
# ...
    3740.0    1106.5795       0.0000      50.8611     -56.2092       1.1646      -0.9677      -0.6477     238.5941       1.0151
    3741.0    1037.9302       0.0000      50.8611     -55.3338       1.1285      -0.9275      -0.6421     244.6872       1.0226
    3742.0    1003.4401       0.0000      50.8611     -45.3405       1.0382      -0.7382      -0.7295     250.7891       1.0226
    3743.0     979.0844       0.0000      50.8611     -50.5739       1.1861      -0.9160      -0.7530     256.8685       1.0226
    3744.0     967.3459       0.0000      50.8611     -51.4078       1.1511      -0.8989      -0.7178     262.9835       1.0303
    3745.0     945.7929       0.0000      50.8611     -49.7487       1.1475      -0.8758      -0.7413     269.0853       1.0226
    3746.0     934.6497       0.0000      50.8611     -54.0822       1.0376      -0.8412      -0.6068     275.1871       1.0226
    3747.0     925.8579       0.0000      50.8611     -42.5421       0.9888      -0.6745      -0.7178     281.2766       1.0226
    3748.0     919.4635       0.0000      50.8611     -44.0171       1.1447      -0.7955      -0.8230     287.3801       1.0226
    3749.0     913.6764       0.0000      50.8611     -45.7581       1.0469      -0.7498      -0.7295     293.4857       1.0303
    3750.0     911.9650       0.0000      50.8611     -44.2460       1.0593      -0.7382      -0.7586     299.6084       1.0303
    3751.0     916.5469       0.0000      50.8611     -56.9211       1.1132      -0.9330      -0.6068     305.7242       1.0226
    3752.0     921.5269       0.0000      50.8611     -54.1729       0.9429      -0.7613      -0.5547     312.2347       1.0303
    3753.0     926.5718       0.0000      50.8611     -43.6781       0.8790      -0.6062      -0.6360     318.3599       1.0226
    3754.0     938.3918       0.0000      50.8611     -47.4262       0.9486      -0.6981      -0.6421     324.4608       1.0226
    3755.0     949.0659       0.0000      50.8611     -47.9790       0.9241      -0.6865      -0.6186     330.5648       1.0226
    3756.0     966.9800       0.0000      50.8611     -56.0608       1.0351      -0.8587      -0.5777     336.6666       1.0226
    3757.0     983.0278       0.0000      50.8611     -47.8444       0.9133      -0.6750      -0.6130     342.7684       1.0226
    3758.0    1003.2528       0.0000      50.8611     -47.9948       0.8233      -0.6117      -0.5486     348.8681       1.0226
    3759.0    1024.5689       0.0000      50.8611     -50.7739       0.8492      -0.6579      -0.5368     354.9597       1.0226
    3760.0    1068.6242       0.0000      50.8611     -51.5153       0.9284      -0.7267      -0.5777       1.0615       1.0226
    3761.0    1144.6646       0.0000      50.8611     -53.1134       0.9651      -0.7724      -0.5777       7.1633       1.0226
    3762.0    1236.0589       0.0000      50.8611     -47.4115       0.7627      -0.5605      -0.5133      13.2660       1.0226
    3763.0    1280.4249       0.0000      50.8611     -53.6794       0.7395      -0.5946      -0.4377      19.3678       1.0226
    3764.0    1310.4486       0.0000      50.8611     -55.0993       0.8580      -0.7041      -0.4903      25.8777       1.0226
    3765.0    1338.2064       0.0000      50.8611     -57.4876       0.9230      -0.7784      -0.4959      31.9764       1.0226
    3766.0    1376.3585       0.0000      50.8611     -61.9676       0.8559      -0.7553      -0.4024      38.0659       1.0226
    3767.0    1394.7190       0.0000      50.8611     -64.0770       0.7198      -0.6464      -0.3150      44.1808       1.0226
    3768.0    1425.8302       0.0000      50.8611     -62.6510       0.7740      -0.6865      -0.3559      50.2885       1.0303
    3769.0    1449.3428       0.0000      50.8611     -63.9804       0.9320      -0.8356      -0.4085      56.3996       1.0226
    3770.0    1484.2877       0.0000      50.8611     -56.3156       0.7696      -0.6408      -0.4259      62.5145       1.0226
    3771.0    1514.9197       0.0000      50.8611     -61.0360       0.8308      -0.7267      -0.4024      68.6294       1.0226
    3772.0    1535.7345       0.0000      50.8611     -70.2674       0.9612      -0.9049      -0.3206      74.7312       1.0226
    3773.0    1562.0370       0.0000      50.8611     -63.6901       0.8426      -0.7553      -0.3733      80.8460       1.0226
    3774.0    1581.0794       0.0000      50.8611     -60.0293       0.8321      -0.7212      -0.4142      86.9478       1.0226
    3775.0    1602.7028       0.0000      50.8611     -68.1770       0.9252      -0.8587      -0.3441      93.0513       1.0226
    3776.0    1613.7379       0.0000      50.8611     -66.2087       0.9404      -0.8587      -0.3789      99.5581       1.0226
    3777.0    1622.7696       0.0000      50.8611     -70.3523       0.9547      -0.8989      -0.3206     105.6599       1.0226
    3778.0    1632.4713       0.0000      50.8611     -67.0509       0.8610      -0.7900      -0.3385     108.1618       0.0005
    3779.0    1638.9860       0.0000      50.8611     -63.8663       1.0332      -0.9275      -0.4551     108.1618       0.0005
    3780.0    1636.2703       0.0000      50.8611     -69.0664       1.0114      -0.9446      -0.3615     108.1618       0.0005
    3781.0    1634.6680       0.0000      50.8611     -70.8834       0.9271      -0.8758      -0.3033     108.1618       0.0005
    3782.0    1639.1551       0.0000      50.8611     -66.0853       0.9677      -0.8846      -0.3923     108.1618       0.0005
    3783.0    1636.2703       0.0000      50.8611     -65.7524       1.0494      -0.9561      -0.4315     108.1618       0.0005
    3784.0    1643.3599       0.0000      50.8611     -61.3624       0.8671      -0.7613      -0.4142     108.1618       0.0005
    3785.0    1640.6186       0.0000      50.8611     -71.6549       0.8690      -0.8246      -0.2741     108.1618       0.0005
    3786.0    1643.9215       0.0000      50.8611     -64.8917       1.0311      -0.9336      -0.4377     108.1618       0.0005
    3787.0    1635.1744       0.0000      50.8611     -64.3405       0.9338      -0.8417      -0.4024     108.1618       0.0005
    3788.0    1638.9860       0.0000      50.8611     -65.0361       0.9534      -0.8643      -0.4024     108.1618       0.0005
    3789.0    1642.8153       0.0000      50.8611     -63.1295       1.0225      -0.9105      -0.4607     108.1618       0.0005
    3790.0    1637.3712       0.0000      50.8611     -71.4959       0.9969      -0.9446      -0.3150     108.1618       0.0005
    3791.0    1637.3712       0.0000      50.8611     -63.1531       0.9174      -0.8186      -0.4142     108.1618       0.0005
    3792.0    1638.9860       0.0000      50.8611     -65.8639       0.9412      -0.8587      -0.3850     108.1618       0.0005
    3793.0    1642.2692       0.0000      50.8611     -67.8220       1.0333      -0.9561      -0.3907     108.1618       0.0005
    3794.0    1638.9860       0.0000      50.8611     -64.6965       0.9182      -0.8301      -0.3923     108.1618       0.0005
    3795.0    1633.5671       0.0000      50.8611     -67.9981       0.9851      -0.9105      -0.3671     108.1618       0.0005
    3796.0    1640.6186       0.0000      50.8611     -65.8967       0.7553      -0.6810      -0.3027     108.1618       0.0005
    3797.0    1641.7144       0.0000      50.8611     -67.5668       1.0608      -0.9787      -0.4080     108.1618       0.0005
    3798.0    1637.3712       0.0000      50.8611     -70.3523       0.9547      -0.8989      -0.3206     108.1618       0.0005
    3799.0    1633.5671       0.0000      50.8611     -73.8711       0.9722      -0.9215      -0.2629     108.1618       0.0005
    3800.0    1638.9860       0.0000      50.8611     -60.9965       1.0534      -0.9215      -0.5077     108.1618       0.0005
    3801.0    1640.6186       0.0000      50.8611     -63.7783       0.9961      -0.8929      -0.4377     108.1618       0.0005
    3802.0    1641.7144       0.0000      50.8611     -64.5033       0.8943      -0.8070      -0.3850     108.1618       0.0005
