~VERSION INFORMATION
VERS.           2.0   :CWLS Log ASCII Standard - VERSION 2.0
WRAP.           NO    :One Line per depth step
PROD.  Schlumberger   :LAS Producer
PROG.  DLIS to ASCII 19C2-270                          :LAS Program name and version
CREA.        2017/09/16 17:42                          :LAS Creation date {YYYY/MM/DD hh:mm}
DLIS_CREA.  2017-Sep-15 14:28                          :DLIS Creation date and time {YYYY-MMM-DD hh:mm}
SOURCE.     LPC_S2-1_A5.DLIS                           :DLIS File Name
FILE-ID.     PERFO_Perfo_WPGRT_029LTP                  :File Identification Number
#--------------------------------------------------
~WELL INFORMATION
#MNEM.UNIT      DATA             DESCRIPTION
#---- ------ --------------   -----------------------------
STRT .S        13288.0       :START TIME      
STOP .S        13773.0       :STOP TIME      
STEP .S            1.0       :STEP     
NULL .          -999.25      :NULL VALUE
COMP .        SHELL INTERNATIONAL E P                  :COMPANY
WELL .        WPP TEST 2                               :WELL
FLD  .        WILDCAT                                  :FIELD
LOC  .                                                 :LOCATION
CNTY .        HARRIS                                   :COUNTY
STAT .        TEXAS                                    :STATE
CTRY .                                                 :COUNTRY
API  .                                                 :API NUMBER
UWI  .                                                 :UNIQUE WELL ID
DATE .                                                 :LOG DATE
SRVC .        Schlumberger                             :SERVICE COMPANY
LATI .DEG                                              :LATITUDE
LONG .DEG                                              :LONGITUDE
GDAT .                                                 :GeoDetic Datum
#-----------------------------------------------------------------------------
~PARAMETER INFORMATION
#MNEM.UNIT    VALUE                      DESCRIPTION
#---- -----   --------------------       ------------------------
U-PHASE_B_COMP_PER_YT.                 0 :Phase B Comparator Period Yt
U-PHASE_A_COMP_PER_XT.                 0 :Phase A Comparator Period Xt
U-MAX_EXC_CUR_LIMIT.MA       240.00000   :Requested CM Current Limit
U-REQ_EXC_FQ.HZ              50          :Requested CM Frequency
U-TILT_Y_OFFSET.           0.19916       :WPTET Tilt Y Offset
U-TILT_Y_GAIN.           1.01796         :WPTET Tilt Y Gain
U-TILT_X_OFFSET.          -1.77103       :WPTET Tilt X Offset
U-TILT_X_GAIN.           1.00000         :WPTET Tilt X Gain
U-TILT_OFFSET_TOL.           0.00100     :WPTET Tilt Offset Calibration Tolerance
U-NO_TILT_CAL_ROTATIONS.                 3 :Number of Rotations for Tilt Calibration
HAZI .DEG        0.00000                 :Hole Azimuth
U-STD_TOL_TILT.           0.01000        :Tilt Standard Deviation Tolerance
U-GUN_POS_TOL.DEG        5.00000         :Gun Position Tolerance
ROT_ANGLE_THRESHOLD.DEG        5.00000   :Rotation Stop Angle Tolerance
STOP_ROT_ANGLE.DEG       80.00000        :Rotation Stop Angle
WITN .                                   :Witness's Name
ENGI .                                   :Engineer's Name
COUN .        HARRIS                     :County or Rig Name
FN   .        WILDCAT                    :Field Name
WN   .        WPP TEST 2                 :Well Name
CN   .        SHELL INTERNATIONAL E P    :Company Name
CLAB .        County                     :County/Rig Label
SLAB .        State                      :State/Province Label
RUN  .          1                        :RUN NUMBER
PDAT .        GROUND LEVEL               :Permanent Datum
EPD  .                                   :Elevation of Permanent Datum above Mean Sea Level
LMF  .                                   :Logging Measured From (Name of Logging Elevation Reference)
APD  .                                   :Elevation of Depth Reference (LMF) above Permanent Datum
#-----------------------------------------------------------------------------
~CURVE INFORMATION
#MNEM.UNIT   API CODE                                  DESCRIPTION
#---- -----  --------                                  -----------------------
TIME .S                                                :TIME {F10.1}
FREQ_EMF_SL.HZ                                         :Electromagnetic Field Frequency {F13.4}
PH_SH_WPPCM_SL.DEG                                     :WPPCM Phase Shift {F13.4}
FREQ_EXC_REQ_SL.HZ                                     :Requested Exciter Frequency {F13.4}
RB_SL.DEG                                              :Relative Bearing {F13.4}
SDEV_SL.DEG                                            :Sonde Deviation {F13.4}
TILX_SL.DEG                                            :X-axis Tilt {F13.4}
TILY_SL.DEG                                            :Y-axis Tilt {F13.4}
ROTA_SL.DEG                                            :Motor Rotation Angle {F13.4}
MSPE_SL.RPM                                            :Motor Speed {F13.4}
#-----------------------------------------------------------------------------
# 
#     TIME    FREQ_EMF_SL  PH_SH_WPPCM_ FREQ_EXC_REQ    RB_SL       SDEV_SL      TILX_SL      TILY_SL      ROTA_SL      MSPE_SL
#                          SL           _SL
~A  
# ...
   13729.0    1468.2727       0.0000      50.8611      71.8109       3.1698       3.0112      -0.9890      23.9189       1.0226
   13730.0    1496.2989       0.0000      50.8611      79.9386       3.0955       3.0478      -0.5405      30.0313       1.0330
   13731.0    1528.5327       0.0000      50.8611      83.8972       3.1044       3.0867      -0.3299      36.5538       1.0226
   13732.0    1558.9320       0.0000      50.8611      93.2124       3.0093       3.0040       0.1681      42.6585       1.0226
   13733.0    1580.2703       0.0000      50.8611     103.7052       2.9331       2.8493       0.6947      48.7578       1.0232
   13734.0    1605.4184       0.0000      50.8611     109.5061       2.9353       2.7666       0.9797      54.8704       1.0226
   13735.0    1620.3287       0.0000      50.8611     117.3878       2.9312       2.6023       1.3477      60.9628       1.0226
   13736.0    1646.4325       0.0000      50.8611     125.7678       2.8641       2.3236       1.6736      67.0675       1.0226
   13737.0    1662.2340       0.0000      50.8611     134.3785       3.0882       2.2067       2.1593      70.6755       0.0005
   13738.0    1658.5495       0.0000      50.8611     132.3160       3.0887       2.2834       2.0788      70.6755       0.0005
   13739.0    1669.6592       0.0000      50.8611     130.4951       2.9520       2.2444       1.9165      70.6755       0.0005
   13740.0    1666.1730       0.0000      50.8611     132.6313       2.8907       2.1263       1.9573      70.6755       0.0005
   13741.0    1666.1730       0.0000      50.8611     131.6650       3.0066       2.2456       1.9982      70.6755       0.0005
   13742.0    1666.0548       0.0000      50.8611     132.7411       3.0053       2.2067       2.0391      70.6755       0.0005
   13743.0    1670.0120       0.0000      50.8611     132.7392       3.0035       2.2055       2.0379      70.6755       0.0005
   13744.0    1666.0548       0.0000      50.8611     131.0438       2.9249       2.2055       1.9201      70.6755       0.0005
   13745.0    1658.6682       0.0000      50.8611     130.9783       2.9250       2.2079       1.9177      70.6755       0.0005
   13746.0    1662.3522       0.0000      50.8611     132.8260       3.0642       2.2468       2.0825      70.6755       0.0005
   13747.0    1665.9372       0.0000      50.8611     130.1793       3.0387       2.3212       1.9598      70.6755       0.0005
   13748.0    1662.3522       0.0000      50.8611     134.3334       3.1440       2.2481       2.1965      70.6755       0.0005
   13749.0    1666.1730       0.0000      50.8611     131.6410       2.9502       2.2043       1.9598      70.6755       0.0005
   13750.0    1666.0548       0.0000      50.8611     132.2280       2.9758       2.2031       1.9995      70.6755       0.0005
   13751.0    1662.4709       0.0000      50.8611     132.1634       2.9776       2.2067       1.9982      70.6755       0.0005
   13752.0    1662.3522       0.0000      50.8611     133.2129       2.8664       2.0886       1.9622      70.6755       0.0005
   13753.0    1666.1730       0.0000      50.8611     130.5931       3.0108       2.2858       1.9586      70.6755       0.0005
   13754.0    1670.0120       0.0000      50.8611     134.3676       3.1456       2.2481       2.1990      70.6755       0.0005
   13755.0    1666.2917       0.0000      50.8611     133.8622       3.1171       2.2468       2.1593      70.6755       0.0005
   13756.0    1662.3522       0.0000      50.8611     131.6628       3.0049       2.2444       1.9970      70.6755       0.0005
   13757.0    1662.3522       0.0000      50.8611     132.2245       3.0332       2.2456       2.0379      70.6755       0.0005
   13758.0    1665.9372       0.0000      50.8611     132.7238       3.0044       2.2067       2.0379      70.6755       0.0005
   13759.0    1666.2917       0.0000      50.8611     131.6804       3.0057       2.2444       1.9982      70.6755       0.0005
   13760.0    1666.2917       0.0000      50.8611     131.7834       3.1727       2.3649       2.1135      70.6755       0.0005
   13761.0    1665.2161       0.0000      50.8611     131.9762       3.0459       2.2639       2.0367      70.6755       0.0005
   13762.0    1666.1730       0.0000      50.8611     133.3636       2.9793       2.1653       2.0452      70.6755       0.0005
   13763.0    1666.2917       0.0000      50.8611     131.1425       2.9777       2.2420       1.9586      70.6755       0.0005
   13764.0    1666.1730       0.0000      50.8611     133.2761       3.0332       2.2079       2.0788      70.6755       0.0005
   13765.0    1666.0548       0.0000      50.8611     133.2309       2.9742       2.1665       2.0367      70.6755       0.0005
   13766.0    1662.3522       0.0000      50.8611     133.7219       3.0052       2.1713       2.0763      70.6755       0.0005
   13767.0    1670.0120       0.0000      50.8611     131.6474       3.0058       2.2456       1.9970      70.6755       0.0005
   13768.0    1658.6682       0.0000      50.8611     133.2894       3.0306       2.2055       2.0776      70.6755       0.0005
   13769.0    1666.1730       0.0000      50.8611     131.0119       2.9799       2.2481       1.9549      70.6755       0.0005
   13770.0    1662.2340       0.0000      50.8611     132.5958       2.9517       2.1725       1.9970      70.6755       0.0005
   13771.0    1662.3522       0.0000      50.8611     134.3307       2.9187       2.0874       2.0391      70.6755       0.0005
   13772.0    1662.3522       0.0000      50.8611     131.2072       3.0924       2.3260       2.0367      70.6755       0.0005
   13773.0    1665.0979       0.0000      50.8611     132.3087       2.9877       2.2091       2.0106      70.6755       0.0005
