~VERSION INFORMATION
VERS.           2.0   :CWLS Log ASCII Standard - VERSION 2.0
WRAP.           NO    :One Line per depth step
PROD.  Schlumberger   :LAS Producer
PROG.  DLIS to ASCII 19C2-270                          :LAS Program name and version
CREA.        2017/09/16 17:42                          :LAS Creation date {YYYY/MM/DD hh:mm}
DLIS_CREA.  2017-Sep-15 17:32                          :DLIS Creation date and time {YYYY-MMM-DD hh:mm}
SOURCE.     LPC_S4-1_A5.DLIS                           :DLIS File Name
FILE-ID.     PERFO_Perfo_WPGRT_048LTP                  :File Identification Number
#--------------------------------------------------
~WELL INFORMATION
#MNEM.UNIT      DATA             DESCRIPTION
#---- ------ --------------   -----------------------------
STRT .S         1889.0       :START TIME      
STOP .S         2373.0       :STOP TIME      
STEP .S            1.0       :STEP     
NULL .          -999.25      :NULL VALUE
COMP .        SHELL INTERNATIONAL E P                  :COMPANY
WELL .        WPP TEST 2                               :WELL
FLD  .        WILDCAT                                  :FIELD
LOC  .        NA                                       :LOCATION
CNTY .        HARRIS                                   :COUNTY
STAT .        TEXAS                                    :STATE
CTRY .                                                 :COUNTRY
API  .        NA                                       :API NUMBER
UWI  .                                                 :UNIQUE WELL ID
DATE .        15-Sep-2017                              :LOG DATE {DD-MMM-YYYY}
SRVC .        Schlumberger                             :SERVICE COMPANY
LATI .DEG                                              :LATITUDE
LONG .DEG                                              :LONGITUDE
GDAT .                                                 :GeoDetic Datum
SECT .        NA                                       :Section
RANG .        NA                                       :Range
TOWN .        NA                                       :Township
#-----------------------------------------------------------------------------
~PARAMETER INFORMATION
#MNEM.UNIT    VALUE                      DESCRIPTION
#---- -----   --------------------       ------------------------
U-PHASE_B_COMP_PER_YT.                 0 :Phase B Comparator Period Yt
U-PHASE_A_COMP_PER_XT.                 0 :Phase A Comparator Period Xt
U-MAX_EXC_CUR_LIMIT.MA       240.00000   :Requested CM Current Limit
U-REQ_EXC_FQ.HZ              50          :Requested CM Frequency
U-TILT_Y_OFFSET.           0.19916       :WPTET Tilt Y Offset
U-TILT_Y_GAIN.           1.01796         :WPTET Tilt Y Gain
U-TILT_X_OFFSET.          -1.77103       :WPTET Tilt X Offset
U-TILT_X_GAIN.           1.00000         :WPTET Tilt X Gain
U-TILT_OFFSET_TOL.           0.00100     :WPTET Tilt Offset Calibration Tolerance
U-NO_TILT_CAL_ROTATIONS.                 3 :Number of Rotations for Tilt Calibration
HAZI .DEG        0.00000                 :Hole Azimuth
U-STD_TOL_TILT.           0.01000        :Tilt Standard Deviation Tolerance
U-GUN_POS_TOL.DEG        5.00000         :Gun Position Tolerance
ROT_ANGLE_THRESHOLD.DEG        5.00000   :Rotation Stop Angle Tolerance
STOP_ROT_ANGLE.DEG        0.00000        :Rotation Stop Angle
WITN .        MR. DHRUA ARORA            :Witness's Name
ENGI .        MORRIS MOORE               :Engineer's Name
COUN .        HARRIS                     :County or Rig Name
FN   .        WILDCAT                    :Field Name
WN   .        WPP TEST 2                 :Well Name
CN   .        SHELL INTERNATIONAL E P    :Company Name
CLAB .        County                     :County/Rig Label
SLAB .        State                      :State/Province Label
RUN  .          1                        :RUN NUMBER
PDAT .        GROUND LEVEL               :Permanent Datum
EPD  .                                   :Elevation of Permanent Datum above Mean Sea Level
LMF  .          NA                       :Logging Measured From (Name of Logging Elevation Reference)
APD  .                                   :Elevation of Depth Reference (LMF) above Permanent Datum
#-----------------------------------------------------------------------------
~CURVE INFORMATION
#MNEM.UNIT   API CODE                                  DESCRIPTION
#---- -----  --------                                  -----------------------
TIME .S                                                :TIME {F10.1}
FREQ_EMF_SL.HZ                                         :Electromagnetic Field Frequency {F13.4}
PH_SH_WPPCM_SL.DEG                                     :WPPCM Phase Shift {F13.4}
FREQ_EXC_REQ_SL.HZ                                     :Requested Exciter Frequency {F13.4}
RB_SL.DEG                                              :Relative Bearing {F13.4}
SDEV_SL.DEG                                            :Sonde Deviation {F13.4}
TILX_SL.DEG                                            :X-axis Tilt {F13.4}
TILY_SL.DEG                                            :Y-axis Tilt {F13.4}
ROTA_SL.DEG                                            :Motor Rotation Angle {F13.4}
MSPE_SL.RPM                                            :Motor Speed {F13.4}
#-----------------------------------------------------------------------------
# 
#     TIME    FREQ_EMF_SL  PH_SH_WPPCM_ FREQ_EXC_REQ    RB_SL       SDEV_SL      TILX_SL      TILY_SL      ROTA_SL      MSPE_SL
#                          SL           _SL
~A  
# ...
    2141.0     857.4499       0.0000      50.8611     -56.5156       5.2079      -4.3417      -2.8705     324.2663       1.0226
    2142.0     848.2182       0.0000      50.8611     -48.6113       5.2033      -3.9014      -3.4376     330.3812       1.0332
    2143.0     841.0023       0.0000      50.8611     -46.9499       5.2261      -3.8165      -3.5648     336.4860       1.0226
    2144.0     837.0349       0.0000      50.8611     -40.9540       5.1573      -3.3777      -3.8927     342.5876       1.0122
    2145.0     834.1680       0.0000      50.8611     -37.1148       5.1385      -3.0980      -4.0956     348.6774       1.0226
    2146.0     837.0910       0.0000      50.8611     -31.9713       5.1646      -2.7320      -4.3795     354.7792       1.0226
    2147.0     844.1449       0.0000      50.8611     -25.9619       5.0585      -2.2121      -4.5469       0.8810       1.0226
    2148.0     851.3186       0.0000      50.8611     -23.0316       5.3346      -2.0848      -4.9080       6.9828       1.0226
    2149.0     864.8724       0.0000      50.8611     -16.6759       5.0420      -1.4452      -4.8293      13.0847       1.0226
    2150.0     877.8502       0.0000      50.8611     -10.2619       4.7442      -0.8442      -4.6680      19.1627       1.0332
    2151.0     895.7221       0.0000      50.8611      -5.2673       4.8506      -0.4448      -4.8301      25.2646       1.0226
    2152.0     916.8793       0.0000      50.8611      -0.4934       4.8272      -0.0416      -4.8270      31.3664       1.0226
    2153.0     943.8875       0.0000      50.8611       4.9074       4.6837       0.4002      -4.6665      37.8769       1.0226
    2154.0     977.8952       0.0000      50.8611      11.2673       4.5082       0.8800      -4.4212      43.9788       1.0226
    2155.0    1011.9675       0.0000      50.8611      15.3198       4.4133       1.1649      -4.2561      50.0806       1.0226
    2156.0    1084.0102       0.0000      50.8611      20.4588       4.3686       1.5257      -4.0925      56.1824       1.0226
    2157.0    1202.3951       0.0000      50.8611      26.8812       4.1783       1.8879      -3.7261      62.2974       1.0226
    2158.0    1280.7815       0.0000      50.8611      34.0880       4.1566       2.3282      -3.4414      68.3869       1.0226
    2159.0    1329.3487       0.0000      50.8611      38.7463       4.0429       2.5291      -3.1521      74.5020       1.0332
    2160.0    1373.4938       0.0000      50.8611      46.0975       3.8986       2.8080      -2.7024      80.6299       1.0226
    2161.0    1417.7526       0.0000      50.8611      50.7717       3.8845       3.0081      -2.4555      86.7317       1.0226
    2162.0    1464.9011       0.0000      50.8611      59.4914       3.6320       3.1286      -1.8429      92.8335       1.0228
    2163.0    1522.0396       0.0000      50.8611      64.7228       3.5500       3.2096      -1.5151      98.9614       1.0226
    2164.0    1566.1774       0.0000      50.8611      74.0395       3.5845       3.4461      -0.9851     105.0509       1.0226
    2165.0    1612.7416       0.0000      50.8611      79.4817       3.3864       3.3294      -0.6178     111.5869       1.0332
    2166.0    1654.5584       0.0000      50.8611      87.1352       3.3328       3.3286      -0.1665     117.6894       1.0226
    2167.0    1694.6646       0.0000      50.8611      94.9567       3.2620       3.2498       0.2817     123.7912       1.0226
    2168.0    1732.0768       0.0000      50.8611     102.8878       3.2889       3.2059       0.7330     129.8902       1.0226
    2169.0    1766.8129       0.0000      50.8611     111.4395       3.2311       3.0073       1.1805     135.9952       1.0228
    2170.0    1793.8586       0.0000      50.8611     119.9474       3.1046       2.6897       1.5492     142.1109       1.0226
    2171.0    1821.7451       0.0000      50.8611     128.5425       3.0791       2.4078       1.9180     148.2128       1.0226
    2172.0    1826.4776       0.0000      50.8611     137.0130       3.2946       2.2456       2.4094     154.3155       1.0226
    2173.0    1845.4724       0.0000      50.8611     141.0098       3.3140       2.0842       2.5753     160.4174       1.0226
    2174.0    1855.0285       0.0000      50.8611     149.4324       3.4637       1.7606       2.9818     166.5354       1.0226
    2175.0    1845.6550       0.0000      50.8611     159.3248       3.4042       1.2013       3.1847     172.6504       1.0226
    2176.0    1845.4724       0.0000      50.8611     166.7294       3.4823       0.7989       3.3892     178.7625       1.0226
    2177.0    1835.7459       0.0000      50.8611     174.3865       3.6528       0.3571       3.6353     185.2825       1.0226
    2178.0    1816.7727       0.0000      50.8611     172.0913       3.7171       0.0751       3.7163     191.3874       1.0226
    2179.0    1793.6862       0.0000      50.8611    -173.7695       3.7376      -0.4054       3.7155     197.5032       1.0226
    2180.0    1771.0124       0.0000      50.8611    -167.8950       3.8809      -0.8131       3.7942     203.6183       1.0226
    2181.0    1740.0884       0.0000      50.8611    -160.6790       4.0227      -1.3299       3.7958     209.7200       1.0224
    2182.0    1706.4595       0.0000      50.8611    -155.2109       4.1349      -1.7324       3.7533     215.8229       1.0226
    2183.0    1662.1605       0.0000      50.8611    -147.2938       4.1765      -2.2553       3.5134     221.9379       1.0226
    2184.0    1619.8951       0.0000      50.8611    -141.8958       4.3057      -2.6554       3.3869     228.0398       1.0226
    2185.0    1572.7250       0.0000      50.8611    -136.1689       4.4726      -3.0958       3.2249     234.1415       1.0226
    2186.0    1521.9155       0.0000      50.8611    -130.0546       4.5683      -3.4952       2.9379     240.2443       1.0226
    2187.0    1483.3276       0.0000      50.8611    -124.6234       4.5971      -3.7816       2.6100     246.3593       1.0226
    2188.0    1437.6647       0.0000      50.8611    -120.0372       4.6462      -4.0211       2.3238     252.4620       1.0226
    2189.0    1392.1726       0.0000      50.8611    -112.4658       4.7007      -4.3432       1.7946     258.9689       1.0125
    2190.0    1352.0180       0.0000      50.8611    -108.7992       4.8007      -4.5440       1.5454     265.0744       1.0226
    2191.0    1306.7430       0.0000      50.8611    -103.0881       5.0352      -4.9040       1.1388     271.1762       1.0226
    2192.0    1220.3125       0.0000      50.8611     -97.5282       4.9475      -4.9048       0.6474     277.2781       1.0226
    2193.0    1119.0726       0.0000      50.8611     -92.7129       5.0287      -5.0230       0.2377     283.3677       1.0226
    2194.0    1041.3815       0.0000      50.8611     -88.0559       5.0282      -5.0253      -0.1704     289.4695       1.0226
    2195.0     980.5466       0.0000      50.8611     -81.1861       5.1262      -5.0654      -0.7845     295.5713       1.0226
    2196.0     943.7683       0.0000      50.8611     -75.8766       5.2230      -5.0647      -1.2728     301.6731       1.0125
    2197.0     916.6096       0.0000      50.8611     -72.9992       5.2096      -4.9813      -1.5212     307.7758       1.0226
    2198.0     898.9661       0.0000      50.8611     -67.6996       5.0901      -4.7085      -1.9293     313.8776       1.0224
    2199.0     878.8243       0.0000      50.8611     -61.7869       5.3829      -4.7419      -2.5419     319.9802       1.0226
    2200.0     860.6776       0.0000      50.8611     -55.5830       5.3638      -4.4228      -3.0287     326.0820       1.0226
    2201.0     849.1464       0.0000      50.8611     -50.7706       5.2497      -4.0643      -3.3172     332.5918       1.0226
    2202.0     843.9932       0.0000      50.8611     -47.6582       5.1153      -3.7786      -3.4429     338.6812       1.0226
    2203.0     836.1520       0.0000      50.8611     -42.3300       5.3736      -3.6157      -3.9699     344.7961       1.0226
