~VERSION INFORMATION
VERS.           2.0   :CWLS Log ASCII Standard - VERSION 2.0
WRAP.           NO    :One Line per depth step
PROD.  Schlumberger   :LAS Producer
PROG.  DLIS to ASCII 19C2-270                          :LAS Program name and version
CREA.        2017/09/16 17:42                          :LAS Creation date {YYYY/MM/DD hh:mm}
DLIS_CREA.  2017-Sep-15 14:49                          :DLIS Creation date and time {YYYY-MMM-DD hh:mm}
SOURCE.     LPC_S2-1_BV.DLIS                           :DLIS File Name
FILE-ID.     PERFO_Perfo_WPGRT_031LTP                  :File Identification Number
#--------------------------------------------------
~WELL INFORMATION
#MNEM.UNIT      DATA             DESCRIPTION
#---- ------ --------------   -----------------------------
STRT .S        14524.0       :START TIME      
STOP .S        14987.0       :STOP TIME      
STEP .S            1.0       :STEP     
NULL .          -999.25      :NULL VALUE
COMP .        SHELL INTERNATIONAL E P                  :COMPANY
WELL .        WPP TEST 2                               :WELL
FLD  .        WILDCAT                                  :FIELD
LOC  .                                                 :LOCATION
CNTY .        HARRIS                                   :COUNTY
STAT .        TEXAS                                    :STATE
CTRY .                                                 :COUNTRY
API  .                                                 :API NUMBER
UWI  .                                                 :UNIQUE WELL ID
DATE .                                                 :LOG DATE
SRVC .        Schlumberger                             :SERVICE COMPANY
LATI .DEG                                              :LATITUDE
LONG .DEG                                              :LONGITUDE
GDAT .                                                 :GeoDetic Datum
#-----------------------------------------------------------------------------
~PARAMETER INFORMATION
#MNEM.UNIT    VALUE                      DESCRIPTION
#---- -----   --------------------       ------------------------
U-PHASE_B_COMP_PER_YT.                 0 :Phase B Comparator Period Yt
U-PHASE_A_COMP_PER_XT.                 0 :Phase A Comparator Period Xt
U-MAX_EXC_CUR_LIMIT.MA       240.00000   :Requested CM Current Limit
U-REQ_EXC_FQ.HZ              50          :Requested CM Frequency
U-TILT_Y_OFFSET.           0.19916       :WPTET Tilt Y Offset
U-TILT_Y_GAIN.           1.01796         :WPTET Tilt Y Gain
U-TILT_X_OFFSET.          -1.77103       :WPTET Tilt X Offset
U-TILT_X_GAIN.           1.00000         :WPTET Tilt X Gain
U-TILT_OFFSET_TOL.           0.00100     :WPTET Tilt Offset Calibration Tolerance
U-NO_TILT_CAL_ROTATIONS.                 3 :Number of Rotations for Tilt Calibration
HAZI .DEG        0.00000                 :Hole Azimuth
U-STD_TOL_TILT.           0.01000        :Tilt Standard Deviation Tolerance
U-GUN_POS_TOL.DEG        5.00000         :Gun Position Tolerance
ROT_ANGLE_THRESHOLD.DEG        5.00000   :Rotation Stop Angle Tolerance
STOP_ROT_ANGLE.DEG       80.00000        :Rotation Stop Angle
WITN .                                   :Witness's Name
ENGI .                                   :Engineer's Name
COUN .        HARRIS                     :County or Rig Name
FN   .        WILDCAT                    :Field Name
WN   .        WPP TEST 2                 :Well Name
CN   .        SHELL INTERNATIONAL E P    :Company Name
CLAB .        County                     :County/Rig Label
SLAB .        State                      :State/Province Label
RUN  .          1                        :RUN NUMBER
PDAT .        GROUND LEVEL               :Permanent Datum
EPD  .                                   :Elevation of Permanent Datum above Mean Sea Level
LMF  .                                   :Logging Measured From (Name of Logging Elevation Reference)
APD  .                                   :Elevation of Depth Reference (LMF) above Permanent Datum
#-----------------------------------------------------------------------------
~CURVE INFORMATION
#MNEM.UNIT   API CODE                                  DESCRIPTION
#---- -----  --------                                  -----------------------
TIME .S                                                :TIME {F10.1}
FREQ_EMF_SL.HZ                                         :Electromagnetic Field Frequency {F13.4}
PH_SH_WPPCM_SL.DEG                                     :WPPCM Phase Shift {F13.4}
FREQ_EXC_REQ_SL.HZ                                     :Requested Exciter Frequency {F13.4}
RB_SL.DEG                                              :Relative Bearing {F13.4}
SDEV_SL.DEG                                            :Sonde Deviation {F13.4}
TILX_SL.DEG                                            :X-axis Tilt {F13.4}
TILY_SL.DEG                                            :Y-axis Tilt {F13.4}
ROTA_SL.DEG                                            :Motor Rotation Angle {F13.4}
MSPE_SL.RPM                                            :Motor Speed {F13.4}
#-----------------------------------------------------------------------------
# 
#     TIME    FREQ_EMF_SL  PH_SH_WPPCM_ FREQ_EXC_REQ    RB_SL       SDEV_SL      TILX_SL      TILY_SL      ROTA_SL      MSPE_SL
#                          SL           _SL
~A  
# ...
   14839.0    1097.7479       0.0000      50.8611     -53.5467       0.9889      -0.7859      -0.5789     287.0049       1.0226
   14840.0    1066.9438       0.0000      50.8611     -63.4834       1.0598      -0.9470      -0.4749     293.1066       1.0226
   14841.0    1045.5209       0.0000      50.8611     -62.0844       1.2772      -1.1284      -0.5980     299.2082       1.0226
   14842.0    1010.2123       0.0000      50.8611     -61.4571       1.1252      -0.9876      -0.5372     305.3098       1.0226
   14843.0    1000.1534       0.0000      50.8611     -66.0941       1.1251      -1.0277      -0.4555     311.4115       1.0226
   14844.0     993.1304       0.0000      50.8611     -53.6517       1.3084      -1.0496      -0.7607     317.5263       1.0226
   14845.0     984.7846       0.0000      50.8611     -58.9959       1.0825      -0.9279      -0.5575     323.6216       1.0228
   14846.0     978.5790       0.0000      50.8611     -62.3602       1.0694      -0.9474      -0.4959     329.7302       1.0226
   14847.0     984.0574       0.0000      50.8611     -52.9961       1.1357      -0.9084      -0.6801     335.8319       1.0226
   14848.0     995.9439       0.0000      50.8611     -51.0610       1.1147      -0.8671      -0.7004     341.9213       1.0226
   14849.0     996.6814       0.0000      50.8611     -53.4077       1.1051      -0.8870      -0.6591     348.4185       1.0226
   14850.0    1011.7281       0.0000      50.8611     -55.3115       1.1287      -0.9283      -0.6388     354.5202       1.0226
   14851.0    1041.6535       0.0000      50.8611     -56.4816       1.1608      -0.9685      -0.6393     178.8163       1.0280
   14852.0    1071.8557       0.0000      50.8611     -52.2798       1.1474      -0.9080      -0.7004       6.7151       1.0174
   14853.0    1099.5516       0.0000      50.8611     -54.6950       1.2117      -0.9880      -0.7000      12.8138       1.0226
   14854.0    1134.1930       0.0000      50.8611     -51.7161       1.1305      -0.8874      -0.7004      18.9034       1.0226
   14855.0    1187.8019       0.0000      50.8611     -55.7323       1.0262      -0.8472      -0.5781      24.9930       1.0226
   14856.0    1236.9828       0.0000      50.8611     -49.0466       1.0686      -0.8070      -0.7004      31.1078       1.0226
   14857.0    1273.7772       0.0000      50.8611     -48.1164       1.1106      -0.8269      -0.7413      37.2096       1.0226
   14858.0    1298.4655       0.0000      50.8611     -49.4787       1.1419      -0.8671      -0.7417      43.2991       1.0226
   14859.0    1319.2133       0.0000      50.8611     -51.1076       0.9853      -0.7669      -0.6186      49.4018       1.0334
   14860.0    1341.9124       0.0000      50.8611     -48.9145       1.0705      -0.8078      -0.7004      55.5166       1.0280
   14861.0    1366.6327       0.0000      50.8611     -54.5325       1.0659      -0.8675      -0.6190      62.0526       1.0279
   14862.0    1384.1044       0.0000      50.8611     -54.1239       0.9477      -0.7665      -0.5567      68.1481       1.0173
   14863.0    1406.2838       0.0000      50.8611     -50.9336       0.9148      -0.7068      -0.5785      74.2314       1.0226
   14864.0    1436.5256       0.0000      50.8611     -44.4276       0.9813      -0.6869      -0.7008      80.3207       1.0174
   14865.0    1446.7951       0.0000      50.8611     -46.9072       0.9955      -0.7267      -0.6801      86.4225       1.0226
   14866.0    1466.3575       0.0000      50.8611     -47.2499       1.0966      -0.8062      -0.7413      92.5243       1.0226
   14867.0    1483.4239       0.0000      50.8611     -51.9055       1.0061      -0.7875      -0.6178      98.6327       1.0279
   14868.0    1504.0744       0.0000      50.8611     -55.9695       0.8513      -0.7060      -0.4753     104.7475       1.0279
   14869.0    1520.2885       0.0000      50.8611     -57.8561       0.9301      -0.7867      -0.4955     110.8435       1.0280
   14870.0    1538.5668       0.0000      50.8611     -55.2746       0.8356      -0.6869      -0.4757     116.9462       1.0226
   14871.0    1540.2707       0.0000      50.8611     -50.9466       0.7880      -0.6066      -0.4951     123.0612       1.0226
   14872.0    1552.1523       0.0000      50.8611     -49.6038       0.7963      -0.6062      -0.5162     129.1513       1.0226
   14873.0    1567.7451       0.0000      50.8611     -46.9820       0.8465      -0.6508      -0.4340     135.6744       1.0279
   14874.0    1569.4366       0.0000      50.8611     -62.1151       0.8892      -0.7863      -0.4142     141.7762       1.0226
   14875.0    1571.2135       0.0000      50.8611     -56.9101       0.7954      -0.6662      -0.4344     147.8781       1.0226
   14876.0    1574.7676       0.0000      50.8611     -50.9579       0.8843      -0.6865      -0.5571     153.9810       1.0226
   14877.0    1566.0226       0.0000      50.8611     -56.8326       0.9431      -0.7871      -0.5158     160.0960       1.0279
   14878.0    1557.2936       0.0000      50.8611     -57.0618       0.8406      -0.7060      -0.4551     166.1979       1.0226
   14879.0    1545.3296       0.0000      50.8611     -57.1082       0.9133      -0.7669      -0.4959     172.2997       1.0173
   14880.0    1540.2369       0.0000      50.8611     -59.6159       0.8193      -0.7068      -0.4142     178.3894       1.0173
   14881.0    1525.1910       0.0000      50.8611     -53.8634       1.0490      -0.8472      -0.6186     184.4790       1.0226
   14882.0    1513.7425       0.0000      50.8611     -70.2563       0.8579      -0.8066      -0.2911     190.5876       1.0279
   14883.0    1499.1752       0.0000      50.8611     -58.8668       0.9198      -0.7871      -0.4757     196.7026       1.0279
   14884.0    1484.9154       0.0000      50.8611     -69.1177       0.9290      -0.8671      -0.3320     202.7995       1.0226
   14885.0    1464.8196       0.0000      50.8611     -62.4055       0.9355      -0.8277      -0.4352     209.2970       1.0226
   14886.0    1446.7593       0.0000      50.8611     -63.2050       0.8794      -0.7859      -0.3935     215.3988       1.0226
   14887.0    1419.0084       0.0000      50.8611     -63.3735       0.9261      -0.8269      -0.4146     221.5008       1.0226
   14888.0    1406.2276       0.0000      50.8611     -71.8140       0.9340      -0.8874      -0.2915     227.6027       1.0226
   14889.0    1386.8124       0.0000      50.8611     -64.8592       1.0252      -0.9279      -0.4344     233.7178       1.0279
   14890.0    1371.9391       0.0000      50.8611     -69.6577       0.9055      -0.8468      -0.3126     239.8072       1.0226
   14891.0    1341.8100       0.0000      50.8611     -68.8981       0.8831      -0.8219      -0.3176     245.9091       1.0226
   14892.0    1320.3896       0.0000      50.8611     -60.2254       1.0448      -0.9068      -0.5166     252.0111       1.0226
   14893.0    1294.8593       0.0000      50.8611     -62.9924       1.1324      -1.0075      -0.5158     258.1129       1.0226
   14894.0    1258.9423       0.0000      50.8611     -70.5805       1.1760      -1.1077      -0.3931     264.2276       1.0226
   14895.0    1220.6727       0.0000      50.8611     -67.1242       1.0089      -0.9283      -0.3943     270.3168       1.0226
   14896.0    1171.8457       0.0000      50.8611     -68.6110       1.0046      -0.9283      -0.3745     276.4185       1.0226
   14897.0    1143.2927       0.0000      50.8611     -70.2225       1.1765      -1.1073      -0.3939     282.7246       1.0226
   14898.0    1103.8069       0.0000      50.8611     -66.7899       1.0524      -0.9673      -0.4142     289.0366       1.0173
   14899.0    1069.3650       0.0000      50.8611     -69.6151       1.0166      -0.9474      -0.3539     295.1259       1.0173
   14900.0    1046.2911       0.0000      50.8611     -48.3561       1.2969      -0.9673      -0.8631     301.2284       1.0173
   14901.0    1027.2177       0.0000      50.8611     -59.6189       1.2173      -1.0476      -0.6178     307.3370       1.0226
