~VERSION INFORMATION
VERS.           2.0   :CWLS Log ASCII Standard - VERSION 2.0
WRAP.           NO    :One Line per depth step
PROD.  Schlumberger   :LAS Producer
PROG.  DLIS to ASCII 19C2-270                          :LAS Program name and version
CREA.        2017/09/16 17:42                          :LAS Creation date {YYYY/MM/DD hh:mm}
DLIS_CREA.  2017-Sep-15 12:00                          :DLIS Creation date and time {YYYY-MMM-DD hh:mm}
SOURCE.     LPC_S1-1_A5.DLIS                           :DLIS File Name
FILE-ID.     PERFO_Perfo_WPGRT_019LTP                  :File Identification Number
#--------------------------------------------------
~WELL INFORMATION
#MNEM.UNIT      DATA             DESCRIPTION
#---- ------ --------------   -----------------------------
STRT .S         4414.0       :START TIME      
STOP .S         5447.0       :STOP TIME      
STEP .S            1.0       :STEP     
NULL .          -999.25      :NULL VALUE
COMP .        SHELL INTERNATIONAL E P                  :COMPANY
WELL .        WPP TEST 2                               :WELL
FLD  .        WILDCAT                                  :FIELD
LOC  .                                                 :LOCATION
CNTY .        HARRIS                                   :COUNTY
STAT .        TEXAS                                    :STATE
CTRY .                                                 :COUNTRY
API  .                                                 :API NUMBER
UWI  .                                                 :UNIQUE WELL ID
DATE .                                                 :LOG DATE
SRVC .        Schlumberger                             :SERVICE COMPANY
LATI .DEG                                              :LATITUDE
LONG .DEG                                              :LONGITUDE
GDAT .                                                 :GeoDetic Datum
#-----------------------------------------------------------------------------
~PARAMETER INFORMATION
#MNEM.UNIT    VALUE                      DESCRIPTION
#---- -----   --------------------       ------------------------
U-PHASE_B_COMP_PER_YT.                 0 :Phase B Comparator Period Yt
U-PHASE_A_COMP_PER_XT.                 0 :Phase A Comparator Period Xt
U-MAX_EXC_CUR_LIMIT.MA       240.00000   :Requested CM Current Limit
U-REQ_EXC_FQ.HZ              50          :Requested CM Frequency
U-TILT_Y_OFFSET.           0.19916       :WPTET Tilt Y Offset
U-TILT_Y_GAIN.           1.01796         :WPTET Tilt Y Gain
U-TILT_X_OFFSET.          -1.77103       :WPTET Tilt X Offset
U-TILT_X_GAIN.           1.00000         :WPTET Tilt X Gain
U-TILT_OFFSET_TOL.           0.00100     :WPTET Tilt Offset Calibration Tolerance
U-NO_TILT_CAL_ROTATIONS.                 3 :Number of Rotations for Tilt Calibration
HAZI .DEG        0.00000                 :Hole Azimuth
U-STD_TOL_TILT.           0.01000        :Tilt Standard Deviation Tolerance
U-GUN_POS_TOL.DEG        5.00000         :Gun Position Tolerance
ROT_ANGLE_THRESHOLD.DEG        5.00000   :Rotation Stop Angle Tolerance
STOP_ROT_ANGLE.DEG       80.00000        :Rotation Stop Angle
WITN .                                   :Witness's Name
ENGI .                                   :Engineer's Name
COUN .        HARRIS                     :County or Rig Name
FN   .        WILDCAT                    :Field Name
WN   .        WPP TEST 2                 :Well Name
CN   .        SHELL INTERNATIONAL E P    :Company Name
CLAB .        County                     :County/Rig Label
SLAB .        State                      :State/Province Label
RUN  .          1                        :RUN NUMBER
PDAT .        GROUND LEVEL               :Permanent Datum
EPD  .                                   :Elevation of Permanent Datum above Mean Sea Level
LMF  .                                   :Logging Measured From (Name of Logging Elevation Reference)
APD  .                                   :Elevation of Depth Reference (LMF) above Permanent Datum
#-----------------------------------------------------------------------------
~CURVE INFORMATION
#MNEM.UNIT   API CODE                                  DESCRIPTION
#---- -----  --------                                  -----------------------
TIME .S                                                :TIME {F10.1}
FREQ_EMF_SL.HZ                                         :Electromagnetic Field Frequency {F13.4}
PH_SH_WPPCM_SL.DEG                                     :WPPCM Phase Shift {F13.4}
FREQ_EXC_REQ_SL.HZ                                     :Requested Exciter Frequency {F13.4}
RB_SL.DEG                                              :Relative Bearing {F13.4}
SDEV_SL.DEG                                            :Sonde Deviation {F13.4}
TILX_SL.DEG                                            :X-axis Tilt {F13.4}
TILY_SL.DEG                                            :Y-axis Tilt {F13.4}
ROTA_SL.DEG                                            :Motor Rotation Angle {F13.4}
MSPE_SL.RPM                                            :Motor Speed {F13.4}
#-----------------------------------------------------------------------------
# 
#     TIME    FREQ_EMF_SL  PH_SH_WPPCM_ FREQ_EXC_REQ    RB_SL       SDEV_SL      TILX_SL      TILY_SL      ROTA_SL      MSPE_SL
#                          SL           _SL
~A  
# ...
    4792.0    1632.2436       0.0000      50.8611     137.5643       3.2374       2.1836       2.3885     137.1869       0.0005
    4793.0    1636.0416       0.0000      50.8611     137.6109       3.2725       2.2055       2.4164     137.1869       0.0005
    4794.0    1629.6662       0.0000      50.8611     138.0889       3.3028       2.2055       2.4573     137.1869       0.0005
    4795.0    1628.4632       0.0000      50.8611     138.5861       3.3493       2.2146       2.5112     137.1869       0.0005
    4796.0    1628.4632       0.0000      50.8611     137.3579       3.3161       2.2456       2.4387     137.1869       0.0005
    4797.0    1631.3805       0.0000      50.8611     134.4876       3.3787       2.4099       2.3662     137.1869       0.0005
    4798.0    1633.4522       0.0000      50.8611     139.1762       3.2953       2.1526       2.4926     137.1869       0.0005
    4799.0    1633.4522       0.0000      50.8611     138.6869       3.3092       2.1836       2.4852     137.1869       0.0005
    4800.0    1627.6041       0.0000      50.8611     137.3087       3.3135       2.2456       2.4350     137.1869       0.0005
    4801.0    1632.2436       0.0000      50.8611     137.5643       3.2374       2.1836       2.3885     137.1869       0.0005
    4802.0    1631.3805       0.0000      50.8611     138.7032       3.3432       2.2055       2.5112     137.1869       0.0005
    4803.0    1631.1300       0.0000      50.8611     137.0243       3.3109       2.2562       2.4215     137.1869       0.0005
    4804.0    1631.3805       0.0000      50.8611     138.4262       3.3576       2.2274       2.5112     137.1869       0.0005
    4805.0    1631.3805       0.0000      50.8611     136.9173       3.3348       2.2767       2.4350     137.1869       0.0005
    4806.0    1631.3805       0.0000      50.8611     136.6361       3.1812       2.1836       2.3124     137.1869       0.0005
    4807.0    1629.3264       0.0000      50.8611     136.1652       3.3649       2.3296       2.4257     137.1869       0.0005
    4808.0    1634.3113       0.0000      50.8611     138.2076       3.2968       2.1963       2.4573     137.1869       0.0005
    4809.0    1630.5214       0.0000      50.8611     137.4673       3.3229       2.2456       2.4480     137.1869       0.0005
    4810.0    1627.6041       0.0000      50.8611     136.4969       3.2631       2.2456       2.3662     137.1869       0.0005
    4811.0    1631.3805       0.0000      50.8611     137.7738       3.2561       2.1872       2.4108     137.1869       0.0005
    4812.0    1628.4632       0.0000      50.8611     136.8415       3.1413       2.1489       2.2901     137.1869       0.0005
    4813.0    1631.3805       0.0000      50.8611     137.9967       3.3511       2.2420       2.4889     137.1869       0.0005
    4814.0    1627.6041       0.0000      50.8611     134.0226       3.4873       2.5175       2.4015     137.1869       0.0005
    4815.0    1631.5131       0.0000      50.8611     132.0362       3.5534       2.6435       2.3648     137.1869       0.0005
    4816.0    1634.3113       0.0000      50.8611     136.7945       3.4347       2.3515       2.5019     137.1869       0.0005
    4817.0    1633.4522       0.0000      50.8611     135.6069       3.0206       2.1124       2.1581     137.1869       0.0005
    4818.0    1629.3264       0.0000      50.8611     137.3521       3.3291       2.2548       2.4480     137.1869       0.0005
    4819.0    1632.2436       0.0000      50.8611     137.0277       3.2043       2.1836       2.3439     137.1869       0.0005
    4820.0    1631.3805       0.0000      50.8611     136.8385       3.2072       2.1927       2.3383     137.1869       0.0005
    4821.0    1630.5214       0.0000      50.8611     137.2132       3.3797       2.2949       2.4796     137.1869       0.0005
    4822.0    1627.2898       0.0000      50.8611     138.3361       3.3325       2.2146       2.4889     137.1869       0.0005
    4823.0    1632.2436       0.0000      50.8611     134.8647       3.3434       2.3661       2.3589     137.1869       0.0005
    4824.0    1631.3805       0.0000      50.8611     135.4344       3.0742       2.1562       2.1897     137.1869       0.0005
    4825.0    1634.3113       0.0000      50.8611     137.4673       3.3229       2.2456       2.4480     137.1869       0.0005
    4826.0    1632.2436       0.0000      50.8611     135.6626       3.3043       2.3077       2.3625     137.1869       0.0005
    4827.0    1633.7073       0.0000      50.8611     138.5879       3.2299       2.1357       2.4215     137.1869       0.0005
    4828.0    1633.4522       0.0000      50.8611     136.2837       3.3146       2.2894       2.3941     137.1869       0.0005
    4829.0    1631.3805       0.0000      50.8611     135.6043       3.2682       2.2858       2.3346     137.1869       0.0005
    4830.0    1635.1744       0.0000      50.8611     138.8221       3.3371       2.1963       2.5112     137.1869       0.0005
    4831.0    1631.3805       0.0000      50.8611     136.7123       3.2858       2.2493       2.3904     137.1869       0.0005
    4832.0    1627.6041       0.0000      50.8611     138.7736       3.2259       2.1251       2.4257     137.1869       0.0005
    4833.0    1628.4632       0.0000      50.8611     134.3935       3.2577       2.3260       2.2788     137.1869       0.0005
    4834.0    1635.1744       0.0000      50.8611     136.7402       3.3367       2.2858       2.4294     137.1869       0.0005
    4835.0    1643.1861       0.0000      50.8611     137.4863       3.2917       2.2238       2.4257     137.1869       0.0005
    4836.0    1628.4632       0.0000      50.8611     138.1485       3.3671       2.2456       2.5075     137.1869       0.0005
    4837.0    1631.3805       0.0000      50.8611     136.9669       3.3372       2.2767       2.4387     137.1869       0.0005
    4838.0    1632.2436       0.0000      50.8611     137.8612       3.4890       2.3387       2.5873     137.1869       0.0005
    4839.0    1631.3805       0.0000      50.8611     136.7230       3.4679       2.3770       2.5168     137.1869       0.0005
    4840.0    1624.7005       0.0000      50.8611     141.2986       3.1507       1.9700       2.4573     137.1869       0.0005
    4841.0    1629.3264       0.0000      50.8611     135.8896       3.1825       2.2146       2.2844     137.1869       0.0005
    4842.0    1634.3113       0.0000      50.8611     138.7548       3.4074       2.2456       2.5614     137.1869       0.0005
    4843.0    1633.4522       0.0000      50.8611     136.8387       3.2393       2.2146       2.3625     137.1869       0.0005
    4844.0    1629.3264       0.0000      50.8611     138.2601       3.3202       2.2091       2.4759     137.1869       0.0005
    4845.0    1628.4632       0.0000      50.8611     137.6035       3.1670       2.1343       2.3383     137.1869       0.0005
    4846.0    1631.3805       0.0000      50.8611     133.7893       3.4074       2.4592       2.3569     137.1869       0.0005
    4847.0    1636.3966       0.0000      50.8611     136.9533       3.3583       2.2930       2.4517     137.1869       0.0005
    4848.0    1630.5214       0.0000      50.8611     138.9934       3.4111       2.2384       2.5707     137.1869       0.0005
    4849.0    1628.4632       0.0000      50.8611     135.7741       3.1890       2.2238       2.2844     137.1869       0.0005
    4850.0    1631.3805       0.0000      50.8611     134.4501       3.2771       2.3387       2.2937     137.1869       0.0005
    4851.0    1633.4522       0.0000      50.8611     140.1625       3.3439       2.1398       2.5650     137.1869       0.0005
    4852.0    1629.3264       0.0000      50.8611     136.6463       3.2988       2.2639       2.3978     137.1869       0.0005
    4853.0    1631.3805       0.0000      50.8611     138.6116       3.2761       2.1653       2.4573     137.1869       0.0005
    4854.0    1629.6662       0.0000      50.8611     138.0358       3.2255       2.1562       2.3978     137.1869       0.0005
