~VERSION INFORMATION
VERS.           2.0   :CWLS Log ASCII Standard - VERSION 2.0
WRAP.           NO    :One Line per depth step
PROD.  Schlumberger   :LAS Producer
PROG.  DLIS to ASCII 19C2-270                          :LAS Program name and version
CREA.        2017/09/16 17:42                          :LAS Creation date {YYYY/MM/DD hh:mm}
DLIS_CREA.  2017-Sep-15 12:00                          :DLIS Creation date and time {YYYY-MMM-DD hh:mm}
SOURCE.     LPC_S1-1_A5.DLIS                           :DLIS File Name
FILE-ID.     PERFO_Perfo_WPGRT_019LTP                  :File Identification Number
#--------------------------------------------------
~WELL INFORMATION
#MNEM.UNIT      DATA             DESCRIPTION
#---- ------ --------------   -----------------------------
STRT .S         4414.0       :START TIME      
STOP .S         5447.0       :STOP TIME      
STEP .S            1.0       :STEP     
NULL .          -999.25      :NULL VALUE
COMP .        SHELL INTERNATIONAL E P                  :COMPANY
WELL .        WPP TEST 2                               :WELL
FLD  .        WILDCAT                                  :FIELD
LOC  .                                                 :LOCATION
CNTY .        HARRIS                                   :COUNTY
STAT .        TEXAS                                    :STATE
CTRY .                                                 :COUNTRY
API  .                                                 :API NUMBER
UWI  .                                                 :UNIQUE WELL ID
DATE .                                                 :LOG DATE
SRVC .        Schlumberger                             :SERVICE COMPANY
LATI .DEG                                              :LATITUDE
LONG .DEG                                              :LONGITUDE
GDAT .                                                 :GeoDetic Datum
#-----------------------------------------------------------------------------
~PARAMETER INFORMATION
#MNEM.UNIT    VALUE                      DESCRIPTION
#---- -----   --------------------       ------------------------
U-PHASE_B_COMP_PER_YT.                 0 :Phase B Comparator Period Yt
U-PHASE_A_COMP_PER_XT.                 0 :Phase A Comparator Period Xt
U-MAX_EXC_CUR_LIMIT.MA       240.00000   :Requested CM Current Limit
U-REQ_EXC_FQ.HZ              50          :Requested CM Frequency
U-TILT_Y_OFFSET.           0.19916       :WPTET Tilt Y Offset
U-TILT_Y_GAIN.           1.01796         :WPTET Tilt Y Gain
U-TILT_X_OFFSET.          -1.77103       :WPTET Tilt X Offset
U-TILT_X_GAIN.           1.00000         :WPTET Tilt X Gain
U-TILT_OFFSET_TOL.           0.00100     :WPTET Tilt Offset Calibration Tolerance
U-NO_TILT_CAL_ROTATIONS.                 3 :Number of Rotations for Tilt Calibration
HAZI .DEG        0.00000                 :Hole Azimuth
U-STD_TOL_TILT.           0.01000        :Tilt Standard Deviation Tolerance
U-GUN_POS_TOL.DEG        5.00000         :Gun Position Tolerance
ROT_ANGLE_THRESHOLD.DEG        5.00000   :Rotation Stop Angle Tolerance
STOP_ROT_ANGLE.DEG       80.00000        :Rotation Stop Angle
WITN .                                   :Witness's Name
ENGI .                                   :Engineer's Name
COUN .        HARRIS                     :County or Rig Name
FN   .        WILDCAT                    :Field Name
WN   .        WPP TEST 2                 :Well Name
CN   .        SHELL INTERNATIONAL E P    :Company Name
CLAB .        County                     :County/Rig Label
SLAB .        State                      :State/Province Label
RUN  .          1                        :RUN NUMBER
PDAT .        GROUND LEVEL               :Permanent Datum
EPD  .                                   :Elevation of Permanent Datum above Mean Sea Level
LMF  .                                   :Logging Measured From (Name of Logging Elevation Reference)
APD  .                                   :Elevation of Depth Reference (LMF) above Permanent Datum
#-----------------------------------------------------------------------------
~CURVE INFORMATION
#MNEM.UNIT   API CODE                                  DESCRIPTION
#---- -----  --------                                  -----------------------
TIME .S                                                :TIME {F10.1}
FREQ_EMF_SL.HZ                                         :Electromagnetic Field Frequency {F13.4}
PH_SH_WPPCM_SL.DEG                                     :WPPCM Phase Shift {F13.4}
FREQ_EXC_REQ_SL.HZ                                     :Requested Exciter Frequency {F13.4}
RB_SL.DEG                                              :Relative Bearing {F13.4}
SDEV_SL.DEG                                            :Sonde Deviation {F13.4}
TILX_SL.DEG                                            :X-axis Tilt {F13.4}
TILY_SL.DEG                                            :Y-axis Tilt {F13.4}
ROTA_SL.DEG                                            :Motor Rotation Angle {F13.4}
MSPE_SL.RPM                                            :Motor Speed {F13.4}
#-----------------------------------------------------------------------------
# 
#     TIME    FREQ_EMF_SL  PH_SH_WPPCM_ FREQ_EXC_REQ    RB_SL       SDEV_SL      TILX_SL      TILY_SL      ROTA_SL      MSPE_SL
#                          SL           _SL
~A  
# ...
    5170.0    1505.9305       0.0000      50.8611      91.3529       3.2416       3.2407       0.0765     125.3382       1.0226
    5171.0    1526.2795       0.0000      50.8611      99.6203       3.3813       3.3301       0.5652     131.4383       1.0226
    5172.0    1552.1523       0.0000      50.8611     108.3516       3.2318       3.0673       1.0169     137.9583       1.0226
    5173.0    1569.4755       0.0000      50.8611     117.2692       2.9451       2.6163       1.3496     144.0626       1.0226
    5174.0    1595.5494       0.0000      50.8611     122.4617       3.1490       2.6564       1.6897     150.1621       1.0226
    5175.0    1614.6963       0.0000      50.8611     131.4227       3.2885       2.4648       2.1748     156.2640       1.0226
    5176.0    1618.4130       0.0000      50.8611     138.7963       3.2547       2.1434       2.4480     162.3695       1.0169
    5177.0    1629.3264       0.0000      50.8611     148.5004       3.3184       1.7326       2.8290     168.4730       1.0144
    5178.0    1639.6390       0.0000      50.8611     154.5567       3.3647       1.4446       3.0381     174.5757       1.0226
    5179.0    1644.9164       0.0000      50.8611     162.3430       3.4480       1.0462       3.2844     180.6755       1.0226
    5180.0    1644.5700       0.0000      50.8611     169.5393       3.6254       0.6573       3.5650     186.7767       1.0226
    5181.0    1646.6628       0.0000      50.8611     177.7356       3.6463       0.1442       3.6430     192.8817       1.0226
    5182.0    1636.9127       0.0000      50.8611    -175.7156       3.6943      -0.2757       3.6839     198.9944       1.0226
    5183.0    1629.3264       0.0000      50.8611    -171.5114       3.7990      -0.5605       3.7564     205.0963       1.0226
    5184.0    1616.3793       0.0000      50.8611    -166.3580       3.9504      -0.9311       3.8382     211.6055       1.0226
    5185.0    1601.6515       0.0000      50.8611    -157.3720       4.0601      -1.5611       3.7471     217.7074       1.0226
    5186.0    1577.3194       0.0000      50.8611    -149.8119       4.2316      -2.1270       3.6560     223.8093       1.0226
    5187.0    1556.0934       0.0000      50.8611    -145.4887       4.2240      -2.3918       3.4795     229.9017       1.0144
    5188.0    1532.6237       0.0000      50.8611    -140.8936       4.2748      -2.6949       3.3159     236.0139       1.0250
    5189.0    1510.3315       0.0000      50.8611    -133.7889       4.4084      -3.1805       3.0483     242.1043       1.0226
    5190.0    1482.0450       0.0000      50.8611    -127.1023       4.5404      -3.6200       2.7365     248.2237       1.0163
    5191.0    1460.1483       0.0000      50.8611    -122.2925       4.6624      -3.9400       2.4889     254.3142       1.0144
    5192.0    1438.5537       0.0000      50.8611    -118.3016       4.5404      -3.9966       2.1488     260.4264       1.0226
    5193.0    1403.4431       0.0000      50.8611    -113.6771       4.9971      -4.5736       2.0056     266.5306       1.0144
    5194.0    1376.3721       0.0000      50.8611    -104.9687       4.8576      -4.6904       1.2549     272.6308       1.0226
    5195.0    1340.2485       0.0000      50.8611     -99.9257       5.0139      -4.9387       0.8627     278.7457       1.0144
    5196.0    1314.2523       0.0000      50.8611     -94.9057       4.9406      -4.9223       0.4222     285.1503       1.0226
    5197.0    1246.3221       0.0000      50.8611     -91.0738       5.0748      -5.0738       0.0951     291.3452       1.0202
    5198.0    1167.5405       0.0000      50.8611     -84.3523       4.9500      -4.9259      -0.4866     297.4347       1.0226
    5199.0    1116.3275       0.0000      50.8611     -79.2313       5.2375      -5.1450      -0.9773     303.5255       1.0262
    5200.0    1053.3014       0.0000      50.8611     -74.0137       5.4174      -5.2071      -1.4902     309.6398       1.0226
    5201.0    1004.6707       0.0000      50.8611     -71.0373       5.1823      -4.9004      -1.6817     315.7197       1.0144
    5202.0     978.1161       0.0000      50.8611     -65.9307       5.3377      -4.8716      -2.1746     321.8187       1.0226
    5203.0     961.8673       0.0000      50.8611     -59.2938       5.2640      -4.5242      -2.6853     327.9344       1.0226
    5204.0     945.0605       0.0000      50.8611     -53.8172       5.4546      -4.4001      -3.2168     334.0238       1.0226
    5205.0     926.8394       0.0000      50.8611     -50.7000       5.4063      -4.1810      -3.4213     340.1280       1.0226
    5206.0     922.6318       0.0000      50.8611     -47.5847       5.1644      -3.8104      -3.4808     346.2298       1.0226
    5207.0     920.8702       0.0000      50.8611     -40.0864       5.2644      -3.3868      -4.0253     352.3424       1.0226
    5208.0     914.7169       0.0000      50.8611     -32.8956       5.3541      -2.9048      -4.4937     358.7594       1.0226
    5209.0     916.4494       0.0000      50.8611     -29.8714       5.3728      -2.6730      -4.6572       4.9563       1.0285
    5210.0     916.9932       0.0000      50.8611     -25.7291       5.1162      -2.2184      -4.6070      11.0689       1.0226
    5211.0     924.3369       0.0000      50.8611     -19.4297       4.8753      -1.6214      -4.5940      17.1707       1.0226
    5212.0     932.3637       0.0000      50.8611     -12.9388       4.9889      -1.1156      -4.8617      23.2988       1.0250
    5213.0     940.4085       0.0000      50.8611      -9.4150       5.1298      -0.8381      -5.0605      29.3882       1.0226
    5214.0     957.0918       0.0000      50.8611      -6.5343       4.9809      -0.5660      -4.9485      35.4813       1.0165
    5215.0     972.9405       0.0000      50.8611      -0.9724       4.7717      -0.0804      -4.7706      41.5944       1.0226
    5216.0     989.6840       0.0000      50.8611       5.5919       4.6890       0.4564      -4.6665      47.7092       1.0226
    5217.0    1009.9073       0.0000      50.8611      13.1251       4.6852       1.0625      -4.5625      53.8127       1.0226
    5218.0    1040.7726       0.0000      50.8611      17.5132       4.5605       1.3711      -4.3487      59.9152       1.0226
    5219.0    1096.1158       0.0000      50.8611      21.8578       4.3679       1.6249      -4.0532      66.0154       1.0226
    5220.0    1173.7845       0.0000      50.8611      26.8224       4.2678       1.9243      -3.8079      72.1041       1.0226
    5221.0    1250.6066       0.0000      50.8611      34.9862       4.1840       2.3972      -3.4269      78.6009       1.0202
    5222.0    1290.3629       0.0000      50.8611      41.9709       4.1100       2.7459      -3.0552      84.7027       1.0226
    5223.0    1316.9484       0.0000      50.8611      45.6802       3.9441       2.8207      -2.7541      90.7922       1.0226
    5224.0    1345.2317       0.0000      50.8611      50.6180       3.6977       2.8573      -2.3452      96.9071       1.0226
    5225.0    1373.2910       0.0000      50.8611      58.8631       3.6674       3.1384      -1.8954     103.0089       1.0226
    5226.0    1405.6114       0.0000      50.8611      67.5068       3.6150       3.3393      -1.3825     109.0983       1.0226
    5227.0    1430.0480       0.0000      50.8611      74.7255       3.4208       3.2991      -0.9011     115.2139       1.0226
    5228.0    1457.3942       0.0000      50.8611      80.4690       3.3585       3.3119      -0.5554     121.3157       1.0226
    5229.0    1488.9551       0.0000      50.8611      87.7683       3.2889       3.2864      -0.1279     127.4307       1.0226
    5230.0    1516.4044       0.0000      50.8611      97.6270       3.4226       3.3922       0.4538     133.5349       1.0309
    5231.0    1546.4206       0.0000      50.8611     106.3514       3.4114       3.2717       0.9611     139.6499       1.0226
    5232.0    1561.7118       0.0000      50.8611     111.5259       3.2895       3.0581       1.2064     145.7518       1.0226
