~VERSION INFORMATION
VERS.           2.0   :CWLS Log ASCII Standard - VERSION 2.0
WRAP.           NO    :One Line per depth step
PROD.  Schlumberger   :LAS Producer
PROG.  DLIS to ASCII 19C2-270                          :LAS Program name and version
CREA.        2017/09/16 17:42                          :LAS Creation date {YYYY/MM/DD hh:mm}
DLIS_CREA.  2017-Sep-15 12:22                          :DLIS Creation date and time {YYYY-MMM-DD hh:mm}
SOURCE.     LPC_S1-1_B5.DLIS                           :DLIS File Name
FILE-ID.     PERFO_Perfo_WPGRT_020LTP                  :File Identification Number
#--------------------------------------------------
~WELL INFORMATION
#MNEM.UNIT      DATA             DESCRIPTION
#---- ------ --------------   -----------------------------
STRT .S         5686.0       :START TIME      
STOP .S         6834.0       :STOP TIME      
STEP .S            1.0       :STEP     
NULL .          -999.25      :NULL VALUE
COMP .        SHELL INTERNATIONAL E P                  :COMPANY
WELL .        WPP TEST 2                               :WELL
FLD  .        WILDCAT                                  :FIELD
LOC  .                                                 :LOCATION
CNTY .        HARRIS                                   :COUNTY
STAT .        TEXAS                                    :STATE
CTRY .                                                 :COUNTRY
API  .                                                 :API NUMBER
UWI  .                                                 :UNIQUE WELL ID
DATE .                                                 :LOG DATE
SRVC .        Schlumberger                             :SERVICE COMPANY
LATI .DEG                                              :LATITUDE
LONG .DEG                                              :LONGITUDE
GDAT .                                                 :GeoDetic Datum
#-----------------------------------------------------------------------------
~PARAMETER INFORMATION
#MNEM.UNIT    VALUE                      DESCRIPTION
#---- -----   --------------------       ------------------------
U-PHASE_B_COMP_PER_YT.                 0 :Phase B Comparator Period Yt
U-PHASE_A_COMP_PER_XT.                 0 :Phase A Comparator Period Xt
U-MAX_EXC_CUR_LIMIT.MA       240.00000   :Requested CM Current Limit
U-REQ_EXC_FQ.HZ              50          :Requested CM Frequency
U-TILT_Y_OFFSET.           0.19916       :WPTET Tilt Y Offset
U-TILT_Y_GAIN.           1.01796         :WPTET Tilt Y Gain
U-TILT_X_OFFSET.          -1.77103       :WPTET Tilt X Offset
U-TILT_X_GAIN.           1.00000         :WPTET Tilt X Gain
U-TILT_OFFSET_TOL.           0.00100     :WPTET Tilt Offset Calibration Tolerance
U-NO_TILT_CAL_ROTATIONS.                 3 :Number of Rotations for Tilt Calibration
HAZI .DEG        0.00000                 :Hole Azimuth
U-STD_TOL_TILT.           0.01000        :Tilt Standard Deviation Tolerance
U-GUN_POS_TOL.DEG        5.00000         :Gun Position Tolerance
ROT_ANGLE_THRESHOLD.DEG        5.00000   :Rotation Stop Angle Tolerance
STOP_ROT_ANGLE.DEG       80.00000        :Rotation Stop Angle
WITN .                                   :Witness's Name
ENGI .                                   :Engineer's Name
COUN .        HARRIS                     :County or Rig Name
FN   .        WILDCAT                    :Field Name
WN   .        WPP TEST 2                 :Well Name
CN   .        SHELL INTERNATIONAL E P    :Company Name
CLAB .        County                     :County/Rig Label
SLAB .        State                      :State/Province Label
RUN  .          1                        :RUN NUMBER
PDAT .        GROUND LEVEL               :Permanent Datum
EPD  .                                   :Elevation of Permanent Datum above Mean Sea Level
LMF  .                                   :Logging Measured From (Name of Logging Elevation Reference)
APD  .                                   :Elevation of Depth Reference (LMF) above Permanent Datum
#-----------------------------------------------------------------------------
~CURVE INFORMATION
#MNEM.UNIT   API CODE                                  DESCRIPTION
#---- -----  --------                                  -----------------------
TIME .S                                                :TIME {F10.1}
FREQ_EMF_SL.HZ                                         :Electromagnetic Field Frequency {F13.4}
PH_SH_WPPCM_SL.DEG                                     :WPPCM Phase Shift {F13.4}
FREQ_EXC_REQ_SL.HZ                                     :Requested Exciter Frequency {F13.4}
RB_SL.DEG                                              :Relative Bearing {F13.4}
SDEV_SL.DEG                                            :Sonde Deviation {F13.4}
TILX_SL.DEG                                            :X-axis Tilt {F13.4}
TILY_SL.DEG                                            :Y-axis Tilt {F13.4}
ROTA_SL.DEG                                            :Motor Rotation Angle {F13.4}
MSPE_SL.RPM                                            :Motor Speed {F13.4}
#-----------------------------------------------------------------------------
# 
#     TIME    FREQ_EMF_SL  PH_SH_WPPCM_ FREQ_EXC_REQ    RB_SL       SDEV_SL      TILX_SL      TILY_SL      ROTA_SL      MSPE_SL
#                          SL           _SL
~A  
# ...
    5875.0    1326.8829       0.0000      50.8611    -101.2946       4.9897      -4.8929       0.9760     301.9470       1.0226
    5876.0    1312.4833       0.0000      50.8611     -96.2892       4.9452      -4.9152       0.5414     308.0488       1.0226
    5877.0    1298.1708       0.0000      50.8611     -87.7271       5.0599      -5.0535      -0.2014     314.1506       1.0226
    5878.0    1285.4205       0.0000      50.8611     -86.4540       5.1990      -5.1889      -0.3210     320.6227       1.0226
    5879.0    1264.4034       0.0000      50.8611     -81.9450       5.2701      -5.2179      -0.7375     326.7622       1.0226
    5880.0    1244.8780       0.0000      50.8611     -75.1924       5.2318      -5.0573      -1.3357     332.8772       1.0226
    5881.0    1199.8721       0.0000      50.8611     -71.8181       5.2894      -5.0245      -1.6484     338.9790       1.0226
    5882.0    1164.8321       0.0000      50.8611     -66.4130       5.3046      -4.8601      -2.1201     345.0697       1.0216
    5883.0    1141.4368       0.0000      50.8611     -62.4373       5.3112      -4.7069      -2.4548     351.1704       1.0226
    5884.0    1115.0313       0.0000      50.8611     -55.6685       5.2868      -4.3636      -2.9788     357.2722       1.0226
    5885.0    1095.2103       0.0000      50.8611     -51.9810       5.2637      -4.1446      -3.2392       3.3740       1.0324
    5886.0    1079.6108       0.0000      50.8611     -45.3216       5.3818      -3.8232      -3.7814       9.4889       1.0226
    5887.0    1070.2054       0.0000      50.8611     -41.7591       5.3172      -3.5384      -3.9639      15.6025       1.0236
    5888.0    1053.6134       0.0000      50.8611     -36.1465       5.2611      -3.1002      -4.2463      21.7055       1.0226
    5889.0    1061.6791       0.0000      50.8611     -32.5740       5.2883      -2.8444      -4.4545      27.8074       1.0226
    5890.0    1062.9905       0.0000      50.8611     -26.4695       5.1937      -2.3118      -4.6476      34.2767       1.0226
    5891.0    1067.1075       0.0000      50.8611     -21.8262       5.1918      -1.9280      -4.8187      40.4171       1.0226
    5892.0    1077.2208       0.0000      50.8611     -15.5317       4.9296      -1.3187      -4.7483      46.5217       1.0226
    5893.0    1107.4450       0.0000      50.8611     -11.3330       4.9681      -0.9751      -4.8710      52.6373       1.0226
    5894.0    1126.1390       0.0000      50.8611      -7.2242       4.8841      -0.6136      -4.8452      58.7385       1.0226
    5895.0    1148.0359       0.0000      50.8611      -1.9898       4.8444      -0.1681      -4.8414      64.8403       1.0226
    5896.0    1192.0969       0.0000      50.8611       4.1486       4.8125       0.3470      -4.7998      70.9430       1.0226
    5897.0    1234.9226       0.0000      50.8611      11.4169       4.5604       0.9016      -4.4696      77.0448       1.0226
    5898.0    1259.8722       0.0000      50.8611      15.2829       4.5334       1.1939      -4.3727      83.1466       1.0226
    5899.0    1276.0889       0.0000      50.8611      19.9940       4.3177       1.4750      -4.0570      89.2484       1.0226
    5900.0    1298.7942       0.0000      50.8611      26.0068       4.2832       1.8767      -3.8488      95.3501       1.0226
    5901.0    1323.0100       0.0000      50.8611      32.0454       4.0770       2.1616      -3.4550     101.4519       1.0226
    5902.0    1336.0384       0.0000      50.8611      38.1054       4.0665       2.5082      -3.1983     107.5537       1.0226
    5903.0    1356.9012       0.0000      50.8611      44.3246       4.0151       2.8043      -2.8712     114.0635       1.0226
    5904.0    1367.7018       0.0000      50.8611      50.3310       3.8009       2.9248      -2.4252     120.1653       1.0226
    5905.0    1392.0722       0.0000      50.8611      59.2160       3.6438       3.1293      -1.8642     126.2762       1.0324
    5906.0    1408.2893       0.0000      50.8611      64.3322       3.6870       3.3227      -1.5961     132.3821       1.0226
    5907.0    1423.0640       0.0000      50.8611      73.4819       3.4332       3.2900      -0.9760     138.4849       1.0236
    5908.0    1438.4296       0.0000      50.8611      79.6749       3.4743       3.4179      -0.6224     144.6002       1.0226
    5909.0    1455.1901       0.0000      50.8611      86.8750       3.3025       3.2974      -0.1802     150.7025       1.0226
    5910.0    1462.0800       0.0000      50.8611      95.3343       3.3813       3.3666       0.3143     156.8044       1.0226
    5911.0    1477.7299       0.0000      50.8611     102.4786       3.3659       3.2863       0.7269     162.9063       1.0226
    5912.0    1489.3803       0.0000      50.8611     109.6765       3.2423       3.0527       1.0911     169.0082       1.0226
    5913.0    1501.8124       0.0000      50.8611     119.2537       3.1019       2.7061       1.5151     175.1101       1.0226
    5914.0    1502.7014       0.0000      50.8611     125.0387       3.1449       2.5744       1.8051     181.2251       1.0226
    5915.0    1508.8519       0.0000      50.8611     136.0989       3.3725       2.3371       2.4291     187.7351       1.0226
    5916.0    1515.3556       0.0000      50.8611     142.0836       3.3588       2.0634       2.6487     193.8370       1.0226
    5917.0    1521.0073       0.0000      50.8611     151.8716       3.2786       1.5449       2.8902     199.9361       1.0226
    5918.0    1512.3982       0.0000      50.8611     157.4529       3.5242       1.3508       3.2544     206.0408       1.0226
    5919.0    1506.5214       0.0000      50.8611     164.0753       3.5160       0.9640       3.3809     212.1427       1.0226
    5920.0    1505.9198       0.0000      50.8611     172.0535       3.8113       0.5259       3.7746     218.2446       1.0226
    5921.0    1493.7195       0.0000      50.8611     178.7718       3.7535       0.0804       3.7526     224.3342       1.0226
    5922.0    1490.2580       0.0000      50.8611    -174.3783       3.8082      -0.3726       3.7897     230.4361       1.0226
    5923.0    1486.2320       0.0000      50.8611    -166.7311       3.9782      -0.9127       3.8715     236.5510       1.0226
    5924.0    1468.4712       0.0000      50.8611    -159.8743       4.0451      -1.3909       3.7973     242.6660       1.0226
    5925.0    1461.7983       0.0000      50.8611    -155.3170       4.1389      -1.7271       3.7602     248.7682       1.0226
    5926.0    1456.3053       0.0000      50.8611    -150.7742       4.1985      -2.0485       3.6633     254.8698       1.0226
    5927.0    1437.8834       0.0000      50.8611    -144.2637       4.3224      -2.5230       3.5073     261.3788       1.0130
    5928.0    1431.7573       0.0000      50.8611    -137.3204       4.5001      -3.0489       3.3066     267.4954       1.0226
    5929.0    1417.0642       0.0000      50.8611    -130.1964       4.5623      -3.4833       2.9424     273.6102       1.0226
    5930.0    1395.6034       0.0000      50.8611    -125.8508       4.5517      -3.6879       2.6638     279.7120       1.0226
    5931.0    1386.5818       0.0000      50.8611    -119.6654       4.6444      -4.0345       2.2958     285.8034       1.0130
    5932.0    1365.2913       0.0000      50.8611    -115.5769       4.8227      -4.3491       2.0800     291.9036       1.0236
    5933.0    1348.1878       0.0000      50.8611    -109.4278       4.9066      -4.6266       1.6302     298.0067       1.0226
    5934.0    1341.8416       0.0000      50.8611    -104.2292       4.9278      -4.7761       1.2100     304.1216       1.0226
    5935.0    1326.4198       0.0000      50.8611    -100.4742       4.9875      -4.9040       0.9056     310.2187       1.0216
    5936.0    1302.5311       0.0000      50.8611     -92.4677       4.9855      -4.9806       0.2143     316.3138       1.0226
    5937.0    1286.5174       0.0000      50.8611     -88.2584       5.1914      -5.1889      -0.1575     322.4418       1.0130
