~VERSION INFORMATION
VERS.           2.0   :CWLS Log ASCII Standard - VERSION 2.0
WRAP.           NO    :One Line per depth step
PROD.  Schlumberger   :LAS Producer
PROG.  DLIS to ASCII 19C2-270                          :LAS Program name and version
CREA.        2017/09/16 17:42                          :LAS Creation date {YYYY/MM/DD hh:mm}
DLIS_CREA.  2017-Sep-15 12:22                          :DLIS Creation date and time {YYYY-MMM-DD hh:mm}
SOURCE.     LPC_S1-1_B5.DLIS                           :DLIS File Name
FILE-ID.     PERFO_Perfo_WPGRT_020LTP                  :File Identification Number
#--------------------------------------------------
~WELL INFORMATION
#MNEM.UNIT      DATA             DESCRIPTION
#---- ------ --------------   -----------------------------
STRT .S         5686.0       :START TIME      
STOP .S         6834.0       :STOP TIME      
STEP .S            1.0       :STEP     
NULL .          -999.25      :NULL VALUE
COMP .        SHELL INTERNATIONAL E P                  :COMPANY
WELL .        WPP TEST 2                               :WELL
FLD  .        WILDCAT                                  :FIELD
LOC  .                                                 :LOCATION
CNTY .        HARRIS                                   :COUNTY
STAT .        TEXAS                                    :STATE
CTRY .                                                 :COUNTRY
API  .                                                 :API NUMBER
UWI  .                                                 :UNIQUE WELL ID
DATE .                                                 :LOG DATE
SRVC .        Schlumberger                             :SERVICE COMPANY
LATI .DEG                                              :LATITUDE
LONG .DEG                                              :LONGITUDE
GDAT .                                                 :GeoDetic Datum
#-----------------------------------------------------------------------------
~PARAMETER INFORMATION
#MNEM.UNIT    VALUE                      DESCRIPTION
#---- -----   --------------------       ------------------------
U-PHASE_B_COMP_PER_YT.                 0 :Phase B Comparator Period Yt
U-PHASE_A_COMP_PER_XT.                 0 :Phase A Comparator Period Xt
U-MAX_EXC_CUR_LIMIT.MA       240.00000   :Requested CM Current Limit
U-REQ_EXC_FQ.HZ              50          :Requested CM Frequency
U-TILT_Y_OFFSET.           0.19916       :WPTET Tilt Y Offset
U-TILT_Y_GAIN.           1.01796         :WPTET Tilt Y Gain
U-TILT_X_OFFSET.          -1.77103       :WPTET Tilt X Offset
U-TILT_X_GAIN.           1.00000         :WPTET Tilt X Gain
U-TILT_OFFSET_TOL.           0.00100     :WPTET Tilt Offset Calibration Tolerance
U-NO_TILT_CAL_ROTATIONS.                 3 :Number of Rotations for Tilt Calibration
HAZI .DEG        0.00000                 :Hole Azimuth
U-STD_TOL_TILT.           0.01000        :Tilt Standard Deviation Tolerance
U-GUN_POS_TOL.DEG        5.00000         :Gun Position Tolerance
ROT_ANGLE_THRESHOLD.DEG        5.00000   :Rotation Stop Angle Tolerance
STOP_ROT_ANGLE.DEG       80.00000        :Rotation Stop Angle
WITN .                                   :Witness's Name
ENGI .                                   :Engineer's Name
COUN .        HARRIS                     :County or Rig Name
FN   .        WILDCAT                    :Field Name
WN   .        WPP TEST 2                 :Well Name
CN   .        SHELL INTERNATIONAL E P    :Company Name
CLAB .        County                     :County/Rig Label
SLAB .        State                      :State/Province Label
RUN  .          1                        :RUN NUMBER
PDAT .        GROUND LEVEL               :Permanent Datum
EPD  .                                   :Elevation of Permanent Datum above Mean Sea Level
LMF  .                                   :Logging Measured From (Name of Logging Elevation Reference)
APD  .                                   :Elevation of Depth Reference (LMF) above Permanent Datum
#-----------------------------------------------------------------------------
~CURVE INFORMATION
#MNEM.UNIT   API CODE                                  DESCRIPTION
#---- -----  --------                                  -----------------------
TIME .S                                                :TIME {F10.1}
FREQ_EMF_SL.HZ                                         :Electromagnetic Field Frequency {F13.4}
PH_SH_WPPCM_SL.DEG                                     :WPPCM Phase Shift {F13.4}
FREQ_EXC_REQ_SL.HZ                                     :Requested Exciter Frequency {F13.4}
RB_SL.DEG                                              :Relative Bearing {F13.4}
SDEV_SL.DEG                                            :Sonde Deviation {F13.4}
TILX_SL.DEG                                            :X-axis Tilt {F13.4}
TILY_SL.DEG                                            :Y-axis Tilt {F13.4}
ROTA_SL.DEG                                            :Motor Rotation Angle {F13.4}
MSPE_SL.RPM                                            :Motor Speed {F13.4}
#-----------------------------------------------------------------------------
# 
#     TIME    FREQ_EMF_SL  PH_SH_WPPCM_ FREQ_EXC_REQ    RB_SL       SDEV_SL      TILX_SL      TILY_SL      ROTA_SL      MSPE_SL
#                          SL           _SL
~A  
# ...
    6757.0    1306.9238       0.0000      50.8611      34.1617       4.1184       2.3111      -3.4065     143.6344       1.0226
    6758.0    1328.2361       0.0000      50.8611      38.7558       3.9694       2.4829      -3.0946     149.7366       1.0226
    6759.0    1346.7446       0.0000      50.8611      44.3209       3.9057       2.7276      -2.7932     155.8262       1.0226
    6760.0    1363.1358       0.0000      50.8611      50.4570       3.7467       2.8883      -2.3844     161.9413       1.0226
    6761.0    1386.5818       0.0000      50.8611      58.1315       3.5954       3.0527      -1.8975     168.4509       1.0226
    6762.0    1408.2893       0.0000      50.8611      64.6103       3.6381       3.2863      -1.5590     174.5658       1.0324
    6763.0    1424.8925       0.0000      50.8611      72.4654       3.4122       3.2535      -1.0275     180.6809       1.0226
    6764.0    1434.9490       0.0000      50.8611      81.7868       3.3695       3.3339      -0.4815     186.7828       1.0226
    6765.0    1455.4671       0.0000      50.8611      86.2973       3.1947       3.1881      -0.2059     192.8721       1.0226
    6766.0    1470.1243       0.0000      50.8611      93.2227       3.1165       3.1107       0.1765     198.9752       1.0226
    6767.0    1482.7379       0.0000      50.8611     102.1597       3.2767       3.2031       0.6898     205.0771       1.0226
    6768.0    1493.1282       0.0000      50.8611     112.2367       3.2195       2.9798       1.2176     211.1790       1.0226
    6769.0    1499.2004       0.0000      50.8611     121.8414       3.0997       2.6331       1.6340     217.2837       1.0226
    6770.0    1517.7242       0.0000      50.8611     128.4775       3.1538       2.4688       1.9611     223.3959       1.0226
    6771.0    1521.6115       0.0000      50.8611     137.2687       3.2625       2.2129       2.3958     229.5112       1.0226
    6772.0    1521.9155       0.0000      50.8611     144.9817       3.2846       1.8841       2.6895     235.6131       1.0226
    6773.0    1528.2260       0.0000      50.8611     148.3106       3.7203       1.9533       3.1651     240.5974       0.0005
    6774.0    1534.5900       0.0000      50.8611     150.4359       3.4561       1.7049       3.0053     240.5974       0.0005
    6775.0    1534.8980       0.0000      50.8611     149.5038       3.3683       1.7086       2.9015     240.5974       0.0005
    6776.0    1532.4829       0.0000      50.8611     148.0082       3.3784       1.7889       2.8644     240.5974       0.0005
    6777.0    1538.2560       0.0000      50.8611     149.0977       3.3433       1.7160       2.8682     240.5974       0.0005
    6778.0    1534.8980       0.0000      50.8611     148.6148       3.3521       1.7451       2.8607     240.5974       0.0005
    6779.0    1534.6669       0.0000      50.8611     147.6173       3.4287       1.8356       2.8949     240.5974       0.0005
    6780.0    1535.2074       0.0000      50.8611     148.1214       3.4574       1.8254       2.9349     240.5974       0.0005
    6781.0    1535.2074       0.0000      50.8611     150.0231       3.4359       1.7160       2.9758     240.5974       0.0005
    6782.0    1531.8628       0.0000      50.8611     149.3280       3.3653       1.7160       2.8940     240.5974       0.0005
    6783.0    1532.1722       0.0000      50.8611     148.0082       3.3784       1.7889       2.8644     240.5974       0.0005
    6784.0    1537.9467       0.0000      50.8611     147.7305       3.3537       1.7889       2.8349     240.5974       0.0005
    6785.0    1537.9467       0.0000      50.8611     149.3571       3.3256       1.6945       2.8607     240.5974       0.0005
    6786.0    1531.8628       0.0000      50.8611     149.1305       3.4243       1.7562       2.9387     240.5974       0.0005
    6787.0    1532.4829       0.0000      50.8611     149.4432       3.3269       1.6907       2.8644     240.5974       0.0005
    6788.0    1535.2074       0.0000      50.8611     149.6468       3.3972       1.7160       2.9311     240.5974       0.0005
    6789.0    1534.8980       0.0000      50.8611     149.4432       3.3269       1.6907       2.8644     240.5974       0.0005
    6790.0    1534.8980       0.0000      50.8611     149.9770       3.3002       1.6506       2.8569     240.5974       0.0005
    6791.0    1529.3053       0.0000      50.8611     149.4887       3.3242       1.6870       2.8635     240.5974       0.0005
    6792.0    1538.2560       0.0000      50.8611     149.7529       3.3506       1.6870       2.8940     240.5974       0.0005
    6793.0    1534.5900       0.0000      50.8611     150.0401       3.4224       1.7086       2.9644     240.5974       0.0005
    6794.0    1532.1722       0.0000      50.8611     145.3219       3.6846       2.0954       3.0280     240.5974       0.0005
    6795.0    1529.1501       0.0000      50.8611     150.9780       2.9368       1.4289       2.5645     240.5974       0.0005
    6796.0    1535.2074       0.0000      50.8611     153.7525       3.3559       1.4825       3.0098     240.5974       0.0005
    6797.0    1538.2560       0.0000      50.8611     147.8981       3.4035       1.8075       2.8826     240.5974       0.0005
    6798.0    1532.4829       0.0000      50.8611     150.0876       3.2964       1.6431       2.8569     240.5974       0.0005
    6799.0    1538.2560       0.0000      50.8611     150.3070       3.4357       1.7012       2.9833     240.5974       0.0005
    6800.0    1534.8980       0.0000      50.8611     149.7124       3.3102       1.6691       2.8569     240.5974       0.0005
    6801.0    1534.8980       0.0000      50.8611     138.5024       3.6466       2.4137       2.7311     240.5974       0.0005
    6802.0    1532.1722       0.0000      50.8611     148.6814       3.4080       1.7704       2.9091     240.5974       0.0005
    6803.0    1532.1722       0.0000      50.8611     149.9956       3.5250       1.7620       3.0520     240.5974       0.0005
    6804.0    1531.8628       0.0000      50.8611     149.8816       3.4363       1.7235       2.9720     240.5974       0.0005
    6805.0    1532.4829       0.0000      50.8611     148.9007       3.2459       1.6759       2.7789     240.5974       0.0005
    6806.0    1535.5181       0.0000      50.8611     150.5196       3.5041       1.7235       3.0500     240.5974       0.0005
    6807.0    1538.2560       0.0000      50.8611     151.2483       3.3569       1.6141       2.9424     240.5974       0.0005
    6808.0    1531.8628       0.0000      50.8611     148.1199       3.3748       1.7815       2.8644     240.5974       0.0005
    6809.0    1529.4609       0.0000      50.8611     149.2506       3.3723       1.7235       2.8978     240.5974       0.0005
    6810.0    1535.2074       0.0000      50.8611     149.1631       3.3710       1.7272       2.8940     240.5974       0.0005
    6811.0    1534.8980       0.0000      50.8611     150.0231       3.4359       1.7160       2.9758     240.5974       0.0005
    6812.0    1531.8628       0.0000      50.8611     148.3925       3.3595       1.7599       2.8607     240.5974       0.0005
    6813.0    1529.1501       0.0000      50.8611     149.2617       3.3807       1.7272       2.9053     240.5974       0.0005
    6814.0    1532.4829       0.0000      50.8611     149.4432       3.3269       1.6907       2.8644     240.5974       0.0005
    6815.0    1534.4473       0.0000      50.8611     150.6648       3.3522       1.6415       2.9218     240.5974       0.0005
    6816.0    1531.8628       0.0000      50.8611     151.1743       3.3639       1.6216       2.9462     240.5974       0.0005
    6817.0    1532.1722       0.0000      50.8611     149.8288       3.3655       1.6907       2.9091     240.5974       0.0005
    6818.0    1531.8628       0.0000      50.8611     149.1528       3.3416       1.7123       2.8682     240.5974       0.0005
    6819.0    1534.8980       0.0000      50.8611     149.2295       3.3775       1.7272       2.9015     240.5974       0.0005
