~VERSION INFORMATION
VERS.           2.0   :CWLS Log ASCII Standard - VERSION 2.0
WRAP.           NO    :One Line per depth step
PROD.  Schlumberger   :LAS Producer
PROG.  DLIS to ASCII 19C2-270                          :LAS Program name and version
CREA.        2017/09/16 17:42                          :LAS Creation date {YYYY/MM/DD hh:mm}
DLIS_CREA.  2017-Sep-15 13:07                          :DLIS Creation date and time {YYYY-MMM-DD hh:mm}
SOURCE.     LPC_S1-1_2AV.DLIS                          :DLIS File Name
FILE-ID.     PERFO_Perfo_WPGRT_022LTP                  :File Identification Number
#--------------------------------------------------
~WELL INFORMATION
#MNEM.UNIT      DATA             DESCRIPTION
#---- ------ --------------   -----------------------------
STRT .S         8392.0       :START TIME      
STOP .S         9264.0       :STOP TIME      
STEP .S            1.0       :STEP     
NULL .          -999.25      :NULL VALUE
COMP .        SHELL INTERNATIONAL E P                  :COMPANY
WELL .        WPP TEST 2                               :WELL
FLD  .        WILDCAT                                  :FIELD
LOC  .                                                 :LOCATION
CNTY .        HARRIS                                   :COUNTY
STAT .        TEXAS                                    :STATE
CTRY .                                                 :COUNTRY
API  .                                                 :API NUMBER
UWI  .                                                 :UNIQUE WELL ID
DATE .                                                 :LOG DATE
SRVC .        Schlumberger                             :SERVICE COMPANY
LATI .DEG                                              :LATITUDE
LONG .DEG                                              :LONGITUDE
GDAT .                                                 :GeoDetic Datum
#-----------------------------------------------------------------------------
~PARAMETER INFORMATION
#MNEM.UNIT    VALUE                      DESCRIPTION
#---- -----   --------------------       ------------------------
U-PHASE_B_COMP_PER_YT.                 0 :Phase B Comparator Period Yt
U-PHASE_A_COMP_PER_XT.                 0 :Phase A Comparator Period Xt
U-MAX_EXC_CUR_LIMIT.MA       240.00000   :Requested CM Current Limit
U-REQ_EXC_FQ.HZ              50          :Requested CM Frequency
U-TILT_Y_OFFSET.           0.19916       :WPTET Tilt Y Offset
U-TILT_Y_GAIN.           1.01796         :WPTET Tilt Y Gain
U-TILT_X_OFFSET.          -1.77103       :WPTET Tilt X Offset
U-TILT_X_GAIN.           1.00000         :WPTET Tilt X Gain
U-TILT_OFFSET_TOL.           0.00100     :WPTET Tilt Offset Calibration Tolerance
U-NO_TILT_CAL_ROTATIONS.                 3 :Number of Rotations for Tilt Calibration
HAZI .DEG        0.00000                 :Hole Azimuth
U-STD_TOL_TILT.           0.01000        :Tilt Standard Deviation Tolerance
U-GUN_POS_TOL.DEG        5.00000         :Gun Position Tolerance
ROT_ANGLE_THRESHOLD.DEG        5.00000   :Rotation Stop Angle Tolerance
STOP_ROT_ANGLE.DEG       80.00000        :Rotation Stop Angle
WITN .                                   :Witness's Name
ENGI .                                   :Engineer's Name
COUN .        HARRIS                     :County or Rig Name
FN   .        WILDCAT                    :Field Name
WN   .        WPP TEST 2                 :Well Name
CN   .        SHELL INTERNATIONAL E P    :Company Name
CLAB .        County                     :County/Rig Label
SLAB .        State                      :State/Province Label
RUN  .          1                        :RUN NUMBER
PDAT .        GROUND LEVEL               :Permanent Datum
EPD  .                                   :Elevation of Permanent Datum above Mean Sea Level
LMF  .                                   :Logging Measured From (Name of Logging Elevation Reference)
APD  .                                   :Elevation of Depth Reference (LMF) above Permanent Datum
#-----------------------------------------------------------------------------
~CURVE INFORMATION
#MNEM.UNIT   API CODE                                  DESCRIPTION
#---- -----  --------                                  -----------------------
TIME .S                                                :TIME {F10.1}
FREQ_EMF_SL.HZ                                         :Electromagnetic Field Frequency {F13.4}
PH_SH_WPPCM_SL.DEG                                     :WPPCM Phase Shift {F13.4}
FREQ_EXC_REQ_SL.HZ                                     :Requested Exciter Frequency {F13.4}
RB_SL.DEG                                              :Relative Bearing {F13.4}
SDEV_SL.DEG                                            :Sonde Deviation {F13.4}
TILX_SL.DEG                                            :X-axis Tilt {F13.4}
TILY_SL.DEG                                            :Y-axis Tilt {F13.4}
ROTA_SL.DEG                                            :Motor Rotation Angle {F13.4}
MSPE_SL.RPM                                            :Motor Speed {F13.4}
#-----------------------------------------------------------------------------
# 
#     TIME    FREQ_EMF_SL  PH_SH_WPPCM_ FREQ_EXC_REQ    RB_SL       SDEV_SL      TILX_SL      TILY_SL      ROTA_SL      MSPE_SL
#                          SL           _SL
~A  
# ...
    8959.0    1354.3259       0.0000      50.8611     -51.2312       0.8999      -0.7002      -0.5646     281.8355       1.0226
    8960.0    1356.9395       0.0000      50.8611     -35.5691       0.7009      -0.4206      -0.5438     287.9341       1.0226
    8961.0    1367.0461       0.0000      50.8611     -48.2096       0.8669      -0.6464      -0.5777     294.0386       1.0226
    8962.0    1370.1607       0.0000      50.8611     -51.8047       0.9778      -0.7685      -0.5838     300.1433       1.0226
    8963.0    1370.1607       0.0000      50.8611     -50.6330       0.9664      -0.7472      -0.6117     306.2429       1.0315
    8964.0    1373.2910       0.0000      50.8611     -50.9533       0.9179      -0.7130      -0.5777     312.3474       1.0226
    8965.0    1380.0090       0.0000      50.8611     -57.2505       0.9038      -0.7600      -0.4890     318.4642       1.0226
    8966.0    1373.7479       0.0000      50.8611     -50.8709       0.9474      -0.7335      -0.5977     324.5638       1.0226
    8967.0    1380.0633       0.0000      50.8611     -50.6916       0.8706      -0.6729      -0.5507     330.6743       1.0244
    8968.0    1377.7610       0.0000      50.8611     -48.6223       1.3969      -1.2099      -0.5830     336.7802       1.0226
    8969.0    1377.7610       0.0000      50.8611     -65.4721       0.7838      -0.7130      -0.3254     342.8839       1.0226
    8970.0    1380.0633       0.0000      50.8611     -50.2132       0.8169      -0.6267      -0.5237     348.9836       1.0226
    8971.0    1387.3003       0.0000      50.8611     -64.0446       0.8529      -0.7669      -0.3733     355.5041       1.0244
    8972.0    1395.9880       0.0000      50.8611     -57.8028       0.8669      -0.7335      -0.4620       1.6049       1.0226
    8973.0    1395.5607       0.0000      50.8611     -62.6805       0.9619      -0.8540      -0.4411       7.7106       1.0226
    8974.0    1388.2377       0.0000      50.8611     -60.9650       0.9232      -0.8070      -0.4481      13.8104       1.0226
    8975.0    1390.0429       0.0000      50.8611     -63.5641       0.8876      -0.7934      -0.3941      19.9143       1.0226
    8976.0    1399.2329       0.0000      50.8611     -59.0299       0.9106      -0.7805      -0.4690      26.0181       1.0226
    8977.0    1395.9880       0.0000      50.8611     -61.6798       0.8731      -0.7686      -0.4142      32.1179       1.0226
    8978.0    1398.3362       0.0000      50.8611     -63.9470       0.9430      -0.8472      -0.4142      38.2177       1.0226
    8979.0    1397.8628       0.0000      50.8611     -64.2372       0.8591      -0.7737      -0.3733      44.3215       1.0226
    8980.0    1395.0892       0.0000      50.8611     -66.3011       1.0131      -0.9275      -0.4072      50.4253       1.0226
    8981.0    1392.3268       0.0000      50.8611     -64.9579       0.8490      -0.7669      -0.3602      56.5251       1.0226
    8982.0    1390.0429       0.0000      50.8611     -54.6577       0.8582      -0.7002      -0.4959      62.6357       1.0244
    8983.0    1384.5685       0.0000      50.8611     -74.3931       0.6571      -0.6327      -0.1758      69.1344       1.0208
    8984.0    1381.3850       0.0000      50.8611     -63.3449       1.0303      -0.9207      -0.4620      75.2393       1.0226
    8985.0    1378.6765       0.0000      50.8611     -63.6935       1.0271      -0.9207      -0.4551      81.3499       1.0315
    8986.0    1381.8473       0.0000      50.8611     -66.2136       1.1310      -1.0352      -0.4551      87.4588       1.0208
    8987.0    1376.4372       0.0000      50.8611     -69.7966       1.0021      -0.9336      -0.3402      93.5605       1.0226
    8988.0    1377.7610       0.0000      50.8611     -70.0031       1.1367      -1.0677      -0.3872      99.6603       1.0226
    8989.0    1363.6599       0.0000      50.8611     -64.9470       1.0832      -0.9813      -0.4585     105.7600       1.0226
    8990.0    1367.9475       0.0000      50.8611     -59.5142       0.9911      -0.8540      -0.5029     111.8644       1.0244
    8991.0    1365.7071       0.0000      50.8611     -69.1261       1.1218      -1.0472      -0.3941     117.9570       1.0226
    8992.0    1355.6598       0.0000      50.8611     -61.7480       1.1218      -0.9882      -0.5299     124.0541       1.0244
    8993.0    1351.3432       0.0000      50.8611     -59.6227       1.0753      -0.9275      -0.5438     130.1562       1.0226
    8994.0    1354.3259       0.0000      50.8611     -61.9640       0.9982      -0.8805      -0.4690     136.2731       1.0226
    8995.0    1350.4087       0.0000      50.8611     -63.1985       1.0397      -0.9275      -0.4690     142.7262       1.0226
    8996.0    1337.6070       0.0000      50.8611     -58.7411       1.1011      -0.9412      -0.5708     148.8960       1.0226
    8997.0    1337.6070       0.0000      50.8611     -51.7894       1.0017      -0.7873      -0.6186     154.9999       1.0226
    8998.0    1336.3084       0.0000      50.8611     -60.3569       0.8674      -0.7532      -0.4281     161.0916       1.0226
    8999.0    1337.9921       0.0000      50.8611     -57.1205       1.1288      -0.9480      -0.6117     167.1914       1.0226
    9000.0    1327.0772       0.0000      50.8611     -55.9980       1.0464      -0.8677      -0.5847     173.2790       1.0226
    9001.0    1335.0671       0.0000      50.8611     -50.3780       1.1263      -0.8660      -0.7169     179.3829       1.0138
    9002.0    1331.6761       0.0000      50.8611     -61.2817       1.0340      -0.9070      -0.4959     185.4878       1.0226
    9003.0    1321.2420       0.0000      50.8611     -57.0890       1.0619      -0.8874      -0.5785     191.5877       1.0226
    9004.0    1331.2482       0.0000      50.8611     -54.3020       1.2337      -1.0010      -0.7204     197.7009       1.0226
    9005.0    1327.0772       0.0000      50.8611     -57.6511       1.1296      -0.9540      -0.6047     203.8048       1.0226
    9006.0    1331.6761       0.0000      50.8611     -49.7800       1.0220      -0.7805      -0.6595     209.8960       1.0226
    9007.0    1331.6761       0.0000      50.8611     -48.9716       1.0880      -0.8207      -0.7143     216.3453       1.0226
    9008.0    1332.1057       0.0000      50.8611     -56.1123       1.0369      -0.8608      -0.5777     222.5357       1.0407
    9009.0    1335.8788       0.0000      50.8611     -48.9716       1.0880      -0.8207      -0.7143     228.6491       1.0226
    9010.0    1337.1725       0.0000      50.8611     -55.4359       1.0542      -0.8677      -0.5986     234.7490       1.0226
    9011.0    1341.8416       0.0000      50.8611     -53.8422       0.9913      -0.8002      -0.5847     240.8622       1.0244
    9012.0    1339.7203       0.0000      50.8611     -39.7813       1.0355      -0.6600      -0.7952     246.9661       1.0226
    9013.0    1341.3104       0.0000      50.8611     -49.1869       1.0765      -0.8139      -0.7034     253.0700       1.0226
    9014.0    1339.2858       0.0000      50.8611     -53.2442       0.9656      -0.7737      -0.5777     259.1808       1.0244
    9015.0    1344.4838       0.0000      50.8611     -54.3597       0.9004      -0.7327      -0.5229     265.2827       1.0226
    9016.0    1350.0093       0.0000      50.8611     -66.0178       0.9412      -0.8600      -0.3802     271.3864       1.0226
    9017.0    1355.1781       0.0000      50.8611     -52.2871       1.0115      -0.8002      -0.6186     277.4901       1.0138
    9018.0    1357.3842       0.0000      50.8611     -51.8595       0.9490      -0.7464      -0.5847     283.5782       1.0138
    9019.0    1358.7284       0.0000      50.8611     -45.8583       0.9666      -0.6934      -0.6734     289.6765       1.0244
    9020.0    1362.6454       0.0000      50.8611     -47.6417       0.9113      -0.6737      -0.6117     296.1924       1.0226
    9021.0    1364.8415       0.0000      50.8611     -52.3465       1.0447      -0.8267      -0.6386     302.2920       1.0226
