~VERSION INFORMATION
VERS.           2.0   :CWLS Log ASCII Standard - VERSION 2.0
WRAP.           NO    :One Line per depth step
PROD.  Schlumberger   :LAS Producer
PROG.  DLIS to ASCII 19C2-270                          :LAS Program name and version
CREA.        2017/09/16 17:42                          :LAS Creation date {YYYY/MM/DD hh:mm}
DLIS_CREA.  2017-Sep-15 19:08                          :DLIS Creation date and time {YYYY-MMM-DD hh:mm}
SOURCE.     LPC_S5-1_B5.DLIS                           :DLIS File Name
FILE-ID.     PERFO_Perfo_WPGRT_059LTP                  :File Identification Number
#--------------------------------------------------
~WELL INFORMATION
#MNEM.UNIT      DATA             DESCRIPTION
#---- ------ --------------   -----------------------------
STRT .S         7683.0       :START TIME      
STOP .S         8122.0       :STOP TIME      
STEP .S            1.0       :STEP     
NULL .          -999.25      :NULL VALUE
COMP .        SHELL INTERNATIONAL E P                  :COMPANY
WELL .        WPP TEST 2                               :WELL
FLD  .        WILDCAT                                  :FIELD
LOC  .        NA                                       :LOCATION
CNTY .        HARRIS                                   :COUNTY
STAT .        TEXAS                                    :STATE
CTRY .                                                 :COUNTRY
API  .        NA                                       :API NUMBER
UWI  .                                                 :UNIQUE WELL ID
DATE .        15-Sep-2017                              :LOG DATE {DD-MMM-YYYY}
SRVC .        Schlumberger                             :SERVICE COMPANY
LATI .DEG                                              :LATITUDE
LONG .DEG                                              :LONGITUDE
GDAT .                                                 :GeoDetic Datum
SECT .        NA                                       :Section
RANG .        NA                                       :Range
TOWN .        NA                                       :Township
#-----------------------------------------------------------------------------
~PARAMETER INFORMATION
#MNEM.UNIT    VALUE                      DESCRIPTION
#---- -----   --------------------       ------------------------
U-PHASE_B_COMP_PER_YT.                 0 :Phase B Comparator Period Yt
U-PHASE_A_COMP_PER_XT.                 0 :Phase A Comparator Period Xt
U-MAX_EXC_CUR_LIMIT.MA       240.00000   :Requested CM Current Limit
U-REQ_EXC_FQ.HZ              50          :Requested CM Frequency
U-TILT_Y_OFFSET.           0.19916       :WPTET Tilt Y Offset
U-TILT_Y_GAIN.           1.01796         :WPTET Tilt Y Gain
U-TILT_X_OFFSET.          -1.77103       :WPTET Tilt X Offset
U-TILT_X_GAIN.           1.00000         :WPTET Tilt X Gain
U-TILT_OFFSET_TOL.           0.00100     :WPTET Tilt Offset Calibration Tolerance
U-NO_TILT_CAL_ROTATIONS.                 3 :Number of Rotations for Tilt Calibration
HAZI .DEG        0.00000                 :Hole Azimuth
U-STD_TOL_TILT.           0.01000        :Tilt Standard Deviation Tolerance
U-GUN_POS_TOL.DEG        5.00000         :Gun Position Tolerance
ROT_ANGLE_THRESHOLD.DEG        5.00000   :Rotation Stop Angle Tolerance
STOP_ROT_ANGLE.DEG        0.00000        :Rotation Stop Angle
WITN .        MR. DHRUA ARORA            :Witness's Name
ENGI .        MORRIS MOORE               :Engineer's Name
COUN .        HARRIS                     :County or Rig Name
FN   .        WILDCAT                    :Field Name
WN   .        WPP TEST 2                 :Well Name
CN   .        SHELL INTERNATIONAL E P    :Company Name
CLAB .        County                     :County/Rig Label
SLAB .        State                      :State/Province Label
RUN  .          1                        :RUN NUMBER
PDAT .        GROUND LEVEL               :Permanent Datum
EPD  .                                   :Elevation of Permanent Datum above Mean Sea Level
LMF  .          NA                       :Logging Measured From (Name of Logging Elevation Reference)
APD  .                                   :Elevation of Depth Reference (LMF) above Permanent Datum
#-----------------------------------------------------------------------------
~CURVE INFORMATION
#MNEM.UNIT   API CODE                                  DESCRIPTION
#---- -----  --------                                  -----------------------
TIME .S                                                :TIME {F10.1}
FREQ_EMF_SL.HZ                                         :Electromagnetic Field Frequency {F13.4}
PH_SH_WPPCM_SL.DEG                                     :WPPCM Phase Shift {F13.4}
FREQ_EXC_REQ_SL.HZ                                     :Requested Exciter Frequency {F13.4}
RB_SL.DEG                                              :Relative Bearing {F13.4}
SDEV_SL.DEG                                            :Sonde Deviation {F13.4}
TILX_SL.DEG                                            :X-axis Tilt {F13.4}
TILY_SL.DEG                                            :Y-axis Tilt {F13.4}
ROTA_SL.DEG                                            :Motor Rotation Angle {F13.4}
MSPE_SL.RPM                                            :Motor Speed {F13.4}
#-----------------------------------------------------------------------------
# 
#     TIME    FREQ_EMF_SL  PH_SH_WPPCM_ FREQ_EXC_REQ    RB_SL       SDEV_SL      TILX_SL      TILY_SL      ROTA_SL      MSPE_SL
#                          SL           _SL
~A  
# ...
    8061.0    1360.0098       0.0000      50.8611     -39.1585       5.4175      -3.4179      -4.1982     180.8955       1.0275
    8062.0    1340.6851       0.0000      50.8611     -32.5392       5.3006      -2.8479      -4.4660     187.1820       1.0226
    8063.0    1326.6509       0.0000      50.8611     -29.7837       5.3057      -2.6327      -4.6032     193.2848       1.0226
    8064.0    1321.4322       0.0000      50.8611     -23.9955       5.3131      -2.1583      -4.8525     199.3866       1.0226
    8065.0    1300.5458       0.0000      50.8611     -19.8409       5.2665      -1.7854      -4.9527     205.4885       1.0226
    8066.0    1290.1376       0.0000      50.8611     -12.9547       5.1204      -1.1465      -4.9897     211.5861       1.0237
    8067.0    1281.5305       0.0000      50.8611      -6.9249       5.0945      -0.6175      -5.0552     217.6939       1.0226
    8068.0    1277.1388       0.0000      50.8611      -3.9365       5.0055      -0.3432      -4.9936     223.7966       1.0226
    8069.0    1258.8465       0.0000      50.8611       1.6225       4.9246       0.1388      -4.9226     229.9115       1.0226
    8070.0    1256.1941       0.0000      50.8611       6.8481       4.6625       0.5557      -4.6256     236.0134       1.0226
    8071.0    1257.6167       0.0000      50.8611      14.8044       4.5941       1.1726      -4.4397     242.1030       1.0226
    8072.0    1255.3714       0.0000      50.8611      21.0818       4.7349       1.7015      -4.4173     248.1926       1.0226
    8073.0    1254.7883       0.0000      50.8611      22.6295       4.5496       1.7493      -4.1982     254.5056       1.0226
    8074.0    1262.5623       0.0000      50.8611      28.9015       4.3252       2.0888      -3.7855     260.7920       1.0226
    8075.0    1274.8232       0.0000      50.8611      37.2896       4.2459       2.5708      -3.3766     266.8824       1.0226
    8076.0    1286.7095       0.0000      50.8611      44.1886       4.2237       2.9428      -3.0271     272.9973       1.0275
    8077.0    1304.9769       0.0000      50.8611      46.4863       4.0753       2.9543      -2.8042     279.1005       1.0226
    8078.0    1311.5724       0.0000      50.8611      51.0553       3.8417       2.9868      -2.4138     285.2017       1.0226
    8079.0    1325.2831       0.0000      50.8611      61.6163       3.7633       3.3065      -1.7888     291.3035       1.0226
    8080.0    1333.0596       0.0000      50.8611      69.5561       3.8018       3.5606      -1.3244     297.4053       1.0285
    8081.0    1330.2979       0.0000      50.8611      75.8041       3.6946       3.5817      -0.9048     303.5202       1.0226
    8082.0    1345.8174       0.0000      50.8611      80.5566       3.5243       3.4764      -0.5777     309.6351       1.0226
    8083.0    1352.4155       0.0000      50.8611      88.9001       3.3710       3.3703      -0.0647     315.7246       1.0226
    8084.0    1359.7649       0.0000      50.8611     101.8137       3.5892       3.5128       0.7346     321.8196       1.0168
    8085.0    1369.1541       0.0000      50.8611     107.5631       3.5585       3.3885       1.0733     327.9289       1.0275
    8086.0    1374.7624       0.0000      50.8611     113.9590       3.3567       3.0672       1.3625     334.4518       1.0168
    8087.0    1381.6483       0.0000      50.8611     120.9903       3.3698       2.8883       1.7344     340.5290       1.0226
    8088.0    1388.3349       0.0000      50.8611     127.9420       3.3252       2.6215       2.0430     346.6308       1.0226
    8089.0    1390.8202       0.0000      50.8611     141.2162       3.7805       2.3661       2.9464     352.7343       1.0226
    8090.0    1396.3443       0.0000      50.8611     147.7085       3.6046       1.9243       3.0467     358.8475       1.0226
    8091.0    1403.2255       0.0000      50.8611     150.5057       3.4320       1.6888       2.9868       4.9493       1.0226
    8092.0    1407.7930       0.0000      50.8611     158.1730       3.6187       1.3438       3.3592      11.0519       1.0226
    8093.0    1418.8867       0.0000      50.8611     168.5160       3.8183       0.7595       3.7418      17.1669       1.0226
    8094.0    1422.0289       0.0000      50.8611     178.3418       4.0404       0.1168       4.0387      23.2818       1.0226
    8095.0    1429.6914       0.0000      50.8611    -178.2516       3.7040      -0.1136       3.7009      29.3836       1.0226
    8096.0    1424.6364       0.0000      50.8611    -175.3026       3.7920      -0.3107       3.7788      35.4854       1.0226
    8097.0    1434.6768       0.0000      50.8611    -165.6185       4.2639      -1.0595       4.1283      41.5881       1.0226
    8098.0    1445.4150       0.0000      50.8611    -157.2249       4.2678      -1.6505       3.9346      48.0979       1.0226
    8099.0    1444.0762       0.0000      50.8611    -149.8786       4.2372      -2.1220       3.6630      54.1997       1.0226
    8100.0    1440.8298       0.0000      50.8611    -148.1621       4.1557      -2.1909       3.5296      60.3147       1.0226
    8101.0    1443.5129       0.0000      50.8611    -147.2758       4.3865      -2.3697       3.6893      61.2722       0.0005
    8102.0    1446.7593       0.0000      50.8611    -145.1585       4.6388      -2.6471       3.8051      61.2722       0.0005
    8103.0    1447.0482       0.0000      50.8611    -142.8742       4.3953      -2.6509       3.5033      61.2722       0.0005
    8104.0    1446.4826       0.0000      50.8611    -145.8256       4.1957      -2.3553       3.4702      61.2722       0.0005
    8105.0    1445.4150       0.0000      50.8611    -148.6258       4.3797      -2.2788       3.7379      61.2722       0.0005
    8106.0    1443.7886       0.0000      50.8611    -145.8170       4.5921      -2.5782       3.7973      61.2722       0.0005
    8107.0    1445.1328       0.0000      50.8611    -141.5586       4.5809      -2.8450       3.5851      61.2722       0.0005
    8108.0    1445.1328       0.0000      50.8611    -145.3885       4.1340      -2.3439       3.4001      61.2722       0.0005
    8109.0    1446.7593       0.0000      50.8611    -148.4676       4.3662      -2.2826       3.7194      61.2722       0.0005
    8110.0    1448.1090       0.0000      50.8611    -148.7331       4.5705      -2.3697       3.9053      61.2722       0.0005
    8111.0    1444.8627       0.0000      50.8611    -142.3699       4.4766      -2.7312       3.5442      61.2722       0.0005
    8112.0    1444.8627       0.0000      50.8611    -143.0241       4.2895      -2.5782       3.4254      61.2722       0.0005
    8113.0    1448.1090       0.0000      50.8611    -146.0661       4.3269      -2.4137       3.5890      61.2722       0.0005
    8114.0    1444.0762       0.0000      50.8611    -147.2189       4.5901      -2.4835       3.8567      61.2722       0.0005
    8115.0    1442.1687       0.0000      50.8611    -145.6241       4.4988      -2.5380       3.7116      61.2722       0.0005
    8116.0    1449.7422       0.0000      50.8611    -143.9607       4.3073      -2.5304       3.4818      61.2722       0.0005
    8117.0    1447.3494       0.0000      50.8611    -146.1976       4.4773      -2.4873       3.7203      61.2722       0.0005
    8118.0    1445.7093       0.0000      50.8611    -148.0466       4.3621      -2.3085       3.6970      61.2722       0.0005
    8119.0    1446.7593       0.0000      50.8611    -153.1714       4.3867      -1.9719       3.9152      61.2722       0.0005
    8120.0    1451.0976       0.0000      50.8611    -144.2168       4.3537      -2.5447       3.5296      61.2722       0.0005
    8121.0    1445.4150       0.0000      50.8611    -144.8075       4.3017      -2.4788       3.5111      61.2722       0.0005
    8122.0    1448.6882       0.0000      50.8611    -148.4884       4.6094      -2.4061       3.9277      61.2722       0.0005
