~VERSION INFORMATION
VERS.           2.0   :CWLS Log ASCII Standard - VERSION 2.0
WRAP.           NO    :One Line per depth step
PROD.  Schlumberger   :LAS Producer
PROG.  DLIS to ASCII 19C2-270                          :LAS Program name and version
CREA.        2017/09/16 17:42                          :LAS Creation date {YYYY/MM/DD hh:mm}
DLIS_CREA.  2017-Sep-15 12:00                          :DLIS Creation date and time {YYYY-MMM-DD hh:mm}
SOURCE.     LPC_S1-1_A5.DLIS                           :DLIS File Name
FILE-ID.     PERFO_Perfo_WPGRT_019LTP                  :File Identification Number
#--------------------------------------------------
~WELL INFORMATION
#MNEM.UNIT      DATA             DESCRIPTION
#---- ------ --------------   -----------------------------
STRT .S         4414.0       :START TIME      
STOP .S         5447.0       :STOP TIME      
STEP .S            1.0       :STEP     
NULL .          -999.25      :NULL VALUE
COMP .        SHELL INTERNATIONAL E P                  :COMPANY
WELL .        WPP TEST 2                               :WELL
FLD  .        WILDCAT                                  :FIELD
LOC  .                                                 :LOCATION
CNTY .        HARRIS                                   :COUNTY
STAT .        TEXAS                                    :STATE
CTRY .                                                 :COUNTRY
API  .                                                 :API NUMBER
UWI  .                                                 :UNIQUE WELL ID
DATE .                                                 :LOG DATE
SRVC .        Schlumberger                             :SERVICE COMPANY
LATI .DEG                                              :LATITUDE
LONG .DEG                                              :LONGITUDE
GDAT .                                                 :GeoDetic Datum
#-----------------------------------------------------------------------------
~PARAMETER INFORMATION
#MNEM.UNIT    VALUE                      DESCRIPTION
#---- -----   --------------------       ------------------------
U-PHASE_B_COMP_PER_YT.                 0 :Phase B Comparator Period Yt
U-PHASE_A_COMP_PER_XT.                 0 :Phase A Comparator Period Xt
U-MAX_EXC_CUR_LIMIT.MA       240.00000   :Requested CM Current Limit
U-REQ_EXC_FQ.HZ              50          :Requested CM Frequency
U-TILT_Y_OFFSET.           0.19916       :WPTET Tilt Y Offset
U-TILT_Y_GAIN.           1.01796         :WPTET Tilt Y Gain
U-TILT_X_OFFSET.          -1.77103       :WPTET Tilt X Offset
U-TILT_X_GAIN.           1.00000         :WPTET Tilt X Gain
U-TILT_OFFSET_TOL.           0.00100     :WPTET Tilt Offset Calibration Tolerance
U-NO_TILT_CAL_ROTATIONS.                 3 :Number of Rotations for Tilt Calibration
HAZI .DEG        0.00000                 :Hole Azimuth
U-STD_TOL_TILT.           0.01000        :Tilt Standard Deviation Tolerance
U-GUN_POS_TOL.DEG        5.00000         :Gun Position Tolerance
ROT_ANGLE_THRESHOLD.DEG        5.00000   :Rotation Stop Angle Tolerance
STOP_ROT_ANGLE.DEG       80.00000        :Rotation Stop Angle
WITN .                                   :Witness's Name
ENGI .                                   :Engineer's Name
COUN .        HARRIS                     :County or Rig Name
FN   .        WILDCAT                    :Field Name
WN   .        WPP TEST 2                 :Well Name
CN   .        SHELL INTERNATIONAL E P    :Company Name
CLAB .        County                     :County/Rig Label
SLAB .        State                      :State/Province Label
RUN  .          1                        :RUN NUMBER
PDAT .        GROUND LEVEL               :Permanent Datum
EPD  .                                   :Elevation of Permanent Datum above Mean Sea Level
LMF  .                                   :Logging Measured From (Name of Logging Elevation Reference)
APD  .                                   :Elevation of Depth Reference (LMF) above Permanent Datum
#-----------------------------------------------------------------------------
~CURVE INFORMATION
#MNEM.UNIT   API CODE                                  DESCRIPTION
#---- -----  --------                                  -----------------------
TIME .S                                                :TIME {F10.1}
FREQ_EMF_SL.HZ                                         :Electromagnetic Field Frequency {F13.4}
PH_SH_WPPCM_SL.DEG                                     :WPPCM Phase Shift {F13.4}
FREQ_EXC_REQ_SL.HZ                                     :Requested Exciter Frequency {F13.4}
RB_SL.DEG                                              :Relative Bearing {F13.4}
SDEV_SL.DEG                                            :Sonde Deviation {F13.4}
TILX_SL.DEG                                            :X-axis Tilt {F13.4}
TILY_SL.DEG                                            :Y-axis Tilt {F13.4}
ROTA_SL.DEG                                            :Motor Rotation Angle {F13.4}
MSPE_SL.RPM                                            :Motor Speed {F13.4}
#-----------------------------------------------------------------------------
# 
#     TIME    FREQ_EMF_SL  PH_SH_WPPCM_ FREQ_EXC_REQ    RB_SL       SDEV_SL      TILX_SL      TILY_SL      ROTA_SL      MSPE_SL
#                          SL           _SL
~A  
# ...
    5044.0    1295.6540       0.0000      50.8611      41.3280       4.1049       2.7094      -3.0812      72.4386       1.0226
    5045.0    1326.0825       0.0000      50.8611      46.7896       3.7790       2.7528      -2.5868      78.5411       1.0226
    5046.0    1358.2247       0.0000      50.8611      52.6613       3.7673       2.9941      -2.2820      84.6284       1.0250
    5047.0    1384.9784       0.0000      50.8611      60.3714       3.6431       3.1659      -1.8007      90.7332       1.0226
    5048.0    1410.6128       0.0000      50.8611      66.6186       3.5078       3.2188      -1.3918      96.8226       1.0202
    5049.0    1435.6166       0.0000      50.8611      73.6600       3.3316       3.1969      -0.9364     102.9144       1.0226
    5050.0    1464.1509       0.0000      50.8611      81.5435       3.3133       3.2772      -0.4866     109.0162       1.0226
    5051.0    1495.2880       0.0000      50.8611      88.8911       3.3401       3.3393      -0.0648     115.5229       1.0226
    5052.0    1525.5349       0.0000      50.8611      97.4145       3.2995       3.2717       0.4259     121.6348       1.0250
    5053.0    1545.3296       0.0000      50.8611     107.2171       3.1475       3.0052       0.9295     127.7497       1.0309
    5054.0    1571.3925       0.0000      50.8611     114.2155       3.2013       2.9193       1.3124     133.8553       1.0226
    5055.0    1593.5671       0.0000      50.8611     122.0492       3.1930       2.7058       1.6934     139.9318       1.0202
    5056.0    1604.4763       0.0000      50.8611     131.4446       3.3197       2.4866       2.1970     146.0213       1.0202
    5057.0    1625.6856       0.0000      50.8611     140.6247       3.2778       2.0781       2.5335     152.1232       1.0226
    5058.0    1638.1188       0.0000      50.8611     145.9731       3.3915       1.8969       2.8104     158.2265       1.0250
    5059.0    1643.1861       0.0000      50.8611     154.7339       3.2886       1.4021       2.9739     164.3161       1.0226
    5060.0    1648.7735       0.0000      50.8611     159.9593       3.4430       1.1794       3.2342     170.4180       1.0226
    5061.0    1645.4535       0.0000      50.8611     168.6591       3.5869       0.7029       3.5148     176.5100       1.0226
    5062.0    1650.5282       0.0000      50.8611     174.5281       3.6598       0.3487       3.6430     182.6221       1.0226
    5063.0    1638.9860       0.0000      50.8611    -178.5313       3.7617      -0.0968       3.7601     189.0274       1.0226
    5064.0    1626.4227       0.0000      50.8611    -170.6943       3.7752      -0.6098       3.7248     195.2091       1.0226
    5065.0    1614.3628       0.0000      50.8611    -164.6614       3.8955      -1.0297       3.7564     201.2986       1.0226
    5066.0    1602.4834       0.0000      50.8611    -157.9231       3.9765      -1.4935       3.6839     207.4005       1.0226
    5067.0    1587.1896       0.0000      50.8611    -152.6255       4.1640      -1.9134       3.6969     213.4909       1.0250
    5068.0    1567.5739       0.0000      50.8611    -147.4469       4.2305      -2.2749       3.5650     219.5935       1.0250
    5069.0    1536.0923       0.0000      50.8611    -141.7988       4.2532      -2.6287       3.3410     225.6961       1.0226
    5070.0    1512.0968       0.0000      50.8611    -134.5888       4.3630      -3.1057       3.0613     231.7980       1.0226
    5071.0    1483.1231       0.0000      50.8611    -128.2979       4.5106      -3.5384       2.7937     237.8999       1.0226
    5072.0    1466.2381       0.0000      50.8611    -122.6372       4.6368      -3.9035       2.4982     244.0148       1.0226
    5073.0    1437.8834       0.0000      50.8611    -116.5181       4.6707      -4.1755       2.0819     250.1160       1.0226
    5074.0    1407.5348       0.0000      50.8611    -112.1276       4.8293      -4.4713       1.8180     256.2193       1.0144
    5075.0    1377.6217       0.0000      50.8611    -108.9604       5.1802      -4.8985       1.6804     262.6495       1.0250
    5076.0    1351.9436       0.0000      50.8611    -102.3756       4.9424      -4.8273       1.0578     268.8435       1.0226
    5077.0    1322.2298       0.0000      50.8611     -97.4089       5.0393      -4.9971       0.6489     274.9453       1.0226
    5078.0    1263.1966       0.0000      50.8611     -90.5118       5.0466      -5.0464       0.0449     281.0471       1.0226
    5079.0    1189.3971       0.0000      50.8611     -86.0014       4.9069      -4.8949      -0.3417     287.1489       1.0226
    5080.0    1123.8764       0.0000      50.8611     -81.4122       5.2668      -5.2071      -0.7858     293.2515       1.0226
    5081.0    1062.8546       0.0000      50.8611     -75.7944       5.2065      -5.0464      -1.2765     299.3642       1.0309
    5082.0    1007.1061       0.0000      50.8611     -70.2685       5.3070      -4.9935      -1.7894     305.4821       1.0226
    5083.0     980.1080       0.0000      50.8611     -66.0826       5.2640      -4.8109      -2.1315     311.5715       1.0202
    5084.0     963.4855       0.0000      50.8611     -60.8170       5.2613      -4.5918      -2.5626     317.6733       1.0226
    5085.0     946.4519       0.0000      50.8611     -56.4543       5.3827      -4.4841      -2.9715     323.7751       1.0226
    5086.0     928.9124       0.0000      50.8611     -50.7084       5.3084      -4.1062      -3.3581     329.8770       1.0226
    5087.0     922.3545       0.0000      50.8611     -47.1859       5.3199      -3.8999      -3.6127     335.9811       1.0226
    5088.0     918.8447       0.0000      50.8611     -42.3647       5.2551      -3.5384      -3.8803     342.4879       1.0226
    5089.0     913.5284       0.0000      50.8611     -36.8002       5.3083      -3.1769      -4.2483     348.5921       1.0226
    5090.0     912.1344       0.0000      50.8611     -32.3792       5.1827      -2.7716      -4.3747     354.6915       1.0226
    5091.0     915.6981       0.0000      50.8611     -27.6889       5.1330      -2.3827      -4.5438      82.6933       1.0226
    5092.0     923.1233       0.0000      50.8611     -21.6982       5.1118      -1.8879      -4.7483       6.8951       1.0226
    5093.0     926.4212       0.0000      50.8611     -17.5540       5.0018      -1.5068      -4.7683      12.9976       1.0226
    5094.0     937.5000       0.0000      50.8611     -12.0327       4.8838      -1.0170      -4.7762      19.0995       1.0226
    5095.0     950.0000       0.0000      50.8611      -7.0548       4.8670      -0.5971      -4.8301      25.1918       1.0144
    5096.0     966.2554       0.0000      50.8611      -1.3838       4.7627      -0.1151      -4.7613      31.2908       1.0144
    5097.0     983.3916       0.0000      50.8611       3.7358       4.7908       0.3121      -4.7799      37.3958       1.0144
    5098.0    1007.4781       0.0000      50.8611       9.8093       4.5381       0.7722      -4.4714      43.5084       1.0250
    5099.0    1039.4010       0.0000      50.8611      14.9219       4.4451       1.1429      -4.2948      49.6108       1.0226
    5100.0    1082.0591       0.0000      50.8611      20.2200       4.3833       1.5135      -4.1127      56.0953       1.0202
    5101.0    1160.6524       0.0000      50.8611      26.2258       4.3162       1.9060      -3.8710      62.1995       1.0226
    5102.0    1245.4007       0.0000      50.8611      32.1879       4.1844       2.2274      -3.5403      68.2895       1.0144
    5103.0    1286.1738       0.0000      50.8611      37.8154       4.0288       2.4684      -3.1816      74.3885       1.0226
    5104.0    1318.3103       0.0000      50.8611      45.1040       3.8273       2.7094      -2.7002      80.5034       1.0169
    5105.0    1338.7065       0.0000      50.8611      50.5628       3.7930       2.9285      -2.4084      86.5812       1.0226
    5106.0    1374.1515       0.0000      50.8611      57.4871       3.6384       3.0673      -1.9549      92.6830       1.0226
