~VERSION INFORMATION
VERS.           2.0   :CWLS Log ASCII Standard - VERSION 2.0
WRAP.           NO    :One Line per depth step
PROD.  Schlumberger   :LAS Producer
PROG.  DLIS to ASCII 19C2-270                          :LAS Program name and version
CREA.        2017/09/16 17:42                          :LAS Creation date {YYYY/MM/DD hh:mm}
DLIS_CREA.  2017-Sep-15 18:10                          :DLIS Creation date and time {YYYY-MMM-DD hh:mm}
SOURCE.     LPC_S4-1_2A5.DLIS                          :DLIS File Name
FILE-ID.     PERFO_Perfo_WPGRT_053LTP                  :File Identification Number
#--------------------------------------------------
~WELL INFORMATION
#MNEM.UNIT      DATA             DESCRIPTION
#---- ------ --------------   -----------------------------
STRT .S         4226.0       :START TIME      
STOP .S         4689.0       :STOP TIME      
STEP .S            1.0       :STEP     
NULL .          -999.25      :NULL VALUE
COMP .        SHELL INTERNATIONAL E P                  :COMPANY
WELL .        WPP TEST 2                               :WELL
FLD  .        WILDCAT                                  :FIELD
LOC  .        NA                                       :LOCATION
CNTY .        HARRIS                                   :COUNTY
STAT .        TEXAS                                    :STATE
CTRY .                                                 :COUNTRY
API  .        NA                                       :API NUMBER
UWI  .                                                 :UNIQUE WELL ID
DATE .        15-Sep-2017                              :LOG DATE {DD-MMM-YYYY}
SRVC .        Schlumberger                             :SERVICE COMPANY
LATI .DEG                                              :LATITUDE
LONG .DEG                                              :LONGITUDE
GDAT .                                                 :GeoDetic Datum
SECT .        NA                                       :Section
RANG .        NA                                       :Range
TOWN .        NA                                       :Township
#-----------------------------------------------------------------------------
~PARAMETER INFORMATION
#MNEM.UNIT    VALUE                      DESCRIPTION
#---- -----   --------------------       ------------------------
U-PHASE_B_COMP_PER_YT.                 0 :Phase B Comparator Period Yt
U-PHASE_A_COMP_PER_XT.                 0 :Phase A Comparator Period Xt
U-MAX_EXC_CUR_LIMIT.MA       240.00000   :Requested CM Current Limit
U-REQ_EXC_FQ.HZ              50          :Requested CM Frequency
U-TILT_Y_OFFSET.           0.19916       :WPTET Tilt Y Offset
U-TILT_Y_GAIN.           1.01796         :WPTET Tilt Y Gain
U-TILT_X_OFFSET.          -1.77103       :WPTET Tilt X Offset
U-TILT_X_GAIN.           1.00000         :WPTET Tilt X Gain
U-TILT_OFFSET_TOL.           0.00100     :WPTET Tilt Offset Calibration Tolerance
U-NO_TILT_CAL_ROTATIONS.                 3 :Number of Rotations for Tilt Calibration
HAZI .DEG        0.00000                 :Hole Azimuth
U-STD_TOL_TILT.           0.01000        :Tilt Standard Deviation Tolerance
U-GUN_POS_TOL.DEG        5.00000         :Gun Position Tolerance
ROT_ANGLE_THRESHOLD.DEG        5.00000   :Rotation Stop Angle Tolerance
STOP_ROT_ANGLE.DEG        0.00000        :Rotation Stop Angle
WITN .        MR. DHRUA ARORA            :Witness's Name
ENGI .        MORRIS MOORE               :Engineer's Name
COUN .        HARRIS                     :County or Rig Name
FN   .        WILDCAT                    :Field Name
WN   .        WPP TEST 2                 :Well Name
CN   .        SHELL INTERNATIONAL E P    :Company Name
CLAB .        County                     :County/Rig Label
SLAB .        State                      :State/Province Label
RUN  .          1                        :RUN NUMBER
PDAT .        GROUND LEVEL               :Permanent Datum
EPD  .                                   :Elevation of Permanent Datum above Mean Sea Level
LMF  .          NA                       :Logging Measured From (Name of Logging Elevation Reference)
APD  .                                   :Elevation of Depth Reference (LMF) above Permanent Datum
#-----------------------------------------------------------------------------
~CURVE INFORMATION
#MNEM.UNIT   API CODE                                  DESCRIPTION
#---- -----  --------                                  -----------------------
TIME .S                                                :TIME {F10.1}
FREQ_EMF_SL.HZ                                         :Electromagnetic Field Frequency {F13.4}
PH_SH_WPPCM_SL.DEG                                     :WPPCM Phase Shift {F13.4}
FREQ_EXC_REQ_SL.HZ                                     :Requested Exciter Frequency {F13.4}
RB_SL.DEG                                              :Relative Bearing {F13.4}
SDEV_SL.DEG                                            :Sonde Deviation {F13.4}
TILX_SL.DEG                                            :X-axis Tilt {F13.4}
TILY_SL.DEG                                            :Y-axis Tilt {F13.4}
ROTA_SL.DEG                                            :Motor Rotation Angle {F13.4}
MSPE_SL.RPM                                            :Motor Speed {F13.4}
#-----------------------------------------------------------------------------
# 
#     TIME    FREQ_EMF_SL  PH_SH_WPPCM_ FREQ_EXC_REQ    RB_SL       SDEV_SL      TILX_SL      TILY_SL      ROTA_SL      MSPE_SL
#                          SL           _SL
~A  
    4226.0    1500.9878       0.0000      50.8611     -73.9410       4.4906       0.0048       4.4884     240.3794       1.0226
    4227.0    1498.2594       0.0000      50.8611    -176.1532       4.1704      -0.2802       4.1606     246.1960       1.0183
    4228.0    1498.2594       0.0000      50.8611    -169.4688       4.8607      -0.8874       4.7786     252.2985       1.0226
    4229.0    1487.4512       0.0000      50.8611    -162.3939       5.1429      -1.5537       4.9013     258.3919       1.0302
    4230.0    1482.4648       0.0000      50.8611    -155.9545       4.6569      -1.8961       4.2518     264.4944       1.0258
    4231.0    1477.5226       0.0000      50.8611    -152.0482       4.6452      -2.1753       4.1003     271.0113       1.0226
    4232.0    1477.1533       0.0000      50.8611    -146.0036       5.1540      -2.8792       4.2712     277.1140       1.0226
    4233.0    1465.7459       0.0000      50.8611    -136.8748       5.3912      -3.6826       3.9320     283.2226       1.0290
    4234.0    1452.7377       0.0000      50.8611    -133.3677       5.2186      -3.7886       3.5828     289.3183       1.0152
    4235.0    1448.3557       0.0000      50.8611    -126.1299       4.9595      -4.0039       2.9219     295.4201       1.0226
    4236.0    1445.8829       0.0000      50.8611    -122.6369       5.3574      -4.5096       2.8857     301.5219       1.0226
    4237.0    1429.9745       0.0000      50.8611    -115.8211       5.8656      -5.2774       2.5512     307.6390       1.0302
    4238.0    1412.2343       0.0000      50.8611    -109.3203       5.6539      -5.3340       1.8682     313.7408       1.0226
    4239.0    1402.6184       0.0000      50.8611    -105.2242       5.4117      -5.2207       1.4184     319.8426       1.0226
    4240.0    1384.4278       0.0000      50.8611    -100.4772       5.6941      -5.5987       1.0337     325.9321       1.0226
    4241.0    1372.1965       0.0000      50.8611     -94.8133       6.0508      -6.0287       0.5068     332.0216       1.0226
    4242.0    1353.5560       0.0000      50.8611     -87.0437       6.1292      -6.1209      -0.3156     338.1234       1.0226
    4243.0    1338.1001       0.0000      50.8611     -82.1210       5.6574      -5.6033      -0.7748     344.6311       1.0226
    4244.0    1307.9243       0.0000      50.8611     -79.2860       5.8211      -5.7192      -1.0804     350.7223       1.0226
    4245.0    1273.0977       0.0000      50.8611     -73.0981       6.1588      -5.8917      -1.7876     356.8100       1.0226
    4246.0    1253.3423       0.0000      50.8611     -67.0701       6.1300      -5.6435      -2.3841       2.8995       1.0226
    4247.0    1233.5526       0.0000      50.8611     -62.1359       5.8809      -5.1970      -2.7448       9.0145       1.0302
    4248.0    1213.5220       0.0000      50.8611     -58.3577       5.9882      -5.0956      -3.1369      15.1185       1.0226
    4249.0    1200.1141       0.0000      50.8611     -54.4581       6.2489      -5.0812      -3.6275      21.2088       1.0226
    4250.0    1185.7083       0.0000      50.8611     -47.6852       6.2641      -4.6275      -4.2120      27.3057       1.0152
    4251.0    1168.5550       0.0000      50.8611     -40.9655       5.8605      -3.8386      -4.4212      33.3992       1.0226
    4252.0    1150.2227       0.0000      50.8611     -38.8307       5.9148      -3.7036      -4.6042      39.4764       1.0226
    4253.0    1143.5121       0.0000      50.8611     -34.4403       6.1523      -3.4745      -5.0707      45.5782       1.0226
    4254.0    1141.2292       0.0000      50.8611     -27.0829       6.1674      -2.8035      -5.4890      51.6809       1.0226
    4255.0    1137.5366       0.0000      50.8611     -22.4594       5.6930      -2.1701      -5.2584      58.1916       1.0302
    4256.0    1134.0725       0.0000      50.8611     -17.5385       5.7525      -1.7309      -5.4843      64.2990       1.0195
    4257.0    1134.8255       0.0000      50.8611     -13.9646       5.7742      -1.3904      -5.6022      70.3921       1.0226
    4258.0    1136.9909       0.0000      50.8611      -7.9131       5.9015      -0.8116      -5.8449      76.4816       1.0226
    4259.0    1139.0004       0.0000      50.8611      -1.2887       5.5313      -0.1242      -5.5299      82.5732       1.0226
    4260.0    1151.1268       0.0000      50.8611       5.2773       5.3576       0.4928      -5.3328      88.6750       1.0226
    4261.0    1164.1143       0.0000      50.8611       8.5508       5.6049       0.8326      -5.5419      94.7767       1.0226
    4262.0    1176.9583       0.0000      50.8611      14.3650       5.3836       1.3337      -5.2148     100.8785       1.0226
    4263.0    1195.9585       0.0000      50.8611      20.1291       5.1029       1.7544      -4.7892     106.9934       1.0226
    4264.0    1211.4311       0.0000      50.8611      26.8373       4.9428       2.2292      -4.4091     113.0952       1.0226
    4265.0    1236.6148       0.0000      50.8611      31.9425       5.0534       2.6710      -4.2865     119.1969       1.0195
    4266.0    1271.2172       0.0000      50.8611      35.3298       4.9913       2.8837      -4.0700     125.2864       1.0195
    4267.0    1311.2721       0.0000      50.8611      43.1458       4.7239       3.2215      -3.4466     131.7948       1.0302
    4268.0    1338.5347       0.0000      50.8611      51.5138       4.4406       3.4743      -2.7615     137.9095       1.0302
    4269.0    1359.7168       0.0000      50.8611      58.3413       4.5549       3.8760      -2.3888     143.9991       1.0226
    4270.0    1376.2981       0.0000      50.8611      62.2956       4.5980       4.0696      -2.1362     150.1163       1.0226
    4271.0    1388.4546       0.0000      50.8611      68.4025       4.2622       3.9610      -1.5684     156.2182       1.0226
    4272.0    1410.2315       0.0000      50.8611      77.7690       4.0491       3.9563      -0.8566     162.3354       1.0226
    4273.0    1417.2729       0.0000      50.8611      87.4855       4.2418       4.2375      -0.1856     168.4227       1.0226
    4274.0    1433.7543       0.0000      50.8611      92.1366       4.1578       4.1546       0.1536     174.5256       1.0195
    4275.0    1442.9157       0.0000      50.8611     100.9696       3.6673       3.5995       0.6972     180.6283       1.0195
    4276.0    1451.8540       0.0000      50.8611     109.1641       3.8509       3.6350       1.2649     186.7300       1.0226
    4277.0    1465.7459       0.0000      50.8611     117.2450       4.0629       3.6113       1.8588     192.8460       1.0226
    4278.0    1470.6310       0.0000      50.8611     123.7621       4.1575       3.4553       2.3086     198.9479       1.0226
    4279.0    1482.4648       0.0000      50.8611     129.4931       3.9506       3.0464       2.5083     205.4547       1.0226
    4280.0    1487.8174       0.0000      50.8611     138.6745       3.9415       2.5999       2.9581     211.5566       1.0226
    4281.0    1495.6573       0.0000      50.8611     147.2768       4.3153       2.3306       3.6290     217.6607       1.0226
    4282.0    1500.1454       0.0000      50.8611     154.2907       4.3195       1.8723       3.8911     223.7626       1.0226
    4283.0    1490.9722       0.0000      50.8611     160.5270       4.2450       1.4140       4.0017     229.8641       1.0226
    4284.0    1511.1396       0.0000      50.8611     167.6499       4.1389       0.8846       4.0426     235.9711       1.0258
    4285.0    1506.5741       0.0000      50.8611     175.7019       4.4716       0.3341       4.4589     242.0823       1.0226
    4286.0    1497.8966       0.0000      50.8611    -177.5355       4.6438      -0.1999       4.6392     248.1736       1.0152
    4287.0    1498.6478       0.0000      50.8611    -171.8624       4.5433      -0.6417       4.4971     254.2746       1.0226
    4288.0    1497.3224       0.0000      50.8611    -166.0829       4.5573      -1.0954       4.4227     260.3887       1.0226
