~VERSION INFORMATION
VERS.           2.0   :CWLS Log ASCII Standard - VERSION 2.0
WRAP.           NO    :One Line per depth step
PROD.  Schlumberger   :LAS Producer
PROG.  DLIS to ASCII 19C2-270                          :LAS Program name and version
CREA.        2017/09/16 17:42                          :LAS Creation date {YYYY/MM/DD hh:mm}
DLIS_CREA.  2017-Sep-15 16:01                          :DLIS Creation date and time {YYYY-MMM-DD hh:mm}
SOURCE.     LPC_S3-1_A5.DLIS                           :DLIS File Name
FILE-ID.     PERFO_Perfo_WPGRT_038LTP                  :File Identification Number
#--------------------------------------------------
~WELL INFORMATION
#MNEM.UNIT      DATA             DESCRIPTION
#---- ------ --------------   -----------------------------
STRT .S         1883.0       :START TIME      
STOP .S         2380.0       :STOP TIME      
STEP .S            1.0       :STEP     
NULL .          -999.25      :NULL VALUE
COMP .        SHELL INTERNATIONAL E P                  :COMPANY
WELL .        WPP TEST 2                               :WELL
FLD  .        WILDCAT                                  :FIELD
LOC  .                                                 :LOCATION
CNTY .        HARRIS                                   :COUNTY
STAT .        TEXAS                                    :STATE
CTRY .                                                 :COUNTRY
API  .                                                 :API NUMBER
UWI  .                                                 :UNIQUE WELL ID
DATE .                                                 :LOG DATE
SRVC .        Schlumberger                             :SERVICE COMPANY
LATI .DEG                                              :LATITUDE
LONG .DEG                                              :LONGITUDE
GDAT .                                                 :GeoDetic Datum
#-----------------------------------------------------------------------------
~PARAMETER INFORMATION
#MNEM.UNIT    VALUE                      DESCRIPTION
#---- -----   --------------------       ------------------------
U-PHASE_B_COMP_PER_YT.                 0 :Phase B Comparator Period Yt
U-PHASE_A_COMP_PER_XT.                 0 :Phase A Comparator Period Xt
U-MAX_EXC_CUR_LIMIT.MA       240.00000   :Requested CM Current Limit
U-REQ_EXC_FQ.HZ              50          :Requested CM Frequency
U-TILT_Y_OFFSET.           0.19916       :WPTET Tilt Y Offset
U-TILT_Y_GAIN.           1.01796         :WPTET Tilt Y Gain
U-TILT_X_OFFSET.          -1.77103       :WPTET Tilt X Offset
U-TILT_X_GAIN.           1.00000         :WPTET Tilt X Gain
U-TILT_OFFSET_TOL.           0.00100     :WPTET Tilt Offset Calibration Tolerance
U-NO_TILT_CAL_ROTATIONS.                 3 :Number of Rotations for Tilt Calibration
HAZI .DEG        0.00000                 :Hole Azimuth
U-STD_TOL_TILT.           0.01000        :Tilt Standard Deviation Tolerance
U-GUN_POS_TOL.DEG        5.00000         :Gun Position Tolerance
ROT_ANGLE_THRESHOLD.DEG        5.00000   :Rotation Stop Angle Tolerance
STOP_ROT_ANGLE.DEG        0.00000        :Rotation Stop Angle
WITN .                                   :Witness's Name
ENGI .                                   :Engineer's Name
COUN .        HARRIS                     :County or Rig Name
FN   .        WILDCAT                    :Field Name
WN   .        WPP TEST 2                 :Well Name
CN   .        SHELL INTERNATIONAL E P    :Company Name
CLAB .        County                     :County/Rig Label
SLAB .        State                      :State/Province Label
RUN  .          1                        :RUN NUMBER
PDAT .        GROUND LEVEL               :Permanent Datum
EPD  .                                   :Elevation of Permanent Datum above Mean Sea Level
LMF  .                                   :Logging Measured From (Name of Logging Elevation Reference)
APD  .                                   :Elevation of Depth Reference (LMF) above Permanent Datum
#-----------------------------------------------------------------------------
~CURVE INFORMATION
#MNEM.UNIT   API CODE                                  DESCRIPTION
#---- -----  --------                                  -----------------------
TIME .S                                                :TIME {F10.1}
FREQ_EMF_SL.HZ                                         :Electromagnetic Field Frequency {F13.4}
PH_SH_WPPCM_SL.DEG                                     :WPPCM Phase Shift {F13.4}
FREQ_EXC_REQ_SL.HZ                                     :Requested Exciter Frequency {F13.4}
RB_SL.DEG                                              :Relative Bearing {F13.4}
SDEV_SL.DEG                                            :Sonde Deviation {F13.4}
TILX_SL.DEG                                            :X-axis Tilt {F13.4}
TILY_SL.DEG                                            :Y-axis Tilt {F13.4}
ROTA_SL.DEG                                            :Motor Rotation Angle {F13.4}
MSPE_SL.RPM                                            :Motor Speed {F13.4}
#-----------------------------------------------------------------------------
# 
#     TIME    FREQ_EMF_SL  PH_SH_WPPCM_ FREQ_EXC_REQ    RB_SL       SDEV_SL      TILX_SL      TILY_SL      ROTA_SL      MSPE_SL
#                          SL           _SL
~A  
# ...
    2009.0    1499.6890       0.0000      50.8611    -143.8463       4.4294      -2.6111       3.5742     108.2044       1.0242
    2010.0    1484.3447       0.0000      50.8611    -138.1559       4.5424      -3.0284       3.3822     114.3173       1.0226
    2011.0    1470.5046       0.0000      50.8611    -131.7005       4.7707      -3.5601       3.1715     120.4349       1.0317
    2012.0    1461.3358       0.0000      50.8611    -126.3353       4.6665      -3.7576       2.7626     126.5341       1.0226
    2013.0    1445.8550       0.0000      50.8611    -119.7799       4.8258      -4.1872       2.3946     132.6359       1.0226
    2014.0    1431.1405       0.0000      50.8611    -113.8563       4.9003      -4.4806       1.9795     138.7378       1.0226
    2015.0    1407.7841       0.0000      50.8611    -110.2802       5.0085      -4.6971       1.7342     144.8274       1.0137
    2016.0    1388.3261       0.0000      50.8611    -105.6981       5.1371      -4.9442       1.3884     151.3200       1.0210
    2017.0    1364.8878       0.0000      50.8611     -98.0747       5.0752      -5.0245       0.7120     157.4141       1.0226
    2018.0    1352.1635       0.0000      50.8611     -93.7138       5.1346      -5.1232       0.3315     163.4913       1.0226
    2019.0    1328.0158       0.0000      50.8611     -88.8565       5.3069      -5.3057      -0.1058     169.5922       1.0210
    2020.0    1314.1154       0.0000      50.8611     -84.2130       5.3952      -5.3676      -0.5431     175.6837       1.0226
    2021.0    1263.5784       0.0000      50.8611     -75.5469       5.0171      -4.8577      -1.2506     181.7737       1.0226
    2022.0    1207.4876       0.0000      50.8611     -73.3085       5.2558      -5.0334      -1.5084     187.8886       1.0226
    2023.0    1177.6514       0.0000      50.8611     -67.6832       5.3458      -4.9442      -2.0275     193.9781       1.0242
    2024.0    1148.6113       0.0000      50.8611     -63.6984       5.6203      -5.0368      -2.4870     200.0808       1.0226
    2025.0    1121.4115       0.0000      50.8611     -59.9192       5.5345      -4.7869      -2.7697     206.1817       1.0210
    2026.0    1086.2358       0.0000      50.8611     -52.4810       5.4418      -4.3138      -3.3110     212.2757       1.0226
    2027.0    1076.9130       0.0000      50.8611     -48.2154       5.3791      -4.0081      -3.5812     218.3759       1.0226
    2028.0    1061.6345       0.0000      50.8611     -43.6739       5.4862      -3.7855      -3.9652     224.8873       1.0317
    2029.0    1052.5823       0.0000      50.8611     -39.5919       5.3772      -3.4240      -4.1412     231.0003       1.0226
    2030.0    1036.2311       0.0000      50.8611     -34.2138       5.3152      -2.9856      -4.3928     237.1029       1.0226
    2031.0    1036.9685       0.0000      50.8611     -28.6081       5.3568      -2.5621      -4.7012     243.2042       1.0242
    2032.0    1037.8906       0.0000      50.8611     -23.5959       5.2723      -2.1080      -4.8301     249.3211       1.0226
    2033.0    1033.6536       0.0000      50.8611     -19.1567       5.2139      -1.7091      -4.9243     255.4237       1.0226
    2034.0    1043.2122       0.0000      50.8611     -13.7959       5.1654      -1.2305      -5.0158     261.5387       1.0242
    2035.0    1051.2488       0.0000      50.8611      -8.3861       5.0135      -0.7301      -4.9590     267.6536       1.0226
    2036.0    1065.3409       0.0000      50.8611      -2.7806       5.1106      -0.2481      -5.1038     273.7554       1.0226
    2037.0    1087.5185       0.0000      50.8611       0.9363       5.0858       0.0828      -5.0851     279.8580       1.0317
    2038.0    1113.5010       0.0000      50.8611       8.4422       4.7022       0.6887      -4.6506     285.9605       1.0137
    2039.0    1143.0097       0.0000      50.8611      13.3983       4.7491       1.0992      -4.6194     292.0493       1.0226
    2040.0    1184.6285       0.0000      50.8611      18.5887       4.6462       1.4791      -4.4025     298.5835       1.0137
    2041.0    1220.2120       0.0000      50.8611      23.4816       4.3443       1.7296      -3.9839     304.6625       1.0226
    2042.0    1258.5153       0.0000      50.8611      30.6010       4.3485       2.2116      -3.7420     310.7647       1.0226
    2043.0    1298.0113       0.0000      50.8611      36.6569       4.1209       2.4587      -3.3047     316.8674       1.0226
    2044.0    1313.6840       0.0000      50.8611      42.5281       4.1147       2.7801      -3.0310     322.9695       1.0226
    2045.0    1339.6755       0.0000      50.8611      48.2740       3.9415       2.9407      -2.6221     329.0713       1.0226
    2046.0    1364.4858       0.0000      50.8611      55.5413       3.8823       3.2001      -2.1945     335.1731       1.0226
    2047.0    1377.6340       0.0000      50.8611      58.5823       3.7297       3.1817      -1.9430     341.2886       1.0210
    2048.0    1398.2875       0.0000      50.8611      68.3785       3.6456       3.3887      -1.3421     347.3782       1.0210
    2049.0    1415.6101       0.0000      50.8611      77.7544       3.6920       3.6079      -0.7822     353.4808       1.0226
    2050.0    1439.4873       0.0000      50.8611      85.4368       3.5887       3.5773      -0.2853     304.6826       1.0226
    2051.0    1453.1963       0.0000      50.8611      91.1682       3.4453       3.4445       0.0703       5.6844       1.0210
    2052.0    1462.7291       0.0000      50.8611     100.3910       3.3733       3.3179       0.6080      12.1954       1.0317
    2053.0    1474.0566       0.0000      50.8611     106.4945       3.3836       3.2437       0.9601      18.2606       1.0137
    2054.0    1488.4555       0.0000      50.8611     114.7777       3.4199       3.1048       1.4320      24.3629       1.0226
    2055.0    1506.6085       0.0000      50.8611     123.8145       3.2982       2.7399       1.8347      30.4509       1.0049
    2056.0    1516.8594       0.0000      50.8611     130.3146       3.2988       2.5146       2.1334      36.5424       1.0153
    2057.0    1526.2304       0.0000      50.8611     138.2147       3.3720       2.2456       2.5138      42.6456       1.0226
    2058.0    1535.7197       0.0000      50.8611     147.9082       3.5251       1.8719       2.9858      48.5364       0.0007
    2059.0    1530.0629       0.0000      50.8611     147.9286       3.5503       1.8841       3.0080      48.5364       0.0005
    2060.0    1540.9140       0.0000      50.8611     147.4942       3.3809       1.8161       2.8506      48.5364       0.0005
    2061.0    1532.3728       0.0000      50.8611     146.9614       3.4573       1.8841       2.8978      48.5364       0.0005
    2062.0    1538.5668       0.0000      50.8611     146.9143       3.5155       1.9182       2.9449      48.5364       0.0005
    2063.0    1535.7197       0.0000      50.8611     147.2207       3.5446       1.9182       2.9795      48.5364       0.0005
    2064.0    1535.2074       0.0000      50.8611     147.0396       3.4131       1.8562       2.8631      48.5364       0.0005
    2065.0    1540.9140       0.0000      50.8611     147.1534       3.4011       1.8440       2.8569      48.5364       0.0005
    2066.0    1536.2342       0.0000      50.8611     147.2712       3.4864       1.8841       2.9324      48.5364       0.0005
    2067.0    1536.2342       0.0000      50.8611     148.6318       3.4903       1.8161       2.9795      48.5364       0.0005
    2068.0    1535.2074       0.0000      50.8611     147.3569       3.4831       1.8780       2.9324      48.5364       0.0005
    2069.0    1540.4039       0.0000      50.8611     145.5950       3.4784       1.9645       2.8693      48.5364       0.0005
    2070.0    1535.7197       0.0000      50.8611     147.5539       3.4270       1.8378       2.8915      48.5364       0.0005
    2071.0    1535.2074       0.0000      50.8611     145.6252       3.5195       1.9863       2.9040      48.5364       0.0005
