~VERSION INFORMATION
VERS.           2.0   :CWLS Log ASCII Standard - VERSION 2.0
WRAP.           NO    :One Line per depth step
PROD.  Schlumberger   :LAS Producer
PROG.  DLIS to ASCII 19C2-270                          :LAS Program name and version
CREA.        2017/09/16 17:42                          :LAS Creation date {YYYY/MM/DD hh:mm}
DLIS_CREA.  2017-Sep-15 15:33                          :DLIS Creation date and time {YYYY-MMM-DD hh:mm}
SOURCE.     LPC_S2-1_2BV.DLIS                          :DLIS File Name
FILE-ID.     PERFO_Perfo_WPGRT_036LTP                  :File Identification Number
#--------------------------------------------------
~WELL INFORMATION
#MNEM.UNIT      DATA             DESCRIPTION
#---- ------ --------------   -----------------------------
STRT .S          212.0       :START TIME      
STOP .S          624.0       :STOP TIME      
STEP .S            1.0       :STEP     
NULL .          -999.25      :NULL VALUE
COMP .        SHELL INTERNATIONAL E P                  :COMPANY
WELL .        WPP TEST 2                               :WELL
FLD  .        WILDCAT                                  :FIELD
LOC  .                                                 :LOCATION
CNTY .        HARRIS                                   :COUNTY
STAT .        TEXAS                                    :STATE
CTRY .                                                 :COUNTRY
API  .                                                 :API NUMBER
UWI  .                                                 :UNIQUE WELL ID
DATE .                                                 :LOG DATE
SRVC .        Schlumberger                             :SERVICE COMPANY
LATI .DEG                                              :LATITUDE
LONG .DEG                                              :LONGITUDE
GDAT .                                                 :GeoDetic Datum
#-----------------------------------------------------------------------------
~PARAMETER INFORMATION
#MNEM.UNIT    VALUE                      DESCRIPTION
#---- -----   --------------------       ------------------------
U-PHASE_B_COMP_PER_YT.                 0 :Phase B Comparator Period Yt
U-PHASE_A_COMP_PER_XT.                 0 :Phase A Comparator Period Xt
U-MAX_EXC_CUR_LIMIT.MA       240.00000   :Requested CM Current Limit
U-REQ_EXC_FQ.HZ              50          :Requested CM Frequency
U-TILT_Y_OFFSET.           0.19916       :WPTET Tilt Y Offset
U-TILT_Y_GAIN.           1.01796         :WPTET Tilt Y Gain
U-TILT_X_OFFSET.          -1.77103       :WPTET Tilt X Offset
U-TILT_X_GAIN.           1.00000         :WPTET Tilt X Gain
U-TILT_OFFSET_TOL.           0.00100     :WPTET Tilt Offset Calibration Tolerance
U-NO_TILT_CAL_ROTATIONS.                 3 :Number of Rotations for Tilt Calibration
HAZI .DEG        0.00000                 :Hole Azimuth
U-STD_TOL_TILT.           0.01000        :Tilt Standard Deviation Tolerance
U-GUN_POS_TOL.DEG        5.00000         :Gun Position Tolerance
ROT_ANGLE_THRESHOLD.DEG        5.00000   :Rotation Stop Angle Tolerance
STOP_ROT_ANGLE.DEG        0.00000        :Rotation Stop Angle
WITN .                                   :Witness's Name
ENGI .                                   :Engineer's Name
COUN .        HARRIS                     :County or Rig Name
FN   .        WILDCAT                    :Field Name
WN   .        WPP TEST 2                 :Well Name
CN   .        SHELL INTERNATIONAL E P    :Company Name
CLAB .        County                     :County/Rig Label
SLAB .        State                      :State/Province Label
RUN  .          1                        :RUN NUMBER
PDAT .        GROUND LEVEL               :Permanent Datum
EPD  .                                   :Elevation of Permanent Datum above Mean Sea Level
LMF  .                                   :Logging Measured From (Name of Logging Elevation Reference)
APD  .                                   :Elevation of Depth Reference (LMF) above Permanent Datum
#-----------------------------------------------------------------------------
~CURVE INFORMATION
#MNEM.UNIT   API CODE                                  DESCRIPTION
#---- -----  --------                                  -----------------------
TIME .S                                                :TIME {F10.1}
FREQ_EMF_SL.HZ                                         :Electromagnetic Field Frequency {F13.4}
PH_SH_WPPCM_SL.DEG                                     :WPPCM Phase Shift {F13.4}
FREQ_EXC_REQ_SL.HZ                                     :Requested Exciter Frequency {F13.4}
RB_SL.DEG                                              :Relative Bearing {F13.4}
SDEV_SL.DEG                                            :Sonde Deviation {F13.4}
TILX_SL.DEG                                            :X-axis Tilt {F13.4}
TILY_SL.DEG                                            :Y-axis Tilt {F13.4}
ROTA_SL.DEG                                            :Motor Rotation Angle {F13.4}
MSPE_SL.RPM                                            :Motor Speed {F13.4}
#-----------------------------------------------------------------------------
# 
#     TIME    FREQ_EMF_SL  PH_SH_WPPCM_ FREQ_EXC_REQ    RB_SL       SDEV_SL      TILX_SL      TILY_SL      ROTA_SL      MSPE_SL
#                          SL           _SL
~A  
     212.0    1420.0823       0.0000      50.8611     -53.1996       1.0161      -0.8070      -0.6111     338.0246       1.0226
     213.0    1425.3435       0.0000      50.8611     -48.0304       0.9623      -0.7145      -0.6433     344.0030       1.0226
     214.0    1433.1840       0.0000      50.8611     -48.7750       0.9012      -0.6781      -0.5901     350.1048       1.0226
     215.0    1433.9288       0.0000      50.8611     -54.8855       1.0585      -0.8668      -0.6043     356.2066       1.0226
     216.0    1437.6236       0.0000      50.8611     -55.6166       0.9680      -0.7901      -0.5293       2.3008       1.0194
     217.0    1440.8298       0.0000      50.8611     -55.4183       0.9461      -0.7790      -0.5368       8.3989       1.0226
     218.0    1444.6874       0.0000      50.8611     -46.3640       0.8551      -0.6231      -0.5777      14.5139       1.0226
     219.0    1448.8396       0.0000      50.8611     -54.3165       0.8050      -0.6548      -0.4674      20.6289       1.0226
     220.0    1452.7377       0.0000      50.8611     -52.6993       0.9804      -0.7790      -0.5939      26.7307       1.0226
     221.0    1449.4783       0.0000      50.8611     -55.9560       0.9592      -0.7949      -0.5368      32.8346       1.0226
     222.0    1459.0568       0.0000      50.8611     -52.8649       0.9228      -0.7351      -0.5530      39.3545       1.0226
     223.0    1456.9416       0.0000      50.8611     -56.1003       0.8710      -0.7230      -0.4836      45.4563       1.0226
     224.0    1451.5586       0.0000      50.8611     -55.2911       0.8999      -0.7388      -0.5121      51.5602       1.0226
     225.0    1452.4724       0.0000      50.8611     -70.1642       0.9954      -0.9349      -0.3286      57.6599       1.0226
     226.0    1444.9652       0.0000      50.8611     -58.2237       0.9322      -0.7912      -0.4922      63.7617       1.0226
     227.0    1445.8604       0.0000      50.8611     -55.2911       0.8999      -0.7388      -0.5121      69.8635       1.0226
     228.0    1431.5338       0.0000      50.8611     -57.7411       0.9109      -0.7669      -0.4873      75.9662       1.0226
     229.0    1427.9749       0.0000      50.8611     -59.2837       0.9713      -0.8350      -0.4959      82.0689       1.0226
     230.0    1433.1840       0.0000      50.8611     -58.5484       0.9744      -0.8313      -0.5083      88.1698       1.0226
     231.0    1424.4734       0.0000      50.8611     -60.2913       0.9756      -0.8472      -0.4836      94.2716       1.0152
     232.0    1409.9243       0.0000      50.8611     -63.8699       0.9756      -0.8752      -0.4303     100.3631       1.0226
     233.0    1405.1452       0.0000      50.8611     -64.2199       1.0475      -0.9434      -0.4551     106.4564       1.0194
     234.0    1394.2534       0.0000      50.8611     -63.9836       0.9595      -0.8593      -0.4228     112.9470       1.0194
     235.0    1387.9198       0.0000      50.8611     -63.8435       1.0687      -0.9592      -0.4712     119.0488       1.0226
     236.0    1366.0950       0.0000      50.8611     -63.1574       1.0081      -0.8995      -0.4551     125.1260       1.0163
     237.0    1366.9018       0.0000      50.8611     -64.0638       1.0769      -0.9677      -0.4712     131.2278       1.0226
     238.0    1354.7688       0.0000      50.8611     -60.5872       1.0370      -0.9032      -0.5083     137.3211       1.0194
     239.0    1345.9689       0.0000      50.8611     -62.5351       1.1090      -0.9836      -0.5121     143.4192       1.0226
     240.0    1333.4384       0.0000      50.8611     -67.2321       1.2145      -1.1199      -0.4674     149.5134       1.0194
     241.0    1311.8003       0.0000      50.8611     -62.8642       1.0874      -0.9677      -0.4959     155.6116       1.0226
     242.0    1312.5422       0.0000      50.8611     -65.5676       1.2052      -1.0919      -0.5035     161.7135       1.0226
     243.0    1282.6756       0.0000      50.8611     -61.4173       1.0890      -0.9555      -0.5207     167.8031       1.0226
     244.0    1263.9264       0.0000      50.8611     -70.5730       1.1706      -1.0956      -0.3781     173.9093       1.0226
     245.0    1236.3789       0.0000      50.8611     -60.7288       1.0806      -0.9397      -0.5282     180.0090       1.0226
     246.0    1229.8909       0.0000      50.8611     -60.2306       1.2216      -1.0602      -0.6062     186.5180       1.0226
     247.0    1214.0189       0.0000      50.8611     -60.7940       1.1641      -1.0163      -0.5653     192.6092       1.0194
     248.0    1208.7477       0.0000      50.8611     -58.7586       1.1193      -0.9555      -0.5815     198.7082       1.0226
     249.0    1196.5972       0.0000      50.8611     -56.4504       1.1420      -0.9518      -0.6310     204.7978       1.0226
     250.0    1193.5802       0.0000      50.8611     -57.9403       1.1420      -0.9677      -0.6062     210.8921       1.0194
     251.0    1201.9231       0.0000      50.8611     -57.0634       1.0914      -0.9154      -0.5939     216.9902       1.0226
     252.0    1189.1128       0.0000      50.8611     -56.0771       1.0999      -0.9117      -0.6148     223.0921       1.0226
     253.0    1193.3461       0.0000      50.8611     -53.0956       1.0095      -0.8070      -0.6062     229.2072       1.0226
     254.0    1204.6060       0.0000      50.8611     -56.5675       1.0928      -0.9117      -0.6025     235.2967       1.0226
     255.0    1213.3765       0.0000      50.8611     -54.5858       1.1381      -0.9275      -0.6595     241.3921       1.0152
     256.0    1230.9516       0.0000      50.8611     -51.4093       1.3204      -1.0322      -0.8230     247.4903       1.0226
     257.0    1242.4803       0.0000      50.8611     -50.1964       1.1424      -0.8752      -0.7327     253.5922       1.0152
     258.0    1258.0418       0.0000      50.8611     -54.3345       1.0621      -0.8631      -0.6186     260.1049       1.0334
     259.0    1273.0802       0.0000      50.8611     -54.9120       1.1196      -0.9154      -0.6433     266.2330       1.0334
     260.0    1299.1865       0.0000      50.8611     -54.2051       1.0793      -0.8752      -0.6310     272.3487       1.0301
     261.0    1313.7514       0.0000      50.8611     -53.6962       1.0870      -0.8752      -0.6433     278.4499       1.0269
     262.0    1331.6761       0.0000      50.8611     -51.7390       0.9807      -0.7706      -0.6062     284.5711       1.0301
     263.0    1340.2982       0.0000      50.8611     -44.2043       1.0362      -0.7230      -0.7413     290.6647       1.0226
     264.0    1342.6177       0.0000      50.8611     -49.9337       1.1073      -0.8472      -0.7127     296.7796       1.0226
     265.0    1361.8481       0.0000      50.8611     -44.8745       1.0640      -0.7510      -0.7536     302.8568       1.0226
     266.0    1372.4812       0.0000      50.8611     -46.5741       1.0049      -0.7267      -0.6918     308.9677       1.0258
     267.0    1381.6463       0.0000      50.8611     -50.8543       1.0250      -0.7949      -0.6471     315.0509       1.0378
     268.0    1389.5751       0.0000      50.8611     -49.9079       1.0065      -0.7706      -0.6471     321.1666       1.0301
     269.0    1397.6163       0.0000      50.8611     -46.6421       0.9609      -0.6987      -0.6595     327.2907       1.0258
     270.0    1404.2922       0.0000      50.8611     -45.4377       0.9410      -0.6707      -0.6595     333.8145       1.0226
     271.0    1417.0102       0.0000      50.8611     -47.9790       0.9241      -0.6865      -0.6186     339.9263       1.0258
     272.0    1419.5883       0.0000      50.8611     -49.9627       0.9677      -0.7388      -0.6224     346.0197       1.0226
     273.0    1430.8804       0.0000      50.8611     -41.0527       0.8454      -0.5586      -0.6310     352.1298       1.0258
     274.0    1434.9490       0.0000      50.8611     -51.7159       0.8692      -0.6828      -0.5368     358.2365       1.0226
