~VERSION INFORMATION
VERS.           2.0   :CWLS Log ASCII Standard - VERSION 2.0
WRAP.           NO    :One Line per depth step
PROD.  Schlumberger   :LAS Producer
PROG.  DLIS to ASCII 19C2-270                          :LAS Program name and version
CREA.        2017/09/16 17:42                          :LAS Creation date {YYYY/MM/DD hh:mm}
DLIS_CREA.  2017-Sep-15 11:29                          :DLIS Creation date and time {YYYY-MMM-DD hh:mm}
SOURCE.     LPC_SL_AV_2ND-LOG.DLIS                     :DLIS File Name
FILE-ID.     PERFO_Perfo_WPGRT_015LTP                  :File Identification Number
#--------------------------------------------------
~WELL INFORMATION
#MNEM.UNIT      DATA             DESCRIPTION
#---- ------ --------------   -----------------------------
STRT .S         2513.0       :START TIME      
STOP .S         2855.0       :STOP TIME      
STEP .S            1.0       :STEP     
NULL .          -999.25      :NULL VALUE
COMP .        SHELL INTERNATIONAL E P                  :COMPANY
WELL .        WPP TEST 2                               :WELL
FLD  .        WILDCAT                                  :FIELD
LOC  .                                                 :LOCATION
CNTY .        HARRIS                                   :COUNTY
STAT .        TEXAS                                    :STATE
CTRY .                                                 :COUNTRY
API  .                                                 :API NUMBER
UWI  .                                                 :UNIQUE WELL ID
DATE .                                                 :LOG DATE
SRVC .        Schlumberger                             :SERVICE COMPANY
LATI .DEG                                              :LATITUDE
LONG .DEG                                              :LONGITUDE
GDAT .                                                 :GeoDetic Datum
#-----------------------------------------------------------------------------
~PARAMETER INFORMATION
#MNEM.UNIT    VALUE                      DESCRIPTION
#---- -----   --------------------       ------------------------
U-PHASE_B_COMP_PER_YT.                 0 :Phase B Comparator Period Yt
U-PHASE_A_COMP_PER_XT.                 0 :Phase A Comparator Period Xt
U-MAX_EXC_CUR_LIMIT.MA       240.00000   :Requested CM Current Limit
U-REQ_EXC_FQ.HZ              50          :Requested CM Frequency
U-TILT_Y_OFFSET.           0.19916       :WPTET Tilt Y Offset
U-TILT_Y_GAIN.           1.01796         :WPTET Tilt Y Gain
U-TILT_X_OFFSET.          -1.77103       :WPTET Tilt X Offset
U-TILT_X_GAIN.           1.00000         :WPTET Tilt X Gain
U-TILT_OFFSET_TOL.           0.00100     :WPTET Tilt Offset Calibration Tolerance
U-NO_TILT_CAL_ROTATIONS.                 3 :Number of Rotations for Tilt Calibration
HAZI .DEG        0.00000                 :Hole Azimuth
U-STD_TOL_TILT.           0.01000        :Tilt Standard Deviation Tolerance
U-GUN_POS_TOL.DEG        5.00000         :Gun Position Tolerance
ROT_ANGLE_THRESHOLD.DEG        5.00000   :Rotation Stop Angle Tolerance
STOP_ROT_ANGLE.DEG       11.00000        :Rotation Stop Angle
WITN .                                   :Witness's Name
ENGI .                                   :Engineer's Name
COUN .        HARRIS                     :County or Rig Name
FN   .        WILDCAT                    :Field Name
WN   .        WPP TEST 2                 :Well Name
CN   .        SHELL INTERNATIONAL E P    :Company Name
CLAB .        County                     :County/Rig Label
SLAB .        State                      :State/Province Label
RUN  .          1                        :RUN NUMBER
PDAT .        GROUND LEVEL               :Permanent Datum
EPD  .                                   :Elevation of Permanent Datum above Mean Sea Level
LMF  .                                   :Logging Measured From (Name of Logging Elevation Reference)
APD  .                                   :Elevation of Depth Reference (LMF) above Permanent Datum
#-----------------------------------------------------------------------------
~CURVE INFORMATION
#MNEM.UNIT   API CODE                                  DESCRIPTION
#---- -----  --------                                  -----------------------
TIME .S                                                :TIME {F10.1}
FREQ_EMF_SL.HZ                                         :Electromagnetic Field Frequency {F13.4}
PH_SH_WPPCM_SL.DEG                                     :WPPCM Phase Shift {F13.4}
FREQ_EXC_REQ_SL.HZ                                     :Requested Exciter Frequency {F13.4}
RB_SL.DEG                                              :Relative Bearing {F13.4}
SDEV_SL.DEG                                            :Sonde Deviation {F13.4}
TILX_SL.DEG                                            :X-axis Tilt {F13.4}
TILY_SL.DEG                                            :Y-axis Tilt {F13.4}
ROTA_SL.DEG                                            :Motor Rotation Angle {F13.4}
MSPE_SL.RPM                                            :Motor Speed {F13.4}
#-----------------------------------------------------------------------------
# 
#     TIME    FREQ_EMF_SL  PH_SH_WPPCM_ FREQ_EXC_REQ    RB_SL       SDEV_SL      TILX_SL      TILY_SL      ROTA_SL      MSPE_SL
#                          SL           _SL
~A  
# ...
    2576.0    1608.5363       0.0000      50.8611     -65.9373       1.0158      -0.9275      -0.4142      71.6281       1.0226
    2577.0    1600.7708       0.0000      50.8611     -63.6238       1.0354      -0.9275      -0.4600      77.7353       1.0226
    2578.0    1576.0858       0.0000      50.8611     -64.0291       1.1212      -1.0079      -0.4910      83.8317       1.0226
    2579.0    1555.4819       0.0000      50.8611     -60.7209       1.0764      -0.9385      -0.5257      89.9362       1.0226
    2580.0    1530.2581       0.0000      50.8611     -62.8657       1.0983      -0.9774      -0.5009      96.0352       1.0226
    2581.0    1507.2949       0.0000      50.8611     -64.4204       1.0445      -0.9421      -0.4501     102.1370       1.0226
    2582.0    1477.1533       0.0000      50.8611     -60.0645       1.0759      -0.9324      -0.5368     108.2388       1.0226
    2583.0    1450.4701       0.0000      50.8611     -57.8431       1.1435      -0.9677      -0.6087     114.3410       1.0226
    2584.0    1428.0657       0.0000      50.8611     -59.2006       1.2087      -1.0383      -0.6186     120.4460       1.0226
    2585.0    1397.5265       0.0000      50.8611     -57.6584       1.0983      -0.9275      -0.5876     126.5972       1.0226
    2586.0    1370.2907       0.0000      50.8611     -56.0702       1.1277      -0.9324      -0.6297     133.0535       1.0213
    2587.0    1334.2030       0.0000      50.8611     -59.9689       1.1643      -1.0079      -0.5827     139.1445       1.0226
    2588.0    1307.0271       0.0000      50.8611     -60.8946       1.1883      -1.0383      -0.5777     145.2449       1.0213
    2589.0    1244.8224       0.0000      50.8611     -50.5708       1.2082      -0.9324      -0.7673     151.3360       1.0226
    2590.0    1163.6484       0.0000      50.8611     -62.0788       1.1699      -1.0334      -0.5467     157.4406       1.0226
    2591.0    1100.4731       0.0000      50.8611     -55.3840       1.0464      -0.8606      -0.5951     163.5398       1.0226
    2592.0    1042.5432       0.0000      50.8611     -59.8345       1.1849      -1.0237      -0.5926     169.6402       1.0133
    2593.0    1002.5131       0.0000      50.8611     -51.2916       1.2747      -0.9932      -0.7983     175.7312       1.0226
    2594.0     974.1853       0.0000      50.8611     -53.1054       1.2290      -0.9835      -0.7363     181.8489       1.0226
    2595.0     957.1501       0.0000      50.8611     -54.3866       1.1410      -0.9275      -0.6644     187.9508       1.0226
    2596.0     942.2212       0.0000      50.8611     -54.0746       1.1769      -0.9531      -0.6905     194.0530       1.0226
    2597.0     927.6055       0.0000      50.8611     -50.5762       1.1030      -0.8521      -0.7004     200.1423       1.0226
    2598.0     915.0954       0.0000      50.8611     -52.9958       1.1554      -0.9227      -0.6954     206.6372       1.0133
    2599.0     911.3943       0.0000      50.8611     -46.3908       1.0234      -0.7413      -0.7053     212.7391       1.0226
    2600.0     908.5727       0.0000      50.8611     -46.4449       1.1209      -0.8119      -0.7722     218.8395       1.0213
    2601.0     907.2581       0.0000      50.8611     -50.9089       1.0461      -0.8119      -0.6595     224.9306       1.0226
    2602.0     904.4684       0.0000      50.8611     -52.3123       1.0199      -0.8070      -0.6236     231.0352       1.0226
    2603.0     914.0492       0.0000      50.8611     -51.2165       1.0771      -0.8387      -0.6744     237.1344       1.0226
    2604.0     917.0116       0.0000      50.8611     -45.7192       1.1204      -0.8022      -0.7822     243.2495       1.0226
    2605.0     923.3266       0.0000      50.8611     -45.1542       0.9951      -0.7060      -0.7004     249.3649       1.0226
    2606.0     941.9173       0.0000      50.8611     -49.3730       0.9576      -0.7267      -0.6236     255.4664       1.0226
    2607.0     954.8268       0.0000      50.8611     -45.0507       0.9272      -0.6561      -0.6545     261.5682       1.0226
    2608.0     970.6442       0.0000      50.8611     -51.3379       0.9822      -0.7669      -0.6136     267.6727       1.0226
    2609.0     992.9445       0.0000      50.8611     -50.2045       0.8541      -0.6561      -0.5467     273.7877       1.0226
    2610.0    1021.4460       0.0000      50.8611     -54.4486       0.8072      -0.6561      -0.4699     280.2824       1.0226
    2611.0    1049.2157       0.0000      50.8611     -55.5019       0.8758      -0.7218      -0.4959     286.3842       1.0226
    2612.0    1108.7803       0.0000      50.8611     -54.2589       0.8577      -0.6963      -0.5009     292.4861       1.0226
    2613.0    1207.5670       0.0000      50.8611     -48.2591       0.9140      -0.6817      -0.6087     298.5894       1.0239
    2614.0    1267.7267       0.0000      50.8611     -50.8924       0.9173      -0.7121      -0.5777     304.7027       1.0226
    2615.0    1304.4990       0.0000      50.8611     -55.9613       0.8771      -0.7267      -0.4910     310.8045       1.0226
    2616.0    1339.2858       0.0000      50.8611     -55.0484       0.7945      -0.6512      -0.4551     316.9063       1.0226
    2617.0    1366.2612       0.0000      50.8611     -54.6414       0.7865      -0.6415      -0.4551     323.0213       1.0226
    2618.0    1398.5394       0.0000      50.8611     -57.7652       0.8533      -0.7218      -0.4551     329.1247       1.0239
    2619.0    1421.8577       0.0000      50.8611     -56.6896       0.7376      -0.6159      -0.4042     335.2379       1.0226
    2620.0    1453.4685       0.0000      50.8611     -65.9631       0.9567      -0.8727      -0.3881     341.3410       1.0133
    2621.0    1480.2632       0.0000      50.8611     -61.7806       0.8998      -0.7924      -0.4241     347.4320       1.0226
    2622.0    1510.0373       0.0000      50.8611     -62.0870       0.8628      -0.7620      -0.4042     353.9523       1.0239
    2623.0    1539.3868       0.0000      50.8611     -62.6485       0.8127      -0.7218      -0.3733     316.4172       1.0226
    2624.0    1556.0044       0.0000      50.8611     -66.2482       0.8488      -0.7766      -0.3423       6.1691       1.0226
    2625.0    1583.6149       0.0000      50.8611     -59.8883       0.8870      -0.7669      -0.4451      12.2725       1.0321
    2626.0    1591.6574       0.0000      50.8611     -67.7965       0.9570      -0.8825      -0.3621      18.3990       1.0226
    2627.0    1613.5732       0.0000      50.8611     -68.5774       0.9101      -0.8472      -0.3324      24.5008       1.0226
    2628.0    1628.0620       0.0000      50.8611     -67.2369       0.9518      -0.8776      -0.3683      30.6026       1.0226
    2629.0    1635.1744       0.0000      50.8611     -68.5802       1.0237      -0.9531      -0.3733      36.6921       1.0226
    2630.0    1638.5238       0.0000      50.8611     -68.0774       0.9998      -0.9275      -0.3733      42.7815       1.0239
    2631.0    1636.1009       0.0000      50.8611     -72.3696       0.9784      -0.9324      -0.2965      48.8964       1.0226
    2632.0    1638.9860       0.0000      50.8611     -66.8805       1.1727      -1.0785      -0.4600      54.9982       1.0226
    2633.0    1638.5238       0.0000      50.8611     -63.2368       1.0787      -0.9628      -0.4860      61.1001       1.0239
    2634.0    1630.4669       0.0000      50.8611     -65.9375       1.1039      -1.0079      -0.4501      67.6229       1.0226
    2635.0    1616.8309       0.0000      50.8611     -66.0976       1.0482      -0.9580      -0.4241      73.7140       1.0226
    2636.0    1604.8648       0.0000      50.8611     -63.1006       1.0852      -0.9677      -0.4910      79.8273       1.0226
    2637.0    1583.1834       0.0000      50.8611     -61.5810       1.0956      -0.9628      -0.5220      85.9291       1.0226
    2638.0    1572.1370       0.0000      50.8611     -60.9799       1.1066      -0.9677      -0.5368      92.0201       1.0321
