~VERSION INFORMATION
VERS.           2.0   :CWLS Log ASCII Standard - VERSION 2.0
WRAP.           NO    :One Line per depth step
PROD.  Schlumberger   :LAS Producer
PROG.  DLIS to ASCII 19C2-270                          :LAS Program name and version
CREA.        2017/09/16 17:42                          :LAS Creation date {YYYY/MM/DD hh:mm}
DLIS_CREA.  2017-Sep-15 15:01                          :DLIS Creation date and time {YYYY-MMM-DD hh:mm}
SOURCE.     LPC_S2-1_2AV.DLIS                          :DLIS File Name
FILE-ID.     PERFO_Perfo_WPGRT_032LTP                  :File Identification Number
#--------------------------------------------------
~WELL INFORMATION
#MNEM.UNIT      DATA             DESCRIPTION
#---- ------ --------------   -----------------------------
STRT .S        15223.0       :START TIME      
STOP .S        15655.0       :STOP TIME      
STEP .S            1.0       :STEP     
NULL .          -999.25      :NULL VALUE
COMP .        SHELL INTERNATIONAL E P                  :COMPANY
WELL .                                                 :WELL
FLD  .        WPP TEST 2                               :FIELD
LOC  .                                                 :LOCATION
CNTY .        HARRIS                                   :COUNTY
STAT .        TEXAS                                    :STATE
CTRY .                                                 :COUNTRY
API  .                                                 :API NUMBER
UWI  .                                                 :UNIQUE WELL ID
DATE .                                                 :LOG DATE
SRVC .        Schlumberger                             :SERVICE COMPANY
LATI .DEG                                              :LATITUDE
LONG .DEG                                              :LONGITUDE
GDAT .                                                 :GeoDetic Datum
#-----------------------------------------------------------------------------
~PARAMETER INFORMATION
#MNEM.UNIT    VALUE                      DESCRIPTION
#---- -----   --------------------       ------------------------
U-PHASE_B_COMP_PER_YT.                 0 :Phase B Comparator Period Yt
U-PHASE_A_COMP_PER_XT.                 0 :Phase A Comparator Period Xt
U-MAX_EXC_CUR_LIMIT.MA       240.00000   :Requested CM Current Limit
U-REQ_EXC_FQ.HZ              50          :Requested CM Frequency
U-TILT_Y_OFFSET.           0.19916       :WPTET Tilt Y Offset
U-TILT_Y_GAIN.           1.01796         :WPTET Tilt Y Gain
U-TILT_X_OFFSET.          -1.77103       :WPTET Tilt X Offset
U-TILT_X_GAIN.           1.00000         :WPTET Tilt X Gain
U-TILT_OFFSET_TOL.           0.00100     :WPTET Tilt Offset Calibration Tolerance
U-NO_TILT_CAL_ROTATIONS.                 3 :Number of Rotations for Tilt Calibration
HAZI .DEG        0.00000                 :Hole Azimuth
U-STD_TOL_TILT.           0.01000        :Tilt Standard Deviation Tolerance
U-GUN_POS_TOL.DEG        5.00000         :Gun Position Tolerance
ROT_ANGLE_THRESHOLD.DEG        5.00000   :Rotation Stop Angle Tolerance
STOP_ROT_ANGLE.DEG       80.00000        :Rotation Stop Angle
WITN .                                   :Witness's Name
ENGI .                                   :Engineer's Name
COUN .        HARRIS                     :County or Rig Name
FN   .        WPP TEST 2                 :Field Name
WN   .                                   :Well Name
CN   .        SHELL INTERNATIONAL E P    :Company Name
CLAB .        County                     :County/Rig Label
SLAB .        State                      :State/Province Label
RUN  .          1                        :RUN NUMBER
PDAT .        GROUND LEVEL               :Permanent Datum
EPD  .                                   :Elevation of Permanent Datum above Mean Sea Level
LMF  .                                   :Logging Measured From (Name of Logging Elevation Reference)
APD  .                                   :Elevation of Depth Reference (LMF) above Permanent Datum
#-----------------------------------------------------------------------------
~CURVE INFORMATION
#MNEM.UNIT   API CODE                                  DESCRIPTION
#---- -----  --------                                  -----------------------
TIME .S                                                :TIME {F10.1}
FREQ_EMF_SL.HZ                                         :Electromagnetic Field Frequency {F13.4}
PH_SH_WPPCM_SL.DEG                                     :WPPCM Phase Shift {F13.4}
FREQ_EXC_REQ_SL.HZ                                     :Requested Exciter Frequency {F13.4}
RB_SL.DEG                                              :Relative Bearing {F13.4}
SDEV_SL.DEG                                            :Sonde Deviation {F13.4}
TILX_SL.DEG                                            :X-axis Tilt {F13.4}
TILY_SL.DEG                                            :Y-axis Tilt {F13.4}
ROTA_SL.DEG                                            :Motor Rotation Angle {F13.4}
MSPE_SL.RPM                                            :Motor Speed {F13.4}
#-----------------------------------------------------------------------------
# 
#     TIME    FREQ_EMF_SL  PH_SH_WPPCM_ FREQ_EXC_REQ    RB_SL       SDEV_SL      TILX_SL      TILY_SL      ROTA_SL      MSPE_SL
#                          SL           _SL
~A  
# ...
   15286.0    1418.8715       0.0000      50.8611     -64.8027       0.8400      -0.7594      -0.3581     177.4515       1.0226
   15287.0    1406.9952       0.0000      50.8611     -58.4276       0.9472      -0.8070      -0.4959     183.5564       1.0226
   15288.0    1391.6235       0.0000      50.8611     -61.7737       0.9082      -0.7996      -0.4293     189.6564       1.0226
   15289.0    1390.5491       0.0000      50.8611     -58.0057       0.9069      -0.7676      -0.4816     195.7552       1.0226
   15290.0    1384.6094       0.0000      50.8611     -59.5018       0.9919      -0.8546      -0.5035     201.8468       1.0140
   15291.0    1375.9785       0.0000      50.8611     -60.7607       0.9631      -0.8398      -0.4702     207.9395       1.0226
   15292.0    1366.9666       0.0000      50.8611     -57.2835       1.0549      -0.8874      -0.5702     214.0294       1.0206
   15293.0    1357.8699       0.0000      50.8611     -65.9373       1.0158      -0.9275      -0.4142     220.1208       1.0206
   15294.0    1346.9828       0.0000      50.8611     -67.9735       1.0365      -0.9603      -0.3884     226.2224       1.0226
   15295.0    1334.6723       0.0000      50.8611     -60.1138       1.1082      -0.9603      -0.5520     232.3223       1.0226
   15296.0    1329.6245       0.0000      50.8611     -56.9955       1.2841      -1.0659      -0.7065     238.8282       1.0226
   15297.0    1315.8046       0.0000      50.8611     -65.5021       1.1359      -1.0332      -0.4702     244.9205       1.0246
   15298.0    1303.4291       0.0000      50.8611     -56.6462       1.0468      -0.8695      -0.5732     251.0255       1.0226
   15299.0    1288.2119       0.0000      50.8611     -60.0008       1.0998      -0.9542      -0.5444     257.1254       1.0226
   15300.0    1271.4738       0.0000      50.8611     -68.2923       1.1200      -1.0406      -0.4142     263.2240       1.0226
   15301.0    1251.9388       0.0000      50.8611     -65.8261       1.0538      -0.9603      -0.4324     269.3276       1.0226
   15302.0    1237.7472       0.0000      50.8611     -63.7514       1.0878      -0.9751      -0.4808     275.4324       1.0226
   15303.0    1226.1471       0.0000      50.8611     -66.1664       1.2091      -1.1061      -0.4884     281.5321       1.0140
   15304.0    1213.2202       0.0000      50.8611     -57.7420       1.1744      -0.9930      -0.6262     287.6143       1.0206
   15305.0    1206.9724       0.0000      50.8611     -59.8594       1.1656      -1.0079      -0.5853     293.7294       1.0226
   15306.0    1201.0143       0.0000      50.8611     -62.3417       1.2453      -1.1031      -0.5777     299.8422       1.0226
   15307.0    1200.2515       0.0000      50.8611     -62.7558       1.1587      -1.0302      -0.5293     305.9600       1.0226
   15308.0    1204.5260       0.0000      50.8611     -55.3409       1.1907      -0.9811      -0.6671     312.4636       1.0226
   15309.0    1209.4299       0.0000      50.8611     -55.8947       1.0561      -0.8755      -0.5853     318.5591       1.0140
   15310.0    1209.6653       0.0000      50.8611     -50.0060       1.2445      -0.9528      -0.8003     324.6696       1.0226
   15311.0    1222.4333       0.0000      50.8611     -49.0623       1.1263      -0.8516      -0.7337     330.7692       1.0140
   15312.0    1238.8719       0.0000      50.8611     -51.4826       1.2187      -0.9528      -0.7595     336.8531       1.0226
   15313.0    1255.7636       0.0000      50.8611     -50.5315       1.0260      -0.7922      -0.6519     342.9529       1.0226
   15314.0    1277.9799       0.0000      50.8611     -56.9862       1.1362      -0.9528      -0.6186     349.0643       1.0226
   15315.0    1294.0104       0.0000      50.8611     -45.5714       1.1865      -0.8472      -0.8306     355.1703       1.0226
   15316.0    1304.0521       0.0000      50.8611     -49.3607       1.0637      -0.8070      -0.6928       1.2739       1.0226
   15317.0    1312.7092       0.0000      50.8611     -54.4590       0.9147      -0.7416      -0.5338       7.3738       1.0226
   15318.0    1327.7722       0.0000      50.8611     -53.3536       1.0372      -0.8323      -0.6186      13.4737       1.0226
   15319.0    1340.4284       0.0000      50.8611     -51.6241       1.0918      -0.8546      -0.6777      19.5774       1.0226
   15320.0    1347.4611       0.0000      50.8611     -50.0374       1.0545      -0.8070      -0.6777      26.0750       1.0206
   15321.0    1356.2260       0.0000      50.8611     -54.7053       0.9675      -0.7892      -0.5595      32.1749       1.0226
   15322.0    1365.7827       0.0000      50.8611     -51.5359       1.0727      -0.8398      -0.6671      38.2613       1.0206
   15323.0    1380.8839       0.0000      50.8611     -49.1888       0.9286      -0.7014      -0.6080      44.3701       1.0226
   15324.0    1384.6094       0.0000      50.8611     -45.7543       0.9934      -0.7118      -0.6928      50.4699       1.0226
   15325.0    1398.3780       0.0000      50.8611     -46.8158       0.9655      -0.7044      -0.6595      56.5706       1.0206
   15326.0    1411.3742       0.0000      50.8611     -57.2603       0.8871      -0.7446      -0.4777      62.6858       1.0314
   15327.0    1416.0141       0.0000      50.8611     -55.4671       1.0194      -0.8398      -0.5777      68.7919       1.0226
   15328.0    1423.3300       0.0000      50.8611     -43.7643       1.0623      -0.7341      -0.7670      74.8918       1.0226
   15329.0    1426.7533       0.0000      50.8611     -47.2264       0.9041      -0.6612      -0.6155      80.9916       1.0314
   15330.0    1434.9490       0.0000      50.8611     -49.5232       0.8609      -0.6538      -0.5595      87.0986       1.0294
   15331.0    1448.0934       0.0000      50.8611     -57.4322       0.7844      -0.6538      -0.4262      93.2262       1.0226
   15332.0    1443.7886       0.0000      50.8611     -52.0734       0.8610      -0.6791      -0.5293      99.7197       1.0226
   15333.0    1447.3111       0.0000      50.8611     -47.4096       0.8773      -0.6433      -0.5883     105.8194       1.0226
   15334.0    1455.1889       0.0000      50.8611     -54.1759       0.9014      -0.7311      -0.5217     111.9231       1.0226
   15335.0    1459.0161       0.0000      50.8611     -35.6386       0.5507      -0.3339      -0.4217     118.0387       1.0314
   15336.0    1449.1903       0.0000      50.8611     -59.8202       0.9075      -0.7847      -0.4551     124.1527       1.0226
   15337.0    1447.8653       0.0000      50.8611     -52.5158       0.7838      -0.6211      -0.4777     130.2589       1.0226
   15338.0    1450.8528       0.0000      50.8611     -57.3877       0.8158      -0.6865      -0.4399     136.3635       1.0206
   15339.0    1441.3772       0.0000      50.8611     -55.1323       0.9257      -0.7594      -0.5293     142.4510       1.0226
   15340.0    1448.6408       0.0000      50.8611     -56.1927       0.8445      -0.7014      -0.4702     148.5559       1.0226
   15341.0    1440.8298       0.0000      50.8611     -65.1477       0.8257      -0.7490      -0.3475     154.6554       1.0226
   15342.0    1429.6543       0.0000      50.8611     -66.9144       0.7625      -0.7014      -0.2991     160.7469       1.0226
   15343.0    1428.9204       0.0000      50.8611     -63.0217       0.8403      -0.7490      -0.3808     166.8469       1.0226
   15344.0    1432.0265       0.0000      50.8611     -65.4342       0.8793      -0.7996      -0.3657     173.3518       1.0226
   15345.0    1426.9837       0.0000      50.8611     -56.3586       0.8820      -0.7341      -0.4884     179.4525       1.0384
   15346.0    1410.1172       0.0000      50.8611     -58.3734       0.9188      -0.7817      -0.4808     185.5624       1.0226
   15347.0    1402.2053       0.0000      50.8611     -56.4620       0.8237      -0.6865      -0.4551     191.6754       1.0226
   15348.0    1396.1175       0.0000      50.8611     -58.0119       0.9990      -0.8472      -0.5293     197.7923       1.0246
