~VERSION INFORMATION
VERS.           2.0   :CWLS Log ASCII Standard - VERSION 2.0
WRAP.           NO    :One Line per depth step
PROD.  Schlumberger   :LAS Producer
PROG.  DLIS to ASCII 19C2-270                          :LAS Program name and version
CREA.        2017/09/16 17:42                          :LAS Creation date {YYYY/MM/DD hh:mm}
DLIS_CREA.  2017-Sep-15 19:35                          :DLIS Creation date and time {YYYY-MMM-DD hh:mm}
SOURCE.     LPC_S5-1_2AV.DLIS                          :DLIS File Name
FILE-ID.     PERFO_Perfo_WPGRT_062LTP                  :File Identification Number
#--------------------------------------------------
~WELL INFORMATION
#MNEM.UNIT      DATA             DESCRIPTION
#---- ------ --------------   -----------------------------
STRT .S          757.0       :START TIME      
STOP .S         1169.0       :STOP TIME      
STEP .S            1.0       :STEP     
NULL .          -999.25      :NULL VALUE
COMP .        SHELL INTERNATIONAL E P                  :COMPANY
WELL .        WPP TEST 2                               :WELL
FLD  .        WILDCAT                                  :FIELD
LOC  .        NA                                       :LOCATION
CNTY .        HARRIS                                   :COUNTY
STAT .        TEXAS                                    :STATE
CTRY .                                                 :COUNTRY
API  .        NA                                       :API NUMBER
UWI  .                                                 :UNIQUE WELL ID
DATE .        15-Sep-2017                              :LOG DATE {DD-MMM-YYYY}
SRVC .        Schlumberger                             :SERVICE COMPANY
LATI .DEG                                              :LATITUDE
LONG .DEG                                              :LONGITUDE
GDAT .                                                 :GeoDetic Datum
SECT .        NA                                       :Section
RANG .        NA                                       :Range
TOWN .        NA                                       :Township
#-----------------------------------------------------------------------------
~PARAMETER INFORMATION
#MNEM.UNIT    VALUE                      DESCRIPTION
#---- -----   --------------------       ------------------------
U-PHASE_B_COMP_PER_YT.                 0 :Phase B Comparator Period Yt
U-PHASE_A_COMP_PER_XT.                 0 :Phase A Comparator Period Xt
U-MAX_EXC_CUR_LIMIT.MA       240.00000   :Requested CM Current Limit
U-REQ_EXC_FQ.HZ              50          :Requested CM Frequency
U-TILT_Y_OFFSET.           0.19916       :WPTET Tilt Y Offset
U-TILT_Y_GAIN.           1.01796         :WPTET Tilt Y Gain
U-TILT_X_OFFSET.          -1.77103       :WPTET Tilt X Offset
U-TILT_X_GAIN.           1.00000         :WPTET Tilt X Gain
U-TILT_OFFSET_TOL.           0.00100     :WPTET Tilt Offset Calibration Tolerance
U-NO_TILT_CAL_ROTATIONS.                 3 :Number of Rotations for Tilt Calibration
HAZI .DEG        0.00000                 :Hole Azimuth
U-STD_TOL_TILT.           0.01000        :Tilt Standard Deviation Tolerance
U-GUN_POS_TOL.DEG        5.00000         :Gun Position Tolerance
ROT_ANGLE_THRESHOLD.DEG        5.00000   :Rotation Stop Angle Tolerance
STOP_ROT_ANGLE.DEG        0.00000        :Rotation Stop Angle
WITN .        MR. DHRUA ARORA            :Witness's Name
ENGI .        MORRIS MOORE               :Engineer's Name
COUN .        HARRIS                     :County or Rig Name
FN   .        WILDCAT                    :Field Name
WN   .        WPP TEST 2                 :Well Name
CN   .        SHELL INTERNATIONAL E P    :Company Name
CLAB .        County                     :County/Rig Label
SLAB .        State                      :State/Province Label
RUN  .          1                        :RUN NUMBER
PDAT .        GROUND LEVEL               :Permanent Datum
EPD  .                                   :Elevation of Permanent Datum above Mean Sea Level
LMF  .          NA                       :Logging Measured From (Name of Logging Elevation Reference)
APD  .                                   :Elevation of Depth Reference (LMF) above Permanent Datum
#-----------------------------------------------------------------------------
~CURVE INFORMATION
#MNEM.UNIT   API CODE                                  DESCRIPTION
#---- -----  --------                                  -----------------------
TIME .S                                                :TIME {F10.1}
FREQ_EMF_SL.HZ                                         :Electromagnetic Field Frequency {F13.4}
PH_SH_WPPCM_SL.DEG                                     :WPPCM Phase Shift {F13.4}
FREQ_EXC_REQ_SL.HZ                                     :Requested Exciter Frequency {F13.4}
RB_SL.DEG                                              :Relative Bearing {F13.4}
SDEV_SL.DEG                                            :Sonde Deviation {F13.4}
TILX_SL.DEG                                            :X-axis Tilt {F13.4}
TILY_SL.DEG                                            :Y-axis Tilt {F13.4}
ROTA_SL.DEG                                            :Motor Rotation Angle {F13.4}
MSPE_SL.RPM                                            :Motor Speed {F13.4}
#-----------------------------------------------------------------------------
# 
#     TIME    FREQ_EMF_SL  PH_SH_WPPCM_ FREQ_EXC_REQ    RB_SL       SDEV_SL      TILX_SL      TILY_SL      ROTA_SL      MSPE_SL
#                          SL           _SL
~A  
# ...
    1135.0    1435.3121       0.0000      50.8611     -72.9640       1.0122      -0.9677      -0.2966     163.9634       1.0226
    1136.0    1437.8834       0.0000      50.8611     -71.9664       1.0393      -0.9880      -0.3223     170.0669       1.0239
    1137.0    1435.6767       0.0000      50.8611     -68.1524       0.9830      -0.9122      -0.3632     176.1934       1.0320
    1138.0    1449.7422       0.0000      50.8611     -73.3493       1.0523      -1.0079      -0.3016     182.3087       1.0320
    1139.0    1449.0878       0.0000      50.8611     -73.1028       1.0954      -1.0480      -0.3184     188.4136       1.0226
    1140.0    1449.7422       0.0000      50.8611     -72.2170       1.2062      -1.1486      -0.3682     194.4122       0.0014
    1141.0    1455.3732       0.0000      50.8611     -67.5198       1.0962      -1.0128      -0.4192     194.7697       0.0005
    1142.0    1450.1129       0.0000      50.8611     -67.9705       1.1309      -1.0480      -0.4243     194.7697       0.0005
    1143.0    1446.7593       0.0000      50.8611     -68.1655       1.0861      -1.0079      -0.4040     194.7697       0.0005
    1144.0    1451.6302       0.0000      50.8611     -69.8190       1.0048      -0.9424      -0.3476     194.7697       0.0005
    1145.0    1455.0025       0.0000      50.8611     -69.2466       1.1690      -1.0932      -0.4142     194.7697       0.0005
    1146.0    1450.8588       0.0000      50.8611     -71.5730       1.1003      -1.0431      -0.3476     194.7697       0.0005
    1147.0    1444.5253       0.0000      50.8611     -70.7199       1.0360      -0.9776      -0.3425     194.7697       0.0005
    1148.0    1454.6333       0.0000      50.8611     -63.9569       1.0999      -0.9876      -0.4808     194.7697       0.0005
    1149.0    1452.7377       0.0000      50.8611     -67.3495       1.1684      -1.0783      -0.4500     194.7697       0.0005
    1150.0    1453.4836       0.0000      50.8611     -70.2923       1.1404      -1.0733      -0.3834     194.7697       0.0005
    1151.0    1451.7961       0.0000      50.8611     -69.4838       1.0908      -1.0216      -0.3822     194.7697       0.0005
    1152.0    1454.2657       0.0000      50.8611     -66.0384       1.1085      -1.0128      -0.4500     194.7697       0.0005
    1153.0    1452.3670       0.0000      50.8611     -72.0651       1.0964      -1.0431      -0.3374     194.7697       0.0005
    1154.0    1447.4991       0.0000      50.8611     -70.2423       1.1189      -1.0530      -0.3783     194.7697       0.0005
    1155.0    1447.1284       0.0000      50.8611     -67.4012       1.1573      -1.0683      -0.4449     194.7697       0.0005
    1156.0    1449.7422       0.0000      50.8611     -70.2297       1.2258      -1.1536      -0.4142     194.7697       0.0005
    1157.0    1449.3731       0.0000      50.8611     -70.4778       1.1172      -1.0530      -0.3733     194.7697       0.0005
    1158.0    1455.0025       0.0000      50.8611     -68.6101       1.1362      -1.0580      -0.4142     194.7697       0.0005
    1159.0    1449.3731       0.0000      50.8611     -69.7515       1.0637      -0.9979      -0.3682     194.7697       0.0005
    1160.0    1449.7422       0.0000      50.8611     -67.2563       1.0443      -0.9627      -0.4040     194.7697       0.0005
    1161.0    1452.3670       0.0000      50.8611     -69.8190       1.0048      -0.9424      -0.3476     194.7697       0.0005
    1162.0    1452.3670       0.0000      50.8611     -66.5982       1.2084      -1.1085      -0.4808     194.7697       0.0005
    1163.0    1455.1876       0.0000      50.8611     -66.9459       1.1393      -1.0480      -0.4462     194.7697       0.0005
    1164.0    1452.7377       0.0000      50.8611     -68.1749       1.2102      -1.1234      -0.4500     194.7697       0.0005
    1165.0    1453.1099       0.0000      50.8611     -75.9666       1.1179      -1.0832      -0.2709     194.7697       0.0005
    1166.0    1449.3731       0.0000      50.8611     -77.3043       0.9528      -0.9222      -0.2194     194.7697       0.0005
    1167.0    1451.6302       0.0000      50.8611     -67.0124       1.3621      -1.2538      -0.5318     194.7697       0.0005
    1168.0    1444.5253       0.0000      50.8611     -60.7978       1.2470      -1.0882      -0.6085     194.7697       0.0005
    1169.0    1444.5253       0.0000      50.8611     -61.0154       1.1924      -1.0431      -0.5777     194.7697       0.0005
