~VERSION INFORMATION
VERS.           2.0   :CWLS Log ASCII Standard - VERSION 2.0
WRAP.           NO    :One Line per depth step
PROD.  Schlumberger   :LAS Producer
PROG.  DLIS to ASCII 19C2-270                          :LAS Program name and version
CREA.        2017/09/16 17:42                          :LAS Creation date {YYYY/MM/DD hh:mm}
DLIS_CREA.  2017-Sep-15 13:07                          :DLIS Creation date and time {YYYY-MMM-DD hh:mm}
SOURCE.     LPC_S1-1_2AV.DLIS                          :DLIS File Name
FILE-ID.     PERFO_Perfo_WPGRT_022LTP                  :File Identification Number
#--------------------------------------------------
~WELL INFORMATION
#MNEM.UNIT      DATA             DESCRIPTION
#---- ------ --------------   -----------------------------
STRT .S         8392.0       :START TIME      
STOP .S         9264.0       :STOP TIME      
STEP .S            1.0       :STEP     
NULL .          -999.25      :NULL VALUE
COMP .        SHELL INTERNATIONAL E P                  :COMPANY
WELL .        WPP TEST 2                               :WELL
FLD  .        WILDCAT                                  :FIELD
LOC  .                                                 :LOCATION
CNTY .        HARRIS                                   :COUNTY
STAT .        TEXAS                                    :STATE
CTRY .                                                 :COUNTRY
API  .                                                 :API NUMBER
UWI  .                                                 :UNIQUE WELL ID
DATE .                                                 :LOG DATE
SRVC .        Schlumberger                             :SERVICE COMPANY
LATI .DEG                                              :LATITUDE
LONG .DEG                                              :LONGITUDE
GDAT .                                                 :GeoDetic Datum
#-----------------------------------------------------------------------------
~PARAMETER INFORMATION
#MNEM.UNIT    VALUE                      DESCRIPTION
#---- -----   --------------------       ------------------------
U-PHASE_B_COMP_PER_YT.                 0 :Phase B Comparator Period Yt
U-PHASE_A_COMP_PER_XT.                 0 :Phase A Comparator Period Xt
U-MAX_EXC_CUR_LIMIT.MA       240.00000   :Requested CM Current Limit
U-REQ_EXC_FQ.HZ              50          :Requested CM Frequency
U-TILT_Y_OFFSET.           0.19916       :WPTET Tilt Y Offset
U-TILT_Y_GAIN.           1.01796         :WPTET Tilt Y Gain
U-TILT_X_OFFSET.          -1.77103       :WPTET Tilt X Offset
U-TILT_X_GAIN.           1.00000         :WPTET Tilt X Gain
U-TILT_OFFSET_TOL.           0.00100     :WPTET Tilt Offset Calibration Tolerance
U-NO_TILT_CAL_ROTATIONS.                 3 :Number of Rotations for Tilt Calibration
HAZI .DEG        0.00000                 :Hole Azimuth
U-STD_TOL_TILT.           0.01000        :Tilt Standard Deviation Tolerance
U-GUN_POS_TOL.DEG        5.00000         :Gun Position Tolerance
ROT_ANGLE_THRESHOLD.DEG        5.00000   :Rotation Stop Angle Tolerance
STOP_ROT_ANGLE.DEG       80.00000        :Rotation Stop Angle
WITN .                                   :Witness's Name
ENGI .                                   :Engineer's Name
COUN .        HARRIS                     :County or Rig Name
FN   .        WILDCAT                    :Field Name
WN   .        WPP TEST 2                 :Well Name
CN   .        SHELL INTERNATIONAL E P    :Company Name
CLAB .        County                     :County/Rig Label
SLAB .        State                      :State/Province Label
RUN  .          1                        :RUN NUMBER
PDAT .        GROUND LEVEL               :Permanent Datum
EPD  .                                   :Elevation of Permanent Datum above Mean Sea Level
LMF  .                                   :Logging Measured From (Name of Logging Elevation Reference)
APD  .                                   :Elevation of Depth Reference (LMF) above Permanent Datum
#-----------------------------------------------------------------------------
~CURVE INFORMATION
#MNEM.UNIT   API CODE                                  DESCRIPTION
#---- -----  --------                                  -----------------------
TIME .S                                                :TIME {F10.1}
FREQ_EMF_SL.HZ                                         :Electromagnetic Field Frequency {F13.4}
PH_SH_WPPCM_SL.DEG                                     :WPPCM Phase Shift {F13.4}
FREQ_EXC_REQ_SL.HZ                                     :Requested Exciter Frequency {F13.4}
RB_SL.DEG                                              :Relative Bearing {F13.4}
SDEV_SL.DEG                                            :Sonde Deviation {F13.4}
TILX_SL.DEG                                            :X-axis Tilt {F13.4}
TILY_SL.DEG                                            :Y-axis Tilt {F13.4}
ROTA_SL.DEG                                            :Motor Rotation Angle {F13.4}
MSPE_SL.RPM                                            :Motor Speed {F13.4}
#-----------------------------------------------------------------------------
# 
#     TIME    FREQ_EMF_SL  PH_SH_WPPCM_ FREQ_EXC_REQ    RB_SL       SDEV_SL      TILX_SL      TILY_SL      ROTA_SL      MSPE_SL
#                          SL           _SL
~A  
# ...
    8896.0    1344.8452       0.0000      50.8611     -54.5050       0.9829      -0.8002      -0.5708     255.0287       1.0226
    8897.0    1351.2827       0.0000      50.8611     -54.8795       0.8894      -0.7207      -0.5176     261.1284       1.0315
    8898.0    1356.0554       0.0000      50.8611     -51.5936       0.9187      -0.7199      -0.5708     267.2451       1.0226
    8899.0    1345.7259       0.0000      50.8611     -60.4176       1.0402      -0.9062      -0.5029     273.7537       1.0226
    8900.0    1358.2786       0.0000      50.8611     -62.1115       1.1511      -1.0199      -0.5299     279.8534       1.0226
    8901.0    1366.5981       0.0000      50.8611     -51.1395       0.9425      -0.7335      -0.5916     285.9639       1.0244
    8902.0    1366.5981       0.0000      50.8611     -51.3068       0.9134      -0.7130      -0.5708     292.0698       1.0226
    8903.0    1363.0952       0.0000      50.8611     -44.5463       0.9446      -0.6600      -0.6726     298.1745       1.0315
    8904.0    1368.8559       0.0000      50.8611     -55.7887       0.8221      -0.6797      -0.4620     304.2770       1.0226
    8905.0    1373.2910       0.0000      50.8611     -58.3523       0.8151      -0.6934      -0.4281     310.3917       1.0226
    8906.0    1373.2910       0.0000      50.8611     -57.6988       0.9155      -0.7737      -0.4890     316.4954       1.0226
    8907.0    1375.5216       0.0000      50.8611     -57.5412       0.9249      -0.7805      -0.4959     322.5951       1.0226
    8908.0    1379.5992       0.0000      50.8611     -54.9525       0.9943      -0.8139      -0.5708     328.6810       1.0244
    8909.0    1383.1816       0.0000      50.8611     -55.6342       1.0845      -0.8950      -0.6125     334.7855       1.0244
    8910.0    1381.3850       0.0000      50.8611     -52.0297       1.0062      -0.7934      -0.6186     340.8898       1.0244
    8911.0    1388.2377       0.0000      50.8611     -60.6123       0.8482      -0.7395      -0.4142     347.3841       1.0226
    8912.0    1385.9080       0.0000      50.8611     -63.8959       0.9085      -0.8139      -0.4011     353.4721       1.0244
    8913.0    1382.7773       0.0000      50.8611     -55.7816       0.9300      -0.7669      -0.5237     359.5889       1.0244
    8914.0    1393.2218       0.0000      50.8611     -60.7662       0.7791      -0.6797      -0.3802       5.6938       1.0226
    8915.0    1390.0429       0.0000      50.8611     -58.6802       0.7883      -0.6737      -0.4072      11.7935       1.0226
    8916.0    1394.6196       0.0000      50.8611     -66.1205       0.8540      -0.7805      -0.3463      17.8982       1.0226
    8917.0    1392.3268       0.0000      50.8611     -52.7228       0.8881      -0.7070      -0.5368      23.9898       1.0226
    8918.0    1390.9840       0.0000      50.8611     -58.1393       0.9900      -0.8404      -0.5229      30.0771       1.0226
    8919.0    1398.3362       0.0000      50.8611     -55.1207       0.8888      -0.7267      -0.5090      36.1644       1.0138
    8920.0    1398.7652       0.0000      50.8611     -59.2716       0.8382      -0.7199      -0.4281      42.2691       1.0226
    8921.0    1387.3003       0.0000      50.8611     -60.8894       0.8948      -0.7805      -0.4342      48.3729       1.0138
    8922.0    1390.5125       0.0000      50.8611     -63.9470       0.9430      -0.8472      -0.4142      54.4735       1.0226
    8923.0    1388.6451       0.0000      50.8611     -61.1701       1.0532      -0.9207      -0.5090      60.9782       1.0226
    8924.0    1391.3931       0.0000      50.8611     -64.2756       0.8149      -0.7343      -0.3532      67.0828       1.0244
    8925.0    1381.8473       0.0000      50.8611     -54.8668       0.9572      -0.7805      -0.5499      73.1876       1.0226
    8926.0    1379.5992       0.0000      50.8611     -66.0625       0.9565      -0.8737      -0.3872      79.2874       1.0226
    8927.0    1381.8473       0.0000      50.8611     -51.5741       0.9116      -0.7138      -0.5638      85.3912       1.0226
    8928.0    1377.7610       0.0000      50.8611     -64.0555       1.0240      -0.9207      -0.4481      91.4950       1.0226
    8929.0    1366.1961       0.0000      50.8611     -62.7101       1.0967      -0.9745      -0.5029      97.5948       1.0226
    8930.0    1361.3592       0.0000      50.8611     -62.8499       0.9973      -0.8874      -0.4551     103.6700       1.0226
    8931.0    1360.9076       0.0000      50.8611     -64.2130       1.1565      -1.0412      -0.5029     109.7738       1.0226
    8932.0    1359.5634       0.0000      50.8611     -70.8409       1.2091      -1.1412      -0.3941     115.8776       1.0138
    8933.0    1354.7688       0.0000      50.8611     -60.6224       1.1509      -1.0010      -0.5646     122.0043       1.0138
    8934.0    1354.3259       0.0000      50.8611     -66.4572       1.2446      -1.1412      -0.4959     128.0918       1.0226
    8935.0    1346.9828       0.0000      50.8611     -58.4584       1.1826      -1.0079      -0.6186     134.5782       1.0121
    8936.0    1344.8452       0.0000      50.8611     -59.4971       1.1389      -0.9813      -0.5777     140.6701       1.0208
    8937.0    1344.4073       0.0000      50.8611     -66.0774       1.1689      -1.0677      -0.4751     146.7690       1.0226
    8938.0    1335.5016       0.0000      50.8611     -55.6888       1.2783      -1.0549      -0.7204     152.8566       1.0208
    8939.0    1339.7203       0.0000      50.8611     -59.0703       1.1769      -1.0079      -0.6055     158.9738       1.0226
    8940.0    1332.1057       0.0000      50.8611     -52.7964       1.0471      -0.8343      -0.6325     165.0684       1.0138
    8941.0    1329.5868       0.0000      50.8611     -53.8391       1.1987      -0.9677      -0.7073     171.1559       1.0226
    8942.0    1335.4509       0.0000      50.8611     -59.5180       1.1538      -0.9942      -0.5847     177.2710       1.0226
    8943.0    1326.2262       0.0000      50.8611     -49.7237       1.1052      -0.8335      -0.7196     183.3882       1.0138
    8944.0    1325.8612       0.0000      50.8611     -56.1519       1.1356      -0.9412      -0.6317     189.4901       1.0226
    8945.0    1327.0772       0.0000      50.8611     -57.4623       1.2269      -1.0344      -0.6595     195.5685       1.0190
    8946.0    1332.4944       0.0000      50.8611     -58.2612       1.1138      -0.9472      -0.5847     201.6589       1.0208
    8947.0    1328.7325       0.0000      50.8611     -47.0378       1.1780      -0.8608      -0.8022     208.1667       1.0226
    8948.0    1332.1057       0.0000      50.8611     -49.4413       1.0888      -0.8275      -0.7073     214.2796       1.0226
    8949.0    1339.2858       0.0000      50.8611     -56.6974       1.0150      -0.8472      -0.5577     220.3785       1.0226
    8950.0    1338.4217       0.0000      50.8611     -52.8571       1.0993      -0.8737      -0.6656     226.4875       1.0226
    8951.0    1338.4217       0.0000      50.8611     -52.6030       1.1183      -0.8874      -0.6795     232.5874       1.0226
    8952.0    1338.0431       0.0000      50.8611     -47.4319       1.0958      -0.8070      -0.7413     238.6880       1.0226
    8953.0    1337.1725       0.0000      50.8611     -52.9257       0.9698      -0.7737      -0.5847     244.8050       1.0226
    8954.0    1343.5367       0.0000      50.8611     -57.5189       1.0125      -0.8540      -0.5438     250.9089       1.0226
    8955.0    1344.8452       0.0000      50.8611     -57.8517       0.9965      -0.8404      -0.5307     257.0087       1.0226
    8956.0    1346.9828       0.0000      50.8611     -59.5017       1.3049      -1.1328      -0.6386     263.1084       1.0226
    8957.0    1352.1635       0.0000      50.8611     -56.4641       0.9845      -0.8207      -0.5438     269.2254       1.0226
    8958.0    1359.5634       0.0000      50.8611     -51.4284       1.0156      -0.7934      -0.6325     275.3421       1.0138
