~VERSION INFORMATION
VERS.           2.0   :CWLS Log ASCII Standard - VERSION 2.0
WRAP.           NO    :One Line per depth step
PROD.  Schlumberger   :LAS Producer
PROG.  DLIS to ASCII 19C2-270                          :LAS Program name and version
CREA.        2017/09/16 17:42                          :LAS Creation date {YYYY/MM/DD hh:mm}
DLIS_CREA.  2017-Sep-15 17:22                          :DLIS Creation date and time {YYYY-MMM-DD hh:mm}
SOURCE.     LPC_S4-1_AV.DLIS                           :DLIS File Name
FILE-ID.     PERFO_Perfo_WPGRT_047LTP                  :File Identification Number
#--------------------------------------------------
~WELL INFORMATION
#MNEM.UNIT      DATA             DESCRIPTION
#---- ------ --------------   -----------------------------
STRT .S         1296.0       :START TIME      
STOP .S         1779.0       :STOP TIME      
STEP .S            1.0       :STEP     
NULL .          -999.25      :NULL VALUE
COMP .        SHELL INTERNATIONAL E P                  :COMPANY
WELL .        WPP TEST 2                               :WELL
FLD  .        WILDCAT                                  :FIELD
LOC  .        NA                                       :LOCATION
CNTY .        HARRIS                                   :COUNTY
STAT .        TEXAS                                    :STATE
CTRY .                                                 :COUNTRY
API  .        NA                                       :API NUMBER
UWI  .                                                 :UNIQUE WELL ID
DATE .        15-Sep-2017                              :LOG DATE {DD-MMM-YYYY}
SRVC .        Schlumberger                             :SERVICE COMPANY
LATI .DEG                                              :LATITUDE
LONG .DEG                                              :LONGITUDE
GDAT .                                                 :GeoDetic Datum
SECT .        NA                                       :Section
RANG .        NA                                       :Range
TOWN .        NA                                       :Township
#-----------------------------------------------------------------------------
~PARAMETER INFORMATION
#MNEM.UNIT    VALUE                      DESCRIPTION
#---- -----   --------------------       ------------------------
U-PHASE_B_COMP_PER_YT.                 0 :Phase B Comparator Period Yt
U-PHASE_A_COMP_PER_XT.                 0 :Phase A Comparator Period Xt
U-MAX_EXC_CUR_LIMIT.MA       240.00000   :Requested CM Current Limit
U-REQ_EXC_FQ.HZ              50          :Requested CM Frequency
U-TILT_Y_OFFSET.           0.19916       :WPTET Tilt Y Offset
U-TILT_Y_GAIN.           1.01796         :WPTET Tilt Y Gain
U-TILT_X_OFFSET.          -1.77103       :WPTET Tilt X Offset
U-TILT_X_GAIN.           1.00000         :WPTET Tilt X Gain
U-TILT_OFFSET_TOL.           0.00100     :WPTET Tilt Offset Calibration Tolerance
U-NO_TILT_CAL_ROTATIONS.                 3 :Number of Rotations for Tilt Calibration
HAZI .DEG        0.00000                 :Hole Azimuth
U-STD_TOL_TILT.           0.01000        :Tilt Standard Deviation Tolerance
U-GUN_POS_TOL.DEG        5.00000         :Gun Position Tolerance
ROT_ANGLE_THRESHOLD.DEG        5.00000   :Rotation Stop Angle Tolerance
STOP_ROT_ANGLE.DEG        0.00000        :Rotation Stop Angle
WITN .        MR. DHRUA ARORA            :Witness's Name
ENGI .        MORRIS MOORE               :Engineer's Name
COUN .        HARRIS                     :County or Rig Name
FN   .        WILDCAT                    :Field Name
WN   .        WPP TEST 2                 :Well Name
CN   .        SHELL INTERNATIONAL E P    :Company Name
CLAB .        County                     :County/Rig Label
SLAB .        State                      :State/Province Label
RUN  .          1                        :RUN NUMBER
PDAT .        GROUND LEVEL               :Permanent Datum
EPD  .                                   :Elevation of Permanent Datum above Mean Sea Level
LMF  .          NA                       :Logging Measured From (Name of Logging Elevation Reference)
APD  .                                   :Elevation of Depth Reference (LMF) above Permanent Datum
#-----------------------------------------------------------------------------
~CURVE INFORMATION
#MNEM.UNIT   API CODE                                  DESCRIPTION
#---- -----  --------                                  -----------------------
TIME .S                                                :TIME {F10.1}
FREQ_EMF_SL.HZ                                         :Electromagnetic Field Frequency {F13.4}
PH_SH_WPPCM_SL.DEG                                     :WPPCM Phase Shift {F13.4}
FREQ_EXC_REQ_SL.HZ                                     :Requested Exciter Frequency {F13.4}
RB_SL.DEG                                              :Relative Bearing {F13.4}
SDEV_SL.DEG                                            :Sonde Deviation {F13.4}
TILX_SL.DEG                                            :X-axis Tilt {F13.4}
TILY_SL.DEG                                            :Y-axis Tilt {F13.4}
ROTA_SL.DEG                                            :Motor Rotation Angle {F13.4}
MSPE_SL.RPM                                            :Motor Speed {F13.4}
#-----------------------------------------------------------------------------
# 
#     TIME    FREQ_EMF_SL  PH_SH_WPPCM_ FREQ_EXC_REQ    RB_SL       SDEV_SL      TILX_SL      TILY_SL      ROTA_SL      MSPE_SL
#                          SL           _SL
~A  
# ...
    1359.0    1395.0567       0.0000      50.8611     -70.1459       0.8591      -0.8070      -0.2921     215.7951       1.0279
    1360.0    1339.2858       0.0000      50.8611     -68.1052       0.7836      -0.7272      -0.2915     222.2976       1.0226
    1361.0    1285.3925       0.0000      50.8611     -64.1443       0.8524      -0.7663      -0.3727     228.3995       1.0226
    1362.0    1198.8344       0.0000      50.8611     -69.6003       0.9050      -0.8483      -0.3117     234.4892       1.0226
    1363.0    1104.6314       0.0000      50.8611     -68.5450       0.8012      -0.7459      -0.2915     240.5911       1.0226
    1364.0    1027.9420       0.0000      50.8611     -72.1560       0.8896      -0.8466      -0.2713     246.6930       1.0226
    1365.0     977.8762       0.0000      50.8611     -79.3225       0.9921      -0.9649      -0.1504     252.7949       1.0226
    1366.0     946.9366       0.0000      50.8611     -66.3769       1.0340      -0.9473      -0.4142     258.8983       1.0226
    1367.0     924.5347       0.0000      50.8611     -68.7556       0.9741      -0.9077      -0.3525     265.0183       1.0279
    1368.0     894.5469       0.0000      50.8611     -80.6664       1.0415      -1.0277      -0.1688     271.1204       1.0174
    1369.0     874.5200       0.0000      50.8611     -66.4321       1.0352      -0.9484      -0.4147     277.2161       1.0226
    1370.0     856.4120       0.0000      50.8611     -69.6510       1.0527      -0.9858      -0.3537     283.3179       1.0226
    1371.0     842.0532       0.0000      50.8611     -67.6756       1.1984      -1.1086      -0.4551     289.4198       1.0226
    1372.0     836.5378       0.0000      50.8611     -67.0867       1.1165      -1.0282      -0.4343     295.9296       1.0226
    1373.0     833.5410       0.0000      50.8611     -65.9097       1.1279      -1.0293      -0.4545     302.0329       1.0226
    1374.0     827.6599       0.0000      50.8611     -62.6247       1.0891      -0.9666      -0.4965     308.1270       1.0173
    1375.0     826.2483       0.0000      50.8611     -67.5955       1.2670      -1.1702      -0.4747     314.2227       1.0226
    1376.0     833.1012       0.0000      50.8611     -71.1970       0.9162      -0.8664      -0.2921     320.3245       1.0226
    1377.0     834.1066       0.0000      50.8611     -63.1161       1.1050      -0.9864      -0.4959     326.4263       1.0173
    1378.0     846.0271       0.0000      50.8611     -58.5181       1.2056      -1.0277      -0.6292     332.5158       1.0226
    1379.0     862.1822       0.0000      50.8611     -58.2646       1.1386      -0.9682      -0.5979     338.6176       1.0226
    1380.0     878.9063       0.0000      50.8611     -62.8999       1.2226      -1.0882      -0.5570     344.7194       1.0226
    1381.0     900.3489       0.0000      50.8611     -61.9492       1.0986      -0.9677      -0.5172     350.8212       1.0226
    1382.0     919.7699       0.0000      50.8611     -54.0155       1.1226      -0.9077      -0.6601     356.9231       1.0226
    1383.0     949.5577       0.0000      50.8611     -56.1797       1.1875      -0.9869      -0.6595       3.0249       1.0226
    1384.0     984.0897       0.0000      50.8611     -56.4280       1.1869      -0.9869      -0.6584       9.3211       1.0226
    1385.0    1028.7780       0.0000      50.8611     -56.3219       1.1874      -0.9875      -0.6589      15.6242       1.0226
    1386.0    1113.9028       0.0000      50.8611     -53.5153       1.1782      -0.9473      -0.7004      21.7391       1.0226
    1387.0    1227.4055       0.0000      50.8611     -54.8591       1.1103      -0.9077      -0.6388      27.8409       1.0226
    1388.0    1293.7158       0.0000      50.8611     -51.3801       1.1882      -0.9275      -0.7418      33.9428       1.0226
    1389.0    1348.3387       0.0000      50.8611     -49.4792       1.1412      -0.8676      -0.7413      40.0577       1.0226
    1390.0    1394.8490       0.0000      50.8611     -49.1840       1.1441      -0.8664      -0.7463      46.1596       1.0226
    1391.0    1445.2943       0.0000      50.8611     -49.6268       1.0839      -0.8263      -0.7004      52.2614       1.0173
    1392.0    1491.4020       0.0000      50.8611     -45.9909       1.0383      -0.7465      -0.7211      58.3641       1.0226
    1393.0    1547.1935       0.0000      50.8611     -42.2844       1.1701      -0.7878      -0.8639      64.4596       1.0174
    1394.0    1598.0695       0.0000      50.8611     -48.2813       1.0832      -0.8076      -0.7217      70.5553       1.0226
    1395.0    1650.5906       0.0000      50.8611     -45.9537       1.0956      -0.7872      -0.7614      76.6508       1.0173
    1396.0    1700.5305       0.0000      50.8611     -49.5071       1.1140      -0.8483      -0.7211      82.9648       1.0280
    1397.0    1736.2714       0.0000      50.8611     -46.3310       0.8672      -0.6271      -0.5990      89.2825       1.0226
    1398.0    1766.7180       0.0000      50.8611     -42.2354       1.1120      -0.7471      -0.8236      95.3843       1.0226
    1399.0    1789.1963       0.0000      50.8611     -48.0219       0.9825      -0.7267      -0.6584     101.4861       1.0226
    1400.0    1821.5673       0.0000      50.8611     -44.4290       1.0082      -0.7058      -0.7200     107.5771       1.0226
    1401.0    1840.7202       0.0000      50.8611     -45.3549       0.9371      -0.6662      -0.6589     113.6711       1.0173
    1402.0    1846.7875       0.0000      50.8611     -48.0522       1.0274      -0.7612      -0.6889     119.7736       1.0186
    1403.0    1864.9981       0.0000      50.8611     -42.4979       0.9259      -0.6254      -0.6802     125.8693       1.0226
    1404.0    1862.6200       0.0000      50.8611     -55.0071       1.1318      -0.9259      -0.6399     131.9712       1.0226
    1405.0    1860.1190       0.0000      50.8611     -51.2767       0.9572      -0.7465      -0.5984     138.0731       1.0226
    1406.0    1847.8673       0.0000      50.8611     -50.2133       0.8421      -0.6458      -0.5374     144.1750       1.0226
    1407.0    1840.5877       0.0000      50.8611     -50.5036       0.8113      -0.6260      -0.5161     150.2900       1.0226
    1408.0    1814.4870       0.0000      50.8611     -45.3508       0.8806      -0.6266      -0.6186     156.3919       1.0226
    1409.0    1793.6350       0.0000      50.8611     -52.7716       0.8877      -0.7069      -0.5368     162.9018       1.0226
    1410.0    1764.4623       0.0000      50.8611     -54.5343       0.8213      -0.6662      -0.4763     168.9930       1.0226
    1411.0    1719.0576       0.0000      50.8611     -56.7858       0.7950      -0.6656      -0.4343     175.0939       1.0121
    1412.0    1686.1511       0.0000      50.8611     -53.4178       0.8318      -0.6667      -0.4954     181.1728       1.0226
    1413.0    1650.5282       0.0000      50.8611     -53.7711       0.8762      -0.7074      -0.5167     187.2732       1.0226
    1414.0    1596.5976       0.0000      50.8611     -49.6058       0.7786      -0.5875      -0.4948     193.3751       1.0226
    1415.0    1555.5221       0.0000      50.8611     -57.3879       0.7688      -0.6464      -0.4147     199.4900       1.0226
    1416.0    1494.3705       0.0000      50.8611     -64.5440       0.7178      -0.6458      -0.3111     205.5919       1.0226
    1417.0    1457.1891       0.0000      50.8611     -63.3472       0.8361      -0.7476      -0.3733     211.6938       1.0226
    1418.0    1406.1952       0.0000      50.8611     -67.1684       0.8554      -0.7878      -0.3329     217.7895       1.0174
    1419.0    1358.6789       0.0000      50.8611     -68.7058       0.8030      -0.7471      -0.2909     223.8853       1.0226
    1420.0    1308.1240       0.0000      50.8611     -64.0108       0.8536      -0.7674      -0.3733     229.9887       1.0226
    1421.0    1223.8414       0.0000      50.8611     -69.6566       0.8390      -0.7867      -0.2915     236.4971       1.0226
