~VERSION INFORMATION
VERS.           2.0   :CWLS Log ASCII Standard - VERSION 2.0
WRAP.           NO    :One Line per depth step
PROD.  Schlumberger   :LAS Producer
PROG.  DLIS to ASCII 19C2-270                          :LAS Program name and version
CREA.        2017/09/16 17:42                          :LAS Creation date {YYYY/MM/DD hh:mm}
DLIS_CREA.  2017-Sep-15 16:38                          :DLIS Creation date and time {YYYY-MMM-DD hh:mm}
SOURCE.     LPC_S3-1_2A5.DLIS                          :DLIS File Name
FILE-ID.     PERFO_Perfo_WPGRT_042LTP                  :File Identification Number
#--------------------------------------------------
~WELL INFORMATION
#MNEM.UNIT      DATA             DESCRIPTION
#---- ------ --------------   -----------------------------
STRT .S         4115.0       :START TIME      
STOP .S         4682.0       :STOP TIME      
STEP .S            1.0       :STEP     
NULL .          -999.25      :NULL VALUE
COMP .        SHELL INTERNATIONAL E P                  :COMPANY
WELL .        WPP TEST 2                               :WELL
FLD  .        WILDCAT                                  :FIELD
LOC  .                                                 :LOCATION
CNTY .        HARRIS                                   :COUNTY
STAT .        TEXAS                                    :STATE
CTRY .                                                 :COUNTRY
API  .                                                 :API NUMBER
UWI  .                                                 :UNIQUE WELL ID
DATE .                                                 :LOG DATE
SRVC .        Schlumberger                             :SERVICE COMPANY
LATI .DEG                                              :LATITUDE
LONG .DEG                                              :LONGITUDE
GDAT .                                                 :GeoDetic Datum
#-----------------------------------------------------------------------------
~PARAMETER INFORMATION
#MNEM.UNIT    VALUE                      DESCRIPTION
#---- -----   --------------------       ------------------------
U-PHASE_B_COMP_PER_YT.                 0 :Phase B Comparator Period Yt
U-PHASE_A_COMP_PER_XT.                 0 :Phase A Comparator Period Xt
U-MAX_EXC_CUR_LIMIT.MA       240.00000   :Requested CM Current Limit
U-REQ_EXC_FQ.HZ              50          :Requested CM Frequency
U-TILT_Y_OFFSET.           0.19916       :WPTET Tilt Y Offset
U-TILT_Y_GAIN.           1.01796         :WPTET Tilt Y Gain
U-TILT_X_OFFSET.          -1.77103       :WPTET Tilt X Offset
U-TILT_X_GAIN.           1.00000         :WPTET Tilt X Gain
U-TILT_OFFSET_TOL.           0.00100     :WPTET Tilt Offset Calibration Tolerance
U-NO_TILT_CAL_ROTATIONS.                 3 :Number of Rotations for Tilt Calibration
HAZI .DEG        0.00000                 :Hole Azimuth
U-STD_TOL_TILT.           0.01000        :Tilt Standard Deviation Tolerance
U-GUN_POS_TOL.DEG        5.00000         :Gun Position Tolerance
ROT_ANGLE_THRESHOLD.DEG        5.00000   :Rotation Stop Angle Tolerance
STOP_ROT_ANGLE.DEG        0.00000        :Rotation Stop Angle
WITN .                                   :Witness's Name
ENGI .                                   :Engineer's Name
COUN .        HARRIS                     :County or Rig Name
FN   .        WILDCAT                    :Field Name
WN   .        WPP TEST 2                 :Well Name
CN   .        SHELL INTERNATIONAL E P    :Company Name
CLAB .        County                     :County/Rig Label
SLAB .        State                      :State/Province Label
RUN  .          1                        :RUN NUMBER
PDAT .        GROUND LEVEL               :Permanent Datum
EPD  .                                   :Elevation of Permanent Datum above Mean Sea Level
LMF  .                                   :Logging Measured From (Name of Logging Elevation Reference)
APD  .                                   :Elevation of Depth Reference (LMF) above Permanent Datum
#-----------------------------------------------------------------------------
~CURVE INFORMATION
#MNEM.UNIT   API CODE                                  DESCRIPTION
#---- -----  --------                                  -----------------------
TIME .S                                                :TIME {F10.1}
FREQ_EMF_SL.HZ                                         :Electromagnetic Field Frequency {F13.4}
PH_SH_WPPCM_SL.DEG                                     :WPPCM Phase Shift {F13.4}
FREQ_EXC_REQ_SL.HZ                                     :Requested Exciter Frequency {F13.4}
RB_SL.DEG                                              :Relative Bearing {F13.4}
SDEV_SL.DEG                                            :Sonde Deviation {F13.4}
TILX_SL.DEG                                            :X-axis Tilt {F13.4}
TILY_SL.DEG                                            :Y-axis Tilt {F13.4}
ROTA_SL.DEG                                            :Motor Rotation Angle {F13.4}
MSPE_SL.RPM                                            :Motor Speed {F13.4}
#-----------------------------------------------------------------------------
# 
#     TIME    FREQ_EMF_SL  PH_SH_WPPCM_ FREQ_EXC_REQ    RB_SL       SDEV_SL      TILX_SL      TILY_SL      ROTA_SL      MSPE_SL
#                          SL           _SL
~A  
# ...
    4241.0    1426.3913       0.0000      50.8611    -111.0015       5.9376      -5.5419       2.1246     202.0918       1.0226
    4242.0    1414.8240       0.0000      50.8611    -105.4447       6.0017      -5.7841       1.5955     208.1966       1.0226
    4243.0    1414.8240       0.0000      50.8611    -100.8126       5.8927      -5.7877       1.1036     214.2862       1.0226
    4244.0    1411.8127       0.0000      50.8611     -96.3526       5.9426      -5.9058       0.6563     220.3881       1.0226
    4245.0    1400.7313       0.0000      50.8611     -90.0218       6.2224      -6.2223       0.0021     226.4900       1.0226
    4246.0    1400.5639       0.0000      50.8611     -84.6394       6.6387      -6.6095      -0.6186     232.5926       1.0226
    4247.0    1386.9166       0.0000      50.8611     -80.5439       6.2737      -6.1882      -1.0287     239.0996       1.0226
    4248.0    1383.6997       0.0000      50.8611     -77.1891       6.3056      -6.1480      -1.3955     245.2015       1.0226
    4249.0    1370.7749       0.0000      50.8611     -69.5829       6.3487      -5.9484      -2.2108     251.3034       1.0226
    4250.0    1360.0098       0.0000      50.8611     -63.0327       6.4106      -5.7110      -2.9022     257.4184       1.0124
    4251.0    1360.1682       0.0000      50.8611     -59.4946       6.3026      -5.4274      -3.1945     263.5079       1.0226
    4252.0    1347.0603       0.0000      50.8611     -55.8185       6.2748      -5.1876      -3.5204     269.5886       1.0223
    4253.0    1326.4269       0.0000      50.8611     -50.4479       6.3672      -4.9052      -4.0495     275.6746       1.0226
    4254.0    1314.6243       0.0000      50.8611     -42.5932       6.1844      -4.1810      -4.5488     281.7794       1.0226
    4255.0    1302.2286       0.0000      50.8611     -38.3885       6.4236      -3.9838      -5.0308     287.8812       1.0226
    4256.0    1285.3502       0.0000      50.8611     -35.5260       6.2420      -3.6223      -5.0766     293.9831       1.0226
    4257.0    1267.1678       0.0000      50.8611     -29.8382       6.0899      -3.0258      -5.2798     300.0849       1.0226
    4258.0    1267.0984       0.0000      50.8611     -22.9283       6.1305      -2.3844      -5.6441     306.1997       1.0226
    4259.0    1260.3536       0.0000      50.8611     -18.3383       6.1692      -1.9377      -5.8547     312.6942       1.0223
    4260.0    1255.3796       0.0000      50.8611     -13.5884       6.0202      -1.4119      -5.8510     318.7718       1.0124
    4261.0    1251.0455       0.0000      50.8611      -8.1828       5.9453      -0.8448      -5.8846     324.8863       1.0226
    4262.0    1244.8698       0.0000      50.8611      -2.9303       5.7858      -0.2957      -5.7778     330.9882       1.0226
    4263.0    1258.0985       0.0000      50.8611       3.1046       5.8982       0.3188      -5.8895     337.1031       1.0226
    4264.0    1257.6251       0.0000      50.8611       9.8395       5.8144       0.9920      -5.7284     343.2078       1.0226
    4265.0    1257.7592       0.0000      50.8611      11.6192       5.1969       1.0455      -5.0901     349.3096       1.0226
    4266.0    1266.6875       0.0000      50.8611      17.6400       5.4137       1.6383      -5.1584     355.4246       1.0226
    4267.0    1264.6818       0.0000      50.8611      24.5346       5.3148       2.2043      -4.8337       1.5140       1.0226
    4268.0    1290.1376       0.0000      50.8611      31.1532       5.3537       2.7666      -4.5798       7.6158       1.0226
    4269.0    1302.0834       0.0000      50.8611      37.2872       5.1016       3.0879      -4.0569      13.7308       1.0226
    4270.0    1304.7181       0.0000      50.8611      42.3218       4.9912       3.3583      -3.6877      19.8207       1.0226
    4271.0    1314.3262       0.0000      50.8611      49.0644       4.8829       3.6868      -3.1970      26.3411       1.0226
    4272.0    1344.3304       0.0000      50.8611      57.2577       4.7741       4.0142      -2.5800      32.4429       1.0226
    4273.0    1349.5681       0.0000      50.8611      63.7599       4.7411       4.2516      -2.0942      38.5456       1.0223
    4274.0    1365.4509       0.0000      50.8611      66.8182       4.5847       4.2138      -1.8031      44.6473       1.0226
    4275.0    1375.6579       0.0000      50.8611      74.6026       4.4948       4.3331      -1.1923      50.7534       1.0124
    4276.0    1373.3716       0.0000      50.8611      83.9717       4.3966       4.3721      -0.4612      56.8680       1.0226
    4277.0    1386.9991       0.0000      50.8611      92.5938       4.3778       4.3733       0.1979      62.9698       1.0226
    4278.0    1400.5639       0.0000      50.8611      99.2913       4.2687       4.2126       0.6886      69.0746       1.0226
    4279.0    1408.7321       0.0000      50.8611     104.0749       4.1801       4.0543       1.0157      75.1866       1.0226
    4280.0    1392.6603       0.0000      50.8611     114.4625       4.2303       3.8499       1.7504      81.2883       1.0226
    4281.0    1409.0682       0.0000      50.8611     123.1116       4.4072       3.6904       2.4059      87.4032       1.0226
    4282.0    1417.5052       0.0000      50.8611     130.1010       4.3029       3.2900       2.7702      93.5050       1.0330
    4283.0    1428.5993       0.0000      50.8611     136.2551       4.1279       2.8530       2.9808     100.0248       1.0226
    4284.0    1417.7630       0.0000      50.8611     142.7858       4.2548       2.5718       3.3872     106.1428       1.0229
    4285.0    1420.5409       0.0000      50.8611     151.9499       4.4399       2.0862       3.9175     112.2416       1.0226
    4286.0    1429.2032       0.0000      50.8611     155.9382       4.4308       1.8050       4.0451     113.9232       0.0005
    4287.0    1434.7740       0.0000      50.8611     152.4526       4.3299       2.0010       3.8382     113.9232       0.0005
    4288.0    1429.1158       0.0000      50.8611     154.7582       4.3332       1.8464       3.9187     113.9232       0.0005
    4289.0    1431.8522       0.0000      50.8611     155.9187       4.4274       1.8050       4.0414     113.9232       0.0005
    4290.0    1432.0265       0.0000      50.8611     155.8845       4.5142       1.8428       4.1195     113.9232       0.0005
    4291.0    1432.1142       0.0000      50.8611     153.8250       4.4544       1.9633       3.9968     113.9232       0.0005
    4292.0    1432.0265       0.0000      50.8611     153.1493       4.3473       1.9621       3.8778     113.9232       0.0005
    4293.0    1434.7740       0.0000      50.8611     154.5251       4.3841       1.8841       3.9572     113.9232       0.0005
    4294.0    1432.0265       0.0000      50.8611     155.2372       4.4992       1.8829       4.0847     113.9232       0.0005
    4295.0    1426.3040       0.0000      50.8611     155.3015       4.3235       1.8050       3.9273     113.9232       0.0005
    4296.0    1431.9392       0.0000      50.8611     152.8720       4.1378       1.8853       3.6820     113.9232       0.0005
    4297.0    1434.7740       0.0000      50.8611     153.8208       4.1934       1.8488       3.7625     113.9232       0.0005
    4298.0    1431.8522       0.0000      50.8611     154.1238       4.4045       1.9207       3.9621     113.9232       0.0005
    4299.0    1426.3040       0.0000      50.8611     155.0971       4.2815       1.8014       3.8828     113.9232       0.0005
    4300.0    1437.7077       0.0000      50.8611     153.6078       4.1540       1.8452       3.7204     113.9232       0.0005
    4301.0    1437.5334       0.0000      50.8611     154.5554       4.2924       1.8428       3.8754     113.9232       0.0005
    4302.0    1426.2170       0.0000      50.8611     155.4323       4.4390       1.8440       4.0365     113.9232       0.0005
    4303.0    1429.4673       0.0000      50.8611     157.8925       4.4077       1.6576       4.0823     113.9232       0.0005
