~VERSION INFORMATION
VERS.           2.0   :CWLS Log ASCII Standard - VERSION 2.0
WRAP.           NO    :One Line per depth step
PROD.  Schlumberger   :LAS Producer
PROG.  DLIS to ASCII 19C2-270                          :LAS Program name and version
CREA.        2017/09/16 17:42                          :LAS Creation date {YYYY/MM/DD hh:mm}
DLIS_CREA.  2017-Sep-15 12:43                          :DLIS Creation date and time {YYYY-MMM-DD hh:mm}
SOURCE.     LPC_S1-1_BV.DLIS                           :DLIS File Name
FILE-ID.     PERFO_Perfo_WPGRT_021LTP                  :File Identification Number
#--------------------------------------------------
~WELL INFORMATION
#MNEM.UNIT      DATA             DESCRIPTION
#---- ------ --------------   -----------------------------
STRT .S         6992.0       :START TIME      
STOP .S         7825.0       :STOP TIME      
STEP .S            1.0       :STEP     
NULL .          -999.25      :NULL VALUE
COMP .        SHELL INTERNATIONAL E P                  :COMPANY
WELL .        WPP TEST 2                               :WELL
FLD  .        WILDCAT                                  :FIELD
LOC  .                                                 :LOCATION
CNTY .        HARRIS                                   :COUNTY
STAT .        TEXAS                                    :STATE
CTRY .                                                 :COUNTRY
API  .                                                 :API NUMBER
UWI  .                                                 :UNIQUE WELL ID
DATE .                                                 :LOG DATE
SRVC .        Schlumberger                             :SERVICE COMPANY
LATI .DEG                                              :LATITUDE
LONG .DEG                                              :LONGITUDE
GDAT .                                                 :GeoDetic Datum
#-----------------------------------------------------------------------------
~PARAMETER INFORMATION
#MNEM.UNIT    VALUE                      DESCRIPTION
#---- -----   --------------------       ------------------------
U-PHASE_B_COMP_PER_YT.                 0 :Phase B Comparator Period Yt
U-PHASE_A_COMP_PER_XT.                 0 :Phase A Comparator Period Xt
U-MAX_EXC_CUR_LIMIT.MA       240.00000   :Requested CM Current Limit
U-REQ_EXC_FQ.HZ              50          :Requested CM Frequency
U-TILT_Y_OFFSET.           0.19916       :WPTET Tilt Y Offset
U-TILT_Y_GAIN.           1.01796         :WPTET Tilt Y Gain
U-TILT_X_OFFSET.          -1.77103       :WPTET Tilt X Offset
U-TILT_X_GAIN.           1.00000         :WPTET Tilt X Gain
U-TILT_OFFSET_TOL.           0.00100     :WPTET Tilt Offset Calibration Tolerance
U-NO_TILT_CAL_ROTATIONS.                 3 :Number of Rotations for Tilt Calibration
HAZI .DEG        0.00000                 :Hole Azimuth
U-STD_TOL_TILT.           0.01000        :Tilt Standard Deviation Tolerance
U-GUN_POS_TOL.DEG        5.00000         :Gun Position Tolerance
ROT_ANGLE_THRESHOLD.DEG        5.00000   :Rotation Stop Angle Tolerance
STOP_ROT_ANGLE.DEG       80.00000        :Rotation Stop Angle
WITN .                                   :Witness's Name
ENGI .                                   :Engineer's Name
COUN .        HARRIS                     :County or Rig Name
FN   .        WILDCAT                    :Field Name
WN   .        WPP TEST 2                 :Well Name
CN   .        SHELL INTERNATIONAL E P    :Company Name
CLAB .        County                     :County/Rig Label
SLAB .        State                      :State/Province Label
RUN  .          1                        :RUN NUMBER
PDAT .        GROUND LEVEL               :Permanent Datum
EPD  .                                   :Elevation of Permanent Datum above Mean Sea Level
LMF  .                                   :Logging Measured From (Name of Logging Elevation Reference)
APD  .                                   :Elevation of Depth Reference (LMF) above Permanent Datum
#-----------------------------------------------------------------------------
~CURVE INFORMATION
#MNEM.UNIT   API CODE                                  DESCRIPTION
#---- -----  --------                                  -----------------------
TIME .S                                                :TIME {F10.1}
FREQ_EMF_SL.HZ                                         :Electromagnetic Field Frequency {F13.4}
PH_SH_WPPCM_SL.DEG                                     :WPPCM Phase Shift {F13.4}
FREQ_EXC_REQ_SL.HZ                                     :Requested Exciter Frequency {F13.4}
RB_SL.DEG                                              :Relative Bearing {F13.4}
SDEV_SL.DEG                                            :Sonde Deviation {F13.4}
TILX_SL.DEG                                            :X-axis Tilt {F13.4}
TILY_SL.DEG                                            :Y-axis Tilt {F13.4}
ROTA_SL.DEG                                            :Motor Rotation Angle {F13.4}
MSPE_SL.RPM                                            :Motor Speed {F13.4}
#-----------------------------------------------------------------------------
# 
#     TIME    FREQ_EMF_SL  PH_SH_WPPCM_ FREQ_EXC_REQ    RB_SL       SDEV_SL      TILX_SL      TILY_SL      ROTA_SL      MSPE_SL
#                          SL           _SL
~A  
# ...
    7307.0    1248.9566       0.0000      50.8611     -64.0589       1.0317      -0.9275      -0.4514      42.4913       1.0226
    7308.0    1218.9071       0.0000      50.8611     -69.6391       1.0763      -1.0091      -0.3745      49.0024       1.0226
    7309.0    1184.1356       0.0000      50.8611     -69.4720       1.0752      -1.0067      -0.3770      55.1147       1.0226
    7310.0    1150.9477       0.0000      50.8611     -71.8106       1.0609      -1.0079      -0.3312      61.2202       1.0226
    7311.0    1125.1083       0.0000      50.8611     -56.6287       1.1169      -0.9323      -0.6137      67.3221       1.0226
    7312.0    1105.6471       0.0000      50.8611     -65.2241       1.1891      -1.0798      -0.4972      73.4238       1.0226
    7313.0    1088.8882       0.0000      50.8611     -61.5815       1.1199      -0.9848      -0.5331      79.5256       1.0226
    7314.0    1084.8698       0.0000      50.8611     -67.9654       1.2134      -1.1247      -0.4551      85.6280       1.0226
    7315.0    1065.5849       0.0000      50.8611     -65.9922       1.2274      -1.1211      -0.4984      91.7298       1.0226
    7316.0    1057.6196       0.0000      50.8611     -58.2258       1.0926      -0.9287      -0.5753      97.8316       1.0226
    7317.0    1061.9786       0.0000      50.8611     -52.1393       1.0746      -0.8484      -0.6595     103.9334       1.0124
    7318.0    1068.2417       0.0000      50.8611     -51.3999       1.0014      -0.7837      -0.6223     110.0360       1.0226
    7319.0    1071.8369       0.0000      50.8611     -62.0510       1.3201      -1.1661      -0.6186     116.1386       1.0226
    7320.0    1085.3226       0.0000      50.8611     -56.3930       1.1180      -0.9311      -0.6186     122.6363       1.0223
    7321.0    1112.2776       0.0000      50.8611     -56.6979       1.2015      -1.0042      -0.6595     128.7508       1.0226
    7322.0    1141.1611       0.0000      50.8611     -48.8914       1.1276      -0.8496      -0.7413     134.8540       1.0124
    7323.0    1163.9417       0.0000      50.8611     -52.6744       1.2186      -0.9689      -0.7388     140.9686       1.0226
    7324.0    1205.9227       0.0000      50.8611     -53.0263       1.1626      -0.9287      -0.6992     147.0705       1.0226
    7325.0    1246.4777       0.0000      50.8611     -47.3923       1.2065      -0.8874      -0.8169     153.1727       1.0229
    7326.0    1264.5453       0.0000      50.8611     -55.1362       1.0844      -0.8898      -0.6198     159.2750       1.0226
    7327.0    1292.4381       0.0000      50.8611     -51.8726       1.1283      -0.8874      -0.6967     165.3769       1.0226
    7328.0    1314.0325       0.0000      50.8611     -48.6187       1.1795      -0.8849      -0.7797     171.4792       1.0330
    7329.0    1326.5013       0.0000      50.8611     -49.0065       1.1288      -0.8520      -0.7400     177.5816       1.0226
    7330.0    1339.4394       0.0000      50.8611     -58.2997       1.2326      -1.0468      -0.6485     183.6962       1.0330
    7331.0    1362.6454       0.0000      50.8611     -47.9675       0.9276      -0.6889      -0.6211     189.8115       1.0226
    7332.0    1383.9415       0.0000      50.8611     -45.8813       1.1769      -0.8448      -0.8194     196.3214       1.0226
    7333.0    1403.2757       0.0000      50.8611     -47.5215       1.0959      -0.8082      -0.7400     202.4233       1.0226
    7334.0    1414.7384       0.0000      50.8611     -46.0208       1.0657      -0.7669      -0.7400     208.5252       1.0226
    7335.0    1426.3913       0.0000      50.8611     -47.8135       0.9840      -0.7291      -0.6607     214.6403       1.0226
    7336.0    1446.7593       0.0000      50.8611     -50.4396       1.0958      -0.8448      -0.6979     220.7422       1.0226
    7337.0    1464.8438       0.0000      50.8611     -51.3612       0.9256      -0.7231      -0.5777     226.8441       1.0226
    7338.0    1477.0604       0.0000      50.8611     -46.1506       0.9520      -0.6865      -0.6595     232.9490       1.0226
    7339.0    1486.7115       0.0000      50.8611     -37.6777       0.9341      -0.5708      -0.7388     239.0359       1.0124
    7340.0    1508.7550       0.0000      50.8611     -54.9320       0.9385      -0.7681      -0.5393     245.1254       1.0124
    7341.0    1515.0636       0.0000      50.8611     -47.9923       0.9800      -0.7279      -0.6558     251.2269       1.0226
    7342.0    1509.1452       0.0000      50.8611     -50.2888       0.8402      -0.6464      -0.5368     257.3419       1.0226
    7343.0    1531.7629       0.0000      50.8611     -39.2039       0.9047      -0.5721      -0.7004     263.4437       1.0226
    7344.0    1531.7629       0.0000      50.8611     -46.7847       0.8444      -0.6158      -0.5765     269.9536       1.0226
    7345.0    1528.5327       0.0000      50.8611     -54.2694       0.8472      -0.6877      -0.4947     276.0554       1.0226
    7346.0    1525.2169       0.0000      50.8611     -49.6958       0.9545      -0.7279      -0.6174     282.1572       1.0226
    7347.0    1518.8262       0.0000      50.8611     -48.3696       0.8680      -0.6488      -0.5765     288.2467       1.0330
    7348.0    1518.7271       0.0000      50.8611     -55.3496       0.8794      -0.7231      -0.4996     294.3496       1.0124
    7349.0    1508.9493       0.0000      50.8611     -52.5406       0.8113      -0.6439      -0.4935     300.4510       1.0226
    7350.0    1499.2965       0.0000      50.8611     -55.2121       0.9396      -0.7717      -0.5356     306.5406       1.0226
    7351.0    1498.9146       0.0000      50.8611     -62.7067       0.8192      -0.7279      -0.3757     312.6301       1.0327
    7352.0    1477.2466       0.0000      50.8611     -56.7399       0.8202      -0.6853      -0.4501     318.7327       1.0226
    7353.0    1465.0276       0.0000      50.8611     -63.8080       0.9415      -0.8448      -0.4154     324.8476       1.0226
    7354.0    1461.7983       0.0000      50.8611     -60.1420       0.8411      -0.7291      -0.4191     330.9494       1.0226
    7355.0    1446.7593       0.0000      50.8611     -63.9721       0.8535      -0.7669      -0.3745     337.0512       1.0226
    7356.0    1426.3040       0.0000      50.8611     -66.2786       0.9215      -0.8436      -0.3708     343.5486       1.0226
    7357.0    1414.9961       0.0000      50.8611     -64.0446       0.8529      -0.7669      -0.3733     349.6508       1.0327
    7358.0    1400.7313       0.0000      50.8611     -64.8786       0.9760      -0.8837      -0.4142     355.7535       1.0327
    7359.0    1392.0801       0.0000      50.8611     -67.0005       1.0502      -0.9665      -0.4105       1.8557       1.0226
    7360.0    1373.2910       0.0000      50.8611     -71.5780       0.9343      -0.8862      -0.2952       7.9456       1.0223
    7361.0    1355.0845       0.0000      50.8611     -65.2505       0.8887      -0.8070      -0.3720      14.0470       1.0226
    7362.0    1339.3624       0.0000      50.8611     -68.7570       1.0344      -0.9641      -0.3745      20.1488       1.0226
    7363.0    1321.4412       0.0000      50.8611     -66.2125       0.9285      -0.8496      -0.3745      26.2506       1.0226
    7364.0    1299.8939       0.0000      50.8611     -55.2721       0.9390      -0.7717      -0.5344      32.3532       1.0330
    7365.0    1287.9882       0.0000      50.8611     -70.2794       0.9815      -0.9239      -0.3312      38.4682       1.0330
    7366.0    1264.6818       0.0000      50.8611     -75.7007       1.0713      -1.0360      -0.2604      44.5838       1.0226
    7367.0    1242.6696       0.0000      50.8611     -71.4800       1.0593      -1.0042      -0.3361      50.6860       1.0226
    7368.0    1188.0760       0.0000      50.8611     -62.8943       1.0858      -0.9665      -0.4947      57.2086       1.0229
    7369.0    1153.0654       0.0000      50.8611     -67.9753       1.0046      -0.9311      -0.3770      63.2985       1.0226
