~VERSION INFORMATION
VERS.           2.0   :CWLS Log ASCII Standard - VERSION 2.0
WRAP.           NO    :One Line per depth step
PROD.  Schlumberger   :LAS Producer
PROG.  DLIS to ASCII 19C2-270                          :LAS Program name and version
CREA.        2017/09/16 17:42                          :LAS Creation date {YYYY/MM/DD hh:mm}
DLIS_CREA.  2017-Sep-15 11:37                          :DLIS Creation date and time {YYYY-MMM-DD hh:mm}
SOURCE.     LPC_S1-1_AV_3RD-LOG.DLIS                   :DLIS File Name
FILE-ID.     PERFO_Perfo_WPGRT_016LTP                  :File Identification Number
#--------------------------------------------------
~WELL INFORMATION
#MNEM.UNIT      DATA             DESCRIPTION
#---- ------ --------------   -----------------------------
STRT .S         2984.0       :START TIME      
STOP .S         3331.0       :STOP TIME      
STEP .S            1.0       :STEP     
NULL .          -999.25      :NULL VALUE
COMP .        SHELL INTERNATIONAL E P                  :COMPANY
WELL .        WPP TEST 2                               :WELL
FLD  .        WILDCAT                                  :FIELD
LOC  .                                                 :LOCATION
CNTY .        HARRIS                                   :COUNTY
STAT .        TEXAS                                    :STATE
CTRY .                                                 :COUNTRY
API  .                                                 :API NUMBER
UWI  .                                                 :UNIQUE WELL ID
DATE .                                                 :LOG DATE
SRVC .        Schlumberger                             :SERVICE COMPANY
LATI .DEG                                              :LATITUDE
LONG .DEG                                              :LONGITUDE
GDAT .                                                 :GeoDetic Datum
#-----------------------------------------------------------------------------
~PARAMETER INFORMATION
#MNEM.UNIT    VALUE                      DESCRIPTION
#---- -----   --------------------       ------------------------
U-PHASE_B_COMP_PER_YT.                 0 :Phase B Comparator Period Yt
U-PHASE_A_COMP_PER_XT.                 0 :Phase A Comparator Period Xt
U-MAX_EXC_CUR_LIMIT.MA       240.00000   :Requested CM Current Limit
U-REQ_EXC_FQ.HZ              50          :Requested CM Frequency
U-TILT_Y_OFFSET.           0.19916       :WPTET Tilt Y Offset
U-TILT_Y_GAIN.           1.01796         :WPTET Tilt Y Gain
U-TILT_X_OFFSET.          -1.77103       :WPTET Tilt X Offset
U-TILT_X_GAIN.           1.00000         :WPTET Tilt X Gain
U-TILT_OFFSET_TOL.           0.00100     :WPTET Tilt Offset Calibration Tolerance
U-NO_TILT_CAL_ROTATIONS.                 3 :Number of Rotations for Tilt Calibration
HAZI .DEG        0.00000                 :Hole Azimuth
U-STD_TOL_TILT.           0.01000        :Tilt Standard Deviation Tolerance
U-GUN_POS_TOL.DEG        5.00000         :Gun Position Tolerance
ROT_ANGLE_THRESHOLD.DEG        5.00000   :Rotation Stop Angle Tolerance
STOP_ROT_ANGLE.DEG       52.00000        :Rotation Stop Angle
WITN .                                   :Witness's Name
ENGI .                                   :Engineer's Name
COUN .        HARRIS                     :County or Rig Name
FN   .        WILDCAT                    :Field Name
WN   .        WPP TEST 2                 :Well Name
CN   .        SHELL INTERNATIONAL E P    :Company Name
CLAB .        County                     :County/Rig Label
SLAB .        State                      :State/Province Label
RUN  .          1                        :RUN NUMBER
PDAT .        GROUND LEVEL               :Permanent Datum
EPD  .                                   :Elevation of Permanent Datum above Mean Sea Level
LMF  .                                   :Logging Measured From (Name of Logging Elevation Reference)
APD  .                                   :Elevation of Depth Reference (LMF) above Permanent Datum
#-----------------------------------------------------------------------------
~CURVE INFORMATION
#MNEM.UNIT   API CODE                                  DESCRIPTION
#---- -----  --------                                  -----------------------
TIME .S                                                :TIME {F10.1}
FREQ_EMF_SL.HZ                                         :Electromagnetic Field Frequency {F13.4}
PH_SH_WPPCM_SL.DEG                                     :WPPCM Phase Shift {F13.4}
FREQ_EXC_REQ_SL.HZ                                     :Requested Exciter Frequency {F13.4}
RB_SL.DEG                                              :Relative Bearing {F13.4}
SDEV_SL.DEG                                            :Sonde Deviation {F13.4}
TILX_SL.DEG                                            :X-axis Tilt {F13.4}
TILY_SL.DEG                                            :Y-axis Tilt {F13.4}
ROTA_SL.DEG                                            :Motor Rotation Angle {F13.4}
MSPE_SL.RPM                                            :Motor Speed {F13.4}
#-----------------------------------------------------------------------------
# 
#     TIME    FREQ_EMF_SL  PH_SH_WPPCM_ FREQ_EXC_REQ    RB_SL       SDEV_SL      TILX_SL      TILY_SL      ROTA_SL      MSPE_SL
#                          SL           _SL
~A  
# ...
    3110.0    1532.2140       0.0000      50.8611     -59.6488       1.1267      -0.9719      -0.5691     129.1266       1.0132
    3111.0    1503.0809       0.0000      50.8611     -55.7335       1.0843      -0.8958      -0.6100     135.2171       1.0226
    3112.0    1478.4677       0.0000      50.8611     -64.0961       1.1561      -1.0396      -0.5045     141.3217       1.0226
    3113.0    1453.3706       0.0000      50.8611     -57.1655       1.1291      -0.9486      -0.6100     147.4209       1.0226
    3114.0    1432.0265       0.0000      50.8611     -56.3033       1.2547      -1.0438      -0.6961     153.5228       1.0226
    3115.0    1396.1873       0.0000      50.8611     -56.9832       1.1922      -0.9994      -0.6498     159.6247       1.0226
    3116.0    1366.1312       0.0000      50.8611     -58.9780       1.1293      -0.9677      -0.5820     165.7397       1.0226
    3117.0    1341.0395       0.0000      50.8611     -58.1166       1.1873      -1.0079      -0.6272     171.8416       1.0132
    3118.0    1305.5231       0.0000      50.8611     -54.9659       1.2205      -0.9994      -0.7004     177.9201       1.0215
    3119.0    1238.5159       0.0000      50.8611     -57.8854       1.2324      -1.0438      -0.6552     184.0207       1.0226
    3120.0    1167.4828       0.0000      50.8611     -54.2707       1.1000      -0.8916      -0.6423     190.1226       1.0226
    3121.0    1091.3722       0.0000      50.8611     -53.6286       1.1957      -0.9593      -0.7112     196.5924       1.0226
    3122.0    1031.2350       0.0000      50.8611     -53.9419       1.2368      -0.9994      -0.7284     202.7233       1.0132
    3123.0    1003.7880       0.0000      50.8611     -49.1067       1.1748      -0.8874      -0.7693     208.8260       1.0132
    3124.0     982.0181       0.0000      50.8611     -52.1009       1.0737      -0.8472      -0.6595     214.9266       1.0226
    3125.0     960.8296       0.0000      50.8611     -61.0249       1.2272      -1.0733      -0.5949     221.0416       1.0226
    3126.0     938.1607       0.0000      50.8611     -51.5491       1.1332      -0.8874      -0.7047     227.1435       1.0132
    3127.0     930.3510       0.0000      50.8611     -47.8873       1.0927      -0.8102      -0.7327     233.2220       1.0218
    3128.0     920.1944       0.0000      50.8611     -50.7298       1.0999      -0.8514      -0.6961     239.2881       1.0110
    3129.0     914.2121       0.0000      50.8611     -50.7737       1.1519      -0.8916      -0.7284     245.4006       1.0226
    3130.0     905.6622       0.0000      50.8611     -53.3337       1.1116      -0.8916      -0.6638     251.5025       1.0226
    3131.0     908.0620       0.0000      50.8611     -44.9158       1.0413      -0.7351      -0.7370     257.6043       1.0226
    3132.0     906.8907       0.0000      50.8611     -44.5899       0.9898      -0.6950      -0.7047     263.7062       1.0226
    3133.0     911.9650       0.0000      50.8611     -48.0529       0.9937      -0.7393      -0.6638     270.1732       1.0226
    3134.0     918.0438       0.0000      50.8611     -53.5359       1.0483      -0.8430      -0.6229     276.3310       1.0226
    3135.0     928.4460       0.0000      50.8611     -52.2684       0.9713      -0.7669      -0.5949     282.4328       1.0226
    3136.0     944.0048       0.0000      50.8611     -44.9363       0.9327      -0.6590      -0.6595     288.5346       1.0226
    3137.0     958.4251       0.0000      50.8611     -47.1122       0.9050      -0.6632      -0.6143     294.6475       1.0421
    3138.0     967.2995       0.0000      50.8611     -56.5694       0.9089      -0.7584      -0.5002     300.7654       1.0226
    3139.0     994.7078       0.0000      50.8611     -50.0701       0.9713      -0.7447      -0.6235     306.8800       1.0226
    3140.0    1019.0217       0.0000      50.8611     -46.9911       0.9410      -0.6865      -0.6423     312.9818       1.0226
    3141.0    1052.5823       0.0000      50.8611     -52.4463       0.8207      -0.6506      -0.5002     319.0836       1.0226
    3142.0    1133.0828       0.0000      50.8611     -59.0136       0.9735      -0.8345      -0.5002     325.1854       1.0226
    3143.0    1219.7742       0.0000      50.8611     -49.5934       0.9544      -0.7267      -0.6186     331.2872       1.0226
    3144.0    1268.4610       0.0000      50.8611     -60.0702       0.8386      -0.7267      -0.4185     337.3766       1.0226
    3145.0    1302.0834       0.0000      50.8611     -53.2888       0.7614      -0.6104      -0.4551     343.4916       1.0226
    3146.0    1339.0184       0.0000      50.8611     -55.0222       0.7940      -0.6506      -0.4551     350.0014       1.0226
    3147.0    1372.1732       0.0000      50.8611     -49.8436       0.9457      -0.7225      -0.6100     356.1172       1.0237
    3148.0    1396.9926       0.0000      50.8611     -57.7893       0.8539      -0.7225      -0.4551       2.2190       1.0226
    3149.0    1420.4546       0.0000      50.8611     -60.3195       0.8364      -0.7267      -0.4142       8.3326       1.0322
    3150.0    1449.7422       0.0000      50.8611     -63.9974       0.6746      -0.6062      -0.2958      14.4358       1.0226
    3151.0    1478.2184       0.0000      50.8611     -63.5770       0.8980      -0.8028      -0.3996      20.5376       1.0226
    3152.0    1508.1749       0.0000      50.8611     -57.5054       0.9994      -0.8430      -0.5368      26.6525       1.0237
    3153.0    1540.8826       0.0000      50.8611     -61.7367       0.7890      -0.6950      -0.3733      32.7543       1.0226
    3154.0    1558.3128       0.0000      50.8611     -67.7295       0.9936      -0.9213      -0.3690      38.8561       1.0322
    3155.0    1579.3140       0.0000      50.8611     -67.2300       0.9532      -0.8789      -0.3690      44.9601       1.0215
    3156.0    1598.0114       0.0000      50.8611     -60.8088       0.8514      -0.7436      -0.4142      51.0615       1.0226
    3157.0    1615.9900       0.0000      50.8611     -62.8499       0.9973      -0.8874      -0.4551      57.1633       1.0226
    3158.0    1630.1964       0.0000      50.8611     -68.3299       0.9117      -0.8472      -0.3367      63.6862       1.0237
    3159.0    1642.0130       0.0000      50.8611     -65.6131       1.0139      -0.9233      -0.4185      69.7880       1.0226
    3160.0    1641.6147       0.0000      50.8611     -59.8012       0.8971      -0.7753      -0.4508      75.8775       1.0226
    3161.0    1642.8153       0.0000      50.8611     -65.3044       0.9814      -0.8916      -0.4099      81.9793       1.0226
    3162.0    1638.9860       0.0000      50.8611     -66.6345       1.0449      -0.9593      -0.4142      88.0811       1.0226
    3163.0    1635.1744       0.0000      50.8611     -68.0335       1.0093      -0.9360      -0.3776      94.1829       1.0226
    3164.0    1621.2877       0.0000      50.8611     -64.2040       1.1198      -1.0079      -0.4874     100.2847       1.0226
    3165.0    1620.1036       0.0000      50.8611     -65.1569       1.0621      -0.9635      -0.4465     106.3865       1.0226
    3166.0    1601.2693       0.0000      50.8611     -66.9394       1.0820      -0.9952      -0.4227     112.4886       1.0226
    3167.0    1577.6344       0.0000      50.8611     -60.3336       1.0116      -0.8789      -0.5002     118.5906       1.0226
    3168.0    1567.0859       0.0000      50.8611     -64.8845       1.1734      -1.0629      -0.4959     124.6925       1.0226
    3169.0    1542.2966       0.0000      50.8611     -64.3023       1.0696      -0.9635      -0.4636     130.7951       1.0226
    3170.0    1517.9427       0.0000      50.8611     -58.4893       1.0979      -0.9360      -0.5734     137.3050       1.0226
    3171.0    1490.0037       0.0000      50.8611     -63.6502       1.2097      -1.0840      -0.5368     143.4077       1.0237
    3172.0    1463.0855       0.0000      50.8611     -61.8359       1.1288      -0.9952      -0.5325     149.5096       1.0226
