~VERSION INFORMATION
VERS.           2.0   :CWLS Log ASCII Standard - VERSION 2.0
WRAP.           NO    :One Line per depth step
PROD.  Schlumberger   :LAS Producer
PROG.  DLIS to ASCII 19C2-270                          :LAS Program name and version
CREA.        2017/09/16 17:42                          :LAS Creation date {YYYY/MM/DD hh:mm}
DLIS_CREA.  2017-Sep-15 16:29                          :DLIS Creation date and time {YYYY-MMM-DD hh:mm}
SOURCE.     LPC_S3-1_2AV.DLIS                          :DLIS File Name
FILE-ID.     PERFO_Perfo_WPGRT_041LTP                  :File Identification Number
#--------------------------------------------------
~WELL INFORMATION
#MNEM.UNIT      DATA             DESCRIPTION
#---- ------ --------------   -----------------------------
STRT .S         3547.0       :START TIME      
STOP .S         3943.0       :STOP TIME      
STEP .S            1.0       :STEP     
NULL .          -999.25      :NULL VALUE
COMP .        SHELL INTERNATIONAL E P                  :COMPANY
WELL .        WPP TEST 2                               :WELL
FLD  .        WILDCAT                                  :FIELD
LOC  .                                                 :LOCATION
CNTY .        HARRIS                                   :COUNTY
STAT .        TEXAS                                    :STATE
CTRY .                                                 :COUNTRY
API  .                                                 :API NUMBER
UWI  .                                                 :UNIQUE WELL ID
DATE .                                                 :LOG DATE
SRVC .        Schlumberger                             :SERVICE COMPANY
LATI .DEG                                              :LATITUDE
LONG .DEG                                              :LONGITUDE
GDAT .                                                 :GeoDetic Datum
#-----------------------------------------------------------------------------
~PARAMETER INFORMATION
#MNEM.UNIT    VALUE                      DESCRIPTION
#---- -----   --------------------       ------------------------
U-PHASE_B_COMP_PER_YT.                 0 :Phase B Comparator Period Yt
U-PHASE_A_COMP_PER_XT.                 0 :Phase A Comparator Period Xt
U-MAX_EXC_CUR_LIMIT.MA       240.00000   :Requested CM Current Limit
U-REQ_EXC_FQ.HZ              50          :Requested CM Frequency
U-TILT_Y_OFFSET.           0.19916       :WPTET Tilt Y Offset
U-TILT_Y_GAIN.           1.01796         :WPTET Tilt Y Gain
U-TILT_X_OFFSET.          -1.77103       :WPTET Tilt X Offset
U-TILT_X_GAIN.           1.00000         :WPTET Tilt X Gain
U-TILT_OFFSET_TOL.           0.00100     :WPTET Tilt Offset Calibration Tolerance
U-NO_TILT_CAL_ROTATIONS.                 3 :Number of Rotations for Tilt Calibration
HAZI .DEG        0.00000                 :Hole Azimuth
U-STD_TOL_TILT.           0.01000        :Tilt Standard Deviation Tolerance
U-GUN_POS_TOL.DEG        5.00000         :Gun Position Tolerance
ROT_ANGLE_THRESHOLD.DEG        5.00000   :Rotation Stop Angle Tolerance
STOP_ROT_ANGLE.DEG        0.00000        :Rotation Stop Angle
WITN .                                   :Witness's Name
ENGI .                                   :Engineer's Name
COUN .        HARRIS                     :County or Rig Name
FN   .        WILDCAT                    :Field Name
WN   .        WPP TEST 2                 :Well Name
CN   .        SHELL INTERNATIONAL E P    :Company Name
CLAB .        County                     :County/Rig Label
SLAB .        State                      :State/Province Label
RUN  .          1                        :RUN NUMBER
PDAT .        GROUND LEVEL               :Permanent Datum
EPD  .                                   :Elevation of Permanent Datum above Mean Sea Level
LMF  .                                   :Logging Measured From (Name of Logging Elevation Reference)
APD  .                                   :Elevation of Depth Reference (LMF) above Permanent Datum
#-----------------------------------------------------------------------------
~CURVE INFORMATION
#MNEM.UNIT   API CODE                                  DESCRIPTION
#---- -----  --------                                  -----------------------
TIME .S                                                :TIME {F10.1}
FREQ_EMF_SL.HZ                                         :Electromagnetic Field Frequency {F13.4}
PH_SH_WPPCM_SL.DEG                                     :WPPCM Phase Shift {F13.4}
FREQ_EXC_REQ_SL.HZ                                     :Requested Exciter Frequency {F13.4}
RB_SL.DEG                                              :Relative Bearing {F13.4}
SDEV_SL.DEG                                            :Sonde Deviation {F13.4}
TILX_SL.DEG                                            :X-axis Tilt {F13.4}
TILY_SL.DEG                                            :Y-axis Tilt {F13.4}
ROTA_SL.DEG                                            :Motor Rotation Angle {F13.4}
MSPE_SL.RPM                                            :Motor Speed {F13.4}
#-----------------------------------------------------------------------------
# 
#     TIME    FREQ_EMF_SL  PH_SH_WPPCM_ FREQ_EXC_REQ    RB_SL       SDEV_SL      TILX_SL      TILY_SL      ROTA_SL      MSPE_SL
#                          SL           _SL
~A  
# ...
    3736.0    1403.4431       0.0000      50.8611     -59.2770       1.0219      -0.8783      -0.5210     102.8394       0.0005
    3737.0    1401.7308       0.0000      50.8611     -63.6198       1.0804      -0.9677      -0.4801     102.8394       0.0005
    3738.0    1401.7308       0.0000      50.8611     -68.9537       0.9773      -0.9095      -0.3549     102.8394       0.0005
    3739.0    1401.7308       0.0000      50.8611     -66.7831       0.9228      -0.8472      -0.3641     102.8394       0.0005
    3740.0    1404.5308       0.0000      50.8611     -62.7948       1.0427      -0.9235      -0.4826     102.8394       0.0005
    3741.0    1402.3598       0.0000      50.8611     -63.0273       0.9892      -0.8808      -0.4459     102.8394       0.0005
    3742.0    1401.7308       0.0000      50.8611     -63.6750       0.9903      -0.8874      -0.4392     102.8394       0.0005
    3743.0    1401.7308       0.0000      50.8611     -69.1957       1.0950      -1.0234      -0.3891     102.8394       0.0005
    3744.0    1402.3598       0.0000      50.8611     -66.4207       0.9952      -0.9120      -0.3983     102.8394       0.0005
    3745.0    1401.2807       0.0000      50.8611     -61.6119       0.9912      -0.8718      -0.4709     102.8394       0.0005
    3746.0    1400.6475       0.0000      50.8611     -65.9302       0.9551      -0.8718      -0.3891     102.8394       0.0005
    3747.0    1400.0252       0.0000      50.8611     -66.0277       0.8565      -0.7824      -0.3482     103.6331       0.3958
    3748.0    1407.9762       0.0000      50.8611     -63.2750       0.9762      -0.8718      -0.4392     107.5365       0.7731
    3749.0    1406.4591       0.0000      50.8611     -60.9430       0.9694      -0.8472      -0.4709     112.8175       0.9965
    3750.0    1401.1128       0.0000      50.8611     -58.8802       1.0911      -0.9341      -0.5619     119.3054       1.0226
    3751.0    1405.6229       0.0000      50.8611     -56.3100       1.0927      -0.9095      -0.6028     125.4204       1.0226
    3752.0    1413.1963       0.0000      50.8611     -63.1472       0.9599      -0.8537      -0.4367     131.5353       1.0268
    3753.0    1410.3615       0.0000      50.8611     -64.9152       1.0142      -0.9185      -0.4300     137.6379       1.0226
    3754.0    1412.5412       0.0000      50.8611     -60.8318       1.1191      -0.9767      -0.5460     143.7335       1.0161
    3755.0    1414.5947       0.0000      50.8611     -61.9202       1.1608      -1.0234      -0.5460     149.8437       1.0226
    3756.0    1410.1646       0.0000      50.8611     -60.8318       1.1191      -0.9767      -0.5460     155.9588       1.0226
    3757.0    1411.8976       0.0000      50.8611     -57.7089       1.0982      -0.9275      -0.5869     162.0607       1.0226
    3758.0    1411.8976       0.0000      50.8611     -59.6853       1.0665      -0.9210      -0.5368     168.1644       1.0226
    3759.0    1409.0682       0.0000      50.8611     -62.7186       1.1899      -1.0571      -0.5460     174.2794       1.0226
    3760.0    1406.8885       0.0000      50.8611     -56.8479       1.2233      -1.0234      -0.6687     180.3813       1.0226
    3761.0    1407.9762       0.0000      50.8611     -60.9631       1.2466      -1.0907      -0.6028     186.4832       1.0226
    3762.0    1405.6229       0.0000      50.8611     -61.2185       1.1329      -0.9923      -0.5460     192.9900       1.0226
    3763.0    1397.8628       0.0000      50.8611     -56.9091       1.2104      -1.0144      -0.6595     199.0919       1.0226
    3764.0    1388.5130       0.0000      50.8611     -55.5225       1.1929      -0.9833      -0.6753     205.1993       1.0251
    3765.0    1387.8964       0.0000      50.8611     -52.8876       1.2855      -1.0234      -0.7755     211.3165       1.0185
    3766.0    1393.3972       0.0000      50.8611     -50.3312       1.0864      -0.8276      -0.6728     217.4136       1.0226
    3767.0    1378.6765       0.0000      50.8611     -55.9373       1.0601      -0.8783      -0.5936     223.5042       1.0226
    3768.0    1372.2537       0.0000      50.8611     -57.1640       1.1435      -0.9612      -0.6186     229.6068       1.0226
    3769.0    1372.1050       0.0000      50.8611     -56.7839       1.1755      -0.9833      -0.6436     235.6957       1.0226
    3770.0    1363.6707       0.0000      50.8611     -52.4074       1.2832      -1.0169      -0.7822     241.7964       1.0226
    3771.0    1361.2138       0.0000      50.8611     -55.6803       1.1422      -0.9431      -0.6436     247.9002       1.0226
    3772.0    1353.1730       0.0000      50.8611     -59.3764       1.0725      -0.9210      -0.5435     254.0039       1.0226
    3773.0    1355.2039       0.0000      50.8611     -56.9795       1.1355      -0.9521      -0.6186     260.1039       1.0226
    3774.0    1352.1635       0.0000      50.8611     -61.8489       1.3823      -1.2087      -0.6554     266.5995       1.0226
    3775.0    1349.1580       0.0000      50.8611     -51.2134       1.1184      -0.8718      -0.7004     272.7013       1.0226
    3776.0    1330.1343       0.0000      50.8611     -47.4251       1.0950      -0.8045      -0.7346     278.7956       1.0185
    3777.0    1330.0167       0.0000      50.8611     -57.4436       1.1878      -0.9988      -0.6411     284.8926       1.0226
    3778.0    1327.6227       0.0000      50.8611     -55.1180       1.0817      -0.8874      -0.6186     290.9944       1.0226
    3779.0    1326.8354       0.0000      50.8611     -47.2593       1.0790      -0.7915      -0.7321     297.0962       1.0226
    3780.0    1325.6828       0.0000      50.8611     -47.2150       1.0323      -0.7578      -0.7004     303.1999       1.0161
    3781.0    1315.7598       0.0000      50.8611     -47.4319       1.0958      -0.8070      -0.7413     309.2903       1.0226
    3782.0    1312.2080       0.0000      50.8611     -55.2680       1.0856      -0.8899      -0.6212     315.3921       1.0226
    3783.0    1317.6708       0.0000      50.8611     -49.5063       1.0302      -0.7824      -0.6687     321.4939       1.0226
    3784.0    1313.3022       0.0000      50.8611     -42.7424       0.9753      -0.6619      -0.7162     327.6100       1.0226
    3785.0    1320.7027       0.0000      50.8611     -45.7271       1.0161      -0.7267      -0.7096     333.7106       1.0292
    3786.0    1326.6509       0.0000      50.8611     -53.7544       1.0332      -0.8316      -0.6120     340.2317       1.0226
    3787.0    1324.1526       0.0000      50.8611     -54.0843       0.9513      -0.7669      -0.5593     346.3467       1.0292
    3788.0    1330.7007       0.0000      50.8611     -47.2745       0.7916      -0.5816      -0.5368     352.4531       1.0292
    3789.0    1336.3370       0.0000      50.8611     -52.6376       0.8348      -0.6644      -0.5051     358.5644       1.0226
    3790.0    1339.8646       0.0000      50.8611     -54.6364       0.9707      -0.7915      -0.5619       4.6793       1.0268
    3791.0    1344.8356       0.0000      50.8611     -49.0812       0.8981      -0.6775      -0.5869      10.7715       1.0334
    3792.0    1348.5663       0.0000      50.8611     -52.7915       0.8479      -0.6749      -0.5131      16.8864       1.0226
    3793.0    1359.5932       0.0000      50.8611     -59.3224       0.7803      -0.6710      -0.3983      22.9882       1.0226
    3794.0    1357.3842       0.0000      50.8611     -52.6340       0.9532      -0.7578      -0.5777      29.0901       1.0292
    3795.0    1358.2798       0.0000      50.8611     -54.6695       0.9490      -0.7734      -0.5460      35.2049       1.0226
    3796.0    1365.2913       0.0000      50.8611     -52.2835       0.8790      -0.6956      -0.5368      41.3068       1.0226
    3797.0    1371.2204       0.0000      50.8611     -71.5970       1.2645      -1.1997      -0.3983      47.3963       1.0226
    3798.0    1373.8998       0.0000      50.8611     -62.2902       0.8032      -0.7111      -0.3733      53.7418       1.0226
