~VERSION INFORMATION
VERS.           2.0   :CWLS Log ASCII Standard - VERSION 2.0
WRAP.           NO    :One Line per depth step
PROD.  Schlumberger   :LAS Producer
PROG.  DLIS to ASCII 19C2-270                          :LAS Program name and version
CREA.        2017/09/16 17:42                          :LAS Creation date {YYYY/MM/DD hh:mm}
DLIS_CREA.  2017-Sep-15 16:01                          :DLIS Creation date and time {YYYY-MMM-DD hh:mm}
SOURCE.     LPC_S3-1_A5.DLIS                           :DLIS File Name
FILE-ID.     PERFO_Perfo_WPGRT_038LTP                  :File Identification Number
#--------------------------------------------------
~WELL INFORMATION
#MNEM.UNIT      DATA             DESCRIPTION
#---- ------ --------------   -----------------------------
STRT .S         1883.0       :START TIME      
STOP .S         2380.0       :STOP TIME      
STEP .S            1.0       :STEP     
NULL .          -999.25      :NULL VALUE
COMP .        SHELL INTERNATIONAL E P                  :COMPANY
WELL .        WPP TEST 2                               :WELL
FLD  .        WILDCAT                                  :FIELD
LOC  .                                                 :LOCATION
CNTY .        HARRIS                                   :COUNTY
STAT .        TEXAS                                    :STATE
CTRY .                                                 :COUNTRY
API  .                                                 :API NUMBER
UWI  .                                                 :UNIQUE WELL ID
DATE .                                                 :LOG DATE
SRVC .        Schlumberger                             :SERVICE COMPANY
LATI .DEG                                              :LATITUDE
LONG .DEG                                              :LONGITUDE
GDAT .                                                 :GeoDetic Datum
#-----------------------------------------------------------------------------
~PARAMETER INFORMATION
#MNEM.UNIT    VALUE                      DESCRIPTION
#---- -----   --------------------       ------------------------
U-PHASE_B_COMP_PER_YT.                 0 :Phase B Comparator Period Yt
U-PHASE_A_COMP_PER_XT.                 0 :Phase A Comparator Period Xt
U-MAX_EXC_CUR_LIMIT.MA       240.00000   :Requested CM Current Limit
U-REQ_EXC_FQ.HZ              50          :Requested CM Frequency
U-TILT_Y_OFFSET.           0.19916       :WPTET Tilt Y Offset
U-TILT_Y_GAIN.           1.01796         :WPTET Tilt Y Gain
U-TILT_X_OFFSET.          -1.77103       :WPTET Tilt X Offset
U-TILT_X_GAIN.           1.00000         :WPTET Tilt X Gain
U-TILT_OFFSET_TOL.           0.00100     :WPTET Tilt Offset Calibration Tolerance
U-NO_TILT_CAL_ROTATIONS.                 3 :Number of Rotations for Tilt Calibration
HAZI .DEG        0.00000                 :Hole Azimuth
U-STD_TOL_TILT.           0.01000        :Tilt Standard Deviation Tolerance
U-GUN_POS_TOL.DEG        5.00000         :Gun Position Tolerance
ROT_ANGLE_THRESHOLD.DEG        5.00000   :Rotation Stop Angle Tolerance
STOP_ROT_ANGLE.DEG        0.00000        :Rotation Stop Angle
WITN .                                   :Witness's Name
ENGI .                                   :Engineer's Name
COUN .        HARRIS                     :County or Rig Name
FN   .        WILDCAT                    :Field Name
WN   .        WPP TEST 2                 :Well Name
CN   .        SHELL INTERNATIONAL E P    :Company Name
CLAB .        County                     :County/Rig Label
SLAB .        State                      :State/Province Label
RUN  .          1                        :RUN NUMBER
PDAT .        GROUND LEVEL               :Permanent Datum
EPD  .                                   :Elevation of Permanent Datum above Mean Sea Level
LMF  .                                   :Logging Measured From (Name of Logging Elevation Reference)
APD  .                                   :Elevation of Depth Reference (LMF) above Permanent Datum
#-----------------------------------------------------------------------------
~CURVE INFORMATION
#MNEM.UNIT   API CODE                                  DESCRIPTION
#---- -----  --------                                  -----------------------
TIME .S                                                :TIME {F10.1}
FREQ_EMF_SL.HZ                                         :Electromagnetic Field Frequency {F13.4}
PH_SH_WPPCM_SL.DEG                                     :WPPCM Phase Shift {F13.4}
FREQ_EXC_REQ_SL.HZ                                     :Requested Exciter Frequency {F13.4}
RB_SL.DEG                                              :Relative Bearing {F13.4}
SDEV_SL.DEG                                            :Sonde Deviation {F13.4}
TILX_SL.DEG                                            :X-axis Tilt {F13.4}
TILY_SL.DEG                                            :Y-axis Tilt {F13.4}
ROTA_SL.DEG                                            :Motor Rotation Angle {F13.4}
MSPE_SL.RPM                                            :Motor Speed {F13.4}
#-----------------------------------------------------------------------------
# 
#     TIME    FREQ_EMF_SL  PH_SH_WPPCM_ FREQ_EXC_REQ    RB_SL       SDEV_SL      TILX_SL      TILY_SL      ROTA_SL      MSPE_SL
#                          SL           _SL
~A  
# ...
    1946.0    1540.4039       0.0000      50.8611    -165.0958       3.9916      -1.0262       3.8569      81.7681       1.0226
    1947.0    1525.2169       0.0000      50.8611    -160.3223       4.2813      -1.4402       4.0302      87.8830       1.0226
    1948.0    1509.8437       0.0000      50.8611    -153.1318       4.1667      -1.8820       3.7155      93.9855       1.0210
    1949.0    1508.0665       0.0000      50.8611    -147.7099       4.1475      -2.2142       3.5048     100.0898       1.0226
    1950.0    1490.1539       0.0000      50.8611    -140.2000       4.3225      -2.7657       3.3191     106.1916       1.0226
    1951.0    1481.2177       0.0000      50.8611    -134.6918       4.7626      -3.3838       3.3475     112.2915       1.0153
    1952.0    1466.2487       0.0000      50.8611    -129.4288       4.7392      -3.6589       3.0080     118.3960       1.0226
    1953.0    1453.4707       0.0000      50.8611    -123.8523       4.7314      -3.9278       2.6337     124.4978       1.0226
    1954.0    1436.1043       0.0000      50.8611    -117.3223       4.7140      -4.1872       2.1618     130.6153       1.0226
    1955.0    1418.4660       0.0000      50.8611    -112.3086       5.0545      -4.6753       1.9165     137.1204       1.0226
    1956.0    1400.6475       0.0000      50.8611    -105.0891       5.1213      -4.9442       1.3315     143.2120       1.0226
    1957.0    1378.5272       0.0000      50.8611    -102.9253       5.0731      -4.9442       1.1333     149.3227       1.0210
    1958.0    1362.2435       0.0000      50.8611     -96.8886       4.9242      -4.8884       0.5893     155.4149       1.0137
    1959.0    1334.5898       0.0000      50.8611     -92.0748       5.1730      -5.1695       0.1867     161.5168       1.0226
    1960.0    1318.8071       0.0000      50.8611     -84.9233       5.4357      -5.4139      -0.4800     167.6090       1.0226
    1961.0    1291.5740       0.0000      50.8611     -80.4212       5.2884      -5.2145      -0.8788     173.6985       1.0226
    1962.0    1242.4749       0.0000      50.8611     -75.5845       5.2586      -5.0926      -1.3075     179.7885       1.0226
    1963.0    1206.8609       0.0000      50.8611     -72.4898       5.3354      -5.0865      -1.6027     185.9031       1.0226
    1964.0    1172.6439       0.0000      50.8611     -66.2711       5.4974      -5.0307      -2.2098     192.0059       1.0226
    1965.0    1141.8866       0.0000      50.8611     -60.0540       5.5298      -4.7897      -2.7572     198.1073       1.0226
    1966.0    1113.7658       0.0000      50.8611     -56.2289       5.3220      -4.4220      -2.9555     204.2205       1.0137
    1967.0    1080.3225       0.0000      50.8611     -52.1469       5.3849      -4.2491      -3.3013     210.3738       1.0226
    1968.0    1069.4636       0.0000      50.8611     -45.4710       5.4747      -3.8999      -3.8363     216.8320       1.0226
    1969.0    1059.7919       0.0000      50.8611     -41.5436       5.5457      -3.6745      -4.1474     222.9582       1.0210
    1970.0    1044.5259       0.0000      50.8611     -35.6006       5.2661      -3.0625      -4.2798     229.0361       1.0049
    1971.0    1042.5072       0.0000      50.8611     -32.5232       5.2194      -2.8031      -4.3990     235.1301       1.0226
    1972.0    1036.4661       0.0000      50.8611     -26.7082       5.3906      -2.4198      -4.8141     241.2320       1.0226
    1973.0    1031.3796       0.0000      50.8611     -20.9332       5.3137      -1.8961      -4.9621     247.3216       1.0149
    1974.0    1042.0407       0.0000      50.8611     -15.8849       5.2581      -1.4374      -5.0567     253.4242       1.0226
    1975.0    1048.7269       0.0000      50.8611     -11.4508       5.1600      -1.0235      -5.0567     259.5144       1.0226
    1976.0    1051.1300       0.0000      50.8611      -6.7710       5.2033      -0.6123      -5.1669     265.6153       1.0137
    1977.0    1076.6327       0.0000      50.8611      -0.7435       5.0947      -0.0656      -5.0941     271.7062       1.0226
    1978.0    1098.3714       0.0000      50.8611       4.9066       4.8766       0.4164      -4.8585     277.8212       1.0317
    1979.0    1128.0608       0.0000      50.8611      10.7922       4.7381       0.8861      -4.6540     283.9848       1.0226
    1980.0    1158.9448       0.0000      50.8611      14.4299       4.6017       1.1455      -4.4558     290.4174       1.0137
    1981.0    1193.9194       0.0000      50.8611      22.2866       4.5819       1.7357      -4.2389     296.5314       1.0226
    1982.0    1236.0524       0.0000      50.8611      27.1764       4.4193       2.0169      -3.9305     302.6375       1.0226
    1983.0    1268.8300       0.0000      50.8611      34.1202       4.2819       2.4002      -3.5438     308.7166       1.0317
    1984.0    1300.4119       0.0000      50.8611      37.6350       4.0974       2.5016      -3.2417     314.8295       1.0226
    1985.0    1325.5888       0.0000      50.8611      43.5371       4.1550       2.8604      -3.0107     320.9287       1.0226
    1986.0    1351.7677       0.0000      50.8611      52.9082       3.9437       3.1450      -2.3768     327.0351       1.0334
    1987.0    1368.7624       0.0000      50.8611      59.1612       3.8481       3.3022      -1.9714     333.1494       1.0226
    1988.0    1384.1044       0.0000      50.8611      65.4315       3.7066       3.3703      -1.5403     339.2265       1.0137
    1989.0    1404.3009       0.0000      50.8611      72.1599       3.7161       3.5371      -1.1377     345.3290       1.0226
    1990.0    1422.8915       0.0000      50.8611      78.6120       3.5965       3.5248      -0.7101     351.4186       1.0226
    1991.0    1444.2416       0.0000      50.8611      87.8541       3.4190       3.4166      -0.1279     357.5204       1.0226
    1992.0    1457.1329       0.0000      50.8611      95.2585       3.4134       3.3982       0.3121       4.0298       1.0226
    1993.0    1471.4432       0.0000      50.8611     103.1278       3.4294       3.3397       0.7778      10.1310       1.0317
    1994.0    1488.7131       0.0000      50.8611     108.5890       3.5075       3.3240       1.1174      16.2336       1.0259
    1995.0    1497.4762       0.0000      50.8611     118.3187       3.4050       2.9966       1.6143      22.3630       1.0226
    1996.0    1516.3560       0.0000      50.8611     127.6599       3.3020       2.6133       2.0169      28.4657       1.0226
    1997.0    1524.7135       0.0000      50.8611     135.0344       3.3811       2.3879       2.3912      34.5552       1.0226
    1998.0    1531.8628       0.0000      50.8611     141.8644       3.5086       2.1653       2.7592      40.6570       1.0242
    1999.0    1529.5506       0.0000      50.8611     149.2623       3.4964       1.7854       3.0045      46.7494       1.0334
    2000.0    1542.4576       0.0000      50.8611     156.3822       3.5716       1.4301       3.2720      52.8759       1.0226
    2001.0    1548.2144       0.0000      50.8611     165.3313       3.6360       0.9201       3.5173      58.9659       1.0226
    2002.0    1550.5951       0.0000      50.8611     171.4713       3.7697       0.5586       3.7280      65.0550       1.0226
    2003.0    1543.4981       0.0000      50.8611     177.5946       3.7438       0.1570       3.7405      71.1568       1.0226
    2004.0    1539.5981       0.0000      50.8611    -173.9147       3.9423      -0.4176       3.9200      77.6635       1.0226
    2005.0    1528.5327       0.0000      50.8611    -166.9487       3.9593      -0.8935       3.8569      83.7673       1.0242
    2006.0    1528.5327       0.0000      50.8611    -162.3030       4.1713      -1.2672       3.9733      89.8827       1.0226
    2007.0    1519.1298       0.0000      50.8611    -157.0276       4.2077      -1.6410       3.8728      95.9721       1.0137
    2008.0    1508.3592       0.0000      50.8611    -148.8894       4.2857      -2.2129       3.6684     102.0891       1.0334
