~VERSION INFORMATION
VERS.           2.0   :CWLS Log ASCII Standard - VERSION 2.0
WRAP.           NO    :One Line per depth step
PROD.  Schlumberger   :LAS Producer
PROG.  DLIS to ASCII 19C2-270                          :LAS Program name and version
CREA.        2017/09/16 17:42                          :LAS Creation date {YYYY/MM/DD hh:mm}
DLIS_CREA.  2017-Sep-15 15:33                          :DLIS Creation date and time {YYYY-MMM-DD hh:mm}
SOURCE.     LPC_S2-1_2BV.DLIS                          :DLIS File Name
FILE-ID.     PERFO_Perfo_WPGRT_036LTP                  :File Identification Number
#--------------------------------------------------
~WELL INFORMATION
#MNEM.UNIT      DATA             DESCRIPTION
#---- ------ --------------   -----------------------------
STRT .S          212.0       :START TIME      
STOP .S          624.0       :STOP TIME      
STEP .S            1.0       :STEP     
NULL .          -999.25      :NULL VALUE
COMP .        SHELL INTERNATIONAL E P                  :COMPANY
WELL .        WPP TEST 2                               :WELL
FLD  .        WILDCAT                                  :FIELD
LOC  .                                                 :LOCATION
CNTY .        HARRIS                                   :COUNTY
STAT .        TEXAS                                    :STATE
CTRY .                                                 :COUNTRY
API  .                                                 :API NUMBER
UWI  .                                                 :UNIQUE WELL ID
DATE .                                                 :LOG DATE
SRVC .        Schlumberger                             :SERVICE COMPANY
LATI .DEG                                              :LATITUDE
LONG .DEG                                              :LONGITUDE
GDAT .                                                 :GeoDetic Datum
#-----------------------------------------------------------------------------
~PARAMETER INFORMATION
#MNEM.UNIT    VALUE                      DESCRIPTION
#---- -----   --------------------       ------------------------
U-PHASE_B_COMP_PER_YT.                 0 :Phase B Comparator Period Yt
U-PHASE_A_COMP_PER_XT.                 0 :Phase A Comparator Period Xt
U-MAX_EXC_CUR_LIMIT.MA       240.00000   :Requested CM Current Limit
U-REQ_EXC_FQ.HZ              50          :Requested CM Frequency
U-TILT_Y_OFFSET.           0.19916       :WPTET Tilt Y Offset
U-TILT_Y_GAIN.           1.01796         :WPTET Tilt Y Gain
U-TILT_X_OFFSET.          -1.77103       :WPTET Tilt X Offset
U-TILT_X_GAIN.           1.00000         :WPTET Tilt X Gain
U-TILT_OFFSET_TOL.           0.00100     :WPTET Tilt Offset Calibration Tolerance
U-NO_TILT_CAL_ROTATIONS.                 3 :Number of Rotations for Tilt Calibration
HAZI .DEG        0.00000                 :Hole Azimuth
U-STD_TOL_TILT.           0.01000        :Tilt Standard Deviation Tolerance
U-GUN_POS_TOL.DEG        5.00000         :Gun Position Tolerance
ROT_ANGLE_THRESHOLD.DEG        5.00000   :Rotation Stop Angle Tolerance
STOP_ROT_ANGLE.DEG        0.00000        :Rotation Stop Angle
WITN .                                   :Witness's Name
ENGI .                                   :Engineer's Name
COUN .        HARRIS                     :County or Rig Name
FN   .        WILDCAT                    :Field Name
WN   .        WPP TEST 2                 :Well Name
CN   .        SHELL INTERNATIONAL E P    :Company Name
CLAB .        County                     :County/Rig Label
SLAB .        State                      :State/Province Label
RUN  .          1                        :RUN NUMBER
PDAT .        GROUND LEVEL               :Permanent Datum
EPD  .                                   :Elevation of Permanent Datum above Mean Sea Level
LMF  .                                   :Logging Measured From (Name of Logging Elevation Reference)
APD  .                                   :Elevation of Depth Reference (LMF) above Permanent Datum
#-----------------------------------------------------------------------------
~CURVE INFORMATION
#MNEM.UNIT   API CODE                                  DESCRIPTION
#---- -----  --------                                  -----------------------
TIME .S                                                :TIME {F10.1}
FREQ_EMF_SL.HZ                                         :Electromagnetic Field Frequency {F13.4}
PH_SH_WPPCM_SL.DEG                                     :WPPCM Phase Shift {F13.4}
FREQ_EXC_REQ_SL.HZ                                     :Requested Exciter Frequency {F13.4}
RB_SL.DEG                                              :Relative Bearing {F13.4}
SDEV_SL.DEG                                            :Sonde Deviation {F13.4}
TILX_SL.DEG                                            :X-axis Tilt {F13.4}
TILY_SL.DEG                                            :Y-axis Tilt {F13.4}
ROTA_SL.DEG                                            :Motor Rotation Angle {F13.4}
MSPE_SL.RPM                                            :Motor Speed {F13.4}
#-----------------------------------------------------------------------------
# 
#     TIME    FREQ_EMF_SL  PH_SH_WPPCM_ FREQ_EXC_REQ    RB_SL       SDEV_SL      TILX_SL      TILY_SL      ROTA_SL      MSPE_SL
#                          SL           _SL
~A  
# ...
     527.0    1283.2996       0.0000      50.8611     -45.1901       1.1744      -0.8313      -0.8268     285.5790       1.0194
     528.0    1309.5917       0.0000      50.8611     -46.6390       1.1460      -0.8313      -0.7859     291.6939       1.0258
     529.0    1321.9023       0.0000      50.8611     -47.0241       1.1082      -0.8107      -0.7536     297.7958       1.0226
     530.0    1333.7715       0.0000      50.8611     -47.8964       1.1102      -0.8229      -0.7450     303.8945       1.0258
     531.0    1349.8172       0.0000      50.8611     -46.4628       1.0581      -0.7669      -0.7289     309.9831       1.0121
     532.0    1356.5930       0.0000      50.8611     -48.6570       1.0225      -0.7669      -0.6756     316.0774       1.0226
     533.0    1368.7541       0.0000      50.8611     -47.3760       1.0365      -0.7631      -0.7004     322.1923       1.0226
     534.0    1377.3879       0.0000      50.8611     -48.0335       1.0477      -0.7790      -0.7004     328.2941       1.0226
     535.0    1390.4075       0.0000      50.8611     -46.8807       1.0317      -0.7510      -0.7042     334.3758       1.0152
     536.0    1397.2981       0.0000      50.8611     -49.7399       1.0305      -0.7790      -0.6671     340.8705       1.0226
     537.0    1405.4009       0.0000      50.8611     -49.6608       0.8951      -0.6828      -0.5777     346.9590       1.0226
     538.0    1414.4861       0.0000      50.8611     -47.6144       0.9393      -0.6950      -0.6310     353.0485       1.0226
     539.0    1426.2170       0.0000      50.8611     -52.9476       0.9810      -0.7827      -0.5901     359.1381       1.0226
     540.0    1428.2390       0.0000      50.8611     -50.6260       0.9561      -0.7388      -0.6062       5.2399       1.0226
     541.0    1426.4958       0.0000      50.8611     -49.2157       0.9400      -0.7108      -0.6148      11.3434       1.0226
     542.0    1438.1668       0.0000      50.8611     -52.0669       1.0140      -0.8060      -0.6062      17.4837       1.0258
     543.0    1444.0743       0.0000      50.8611     -25.1719       0.8657      -0.3382      -0.7526      23.5987       1.0226
     544.0    1451.8315       0.0000      50.8611     -51.8616       0.9097      -0.7145      -0.5616      29.7005       1.0226
     545.0    1452.7377       0.0000      50.8611     -55.2988       0.9139      -0.7510      -0.5207      35.7937       1.0194
     546.0    1455.7454       0.0000      50.8611     -59.8368       0.9181      -0.7912      -0.4636      41.9049       1.0226
     547.0    1458.7655       0.0000      50.8611     -53.8959       0.8540      -0.6865      -0.5045      48.0067       1.0226
     548.0    1462.7196       0.0000      50.8611     -56.2277       0.8406      -0.6987      -0.4674      54.5166       1.0226
     549.0    1454.8355       0.0000      50.8611     -58.2176       0.8881      -0.7547      -0.4674      60.6229       1.0194
     550.0    1465.1381       0.0000      50.8611     -61.4485       0.9239      -0.8107      -0.4389      66.7210       1.0226
     551.0    1454.5611       0.0000      50.8611     -59.1888       0.8645      -0.7426      -0.4427      72.8228       1.0226
     552.0    1447.6616       0.0000      50.8611     -57.3738       0.9273      -0.7790      -0.4997      78.9246       1.0226
     553.0    1443.5258       0.0000      50.8611     -59.4350       0.9516      -0.8192      -0.4836      85.0315       1.0226
     554.0    1444.6872       0.0000      50.8611     -60.0156       0.8532      -0.7388      -0.4265      91.1290       1.0152
     555.0    1441.1146       0.0000      50.8611     -62.9309       0.9152      -0.8155      -0.4142      97.2448       1.0226
     556.0    1424.8391       0.0000      50.8611     -62.1638       1.0353      -0.9154      -0.4836     103.3465       1.0226
     557.0    1427.0939       0.0000      50.8611     -65.3352       0.9938      -0.9032      -0.4142     109.4483       1.0226
     558.0    1426.4958       0.0000      50.8611     -64.9264       0.9490      -0.8593      -0.4018     115.5501       1.0226
     559.0    1413.0232       0.0000      50.8611     -64.6425       0.9956      -0.8995      -0.4265     121.6519       1.0226
     560.0    1399.3179       0.0000      50.8611     -62.0633       1.0053      -0.8874      -0.4712     128.1494       1.0226
     561.0    1394.8438       0.0000      50.8611     -64.8702       1.0118      -0.9154      -0.4303     134.2535       1.0226
     562.0    1393.4212       0.0000      50.8611     -59.7414       0.8224      -0.7071      -0.4056     140.3447       1.0152
     563.0    1382.2076       0.0000      50.8611     -64.0375       1.0012      -0.8995      -0.4389     146.4342       1.0194
     564.0    1372.2368       0.0000      50.8611     -67.0801       1.0638      -0.9798      -0.4142     152.5324       1.0226
     565.0    1358.9757       0.0000      50.8611     -64.3394       1.0120      -0.9117      -0.4389     158.6388       1.0152
     566.0    1345.9685       0.0000      50.8611     -62.4795       1.0792      -0.9555      -0.4997     164.7501       1.0226
     567.0    1339.0591       0.0000      50.8611     -62.4774       1.1562      -1.0237      -0.5330     170.8520       1.0226
     568.0    1314.9968       0.0000      50.8611     -60.0480       1.0523      -0.9117      -0.5245     176.9516       1.0269
     569.0    1310.3252       0.0000      50.8611     -62.7492       1.0903      -0.9677      -0.4997     183.0565       1.0226
     570.0    1290.1376       0.0000      50.8611     -56.5313       1.1110      -0.9238      -0.6100     189.1469       1.0194
     571.0    1264.4107       0.0000      50.8611     -68.1707       1.0887      -1.0079      -0.4056     195.2498       1.0226
     572.0    1254.6988       0.0000      50.8611     -63.8668       1.1165      -0.9873      -0.4846     201.7454       1.0226
     573.0    1235.3481       0.0000      50.8611     -61.0710       1.1723      -1.0237      -0.5691     207.8565       1.0301
     574.0    1225.8031       0.0000      50.8611     -60.9064       1.2134      -1.0602      -0.5901     213.9633       1.0226
     575.0    1211.4625       0.0000      50.8611     -55.7407       1.0060      -0.8313      -0.5653     220.0866       1.0301
     576.0    1206.0464       0.0000      50.8611     -61.9576       1.1419      -1.0079      -0.5368     226.1930       1.0269
     577.0    1200.4925       0.0000      50.8611     -58.5366       1.1631      -0.9920      -0.6062     232.2952       1.0226
     578.0    1200.0270       0.0000      50.8611     -55.6403       1.1686      -0.9647      -0.6595     238.3971       1.0226
     579.0    1204.1787       0.0000      50.8611     -53.1509       1.0535      -0.8435      -0.6310     244.4990       1.0226
     580.0    1206.8670       0.0000      50.8611     -56.5559       1.1454      -0.9555      -0.6310     250.6016       1.0301
     581.0    1206.8670       0.0000      50.8611     -62.7694       1.2938      -1.1479      -0.5863     256.7166       1.0226
     582.0    1215.6516       0.0000      50.8611     -52.3168       1.2640      -0.9994      -0.7736     262.8184       1.0226
     583.0    1232.7016       0.0000      50.8611     -51.1864       1.0464      -0.8155      -0.6557     268.9202       1.0226
     584.0    1242.7059       0.0000      50.8611     -50.9923       1.1780      -0.9154      -0.7413     275.2874       1.0194
     585.0    1257.3677       0.0000      50.8611     -47.7515       1.2098      -0.8958      -0.8107     281.5211       1.0226
     586.0    1273.5717       0.0000      50.8611     -52.9004       1.1830      -0.9434      -0.7127     287.6359       1.0258
     587.0    1300.1963       0.0000      50.8611     -49.9949       1.0273      -0.7790      -0.6643     293.7355       1.0378
     588.0    1313.0186       0.0000      50.8611     -48.3220       1.0108      -0.7547      -0.6719     299.8430       1.0226
     589.0    1328.6473       0.0000      50.8611     -50.5856       1.0681      -0.8266      -0.6756     305.9550       1.0301
