~VERSION INFORMATION
VERS.           2.0   :CWLS Log ASCII Standard - VERSION 2.0
WRAP.           NO    :One Line per depth step
PROD.  Schlumberger   :LAS Producer
PROG.  DLIS to ASCII 19C2-270                          :LAS Program name and version
CREA.        2017/09/16 17:42                          :LAS Creation date {YYYY/MM/DD hh:mm}
DLIS_CREA.  2017-Sep-15 19:44                          :DLIS Creation date and time {YYYY-MMM-DD hh:mm}
SOURCE.     LPC_S5-1_2A5.DLIS                          :DLIS File Name
FILE-ID.     PERFO_Perfo_WPGRT_063LTP                  :File Identification Number
#--------------------------------------------------
~WELL INFORMATION
#MNEM.UNIT      DATA             DESCRIPTION
#---- ------ --------------   -----------------------------
STRT .S         1302.0       :START TIME      
STOP .S         1712.0       :STOP TIME      
STEP .S            1.0       :STEP     
NULL .          -999.25      :NULL VALUE
COMP .        SHELL INTERNATIONAL E P                  :COMPANY
WELL .        WPP TEST 2                               :WELL
FLD  .        WILDCAT                                  :FIELD
LOC  .        NA                                       :LOCATION
CNTY .        HARRIS                                   :COUNTY
STAT .        TEXAS                                    :STATE
CTRY .                                                 :COUNTRY
API  .        NA                                       :API NUMBER
UWI  .                                                 :UNIQUE WELL ID
DATE .        15-Sep-2017                              :LOG DATE {DD-MMM-YYYY}
SRVC .        Schlumberger                             :SERVICE COMPANY
LATI .DEG                                              :LATITUDE
LONG .DEG                                              :LONGITUDE
GDAT .                                                 :GeoDetic Datum
SECT .        NA                                       :Section
RANG .        NA                                       :Range
TOWN .        NA                                       :Township
#-----------------------------------------------------------------------------
~PARAMETER INFORMATION
#MNEM.UNIT    VALUE                      DESCRIPTION
#---- -----   --------------------       ------------------------
U-PHASE_B_COMP_PER_YT.                 0 :Phase B Comparator Period Yt
U-PHASE_A_COMP_PER_XT.                 0 :Phase A Comparator Period Xt
U-MAX_EXC_CUR_LIMIT.MA       240.00000   :Requested CM Current Limit
U-REQ_EXC_FQ.HZ              50          :Requested CM Frequency
U-TILT_Y_OFFSET.           0.19916       :WPTET Tilt Y Offset
U-TILT_Y_GAIN.           1.01796         :WPTET Tilt Y Gain
U-TILT_X_OFFSET.          -1.77103       :WPTET Tilt X Offset
U-TILT_X_GAIN.           1.00000         :WPTET Tilt X Gain
U-TILT_OFFSET_TOL.           0.00100     :WPTET Tilt Offset Calibration Tolerance
U-NO_TILT_CAL_ROTATIONS.                 3 :Number of Rotations for Tilt Calibration
HAZI .DEG        0.00000                 :Hole Azimuth
U-STD_TOL_TILT.           0.01000        :Tilt Standard Deviation Tolerance
U-GUN_POS_TOL.DEG        5.00000         :Gun Position Tolerance
ROT_ANGLE_THRESHOLD.DEG        5.00000   :Rotation Stop Angle Tolerance
STOP_ROT_ANGLE.DEG        0.00000        :Rotation Stop Angle
WITN .        MR. DHRUA ARORA            :Witness's Name
ENGI .        MORRIS MOORE               :Engineer's Name
COUN .        HARRIS                     :County or Rig Name
FN   .        WILDCAT                    :Field Name
WN   .        WPP TEST 2                 :Well Name
CN   .        SHELL INTERNATIONAL E P    :Company Name
CLAB .        County                     :County/Rig Label
SLAB .        State                      :State/Province Label
RUN  .          1                        :RUN NUMBER
PDAT .        GROUND LEVEL               :Permanent Datum
EPD  .                                   :Elevation of Permanent Datum above Mean Sea Level
LMF  .          NA                       :Logging Measured From (Name of Logging Elevation Reference)
APD  .                                   :Elevation of Depth Reference (LMF) above Permanent Datum
#-----------------------------------------------------------------------------
~CURVE INFORMATION
#MNEM.UNIT   API CODE                                  DESCRIPTION
#---- -----  --------                                  -----------------------
TIME .S                                                :TIME {F10.1}
FREQ_EMF_SL.HZ                                         :Electromagnetic Field Frequency {F13.4}
PH_SH_WPPCM_SL.DEG                                     :WPPCM Phase Shift {F13.4}
FREQ_EXC_REQ_SL.HZ                                     :Requested Exciter Frequency {F13.4}
RB_SL.DEG                                              :Relative Bearing {F13.4}
SDEV_SL.DEG                                            :Sonde Deviation {F13.4}
TILX_SL.DEG                                            :X-axis Tilt {F13.4}
TILY_SL.DEG                                            :Y-axis Tilt {F13.4}
ROTA_SL.DEG                                            :Motor Rotation Angle {F13.4}
MSPE_SL.RPM                                            :Motor Speed {F13.4}
#-----------------------------------------------------------------------------
# 
#     TIME    FREQ_EMF_SL  PH_SH_WPPCM_ FREQ_EXC_REQ    RB_SL       SDEV_SL      TILX_SL      TILY_SL      ROTA_SL      MSPE_SL
#                          SL           _SL
~A  
# ...
    1365.0    1415.2180       0.0000      50.8611    -123.7500       5.6519      -4.6964       3.1366     249.5509       1.0226
    1366.0    1395.0892       0.0000      50.8611    -116.2128       5.7817      -5.1852       2.5504     255.6528       1.0226
    1367.0    1380.9296       0.0000      50.8611    -110.1906       5.8396      -5.4795       2.0120     261.7546       1.0226
    1368.0    1358.2687       0.0000      50.8611    -107.5161       5.8102      -5.5399       1.7460     267.8700       1.0226
    1369.0    1334.2030       0.0000      50.8611    -102.4334       5.9685      -5.8279       1.2829     273.9720       1.0226
    1370.0    1322.5989       0.0000      50.8611     -93.8968       6.0027      -5.9885       0.4072     280.0746       1.0226
    1371.0    1306.5162       0.0000      50.8611     -87.6037       6.0012      -5.9953      -0.2503     286.1764       1.0226
    1372.0    1288.9501       0.0000      50.8611     -82.0415       5.7722      -5.7145      -0.7952     292.2782       1.0226
    1373.0    1268.4381       0.0000      50.8611     -80.7612       6.2849      -6.2029      -1.0069     298.3800       1.0226
    1374.0    1261.2258       0.0000      50.8611     -72.4118       6.0949      -5.8080      -1.8380     304.4832       1.0226
    1375.0    1234.6499       0.0000      50.8611     -68.6517       6.1656      -5.7408      -2.2407     310.5850       1.0226
    1376.0    1207.0952       0.0000      50.8611     -63.9068       6.2980      -5.6537      -2.7654     316.6999       1.0226
    1377.0    1187.4671       0.0000      50.8611     -60.5779       6.4715      -5.6338      -3.1739     323.1989       1.0208
    1378.0    1180.0732       0.0000      50.8611     -54.1406       6.3695      -5.1585      -3.7261     329.2987       1.0226
    1379.0    1179.4076       0.0000      50.8611     -47.3601       6.3730      -4.6833      -4.3119     335.4005       1.0226
    1380.0    1167.3539       0.0000      50.8611     -42.0841       6.2657      -4.1945      -4.6459     341.5023       1.0226
    1381.0    1154.5890       0.0000      50.8611     -37.8459       6.2771      -3.8465      -4.9527     347.5917       1.0226
    1382.0    1151.0945       0.0000      50.8611     -35.4877       6.2882      -3.6457      -5.1163     353.6812       1.0208
    1383.0    1134.3744       0.0000      50.8611     -27.5069       6.0627      -2.7955      -5.3750     359.7830       1.0226
    1384.0    1124.7233       0.0000      50.8611     -21.0992       6.2528      -2.2466      -5.8316       5.8848       1.0226
    1385.0    1114.0311       0.0000      50.8611     -18.1963       6.2405      -1.9452      -5.9272      11.9743       1.0138
    1386.0    1123.7972       0.0000      50.8611     -14.6608       6.1347      -1.5499      -5.9340      18.0905       1.0226
    1387.0    1118.1390       0.0000      50.8611      -6.3445       5.7378      -0.6329      -5.7025      24.1924       1.0226
    1388.0    1111.6713       0.0000      50.8611       0.0136       5.9272       0.0031      -5.9272      30.2950       1.0226
    1389.0    1120.5294       0.0000      50.8611       4.5501       5.7821       0.4580      -5.7636      36.7940       1.0138
    1390.0    1128.3075       0.0000      50.8611       7.2959       5.6736       0.7193      -5.6276      42.8937       1.0226
    1391.0    1139.5856       0.0000      50.8611      14.4177       5.4241       1.3485      -5.2527      48.9833       1.0226
    1392.0    1141.7488       0.0000      50.8611      21.0910       5.3168       1.9108      -4.9596      55.0877       1.0226
    1393.0    1152.9822       0.0000      50.8611      26.2150       5.3475       2.3594      -4.7961      61.2001       1.0226
    1394.0    1166.0448       0.0000      50.8611      31.6811       5.1736       2.7141      -4.4009      67.3019       1.0226
    1395.0    1175.1354       0.0000      50.8611      36.8368       5.0336       3.0152      -4.0261      73.3914       1.0121
    1396.0    1193.0814       0.0000      50.8611      45.3677       4.8806       3.4705      -3.4265      79.4941       1.0226
    1397.0    1204.6647       0.0000      50.8611      51.1662       4.9135       3.8256      -3.0788      85.5959       1.0226
    1398.0    1217.8798       0.0000      50.8611      56.9876       4.8040       4.0265      -2.6156      91.6982       1.0226
    1399.0    1234.2829       0.0000      50.8611      62.8968       4.6525       4.1402      -2.1181      97.7999       1.0226
    1400.0    1259.3241       0.0000      50.8611      70.4454       4.4583       4.2007      -1.4910     103.9017       1.0226
    1401.0    1280.3541       0.0000      50.8611      78.2589       4.5504       4.4548      -0.9251     110.4118       1.0315
    1402.0    1293.6934       0.0000      50.8611      85.9523       4.4259       4.4146      -0.3121     116.5274       1.0226
    1403.0    1314.2523       0.0000      50.8611      90.1070       4.4283       4.4281       0.0085     122.6300       1.0226
    1404.0    1350.0045       0.0000      50.8611     100.0340       4.2730       4.2071       0.7441     128.7449       1.0244
    1405.0    1377.3210       0.0000      50.8611     107.7742       4.2925       4.0866       1.3096     134.8598       1.0226
    1406.0    1397.3965       0.0000      50.8611     115.9952       4.1913       3.7656       1.8343     140.9617       1.0226
    1407.0    1414.2608       0.0000      50.8611     122.9158       4.1447       3.4777       2.2501     147.0636       1.0226
    1408.0    1423.8153       0.0000      50.8611     130.3352       4.2352       3.2231       2.7404     153.1787       1.0226
    1409.0    1432.0265       0.0000      50.8611     139.3483       4.3238       2.8147       3.2791     159.2806       1.0226
    1410.0    1439.8411       0.0000      50.8611     146.9668       4.4181       2.4067       3.7018     165.3962       1.0226
    1411.0    1452.2341       0.0000      50.8611     152.1840       4.3721       2.0384       3.8653     171.5117       1.0226
    1412.0    1449.7422       0.0000      50.8611     160.0850       4.3372       1.4761       4.0766     177.6263       1.0226
    1413.0    1455.7454       0.0000      50.8611     165.6483       4.5543       1.1281       4.4106     184.1254       1.0208
    1414.0    1455.7454       0.0000      50.8611     174.5258       4.7337       0.4520       4.7106     190.2382       1.0226
    1415.0    1455.7454       0.0000      50.8611    -118.2431       4.5622      -0.0972       4.5608     196.3533       1.0226
    1416.0    1454.7361       0.0000      50.8611    -173.4353       4.6669      -0.5323       4.6357     202.4684       1.0226
    1417.0    1457.7521       0.0000      50.8611    -166.6770       4.8703      -1.1213       4.7377     208.5579       1.0121
    1418.0    1456.2531       0.0000      50.8611    -160.5287       4.9974      -1.6637       4.7106     214.6736       1.0226
    1419.0    1461.7983       0.0000      50.8611    -153.4572       5.1222      -2.2864       4.5810     220.7755       1.0226
    1420.0    1454.7361       0.0000      50.8611    -147.3124       5.0325      -2.7148       4.2337     226.8906       1.0226
    1421.0    1424.7921       0.0000      50.8611    -141.9535       5.3441      -3.2906       4.2062     233.0082       1.0226
    1422.0    1424.7921       0.0000      50.8611    -135.7021       5.5214      -3.8526       3.9475     239.1075       1.0226
    1423.0    1418.0723       0.0000      50.8611    -131.3187       5.3842      -4.0406       3.5523     245.2099       1.0226
    1424.0    1401.5894       0.0000      50.8611    -125.1148       5.5892      -4.5692       3.2115     251.3249       1.0226
    1425.0    1403.4431       0.0000      50.8611    -118.5964       5.7631      -5.0579       2.7548     257.8342       1.0226
    1426.0    1378.7271       0.0000      50.8611    -113.3823       5.8335      -5.3526       2.3119     263.9361       1.0226
    1427.0    1358.7135       0.0000      50.8611    -108.0392       5.9118      -5.6203       1.8278     270.0379       1.0226
