~VERSION INFORMATION
VERS.           2.0   :CWLS Log ASCII Standard - VERSION 2.0
WRAP.           NO    :One Line per depth step
PROD.  Schlumberger   :LAS Producer
PROG.  DLIS to ASCII 19C2-270                          :LAS Program name and version
CREA.        2017/09/16 17:42                          :LAS Creation date {YYYY/MM/DD hh:mm}
DLIS_CREA.  2017-Sep-15 11:44                          :DLIS Creation date and time {YYYY-MMM-DD hh:mm}
SOURCE.     LPC_S1-1_AV_4TH-LOG.DLIS                   :DLIS File Name
FILE-ID.     PERFO_Perfo_WPGRT_017LTP                  :File Identification Number
#--------------------------------------------------
~WELL INFORMATION
#MNEM.UNIT      DATA             DESCRIPTION
#---- ------ --------------   -----------------------------
STRT .S         3425.0       :START TIME      
STOP .S         3810.0       :STOP TIME      
STEP .S            1.0       :STEP     
NULL .          -999.25      :NULL VALUE
COMP .        SHELL INTERNATIONAL E P                  :COMPANY
WELL .        WPP TEST 2                               :WELL
FLD  .        WILDCAT                                  :FIELD
LOC  .                                                 :LOCATION
CNTY .        HARRIS                                   :COUNTY
STAT .        TEXAS                                    :STATE
CTRY .                                                 :COUNTRY
API  .                                                 :API NUMBER
UWI  .                                                 :UNIQUE WELL ID
DATE .                                                 :LOG DATE
SRVC .        Schlumberger                             :SERVICE COMPANY
LATI .DEG                                              :LATITUDE
LONG .DEG                                              :LONGITUDE
GDAT .                                                 :GeoDetic Datum
#-----------------------------------------------------------------------------
~PARAMETER INFORMATION
#MNEM.UNIT    VALUE                      DESCRIPTION
#---- -----   --------------------       ------------------------
U-PHASE_B_COMP_PER_YT.                 0 :Phase B Comparator Period Yt
U-PHASE_A_COMP_PER_XT.                 0 :Phase A Comparator Period Xt
U-MAX_EXC_CUR_LIMIT.MA       240.00000   :Requested CM Current Limit
U-REQ_EXC_FQ.HZ              50          :Requested CM Frequency
U-TILT_Y_OFFSET.           0.19916       :WPTET Tilt Y Offset
U-TILT_Y_GAIN.           1.01796         :WPTET Tilt Y Gain
U-TILT_X_OFFSET.          -1.77103       :WPTET Tilt X Offset
U-TILT_X_GAIN.           1.00000         :WPTET Tilt X Gain
U-TILT_OFFSET_TOL.           0.00100     :WPTET Tilt Offset Calibration Tolerance
U-NO_TILT_CAL_ROTATIONS.                 3 :Number of Rotations for Tilt Calibration
HAZI .DEG        0.00000                 :Hole Azimuth
U-STD_TOL_TILT.           0.01000        :Tilt Standard Deviation Tolerance
U-GUN_POS_TOL.DEG        5.00000         :Gun Position Tolerance
ROT_ANGLE_THRESHOLD.DEG        5.00000   :Rotation Stop Angle Tolerance
STOP_ROT_ANGLE.DEG       80.00000        :Rotation Stop Angle
WITN .                                   :Witness's Name
ENGI .                                   :Engineer's Name
COUN .        HARRIS                     :County or Rig Name
FN   .        WILDCAT                    :Field Name
WN   .        WPP TEST 2                 :Well Name
CN   .        SHELL INTERNATIONAL E P    :Company Name
CLAB .        County                     :County/Rig Label
SLAB .        State                      :State/Province Label
RUN  .          1                        :RUN NUMBER
PDAT .        GROUND LEVEL               :Permanent Datum
EPD  .                                   :Elevation of Permanent Datum above Mean Sea Level
LMF  .                                   :Logging Measured From (Name of Logging Elevation Reference)
APD  .                                   :Elevation of Depth Reference (LMF) above Permanent Datum
#-----------------------------------------------------------------------------
~CURVE INFORMATION
#MNEM.UNIT   API CODE                                  DESCRIPTION
#---- -----  --------                                  -----------------------
TIME .S                                                :TIME {F10.1}
FREQ_EMF_SL.HZ                                         :Electromagnetic Field Frequency {F13.4}
PH_SH_WPPCM_SL.DEG                                     :WPPCM Phase Shift {F13.4}
FREQ_EXC_REQ_SL.HZ                                     :Requested Exciter Frequency {F13.4}
RB_SL.DEG                                              :Relative Bearing {F13.4}
SDEV_SL.DEG                                            :Sonde Deviation {F13.4}
TILX_SL.DEG                                            :X-axis Tilt {F13.4}
TILY_SL.DEG                                            :Y-axis Tilt {F13.4}
ROTA_SL.DEG                                            :Motor Rotation Angle {F13.4}
MSPE_SL.RPM                                            :Motor Speed {F13.4}
#-----------------------------------------------------------------------------
# 
#     TIME    FREQ_EMF_SL  PH_SH_WPPCM_ FREQ_EXC_REQ    RB_SL       SDEV_SL      TILX_SL      TILY_SL      ROTA_SL      MSPE_SL
#                          SL           _SL
~A  
# ...
    3677.0    1326.6668       0.0000      50.8611     -49.6906       1.2619      -0.9617      -0.8169     211.7567       1.0226
    3678.0    1280.4018       0.0000      50.8611     -54.8057       1.1267      -0.9215      -0.6477     217.8586       1.0226
    3679.0    1195.4971       0.0000      50.8611     -53.8634       1.0490      -0.8472      -0.6186     224.0960       1.0077
    3680.0    1133.5625       0.0000      50.8611     -40.3532       1.0853      -0.7041      -0.8230     230.4785       1.0226
    3681.0    1073.0144       0.0000      50.8611     -45.7238       1.2500      -0.8934      -0.8696     236.5843       1.0196
    3682.0    1026.6700       0.0000      50.8611     -48.1469       1.0387      -0.7724      -0.6942     242.6765       1.0226
    3683.0     989.7261       0.0000      50.8611     -50.5104       0.8899      -0.6865      -0.5660     248.7749       1.0196
    3684.0     974.8269       0.0000      50.8611     -50.0986       1.0740      -0.8241      -0.6886     254.8689       1.0226
    3685.0     958.5867       0.0000      50.8611     -46.9905       1.1039      -0.8070      -0.7530     260.9699       1.0226
    3686.0     936.9704       0.0000      50.8611     -49.3091       1.1554      -0.8758      -0.7530     267.0717       1.0226
    3687.0     928.6522       0.0000      50.8611     -49.7921       1.0577      -0.8070      -0.6830     273.1621       1.0226
    3688.0     919.1177       0.0000      50.8611     -47.4041       1.0188      -0.7498      -0.6886     279.2639       1.0226
    3689.0     915.8705       0.0000      50.8611     -50.2831       1.1446      -0.8813      -0.7295     285.3657       1.0226
    3690.0     913.1494       0.0000      50.8611     -42.4918       1.0074      -0.6810      -0.7413     291.4574       1.0226
    3691.0     915.5273       0.0000      50.8611     -46.9160       1.0263      -0.7498      -0.7004     297.5571       1.0226
    3692.0     915.7113       0.0000      50.8611     -49.8826       1.0944      -0.8356      -0.7060     304.0638       1.0226
    3693.0     923.0848       0.0000      50.8611     -50.0287       0.9632      -0.7382      -0.6186     310.1940       1.0226
    3694.0     929.0203       0.0000      50.8611     -47.4358       1.0111      -0.7438      -0.6830     316.2852       1.0151
    3695.0     941.4597       0.0000      50.8611     -44.6344       0.9446      -0.6634      -0.6712     322.3730       1.0226
    3696.0     953.8619       0.0000      50.8611     -58.0483       0.9375      -0.7955      -0.4959     328.4713       1.0196
    3697.0     973.1088       0.0000      50.8611     -49.4359       1.0661      -0.8070      -0.6942     334.5652       1.0226
    3698.0     990.5124       0.0000      50.8611     -47.6830       0.8584      -0.6348      -0.5777     340.6662       1.0226
    3699.0    1015.6550       0.0000      50.8611     -53.0440       0.8450      -0.6750      -0.5077     346.7689       1.0226
    3700.0    1043.2546       0.0000      50.8611     -46.1069       0.8587      -0.6177      -0.5951     352.8716       1.0226
    3701.0    1091.9581       0.0000      50.8611     -51.7988       0.8957      -0.7036      -0.5542     358.9734       1.0226
    3702.0    1182.3629       0.0000      50.8611     -59.2105       0.8328      -0.7151      -0.4259       5.0752       1.0226
    3703.0    1251.1122       0.0000      50.8611     -52.1741       0.8601      -0.6805      -0.5251      11.1735       1.0151
    3704.0    1291.5038       0.0000      50.8611     -55.9102       0.8637      -0.7151      -0.4842      17.6758       1.0226
    3705.0    1326.3156       0.0000      50.8611     -59.9796       0.8859      -0.7669      -0.4433      23.7829       1.0196
    3706.0    1352.9125       0.0000      50.8611     -49.0701       0.8265      -0.6233      -0.5424      29.9030       1.0303
    3707.0    1382.9517       0.0000      50.8611     -60.0446       0.7075      -0.6062      -0.3554      36.0193       1.0226
    3708.0    1412.7143       0.0000      50.8611     -60.5140       0.7388      -0.6403      -0.3671      42.1320       1.0303
    3709.0    1439.5812       0.0000      50.8611     -63.4485       0.9800      -0.8758      -0.4377      48.2499       1.0226
    3710.0    1463.9682       0.0000      50.8611     -62.3221       0.8662      -0.7669      -0.4024      54.3509       1.0226
    3711.0    1498.7736       0.0000      50.8611     -65.9908       0.8894      -0.8125      -0.3615      60.4527       1.0226
    3712.0    1522.4334       0.0000      50.8611     -77.1831       0.8160      -0.7955      -0.1806      66.5554       1.0257
    3713.0    1546.3082       0.0000      50.8611     -56.8008       0.8138      -0.6810      -0.4433      72.6580       1.0226
    3714.0    1571.9771       0.0000      50.8611     -62.3602       0.9442      -0.8356      -0.4377      78.7597       1.0226
    3715.0    1599.0579       0.0000      50.8611     -65.7113       1.0194      -0.9275      -0.4198      84.8606       1.0226
    3716.0    1607.4253       0.0000      50.8611     -71.6648       0.9652      -0.9160      -0.3033      91.3683       1.0226
    3717.0    1619.0329       0.0000      50.8611     -68.8157       0.9577      -0.8929      -0.3441      97.4541       1.0151
    3718.0    1624.3770       0.0000      50.8611     -59.6941       0.9357      -0.8070      -0.4724     103.5369       1.0226
    3719.0    1638.9860       0.0000      50.8611     -63.1653       0.9817      -0.8758      -0.4433     109.6365       1.0226
    3720.0    1640.0869       0.0000      50.8611     -64.9791       0.9793      -0.8874      -0.4142     115.7405       1.0226
    3721.0    1640.0869       0.0000      50.8611     -76.4299       0.8952      -0.8703      -0.2097     121.8423       1.0226
    3722.0    1636.7994       0.0000      50.8611     -65.4751       1.1267      -1.0249      -0.4668     127.9318       1.0226
    3723.0    1635.1744       0.0000      50.8611     -58.5474       1.0069      -0.8587      -0.5251     134.0346       1.0226
    3724.0    1624.3770       0.0000      50.8611     -65.1727       1.0849      -0.9848      -0.4551     140.1393       1.0257
    3725.0    1606.8743       0.0000      50.8611     -66.1969       1.2172      -1.1113      -0.4898     146.2391       1.0226
    3726.0    1589.7482       0.0000      50.8611     -65.7562       1.1501      -1.0480      -0.4724     152.3287       1.0257
    3727.0    1567.9943       0.0000      50.8611     -65.6631       1.0836      -0.9848      -0.4489     158.4437       1.0226
    3728.0    1551.1694       0.0000      50.8611     -61.8663       1.0518      -0.9275      -0.4959     164.9383       1.0226
    3729.0    1520.0295       0.0000      50.8611     -57.8182       1.2383      -1.0480      -0.6595     171.0411       1.0257
    3730.0    1509.3101       0.0000      50.8611     -58.8621       1.2775      -1.0937      -0.6595     177.1465       1.0257
    3731.0    1478.4788       0.0000      50.8611     -64.0729       1.2289      -1.1053      -0.5368     183.2454       1.0226
    3732.0    1451.4681       0.0000      50.8611     -57.9255       1.1227      -0.9506      -0.5951     189.3473       1.0226
    3733.0    1431.1897       0.0000      50.8611     -59.9261       1.1571      -1.0018      -0.5777     195.4522       1.0257
    3734.0    1395.0892       0.0000      50.8611     -63.9036       1.2761      -1.1454      -0.5603     201.5710       1.0303
    3735.0    1370.2304       0.0000      50.8611     -59.6763       1.2954      -1.1168      -0.6539     207.6823       1.0226
    3736.0    1338.9190       0.0000      50.8611     -51.8209       1.1802      -0.9275      -0.7295     213.7842       1.0226
    3737.0    1296.5917       0.0000      50.8611     -56.6314       1.1306      -0.9451      -0.6186     219.8848       1.0226
    3738.0    1237.2925       0.0000      50.8611     -58.8344       1.0457      -0.8934      -0.5430     225.9880       1.0226
    3739.0    1164.1220       0.0000      50.8611     -53.9213       1.1741      -0.9501      -0.6886     232.0908       1.0226
