~VERSION INFORMATION
VERS.           2.0   :CWLS Log ASCII Standard - VERSION 2.0
WRAP.           NO    :One Line per depth step
PROD.  Schlumberger   :LAS Producer
PROG.  DLIS to ASCII 19C2-270                          :LAS Program name and version
CREA.        2017/09/16 17:42                          :LAS Creation date {YYYY/MM/DD hh:mm}
DLIS_CREA.  2017-Sep-15 13:45                          :DLIS Creation date and time {YYYY-MMM-DD hh:mm}
SOURCE.     LPC_S1-1_2B5.DLIS                          :DLIS File Name
FILE-ID.     PERFO_Perfo_WPGRT_026LTP                  :File Identification Number
#--------------------------------------------------
~WELL INFORMATION
#MNEM.UNIT      DATA             DESCRIPTION
#---- ------ --------------   -----------------------------
STRT .S        10666.0       :START TIME      
STOP .S        11234.0       :STOP TIME      
STEP .S            1.0       :STEP     
NULL .          -999.25      :NULL VALUE
COMP .        SHELL INTERNATIONAL E P                  :COMPANY
WELL .        WPP TEST 2                               :WELL
FLD  .        WILDCAT                                  :FIELD
LOC  .                                                 :LOCATION
CNTY .        HARRIS                                   :COUNTY
STAT .        TEXAS                                    :STATE
CTRY .                                                 :COUNTRY
API  .                                                 :API NUMBER
UWI  .                                                 :UNIQUE WELL ID
DATE .                                                 :LOG DATE
SRVC .        Schlumberger                             :SERVICE COMPANY
LATI .DEG                                              :LATITUDE
LONG .DEG                                              :LONGITUDE
GDAT .                                                 :GeoDetic Datum
#-----------------------------------------------------------------------------
~PARAMETER INFORMATION
#MNEM.UNIT    VALUE                      DESCRIPTION
#---- -----   --------------------       ------------------------
U-PHASE_B_COMP_PER_YT.                 0 :Phase B Comparator Period Yt
U-PHASE_A_COMP_PER_XT.                 0 :Phase A Comparator Period Xt
U-MAX_EXC_CUR_LIMIT.MA       240.00000   :Requested CM Current Limit
U-REQ_EXC_FQ.HZ              50          :Requested CM Frequency
U-TILT_Y_OFFSET.           0.19916       :WPTET Tilt Y Offset
U-TILT_Y_GAIN.           1.01796         :WPTET Tilt Y Gain
U-TILT_X_OFFSET.          -1.77103       :WPTET Tilt X Offset
U-TILT_X_GAIN.           1.00000         :WPTET Tilt X Gain
U-TILT_OFFSET_TOL.           0.00100     :WPTET Tilt Offset Calibration Tolerance
U-NO_TILT_CAL_ROTATIONS.                 3 :Number of Rotations for Tilt Calibration
HAZI .DEG        0.00000                 :Hole Azimuth
U-STD_TOL_TILT.           0.01000        :Tilt Standard Deviation Tolerance
U-GUN_POS_TOL.DEG        5.00000         :Gun Position Tolerance
ROT_ANGLE_THRESHOLD.DEG        5.00000   :Rotation Stop Angle Tolerance
STOP_ROT_ANGLE.DEG       80.00000        :Rotation Stop Angle
WITN .                                   :Witness's Name
ENGI .                                   :Engineer's Name
COUN .        HARRIS                     :County or Rig Name
FN   .        WILDCAT                    :Field Name
WN   .        WPP TEST 2                 :Well Name
CN   .        SHELL INTERNATIONAL E P    :Company Name
CLAB .        County                     :County/Rig Label
SLAB .        State                      :State/Province Label
RUN  .          1                        :RUN NUMBER
PDAT .        GROUND LEVEL               :Permanent Datum
EPD  .                                   :Elevation of Permanent Datum above Mean Sea Level
LMF  .                                   :Logging Measured From (Name of Logging Elevation Reference)
APD  .                                   :Elevation of Depth Reference (LMF) above Permanent Datum
#-----------------------------------------------------------------------------
~CURVE INFORMATION
#MNEM.UNIT   API CODE                                  DESCRIPTION
#---- -----  --------                                  -----------------------
TIME .S                                                :TIME {F10.1}
FREQ_EMF_SL.HZ                                         :Electromagnetic Field Frequency {F13.4}
PH_SH_WPPCM_SL.DEG                                     :WPPCM Phase Shift {F13.4}
FREQ_EXC_REQ_SL.HZ                                     :Requested Exciter Frequency {F13.4}
RB_SL.DEG                                              :Relative Bearing {F13.4}
SDEV_SL.DEG                                            :Sonde Deviation {F13.4}
TILX_SL.DEG                                            :X-axis Tilt {F13.4}
TILY_SL.DEG                                            :Y-axis Tilt {F13.4}
ROTA_SL.DEG                                            :Motor Rotation Angle {F13.4}
MSPE_SL.RPM                                            :Motor Speed {F13.4}
#-----------------------------------------------------------------------------
# 
#     TIME    FREQ_EMF_SL  PH_SH_WPPCM_ FREQ_EXC_REQ    RB_SL       SDEV_SL      TILX_SL      TILY_SL      ROTA_SL      MSPE_SL
#                          SL           _SL
~A  
# ...
   11044.0    1454.7120       0.0000      50.8611    -156.7627       3.7667      -1.4852       3.4608      69.1370       1.0226
   11045.0    1455.3995       0.0000      50.8611    -150.0380       3.8701      -1.9317       3.3522      75.2308       1.0133
   11046.0    1450.7799       0.0000      50.8611    -143.2466       4.0204      -2.4045       3.2202      81.3404       1.0321
   11047.0    1455.7454       0.0000      50.8611    -138.7622       4.0274      -2.6535       3.0275      87.4593       1.0226
   11048.0    1455.0550       0.0000      50.8611    -132.3363       4.1364      -3.0564       2.7845      93.5642       1.0321
   11049.0    1443.4483       0.0000      50.8611    -127.3643       4.2902      -3.4086       2.6021      99.6767       1.0226
   11050.0    1444.8177       0.0000      50.8611    -120.0758       4.3988      -3.8057       2.2027     105.7877       1.0238
   11051.0    1438.5625       0.0000      50.8611    -115.4677       4.5226      -4.0822       1.9432     111.8933       1.0226
   11052.0    1435.2864       0.0000      50.8611    -111.2194       4.5952      -4.2830       1.6617     117.9975       1.0226
   11053.0    1431.3584       0.0000      50.8611    -105.5895       4.6010      -4.4313       1.2355     124.4553       1.0226
   11054.0    1415.0664       0.0000      50.8611     -98.7715       4.7143      -4.6584       0.7180     130.5890       1.0226
   11055.0    1410.0483       0.0000      50.8611     -95.0368       4.6547      -4.6367       0.4083     136.6987       1.0226
   11056.0    1404.0900       0.0000      50.8611     -88.2015       4.7723      -4.7697      -0.1500     142.7983       1.0226
   11057.0    1400.9690       0.0000      50.8611     -84.6155       4.9073      -4.8855      -0.4598     148.9094       1.0321
   11058.0    1382.0117       0.0000      50.8611     -79.8703       4.8909      -4.8145      -0.8592     155.0097       1.0226
   11059.0    1381.3070       0.0000      50.8611     -73.4297       4.9512      -4.7445      -1.4105     161.1194       1.0226
   11060.0    1335.9700       0.0000      50.8611     -69.8943       5.0803      -4.7697      -1.7447     167.2189       1.0133
   11061.0    1337.0324       0.0000      50.8611     -63.6038       5.0145      -4.4899      -2.2259     173.3062       1.0226
   11062.0    1314.2523       0.0000      50.8611     -60.7027       5.1130      -4.4576      -2.4994     179.4104       1.0226
   11063.0    1281.5469       0.0000      50.8611     -53.6318       5.0240      -4.0435      -2.9760     185.5147       1.0226
   11064.0    1256.0979       0.0000      50.8611     -50.7718       5.1351      -3.9756      -3.2448     191.6273       1.0226
   11065.0    1226.4445       0.0000      50.8611     -45.3105       5.0628      -3.5970      -3.5578     198.0859       1.0309
   11066.0    1222.3386       0.0000      50.8611     -42.5127       5.0087      -3.3823      -3.6899     204.2259       1.0214
   11067.0    1187.9423       0.0000      50.8611     -36.2686       4.9670      -2.9359      -4.0029     210.3063       1.0214
   11068.0    1173.6962       0.0000      50.8611     -29.6049       4.9387      -2.4382      -4.2891     216.4045       1.0226
   11069.0    1161.8315       0.0000      50.8611     -27.0119       4.8667      -2.2082      -4.3347     222.5033       1.0226
   11070.0    1150.3456       0.0000      50.8611     -22.6573       4.8603      -1.8698      -4.4842     228.5951       1.0226
   11071.0    1146.7946       0.0000      50.8611     -16.2808       4.8099      -1.3470      -4.6166     234.7001       1.0226
   11072.0    1133.5167       0.0000      50.8611     -10.1493       4.6627      -0.8209      -4.5894     240.8050       1.0226
   11073.0    1123.6169       0.0000      50.8611      -6.6291       4.5191      -0.5212      -4.4889     246.9039       1.0226
   11074.0    1130.7950       0.0000      50.8611      -0.6824       4.4625      -0.0531      -4.4621     252.9958       1.0226
   11075.0    1117.4383       0.0000      50.8611       5.5760       4.3744       0.4243      -4.3535     259.0944       1.0321
   11076.0    1122.0315       0.0000      50.8611       9.5977       4.3182       0.7193      -4.2576     265.1952       1.0133
   11077.0    1128.6116       0.0000      50.8611      16.7085       4.3789       1.2585      -4.1932     271.6584       1.0238
   11078.0    1135.2746       0.0000      50.8611      20.3451       4.2546       1.4779      -3.9888     277.8097       1.0226
   11079.0    1142.8665       0.0000      50.8611      26.7600       3.9094       1.7590      -3.4902     283.9090       1.0226
   11080.0    1151.2120       0.0000      50.8611      32.4540       3.8632       2.0711      -3.2589     290.0212       1.0238
   11081.0    1162.8561       0.0000      50.8611      39.6084       3.8172       2.4326      -2.9398     296.1315       1.0226
   11082.0    1178.8354       0.0000      50.8611      46.7515       3.6239       2.6381      -2.4821     302.2316       1.0226
   11083.0    1190.3677       0.0000      50.8611      51.3873       3.4466       2.6921      -2.1503     308.3425       1.0238
   11084.0    1215.0420       0.0000      50.8611      61.3842       3.3719       2.9594      -1.6140     314.4480       1.0226
   11085.0    1239.0803       0.0000      50.8611      65.5195       3.1942       2.9068      -1.3231     320.5520       1.0226
   11086.0    1253.3423       0.0000      50.8611      72.6966       3.1661       3.0227      -0.9410     326.6513       1.0226
   11087.0    1285.1508       0.0000      50.8611      81.8968       3.0394       3.0088      -0.4283     332.7561       1.0226
   11088.0    1319.9685       0.0000      50.8611      89.7177       3.0043       3.0042      -0.0147     338.8547       1.0321
   11089.0    1337.8328       0.0000      50.8611      96.5050       3.0427       3.0227       0.3439     344.9718       1.0226
   11090.0    1351.5677       0.0000      50.8611     105.6410       2.9628       2.8528       0.7984     351.4643       1.0133
   11091.0    1367.9475       0.0000      50.8611     113.5112       2.8925       2.6519       1.1537     357.5506       1.0226
   11092.0    1371.5412       0.0000      50.8611     120.8996       3.0171       2.5887       1.5485       3.6678       1.0238
   11093.0    1391.0685       0.0000      50.8611     125.4871       2.9500       2.4017       1.7120       9.7727       1.0226
   11094.0    1387.4660       0.0000      50.8611     137.4301       3.0899       2.0896       2.2750      15.8854       1.0238
   11095.0    1401.6159       0.0000      50.8611     145.9150       3.0932       1.7327       2.5613      21.9771       1.0226
   11096.0    1411.5722       0.0000      50.8611     154.3344       3.0846       1.3357       2.7798      28.0944       1.0226
   11097.0    1425.5544       0.0000      50.8611     159.5406       3.2089       1.1210       3.0063      34.2069       1.0226
   11098.0    1423.9953       0.0000      50.8611     167.8742       3.2567       0.6838       3.1840      40.3063       1.0226
   11099.0    1429.4506       0.0000      50.8611     172.8366       3.4011       0.4243       3.3743      46.4105       1.0226
   11100.0    1437.8834       0.0000      50.8611    -177.8255       3.3956      -0.1288       3.3931      52.5146       1.0226
   11101.0    1443.4483       0.0000      50.8611    -170.8047       3.4884      -0.5568       3.4434      58.6141       1.0226
   11102.0    1438.2223       0.0000      50.8611    -165.4399       3.6377      -0.9137       3.5205      65.1185       1.0226
   11103.0    1449.3992       0.0000      50.8611    -157.3913       3.7258      -1.4312       3.4387      71.2280       1.0226
   11104.0    1446.7593       0.0000      50.8611    -152.3281       3.7965      -1.7618       3.3616      77.3275       1.0226
   11105.0    1461.1022       0.0000      50.8611    -146.7211       3.9618      -2.1727       3.3113      83.4269       1.0226
   11106.0    1447.1023       0.0000      50.8611    -140.4240       4.0916      -2.6053       3.1525      89.5256       1.0226
