~VERSION INFORMATION
VERS.           2.0   :CWLS Log ASCII Standard - VERSION 2.0
WRAP.           NO    :One Line per depth step
PROD.  Schlumberger   :LAS Producer
PROG.  DLIS to ASCII 19C2-270                          :LAS Program name and version
CREA.        2017/09/16 17:42                          :LAS Creation date {YYYY/MM/DD hh:mm}
DLIS_CREA.  2017-Sep-15 19:44                          :DLIS Creation date and time {YYYY-MMM-DD hh:mm}
SOURCE.     LPC_S5-1_2A5.DLIS                          :DLIS File Name
FILE-ID.     PERFO_Perfo_WPGRT_063LTP                  :File Identification Number
#--------------------------------------------------
~WELL INFORMATION
#MNEM.UNIT      DATA             DESCRIPTION
#---- ------ --------------   -----------------------------
STRT .S         1302.0       :START TIME      
STOP .S         1712.0       :STOP TIME      
STEP .S            1.0       :STEP     
NULL .          -999.25      :NULL VALUE
COMP .        SHELL INTERNATIONAL E P                  :COMPANY
WELL .        WPP TEST 2                               :WELL
FLD  .        WILDCAT                                  :FIELD
LOC  .        NA                                       :LOCATION
CNTY .        HARRIS                                   :COUNTY
STAT .        TEXAS                                    :STATE
CTRY .                                                 :COUNTRY
API  .        NA                                       :API NUMBER
UWI  .                                                 :UNIQUE WELL ID
DATE .        15-Sep-2017                              :LOG DATE {DD-MMM-YYYY}
SRVC .        Schlumberger                             :SERVICE COMPANY
LATI .DEG                                              :LATITUDE
LONG .DEG                                              :LONGITUDE
GDAT .                                                 :GeoDetic Datum
SECT .        NA                                       :Section
RANG .        NA                                       :Range
TOWN .        NA                                       :Township
#-----------------------------------------------------------------------------
~PARAMETER INFORMATION
#MNEM.UNIT    VALUE                      DESCRIPTION
#---- -----   --------------------       ------------------------
U-PHASE_B_COMP_PER_YT.                 0 :Phase B Comparator Period Yt
U-PHASE_A_COMP_PER_XT.                 0 :Phase A Comparator Period Xt
U-MAX_EXC_CUR_LIMIT.MA       240.00000   :Requested CM Current Limit
U-REQ_EXC_FQ.HZ              50          :Requested CM Frequency
U-TILT_Y_OFFSET.           0.19916       :WPTET Tilt Y Offset
U-TILT_Y_GAIN.           1.01796         :WPTET Tilt Y Gain
U-TILT_X_OFFSET.          -1.77103       :WPTET Tilt X Offset
U-TILT_X_GAIN.           1.00000         :WPTET Tilt X Gain
U-TILT_OFFSET_TOL.           0.00100     :WPTET Tilt Offset Calibration Tolerance
U-NO_TILT_CAL_ROTATIONS.                 3 :Number of Rotations for Tilt Calibration
HAZI .DEG        0.00000                 :Hole Azimuth
U-STD_TOL_TILT.           0.01000        :Tilt Standard Deviation Tolerance
U-GUN_POS_TOL.DEG        5.00000         :Gun Position Tolerance
ROT_ANGLE_THRESHOLD.DEG        5.00000   :Rotation Stop Angle Tolerance
STOP_ROT_ANGLE.DEG        0.00000        :Rotation Stop Angle
WITN .        MR. DHRUA ARORA            :Witness's Name
ENGI .        MORRIS MOORE               :Engineer's Name
COUN .        HARRIS                     :County or Rig Name
FN   .        WILDCAT                    :Field Name
WN   .        WPP TEST 2                 :Well Name
CN   .        SHELL INTERNATIONAL E P    :Company Name
CLAB .        County                     :County/Rig Label
SLAB .        State                      :State/Province Label
RUN  .          1                        :RUN NUMBER
PDAT .        GROUND LEVEL               :Permanent Datum
EPD  .                                   :Elevation of Permanent Datum above Mean Sea Level
LMF  .          NA                       :Logging Measured From (Name of Logging Elevation Reference)
APD  .                                   :Elevation of Depth Reference (LMF) above Permanent Datum
#-----------------------------------------------------------------------------
~CURVE INFORMATION
#MNEM.UNIT   API CODE                                  DESCRIPTION
#---- -----  --------                                  -----------------------
TIME .S                                                :TIME {F10.1}
FREQ_EMF_SL.HZ                                         :Electromagnetic Field Frequency {F13.4}
PH_SH_WPPCM_SL.DEG                                     :WPPCM Phase Shift {F13.4}
FREQ_EXC_REQ_SL.HZ                                     :Requested Exciter Frequency {F13.4}
RB_SL.DEG                                              :Relative Bearing {F13.4}
SDEV_SL.DEG                                            :Sonde Deviation {F13.4}
TILX_SL.DEG                                            :X-axis Tilt {F13.4}
TILY_SL.DEG                                            :Y-axis Tilt {F13.4}
ROTA_SL.DEG                                            :Motor Rotation Angle {F13.4}
MSPE_SL.RPM                                            :Motor Speed {F13.4}
#-----------------------------------------------------------------------------
# 
#     TIME    FREQ_EMF_SL  PH_SH_WPPCM_ FREQ_EXC_REQ    RB_SL       SDEV_SL      TILX_SL      TILY_SL      ROTA_SL      MSPE_SL
#                          SL           _SL
~A  
# ...
    1680.0    1128.6116       0.0000      50.8611      15.2010       5.5352       1.4491      -5.3410      66.4253       1.0226
    1681.0    1140.8157       0.0000      50.8611      19.6641       5.3472       1.7971      -5.0345      72.5169       1.0138
    1682.0    1146.3957       0.0000      50.8611      27.4541       5.2990       2.4397      -4.7009      78.6166       1.0226
    1683.0    1164.1143       0.0000      50.8611      31.8325       5.1258       2.7010      -4.3532      84.7189       1.0226
    1684.0    1175.7943       0.0000      50.8611      37.5236       5.0098       3.0490      -3.9714      90.7976       1.0208
    1685.0    1187.3744       0.0000      50.8611      44.6492       4.9054       3.4439      -3.4880      96.8980       1.0226
    1686.0    1202.2691       0.0000      50.8611      50.4365       4.8269       3.7183      -3.0722     102.9901       1.0138
    1687.0    1218.9432       0.0000      50.8611      57.4787       4.7925       4.0396      -2.5744     109.0893       1.0226
    1688.0    1236.0801       0.0000      50.8611      64.3099       4.6545       4.1935      -2.0157     115.1911       1.0052
    1689.0    1260.0811       0.0000      50.8611      70.5306       4.4771       4.2206      -1.4910     121.2837       1.0226
    1690.0    1280.3462       0.0000      50.8611      78.3899       4.4323       4.3411      -0.8914     127.3732       1.0208
    1691.0    1290.9365       0.0000      50.8611      85.2265       4.4172       4.4011      -0.3668     133.8813       1.0208
    1692.0    1325.3955       0.0000      50.8611      92.1722       4.3641       4.3610       0.1651     139.9832       1.0315
    1693.0    1339.2876       0.0000      50.8611     100.2690       4.1811       4.1136       0.7441     146.0982       1.0226
    1694.0    1367.9475       0.0000      50.8611     107.5986       4.2044       4.0066       1.2688     152.1878       1.0208
    1695.0    1392.3268       0.0000      50.8611     115.6049       4.3262       3.8992       1.8683     158.3007       1.0315
    1696.0    1415.6841       0.0000      50.8611     123.4208       4.1999       3.5043       2.3116     164.4048       1.0226
    1697.0    1420.4546       0.0000      50.8611     129.9949       4.2349       3.2431       2.7205     170.5067       1.0226
    1698.0    1434.4576       0.0000      50.8611     139.0682       4.2897       2.8083       3.2383     176.6086       1.0226
    1699.0    1440.3345       0.0000      50.8611     144.7052       4.2947       2.4799       3.5042     182.7236       1.0226
    1700.0    1453.2433       0.0000      50.8611     154.2327       4.3995       1.9112       3.9609     188.8255       1.0315
    1701.0    1455.7454       0.0000      50.8611     159.9222       4.4214       1.5162       4.1515     194.9411       1.0226
    1702.0    1455.7454       0.0000      50.8611     166.3650       4.5040       1.0609       4.3766     200.6938       0.1706
    1703.0    1465.8580       0.0000      50.8611     166.7065       4.5602       1.0474       4.4378     200.8304       0.0005
    1704.0    1459.2754       0.0000      50.8611     167.8626       4.5395       0.9536       4.4378     200.8304       0.0005
    1705.0    1461.7983       0.0000      50.8611     166.8149       4.5374       1.0339       4.4175     200.8304       0.0005
    1706.0    1466.8757       0.0000      50.8611     167.6599       4.5292       0.9671       4.4244     200.8304       0.0005
    1707.0    1463.8218       0.0000      50.8611     167.3212       4.4724       0.9806       4.3629     200.8304       0.0005
    1708.0    1464.8438       0.0000      50.8611     166.3852       4.5385       1.0673       4.4106     200.8304       0.0005
    1709.0    1465.3579       0.0000      50.8611     167.1990       4.5511       1.0072       4.4378     200.8304       0.0005
    1710.0    1470.9729       0.0000      50.8611     167.1579       4.4750       0.9937       4.3629     200.8304       0.0005
    1711.0    1465.8580       0.0000      50.8611     166.4228       4.5798       1.0741       4.4515     200.8304       0.0005
    1712.0    1459.7874       0.0000      50.8611     168.2228       4.5127       0.9201       4.4175     200.8304       0.0005
