~VERSION INFORMATION
VERS.           2.0   :CWLS Log ASCII Standard - VERSION 2.0
WRAP.           NO    :One Line per depth step
PROD.  Schlumberger   :LAS Producer
PROG.  DLIS to ASCII 19C2-270                          :LAS Program name and version
CREA.        2017/09/16 17:42                          :LAS Creation date {YYYY/MM/DD hh:mm}
DLIS_CREA.  2017-Sep-15 15:20                          :DLIS Creation date and time {YYYY-MMM-DD hh:mm}
SOURCE.     LPC_S2-1_2B5.DLIS                          :DLIS File Name
FILE-ID.     PERFO_Perfo_WPGRT_034LTP                  :File Identification Number
#--------------------------------------------------
~WELL INFORMATION
#MNEM.UNIT      DATA             DESCRIPTION
#---- ------ --------------   -----------------------------
STRT .S        16366.0       :START TIME      
STOP .S        16828.0       :STOP TIME      
STEP .S            1.0       :STEP     
NULL .          -999.25      :NULL VALUE
COMP .        SHELL INTERNATIONAL E P                  :COMPANY
WELL .        WPP TEST 2                               :WELL
FLD  .        WILDCAT                                  :FIELD
LOC  .                                                 :LOCATION
CNTY .        HARRIS                                   :COUNTY
STAT .        TEXAS                                    :STATE
CTRY .                                                 :COUNTRY
API  .                                                 :API NUMBER
UWI  .                                                 :UNIQUE WELL ID
DATE .                                                 :LOG DATE
SRVC .        Schlumberger                             :SERVICE COMPANY
LATI .DEG                                              :LATITUDE
LONG .DEG                                              :LONGITUDE
GDAT .                                                 :GeoDetic Datum
#-----------------------------------------------------------------------------
~PARAMETER INFORMATION
#MNEM.UNIT    VALUE                      DESCRIPTION
#---- -----   --------------------       ------------------------
U-PHASE_B_COMP_PER_YT.                 0 :Phase B Comparator Period Yt
U-PHASE_A_COMP_PER_XT.                 0 :Phase A Comparator Period Xt
U-MAX_EXC_CUR_LIMIT.MA       240.00000   :Requested CM Current Limit
U-REQ_EXC_FQ.HZ              50          :Requested CM Frequency
U-TILT_Y_OFFSET.           0.19916       :WPTET Tilt Y Offset
U-TILT_Y_GAIN.           1.01796         :WPTET Tilt Y Gain
U-TILT_X_OFFSET.          -1.77103       :WPTET Tilt X Offset
U-TILT_X_GAIN.           1.00000         :WPTET Tilt X Gain
U-TILT_OFFSET_TOL.           0.00100     :WPTET Tilt Offset Calibration Tolerance
U-NO_TILT_CAL_ROTATIONS.                 3 :Number of Rotations for Tilt Calibration
HAZI .DEG        0.00000                 :Hole Azimuth
U-STD_TOL_TILT.           0.01000        :Tilt Standard Deviation Tolerance
U-GUN_POS_TOL.DEG        5.00000         :Gun Position Tolerance
ROT_ANGLE_THRESHOLD.DEG        5.00000   :Rotation Stop Angle Tolerance
STOP_ROT_ANGLE.DEG       80.00000        :Rotation Stop Angle
WITN .                                   :Witness's Name
ENGI .                                   :Engineer's Name
COUN .        HARRIS                     :County or Rig Name
FN   .        WILDCAT                    :Field Name
WN   .        WPP TEST 2                 :Well Name
CN   .        SHELL INTERNATIONAL E P    :Company Name
CLAB .        County                     :County/Rig Label
SLAB .        State                      :State/Province Label
RUN  .          1                        :RUN NUMBER
PDAT .        GROUND LEVEL               :Permanent Datum
EPD  .                                   :Elevation of Permanent Datum above Mean Sea Level
LMF  .                                   :Logging Measured From (Name of Logging Elevation Reference)
APD  .                                   :Elevation of Depth Reference (LMF) above Permanent Datum
#-----------------------------------------------------------------------------
~CURVE INFORMATION
#MNEM.UNIT   API CODE                                  DESCRIPTION
#---- -----  --------                                  -----------------------
TIME .S                                                :TIME {F10.1}
FREQ_EMF_SL.HZ                                         :Electromagnetic Field Frequency {F13.4}
PH_SH_WPPCM_SL.DEG                                     :WPPCM Phase Shift {F13.4}
FREQ_EXC_REQ_SL.HZ                                     :Requested Exciter Frequency {F13.4}
RB_SL.DEG                                              :Relative Bearing {F13.4}
SDEV_SL.DEG                                            :Sonde Deviation {F13.4}
TILX_SL.DEG                                            :X-axis Tilt {F13.4}
TILY_SL.DEG                                            :Y-axis Tilt {F13.4}
ROTA_SL.DEG                                            :Motor Rotation Angle {F13.4}
MSPE_SL.RPM                                            :Motor Speed {F13.4}
#-----------------------------------------------------------------------------
# 
#     TIME    FREQ_EMF_SL  PH_SH_WPPCM_ FREQ_EXC_REQ    RB_SL       SDEV_SL      TILX_SL      TILY_SL      ROTA_SL      MSPE_SL
#                          SL           _SL
~A  
# ...
   16681.0    1342.1265       0.0000      50.8611     -73.3691       5.5642      -5.3306      -1.5901     298.7794       1.0293
   16682.0    1334.4845       0.0000      50.8611     -70.2988       5.5290      -5.2045      -1.8608     304.8934       1.0293
   16683.0    1312.1528       0.0000      50.8611     -64.1629       5.5619      -5.0036      -2.4218     311.4065       1.0161
   16684.0    1293.0838       0.0000      50.8611     -59.6690       5.5335      -4.7739      -2.7914     317.5061       1.0293
   16685.0    1268.0040       0.0000      50.8611     -54.9530       5.5516      -4.5425      -3.1847     323.6029       1.0161
   16686.0    1253.5892       0.0000      50.8611     -49.8189       5.5756      -4.2573      -3.5936     329.7038       1.0226
   16687.0    1223.3402       0.0000      50.8611     -44.9137       5.5989      -3.9497      -3.9616     335.8016       1.0186
   16688.0    1210.7015       0.0000      50.8611     -40.4154       5.4858      -3.5520      -4.1718     341.8847       1.0293
   16689.0    1196.5649       0.0000      50.8611     -34.8051       5.5179      -3.1463      -4.5283     347.9856       1.0226
   16690.0    1185.4356       0.0000      50.8611     -29.2677       5.3737      -2.6242      -4.6861     354.0819       1.0226
   16691.0    1179.2140       0.0000      50.8611     -25.0558       5.4288      -2.2972      -4.9159     223.3948       1.0293
   16692.0    1170.9505       0.0000      50.8611     -19.1143       5.4157      -1.7710      -5.1163       6.3056       1.0186
   16693.0    1169.9252       0.0000      50.8611     -15.3077       5.3585      -1.4135      -5.1670      12.3944       1.0186
   16694.0    1164.3909       0.0000      50.8611     -10.0328       5.2123      -0.9066      -5.1318      18.4832       1.0226
   16695.0    1168.1947       0.0000      50.8611      -4.1399       5.1151      -0.3692      -5.1007      24.9945       1.0226
   16696.0    1170.3955       0.0000      50.8611       1.2199       5.0260       0.1072      -5.0247      31.0962       1.0226
   16697.0    1170.2045       0.0000      50.8611       6.2781       4.9323       0.5394      -4.9020      37.1926       1.0186
   16698.0    1184.7620       0.0000      50.8611      12.2343       4.8278       1.0214      -4.7172      43.2966       1.0186
   16699.0    1195.5135       0.0000      50.8611      18.5985       4.6223       1.4728      -4.3803      49.3792       1.0226
   16700.0    1210.4972       0.0000      50.8611      24.1964       4.6523       1.9050      -4.2421      55.4766       1.0097
   16701.0    1221.8201       0.0000      50.8611      29.6363       4.5108       2.2264      -3.9191      61.6095       1.0226
   16702.0    1251.7695       0.0000      50.8611      36.2312       4.4465       2.6224      -3.5863      67.7073       1.0161
   16703.0    1272.9019       0.0000      50.8611      42.8472       4.2185       2.8674      -3.0915      73.8203       1.0293
   16704.0    1300.5911       0.0000      50.8611      47.8172       4.1421       3.0683      -2.7799      79.9294       1.0226
   16705.0    1318.9638       0.0000      50.8611      54.2283       4.1126       3.3358      -2.4021      86.0305       1.0226
   16706.0    1330.1154       0.0000      50.8611      60.7037       3.8765       3.3799      -1.8959      92.1330       1.0226
   16707.0    1345.0291       0.0000      50.8611      67.4415       3.7979       3.5061      -1.4560      98.6428       1.0226
   16708.0    1353.7788       0.0000      50.8611      75.1688       3.7991       3.6724      -0.9711     104.7438       1.0226
   16709.0    1361.6439       0.0000      50.8611      80.8970       3.6173       3.5711      -0.5720     110.8464       1.0226
   16710.0    1378.0330       0.0000      50.8611      87.6625       3.6305       3.6266      -0.1476     116.9489       1.0226
   16711.0    1377.6513       0.0000      50.8611      98.2460       3.4965       3.4603       0.5009     123.0452       1.0186
   16712.0    1393.3765       0.0000      50.8611     106.3839       3.6025       3.4547       1.0128     129.1385       1.0226
   16713.0    1406.5644       0.0000      50.8611     113.6385       3.4712       3.1791       1.3906     135.2412       1.0226
   16714.0    1417.2029       0.0000      50.8611     123.0820       3.4660       2.9036       1.8911     141.3446       1.0226
   16715.0    1418.0032       0.0000      50.8611     129.0140       3.5312       2.7445       2.2182     147.4458       1.0226
   16716.0    1423.7459       0.0000      50.8611     137.6912       3.5535       2.3910       2.6271     153.5602       1.0226
   16717.0    1434.9490       0.0000      50.8611     140.7671       3.6088       2.2786       2.7865     159.6759       1.0226
   16718.0    1438.5951       0.0000      50.8611     152.5495       3.6870       1.6986       3.2715     165.7916       1.0226
   16719.0    1444.5061       0.0000      50.8611     159.1017       3.7225       1.3258       3.4759     172.3131       1.0226
   16720.0    1448.3322       0.0000      50.8611     166.2243       3.8792       0.9242       3.7662     178.4034       1.0226
   16721.0    1449.7422       0.0000      50.8611     173.6344       3.9036       0.4325       3.8791     184.5014       1.0186
   16722.0    1447.4798       0.0000      50.8611      42.2151       4.0224       0.0710       4.0214     190.5949       1.0226
   16723.0    1451.5994       0.0000      50.8611    -172.6817       4.1026      -0.5218       4.0680     196.6961       1.0226
   16724.0    1455.0282       0.0000      50.8611    -166.5057       4.2157      -0.9830       4.0991     202.7987       1.0267
   16725.0    1455.7454       0.0000      50.8611    -160.1633       4.3103      -1.4609       4.0524     208.9275       1.0226
   16726.0    1445.6304       0.0000      50.8611    -152.9297       4.4033      -2.0024       3.9200     215.0287       1.0267
   16727.0    1457.6178       0.0000      50.8611    -148.1910       4.4403      -2.3390       3.7719     221.1429       1.0226
   16728.0    1445.6304       0.0000      50.8611    -140.8744       4.5680      -2.8804       3.5422     227.2586       1.0226
   16729.0    1440.1274       0.0000      50.8611    -135.2021       4.6557      -3.2781       3.3009     233.3612       1.0226
   16730.0    1435.6578       0.0000      50.8611    -130.0365       4.9196      -3.7641       3.1627     239.4624       1.0226
   16731.0    1427.3186       0.0000      50.8611    -124.2578       4.9520      -4.0911       2.7849     245.9723       1.0226
   16732.0    1419.3664       0.0000      50.8611    -119.5028       4.9967      -4.3473       2.4578     252.0882       1.0226
   16733.0    1414.7384       0.0000      50.8611    -112.2561       5.0395      -4.6630       1.9066     258.1770       1.0226
   16734.0    1410.4462       0.0000      50.8611    -107.4581       5.0941      -4.8582       1.5272     264.2779       1.0226
   16735.0    1398.9210       0.0000      50.8611    -103.2114       5.2966      -5.1547       1.2099     270.3680       1.0226
   16736.0    1392.7244       0.0000      50.8611     -97.6248       5.3481      -5.3001       0.7094     276.4711       1.0226
   16737.0    1382.8180       0.0000      50.8611     -92.2684       5.3768      -5.3708       0.2131     282.5720       1.0226
   16738.0    1367.9475       0.0000      50.8611     -86.7162       5.3740      -5.3651      -0.3070     288.6729       1.0226
   16739.0    1357.0282       0.0000      50.8611     -82.7848       5.5515      -5.5065      -0.6963     294.7753       1.0226
   16740.0    1345.0291       0.0000      50.8611     -77.9940       5.5639      -5.4415      -1.1559     300.8731       1.0161
   16741.0    1336.7396       0.0000      50.8611     -71.5294       5.4940      -5.2101      -1.7381     306.9674       1.0226
   16742.0    1317.3099       0.0000      50.8611     -66.1733       5.6259      -5.1450      -2.2697     313.0721       1.0226
   16743.0    1299.3497       0.0000      50.8611     -60.4836       5.5057      -4.7891      -2.7096     319.5550       1.0161
