~VERSION INFORMATION
VERS.           2.0   :CWLS Log ASCII Standard - VERSION 2.0
WRAP.           NO    :One Line per depth step
PROD.  Schlumberger   :LAS Producer
PROG.  DLIS to ASCII 19C2-270                          :LAS Program name and version
CREA.        2017/09/16 17:42                          :LAS Creation date {YYYY/MM/DD hh:mm}
DLIS_CREA.  2017-Sep-15 18:10                          :DLIS Creation date and time {YYYY-MMM-DD hh:mm}
SOURCE.     LPC_S4-1_2A5.DLIS                          :DLIS File Name
FILE-ID.     PERFO_Perfo_WPGRT_053LTP                  :File Identification Number
#--------------------------------------------------
~WELL INFORMATION
#MNEM.UNIT      DATA             DESCRIPTION
#---- ------ --------------   -----------------------------
STRT .S         4226.0       :START TIME      
STOP .S         4689.0       :STOP TIME      
STEP .S            1.0       :STEP     
NULL .          -999.25      :NULL VALUE
COMP .        SHELL INTERNATIONAL E P                  :COMPANY
WELL .        WPP TEST 2                               :WELL
FLD  .        WILDCAT                                  :FIELD
LOC  .        NA                                       :LOCATION
CNTY .        HARRIS                                   :COUNTY
STAT .        TEXAS                                    :STATE
CTRY .                                                 :COUNTRY
API  .        NA                                       :API NUMBER
UWI  .                                                 :UNIQUE WELL ID
DATE .        15-Sep-2017                              :LOG DATE {DD-MMM-YYYY}
SRVC .        Schlumberger                             :SERVICE COMPANY
LATI .DEG                                              :LATITUDE
LONG .DEG                                              :LONGITUDE
GDAT .                                                 :GeoDetic Datum
SECT .        NA                                       :Section
RANG .        NA                                       :Range
TOWN .        NA                                       :Township
#-----------------------------------------------------------------------------
~PARAMETER INFORMATION
#MNEM.UNIT    VALUE                      DESCRIPTION
#---- -----   --------------------       ------------------------
U-PHASE_B_COMP_PER_YT.                 0 :Phase B Comparator Period Yt
U-PHASE_A_COMP_PER_XT.                 0 :Phase A Comparator Period Xt
U-MAX_EXC_CUR_LIMIT.MA       240.00000   :Requested CM Current Limit
U-REQ_EXC_FQ.HZ              50          :Requested CM Frequency
U-TILT_Y_OFFSET.           0.19916       :WPTET Tilt Y Offset
U-TILT_Y_GAIN.           1.01796         :WPTET Tilt Y Gain
U-TILT_X_OFFSET.          -1.77103       :WPTET Tilt X Offset
U-TILT_X_GAIN.           1.00000         :WPTET Tilt X Gain
U-TILT_OFFSET_TOL.           0.00100     :WPTET Tilt Offset Calibration Tolerance
U-NO_TILT_CAL_ROTATIONS.                 3 :Number of Rotations for Tilt Calibration
HAZI .DEG        0.00000                 :Hole Azimuth
U-STD_TOL_TILT.           0.01000        :Tilt Standard Deviation Tolerance
U-GUN_POS_TOL.DEG        5.00000         :Gun Position Tolerance
ROT_ANGLE_THRESHOLD.DEG        5.00000   :Rotation Stop Angle Tolerance
STOP_ROT_ANGLE.DEG        0.00000        :Rotation Stop Angle
WITN .        MR. DHRUA ARORA            :Witness's Name
ENGI .        MORRIS MOORE               :Engineer's Name
COUN .        HARRIS                     :County or Rig Name
FN   .        WILDCAT                    :Field Name
WN   .        WPP TEST 2                 :Well Name
CN   .        SHELL INTERNATIONAL E P    :Company Name
CLAB .        County                     :County/Rig Label
SLAB .        State                      :State/Province Label
RUN  .          1                        :RUN NUMBER
PDAT .        GROUND LEVEL               :Permanent Datum
EPD  .                                   :Elevation of Permanent Datum above Mean Sea Level
LMF  .          NA                       :Logging Measured From (Name of Logging Elevation Reference)
APD  .                                   :Elevation of Depth Reference (LMF) above Permanent Datum
#-----------------------------------------------------------------------------
~CURVE INFORMATION
#MNEM.UNIT   API CODE                                  DESCRIPTION
#---- -----  --------                                  -----------------------
TIME .S                                                :TIME {F10.1}
FREQ_EMF_SL.HZ                                         :Electromagnetic Field Frequency {F13.4}
PH_SH_WPPCM_SL.DEG                                     :WPPCM Phase Shift {F13.4}
FREQ_EXC_REQ_SL.HZ                                     :Requested Exciter Frequency {F13.4}
RB_SL.DEG                                              :Relative Bearing {F13.4}
SDEV_SL.DEG                                            :Sonde Deviation {F13.4}
TILX_SL.DEG                                            :X-axis Tilt {F13.4}
TILY_SL.DEG                                            :Y-axis Tilt {F13.4}
ROTA_SL.DEG                                            :Motor Rotation Angle {F13.4}
MSPE_SL.RPM                                            :Motor Speed {F13.4}
#-----------------------------------------------------------------------------
# 
#     TIME    FREQ_EMF_SL  PH_SH_WPPCM_ FREQ_EXC_REQ    RB_SL       SDEV_SL      TILX_SL      TILY_SL      ROTA_SL      MSPE_SL
#                          SL           _SL
~A  
# ...
    4604.0    1504.6719       0.0000      50.8611    -164.5853       4.7284      -1.2561       4.5574     279.1867       1.0258
    4605.0    1502.0476       0.0000      50.8611    -157.3203       4.7630      -1.8349       4.3939     285.3017       1.0226
    4606.0    1487.4512       0.0000      50.8611    -152.3323       4.9231      -2.2840       4.3577     291.8093       1.0226
    4607.0    1498.2594       0.0000      50.8611    -145.8790       4.9851      -2.7943       4.1244     297.8989       1.0226
    4608.0    1478.4323       0.0000      50.8611    -141.2168       5.1066      -3.1959       3.9776     304.0007       1.0226
    4609.0    1467.9019       0.0000      50.8611    -133.9174       5.2669      -3.7912       3.6505     310.1025       1.0226
    4610.0    1460.9037       0.0000      50.8611    -127.7304       5.2474      -4.1481       3.2081     316.2173       1.0226
    4611.0    1442.4131       0.0000      50.8611    -123.1965       5.3294      -4.4576       2.9145     322.3199       1.0226
    4612.0    1431.1678       0.0000      50.8611    -117.4309       5.5089      -4.8876       2.5345     328.4217       1.0258
    4613.0    1414.7384       0.0000      50.8611    -111.2473       5.5214      -5.1450       1.9982     334.5367       1.0226
    4614.0    1397.0446       0.0000      50.8611    -106.3432       5.6136      -5.3860       1.5773     340.6407       1.0226
    4615.0    1395.7672       0.0000      50.8611    -100.3050       5.7199      -5.6270       1.0216     346.7425       1.0226
    4616.0    1370.9311       0.0000      50.8611     -95.4060       5.7734      -5.7475       0.5430     352.8464       1.0226
    4617.0    1340.3365       0.0000      50.8611     -89.9476       5.7877      -5.7877      -0.0053     358.9385       1.0302
    4618.0    1319.4773       0.0000      50.8611     -83.8745       5.8738      -5.8397      -0.6260       5.4554       1.0226
    4619.0    1278.9755       0.0000      50.8611     -79.8055       5.9553      -5.8608      -1.0516      11.5572       1.0226
    4620.0    1263.4416       0.0000      50.8611     -74.1674       5.9798      -5.7521      -1.6287      17.6553       1.0226
    4621.0    1242.2703       0.0000      50.8611     -68.9308       6.0063      -5.6033      -2.1556      23.7492       1.0152
    4622.0    1217.9656       0.0000      50.8611     -64.0276       6.1459      -5.5230      -2.6871      29.8387       1.0152
    4623.0    1203.8829       0.0000      50.8611     -59.2772       5.9880      -5.1450      -3.0551      35.9405       1.0258
    4624.0    1177.9968       0.0000      50.8611     -54.0507       6.0472      -4.8922      -3.5458      42.0555       1.0226
    4625.0    1161.6243       0.0000      50.8611     -49.8603       6.2313      -4.7598      -4.0123      48.1595       1.0226
    4626.0    1153.4417       0.0000      50.8611     -45.2035       6.0866      -4.3154      -4.2818      54.2591       1.0258
    4627.0    1134.2885       0.0000      50.8611     -37.0743       5.9094      -3.5600      -4.7074      60.3763       1.0226
    4628.0    1134.8255       0.0000      50.8611     -34.3054       5.8454      -3.2901      -4.8254      66.4658       1.0226
    4629.0    1139.8048       0.0000      50.8611     -29.2699       5.9891      -2.9240      -5.2222      72.5685       1.0226
    4630.0    1117.8457       0.0000      50.8611     -24.2279       6.0088      -2.4631      -5.4769      79.0629       1.0226
    4631.0    1114.3027       0.0000      50.8611     -19.7903       5.8124      -1.9646      -5.4675      85.1685       1.0258
    4632.0    1115.7619       0.0000      50.8611     -13.0963       5.8598      -1.3266      -5.7055      91.2795       1.0226
    4633.0    1120.3596       0.0000      50.8611      -7.8469       5.6903      -0.7761      -5.6358      97.3813       1.0226
    4634.0    1131.5017       0.0000      50.8611      -3.2710       5.6585      -0.3224      -5.6478     103.4830       1.0226
    4635.0    1141.9843       0.0000      50.8611       2.7492       5.4498       0.2610      -5.4434     109.5848       1.0195
    4636.0    1148.3442       0.0000      50.8611       7.9081       5.4327       0.7456      -5.3784     115.6743       1.0226
    4637.0    1162.9809       0.0000      50.8611      14.0980       5.2510       1.2770      -5.0922     121.7782       1.0226
    4638.0    1177.7638       0.0000      50.8611      19.8326       5.2402       1.7755      -4.9286     127.8664       1.0226
    4639.0    1192.9327       0.0000      50.8611      25.2315       4.9794       2.1205      -4.5030     133.9448       1.0226
    4640.0    1213.0857       0.0000      50.8611      30.8240       4.9263       2.5222      -4.2288     140.0445       1.0226
    4641.0    1239.8352       0.0000      50.8611      37.2754       4.9055       2.9686      -3.9017     146.1486       1.0226
    4642.0    1294.8895       0.0000      50.8611      42.9214       4.7017       3.2004      -3.4399     152.6440       1.0226
    4643.0    1325.3627       0.0000      50.8611      48.4725       4.6437       3.4743      -3.0766     158.7459       1.0226
    4644.0    1344.1209       0.0000      50.8611      55.2042       4.4630       3.6633      -2.5450     164.8478       1.0226
    4645.0    1372.8258       0.0000      50.8611      62.4929       4.3661       3.8714      -2.0135     170.9628       1.0302
    4646.0    1390.3868       0.0000      50.8611      71.2666       4.4028       4.1690      -1.4122     177.0647       1.0226
    4647.0    1405.1025       0.0000      50.8611      76.7388       4.0947       3.9847      -0.9383     183.1543       1.0226
    4648.0    1421.3028       0.0000      50.8611      84.8862       4.0912       4.0742      -0.3659     189.2584       1.0226
    4649.0    1438.7526       0.0000      50.8611      94.4016       4.0997       4.0861       0.3124     195.3603       1.0226
    4650.0    1450.0977       0.0000      50.8611      98.5161       3.8841       3.8405       0.5745     201.4498       1.0226
    4651.0    1463.9454       0.0000      50.8611     105.8611       4.0054       3.8523       1.0940     207.5556       1.0302
    4652.0    1470.9729       0.0000      50.8611     115.1477       4.0032       3.6232       1.7000     213.6583       1.0302
    4653.0    1478.0707       0.0000      50.8611     122.3007       3.9297       3.3209       2.0968     219.7826       1.0226
    4654.0    1494.3767       0.0000      50.8611     131.1234       3.9210       2.9522       2.5780     226.3034       1.0226
    4655.0    1499.2004       0.0000      50.8611     138.4392       4.1275       2.7369       3.0854     232.4092       1.0302
    4656.0    1505.6210       0.0000      50.8611     144.2661       4.0540       2.3661       3.2899     238.1733       0.0012
    4657.0    1508.8519       0.0000      50.8611     144.3721       4.1050       2.3898       3.3355     238.1733       0.0005
    4658.0    1503.3529       0.0000      50.8611     144.8729       4.0738       2.3424       3.3308     238.1733       0.0005
    4659.0    1504.6719       0.0000      50.8611     144.5545       4.2014       2.4346       3.4219     238.1733       0.0005
    4660.0    1507.8988       0.0000      50.8611     145.3869       4.1680       2.3661       3.4293     238.1733       0.0005
    4661.0    1512.0968       0.0000      50.8611     143.6610       4.0709       2.4109       3.2778     238.1733       0.0005
    4662.0    1502.0476       0.0000      50.8611     144.3066       4.0578       2.3661       3.2946     238.1733       0.0005
    4663.0    1507.8988       0.0000      50.8611     145.4837       4.1281       2.3378       3.4005     238.1733       0.0005
    4664.0    1509.2374       0.0000      50.8611     146.3589       4.1956       2.3214       3.4917     238.1733       0.0005
    4665.0    1509.8092       0.0000      50.8611     145.5257       4.0911       2.3141       3.3717     238.1733       0.0005
    4666.0    1506.2246       0.0000      50.8611     144.1777       4.1006       2.3991       3.3234     238.1733       0.0005
