~VERSION INFORMATION
VERS.           2.0   :CWLS Log ASCII Standard - VERSION 2.0
WRAP.           NO    :One Line per depth step
PROD.  Schlumberger   :LAS Producer
PROG.  DLIS to ASCII 19C2-270                          :LAS Program name and version
CREA.        2017/09/16 17:42                          :LAS Creation date {YYYY/MM/DD hh:mm}
DLIS_CREA.  2017-Sep-15 19:54                          :DLIS Creation date and time {YYYY-MMM-DD hh:mm}
SOURCE.     LPC_S5-1_2B5.DLIS                          :DLIS File Name
FILE-ID.     PERFO_Perfo_WPGRT_064LTP                  :File Identification Number
#--------------------------------------------------
~WELL INFORMATION
#MNEM.UNIT      DATA             DESCRIPTION
#---- ------ --------------   -----------------------------
STRT .S         1886.0       :START TIME      
STOP .S         2307.0       :STOP TIME      
STEP .S            1.0       :STEP     
NULL .          -999.25      :NULL VALUE
COMP .        SHELL INTERNATIONAL E P                  :COMPANY
WELL .        WPP TEST 2                               :WELL
FLD  .        WILDCAT                                  :FIELD
LOC  .        NA                                       :LOCATION
CNTY .        HARRIS                                   :COUNTY
STAT .        TEXAS                                    :STATE
CTRY .                                                 :COUNTRY
API  .        NA                                       :API NUMBER
UWI  .                                                 :UNIQUE WELL ID
DATE .        15-Sep-2017                              :LOG DATE {DD-MMM-YYYY}
SRVC .        Schlumberger                             :SERVICE COMPANY
LATI .DEG                                              :LATITUDE
LONG .DEG                                              :LONGITUDE
GDAT .                                                 :GeoDetic Datum
SECT .        NA                                       :Section
RANG .        NA                                       :Range
TOWN .        NA                                       :Township
#-----------------------------------------------------------------------------
~PARAMETER INFORMATION
#MNEM.UNIT    VALUE                      DESCRIPTION
#---- -----   --------------------       ------------------------
U-PHASE_B_COMP_PER_YT.                 0 :Phase B Comparator Period Yt
U-PHASE_A_COMP_PER_XT.                 0 :Phase A Comparator Period Xt
U-MAX_EXC_CUR_LIMIT.MA       240.00000   :Requested CM Current Limit
U-REQ_EXC_FQ.HZ              50          :Requested CM Frequency
U-TILT_Y_OFFSET.           0.19916       :WPTET Tilt Y Offset
U-TILT_Y_GAIN.           1.01796         :WPTET Tilt Y Gain
U-TILT_X_OFFSET.          -1.77103       :WPTET Tilt X Offset
U-TILT_X_GAIN.           1.00000         :WPTET Tilt X Gain
U-TILT_OFFSET_TOL.           0.00100     :WPTET Tilt Offset Calibration Tolerance
U-NO_TILT_CAL_ROTATIONS.                 3 :Number of Rotations for Tilt Calibration
HAZI .DEG        0.00000                 :Hole Azimuth
U-STD_TOL_TILT.           0.01000        :Tilt Standard Deviation Tolerance
U-GUN_POS_TOL.DEG        5.00000         :Gun Position Tolerance
ROT_ANGLE_THRESHOLD.DEG        5.00000   :Rotation Stop Angle Tolerance
STOP_ROT_ANGLE.DEG        0.00000        :Rotation Stop Angle
WITN .        MR. DHRUA ARORA            :Witness's Name
ENGI .        MORRIS MOORE               :Engineer's Name
COUN .        HARRIS                     :County or Rig Name
FN   .        WILDCAT                    :Field Name
WN   .        WPP TEST 2                 :Well Name
CN   .        SHELL INTERNATIONAL E P    :Company Name
CLAB .        County                     :County/Rig Label
SLAB .        State                      :State/Province Label
RUN  .          1                        :RUN NUMBER
PDAT .        GROUND LEVEL               :Permanent Datum
EPD  .                                   :Elevation of Permanent Datum above Mean Sea Level
LMF  .          NA                       :Logging Measured From (Name of Logging Elevation Reference)
APD  .                                   :Elevation of Depth Reference (LMF) above Permanent Datum
#-----------------------------------------------------------------------------
~CURVE INFORMATION
#MNEM.UNIT   API CODE                                  DESCRIPTION
#---- -----  --------                                  -----------------------
TIME .S                                                :TIME {F10.1}
FREQ_EMF_SL.HZ                                         :Electromagnetic Field Frequency {F13.4}
PH_SH_WPPCM_SL.DEG                                     :WPPCM Phase Shift {F13.4}
FREQ_EXC_REQ_SL.HZ                                     :Requested Exciter Frequency {F13.4}
RB_SL.DEG                                              :Relative Bearing {F13.4}
SDEV_SL.DEG                                            :Sonde Deviation {F13.4}
TILX_SL.DEG                                            :X-axis Tilt {F13.4}
TILY_SL.DEG                                            :Y-axis Tilt {F13.4}
ROTA_SL.DEG                                            :Motor Rotation Angle {F13.4}
MSPE_SL.RPM                                            :Motor Speed {F13.4}
#-----------------------------------------------------------------------------
# 
#     TIME    FREQ_EMF_SL  PH_SH_WPPCM_ FREQ_EXC_REQ    RB_SL       SDEV_SL      TILX_SL      TILY_SL      ROTA_SL      MSPE_SL
#                          SL           _SL
~A  
# ...
    2264.0    1424.8777       0.0000      50.8611    -170.1963       4.8081      -0.8178       4.7377     229.1166       1.0255
    2265.0    1430.6762       0.0000      50.8611    -164.1468       4.9538      -1.3507       4.7648     235.2214       1.0255
    2266.0    1444.3850       0.0000      50.8611    -158.9434       4.9484      -1.7766       4.6151     241.3205       1.0226
    2267.0    1457.9576       0.0000      50.8611    -150.3709       5.2135      -2.5744       4.5304     247.4356       1.0305
    2268.0    1458.1792       0.0000      50.8611    -146.2199       5.2465      -2.9144       4.3588     251.1777       0.0005
    2269.0    1468.7234       0.0000      50.8611    -147.4453       5.2575      -2.8261       4.4296     251.1777       0.0005
    2270.0    1469.3334       0.0000      50.8611    -146.9561       5.1535      -2.8074       4.3179     251.1777       0.0005
    2271.0    1473.2317       0.0000      50.8611    -146.5861       5.2242      -2.8742       4.3588     251.1777       0.0005
    2272.0    1467.3082       0.0000      50.8611    -146.8044       5.2601      -2.8770       4.3997     251.1777       0.0005
    2273.0    1469.5483       0.0000      50.8611    -146.5230       5.1822      -2.8555       4.3208     251.1777       0.0005
    2274.0    1473.2317       0.0000      50.8611    -147.1534       5.2328      -2.8340       4.3945     251.1777       0.0005
    2275.0    1475.5001       0.0000      50.8611    -146.3398       5.1601      -2.8555       4.2937     251.1777       0.0005
    2276.0    1468.7234       0.0000      50.8611    -144.8129       5.1665      -2.9732       4.2200     251.1777       0.0005
    2277.0    1467.3082       0.0000      50.8611    -144.6991       5.2566      -3.0349       4.2880     251.1777       0.0005
    2278.0    1473.2317       0.0000      50.8611    -146.8528       5.2363      -2.8606       4.3807     251.1777       0.0005
    2279.0    1470.9729       0.0000      50.8611    -145.8839       5.2076      -2.9195       4.3070     251.1777       0.0005
    2280.0    1475.7169       0.0000      50.8611    -147.0957       5.2562      -2.8527       4.4106     251.1777       0.0005
    2281.0    1470.9729       0.0000      50.8611    -146.8836       5.2213      -2.8504       4.3697     251.1777       0.0005
    2282.0    1476.3250       0.0000      50.8611    -147.3667       5.1559      -2.7780       4.3398     251.1777       0.0005
    2283.0    1471.7978       0.0000      50.8611    -148.2998       5.1959      -2.7271       4.4187     251.1777       0.0005
    2284.0    1466.4833       0.0000      50.8611    -146.8485       5.2120      -2.8476       4.3617     251.1777       0.0005
    2285.0    1473.2317       0.0000      50.8611    -146.5363       5.2762      -2.9064       4.3997     251.1777       0.0005
    2286.0    1479.4313       0.0000      50.8611    -146.3596       5.1789      -2.8663       4.3098     251.1777       0.0005
    2287.0    1471.7978       0.0000      50.8611    -146.6410       5.1980      -2.8555       4.3398     251.1777       0.0005
    2288.0    1468.7234       0.0000      50.8611    -146.3212       5.2548      -2.9116       4.3697     251.1777       0.0005
    2289.0    1474.6786       0.0000      50.8611    -144.9630       5.3189      -3.0507       4.3507     251.1777       0.0005
    2290.0    1472.6262       0.0000      50.8611    -145.0864       5.3964      -3.0881       4.4187     251.1777       0.0005
    2291.0    1472.6262       0.0000      50.8611    -145.8651       5.3092      -2.9783       4.3887     251.1777       0.0005
    2292.0    1470.1514       0.0000      50.8611    -146.8896       5.2069      -2.8420       4.3588     251.1777       0.0005
    2293.0    1475.5001       0.0000      50.8611    -146.1642       5.1680      -2.8742       4.2908     251.1777       0.0005
    2294.0    1471.7978       0.0000      50.8611    -147.0163       5.1431      -2.7967       4.3127     251.1777       0.0005
    2295.0    1475.7169       0.0000      50.8611    -147.0142       5.0330      -2.7378       4.2200     251.1777       0.0005
    2296.0    1468.7234       0.0000      50.8611    -147.4000       5.1725      -2.7864       4.3541     251.1777       0.0005
    2297.0    1475.5001       0.0000      50.8611    -148.1714       5.0918      -2.6846       4.3179     251.1777       0.0005
    2298.0    1474.0566       0.0000      50.8611    -147.0589       5.2119      -2.8373       4.3645     251.1777       0.0005
    2299.0    1471.7978       0.0000      50.8611    -145.1374       5.3274      -3.0461       4.3645     251.1777       0.0005
    2300.0    1470.1514       0.0000      50.8611    -147.0816       5.2483      -2.8504       4.4025     251.1777       0.0005
    2301.0    1472.4102       0.0000      50.8611    -148.7094       4.9678      -2.5562       4.2328     251.1777       0.0005
    2302.0    1477.1533       0.0000      50.8611    -149.9855       4.6786      -2.3418       4.0455     251.1777       0.0005
    2303.0    1465.6618       0.0000      50.8611    -146.6536       5.3504      -2.9359       4.4682     251.1777       0.0005
    2304.0    1469.3334       0.0000      50.8611    -151.7828       5.0023      -2.3567       4.3864     251.1777       0.0005
    2305.0    1474.8850       0.0000      50.8611    -156.2136       5.8676      -2.3390       5.3679     251.1777       0.0005
    2306.0    1470.9729       0.0000      50.8611    -124.3000       5.8583      -4.8283       3.2772     251.1777       0.0005
    2307.0    1468.5187       0.0000      50.8611    -136.6333       4.8041      -3.2426       3.4413     251.1777       0.0005
