~VERSION INFORMATION
VERS.           2.0   :CWLS Log ASCII Standard - VERSION 2.0
WRAP.           NO    :One Line per depth step
PROD.  Schlumberger   :LAS Producer
PROG.  DLIS to ASCII 19C2-270                          :LAS Program name and version
CREA.        2017/09/16 17:42                          :LAS Creation date {YYYY/MM/DD hh:mm}
DLIS_CREA.  2017-Sep-15 16:48                          :DLIS Creation date and time {YYYY-MMM-DD hh:mm}
SOURCE.     LPC_S3-1_2B5.DLIS                          :DLIS File Name
FILE-ID.     PERFO_Perfo_WPGRT_043LTP                  :File Identification Number
#--------------------------------------------------
~WELL INFORMATION
#MNEM.UNIT      DATA             DESCRIPTION
#---- ------ --------------   -----------------------------
STRT .S         4703.0       :START TIME      
STOP .S         5168.0       :STOP TIME      
STEP .S            1.0       :STEP     
NULL .          -999.25      :NULL VALUE
COMP .        SHELL INTERNATIONAL E P                  :COMPANY
WELL .        WPP TEST 2                               :WELL
FLD  .        WILDCAT                                  :FIELD
LOC  .                                                 :LOCATION
CNTY .        HARRIS                                   :COUNTY
STAT .        TEXAS                                    :STATE
CTRY .                                                 :COUNTRY
API  .                                                 :API NUMBER
UWI  .                                                 :UNIQUE WELL ID
DATE .                                                 :LOG DATE
SRVC .        Schlumberger                             :SERVICE COMPANY
LATI .DEG                                              :LATITUDE
LONG .DEG                                              :LONGITUDE
GDAT .                                                 :GeoDetic Datum
#-----------------------------------------------------------------------------
~PARAMETER INFORMATION
#MNEM.UNIT    VALUE                      DESCRIPTION
#---- -----   --------------------       ------------------------
U-PHASE_B_COMP_PER_YT.                 0 :Phase B Comparator Period Yt
U-PHASE_A_COMP_PER_XT.                 0 :Phase A Comparator Period Xt
U-MAX_EXC_CUR_LIMIT.MA       240.00000   :Requested CM Current Limit
U-REQ_EXC_FQ.HZ              50          :Requested CM Frequency
U-TILT_Y_OFFSET.           0.19916       :WPTET Tilt Y Offset
U-TILT_Y_GAIN.           1.01796         :WPTET Tilt Y Gain
U-TILT_X_OFFSET.          -1.77103       :WPTET Tilt X Offset
U-TILT_X_GAIN.           1.00000         :WPTET Tilt X Gain
U-TILT_OFFSET_TOL.           0.00100     :WPTET Tilt Offset Calibration Tolerance
U-NO_TILT_CAL_ROTATIONS.                 3 :Number of Rotations for Tilt Calibration
HAZI .DEG        0.00000                 :Hole Azimuth
U-STD_TOL_TILT.           0.01000        :Tilt Standard Deviation Tolerance
U-GUN_POS_TOL.DEG        5.00000         :Gun Position Tolerance
ROT_ANGLE_THRESHOLD.DEG        5.00000   :Rotation Stop Angle Tolerance
STOP_ROT_ANGLE.DEG        0.00000        :Rotation Stop Angle
WITN .                                   :Witness's Name
ENGI .                                   :Engineer's Name
COUN .        HARRIS                     :County or Rig Name
FN   .        WILDCAT                    :Field Name
WN   .        WPP TEST 2                 :Well Name
CN   .        SHELL INTERNATIONAL E P    :Company Name
CLAB .        County                     :County/Rig Label
SLAB .        State                      :State/Province Label
RUN  .          1                        :RUN NUMBER
PDAT .        GROUND LEVEL               :Permanent Datum
EPD  .                                   :Elevation of Permanent Datum above Mean Sea Level
LMF  .                                   :Logging Measured From (Name of Logging Elevation Reference)
APD  .                                   :Elevation of Depth Reference (LMF) above Permanent Datum
#-----------------------------------------------------------------------------
~CURVE INFORMATION
#MNEM.UNIT   API CODE                                  DESCRIPTION
#---- -----  --------                                  -----------------------
TIME .S                                                :TIME {F10.1}
FREQ_EMF_SL.HZ                                         :Electromagnetic Field Frequency {F13.4}
PH_SH_WPPCM_SL.DEG                                     :WPPCM Phase Shift {F13.4}
FREQ_EXC_REQ_SL.HZ                                     :Requested Exciter Frequency {F13.4}
RB_SL.DEG                                              :Relative Bearing {F13.4}
SDEV_SL.DEG                                            :Sonde Deviation {F13.4}
TILX_SL.DEG                                            :X-axis Tilt {F13.4}
TILY_SL.DEG                                            :Y-axis Tilt {F13.4}
ROTA_SL.DEG                                            :Motor Rotation Angle {F13.4}
MSPE_SL.RPM                                            :Motor Speed {F13.4}
#-----------------------------------------------------------------------------
# 
#     TIME    FREQ_EMF_SL  PH_SH_WPPCM_ FREQ_EXC_REQ    RB_SL       SDEV_SL      TILX_SL      TILY_SL      ROTA_SL      MSPE_SL
#                          SL           _SL
~A  
# ...
    4892.0    1446.9010       0.0000      50.8611    -178.6464       5.0254      -0.1185       5.0239     163.7991       0.0005
    4893.0    1446.7593       0.0000      50.8611    -162.4544       5.1371      -0.0400       5.1369     163.7991       0.0005
    4894.0    1446.7593       0.0000      50.8611    -179.5109       5.1448      -0.0439       5.1447     163.7991       0.0005
    4895.0    1446.7593       0.0000      50.8611    -179.8928       5.0279      -0.0075       5.0278     163.7991       0.0005
    4896.0    1443.8238       0.0000      50.8611    -179.8926       5.1360      -0.0075       5.1359     163.7991       0.0005
    4897.0    1455.1774       0.0000      50.8611    -179.4778       5.0261      -0.0458       5.0259     163.7991       0.0005
    4898.0    1449.8845       0.0000      50.8611    -179.0628       5.0285      -0.0821       5.0278     163.7991       0.0005
    4899.0    1447.0433       0.0000      50.8611    -179.8703       5.0240      -0.0094       5.0239     163.7991       0.0005
    4900.0    1449.6005       0.0000      50.8611    -177.7736       5.0299      -0.1950       5.0259     163.7991       0.0005
    4901.0    1452.3126       0.0000      50.8611    -179.0773       5.1064      -0.0821       5.1057     163.7991       0.0005
    4902.0    1452.7377       0.0000      50.8611     162.0894       5.1413       0.0728       5.1408     163.7991       0.0005
    4903.0    1444.2137       0.0000      50.8611    -178.9985       5.0286      -0.0878       5.0278     163.7991       0.0005
    4904.0    1446.9010       0.0000      50.8611    -179.0628       5.0285      -0.0821       5.0278     163.7991       0.0005
    4905.0    1449.4594       0.0000      50.8611     179.5837       5.0260       0.0365       5.0259     163.7991       0.0005
    4906.0    1449.6005       0.0000      50.8611    -179.9346       5.0259      -0.0037       5.0259     163.7991       0.0005
    4907.0    1443.9297       0.0000      50.8611    -179.0624       5.0246      -0.0821       5.0239     163.7991       0.0005
    4908.0    1443.9297       0.0000      50.8611    -179.4570       4.9848      -0.0472       4.9845     163.7991       0.0005
    4909.0    1443.9297       0.0000      50.8611    -179.5275       5.1059      -0.0420       5.1057     163.7991       0.0005
    4910.0    1446.7593       0.0000      50.8611    -161.1750       5.1452      -0.1548       5.1427     163.7991       0.0005
    4911.0    1446.6182       0.0000      50.8611    -179.0756       4.9837      -0.0802       4.9831     163.7991       0.0005
    4912.0    1449.7422       0.0000      50.8611    -179.8524       5.1097      -0.0113       5.1096     163.7991       0.0005
    4913.0    1449.4594       0.0000      50.8611    -179.4957       4.9891      -0.0439       4.9889     163.7991       0.0005
    4914.0    1452.5954       0.0000      50.8611    -161.1614       5.1024      -0.1548       5.0999     163.7991       0.0005
    4915.0    1449.6005       0.0000      50.8611    -162.0205       5.1025      -0.0783       5.1018     163.7991       0.0005
    4916.0    1446.7593       0.0000      50.8611    -179.0552       5.1025      -0.0840       5.1018     163.7991       0.0005
    4917.0    1449.8845       0.0000      50.8611     162.5392       5.1837       0.0327       5.1836     163.7991       0.0005
    4918.0    1446.7593       0.0000      50.8611    -178.6144       5.0624      -0.1223       5.0609     163.7991       0.0005
    4919.0    1452.4537       0.0000      50.8611    -179.4774       5.0242      -0.0458       5.0239     163.7991       0.0005
    4920.0    1452.5954       0.0000      50.8611    -162.0131       5.0655      -0.0783       5.0648     163.7991       0.0005
    4921.0    1444.2137       0.0000      50.8611    -179.0293       5.0753      -0.0859       5.0745     163.7991       0.0005
    4922.0    1444.0714       0.0000      50.8611    -178.2099       5.0285      -0.1567       5.0259     163.7991       0.0005
    4923.0    1449.6005       0.0000      50.8611    -179.5160       4.9910      -0.0420       4.9908     163.7991       0.0005
    4924.0    1449.7422       0.0000      50.8611     161.7206       4.9456       0.1015       4.9441     163.7991       0.0005
    4925.0    1446.9010       0.0000      50.8611     162.1020       5.2250       0.0728       5.2245     163.7991       0.0005
    4926.0    1441.1115       0.0000      50.8611    -179.5313       5.1448      -0.0420       5.1447     163.7991       0.0005
    4927.0    1449.1789       0.0000      50.8611    -178.8921       4.9726      -0.0955       4.9714     163.7991       0.0005
    4928.0    1452.4537       0.0000      50.8611     177.0373       5.1538       0.2660       5.1466     163.7991       0.0005
    4929.0    1449.8845       0.0000      50.8611    -179.9361       5.1466      -0.0037       5.1466     163.7991       0.0005
    4930.0    1444.0714       0.0000      50.8611    -159.8704       5.0764      -0.2677       5.0687     163.7991       0.0005
    4931.0    1449.3189       0.0000      50.8611     179.1402       4.9894       0.0747       4.9889     163.7991       0.0005
    4932.0    1452.5954       0.0000      50.8611     162.0762       5.0654       0.0728       5.0648     163.7991       0.0005
    4933.0    1446.7593       0.0000      50.8611     162.5064       5.0260       0.0346       5.0259     163.7991       0.0005
    4934.0    1446.7593       0.0000      50.8611    -179.4990       5.0222      -0.0439       5.0220     163.7991       0.0005
    4935.0    1444.2137       0.0000      50.8611    -179.8907       4.9441      -0.0075       4.9441     163.7991       0.0005
    4936.0    1446.9010       0.0000      50.8611     162.0894       5.1433       0.0728       5.1427     163.7991       0.0005
    4937.0    1446.9010       0.0000      50.8611    -162.8573       5.0707      -0.0018       5.0707     163.7991       0.0005
    4938.0    1444.0714       0.0000      50.8611    -179.0775       5.1083      -0.0821       5.1077     163.7991       0.0005
    4939.0    1450.0273       0.0000      50.8611    -179.0622       5.0227      -0.0821       5.0220     163.7991       0.0005
    4940.0    1441.1115       0.0000      50.8611     162.5399       5.1760       0.0327       5.1758     163.7991       0.0005
    4941.0    1446.4776       0.0000      50.8611     177.4985       5.2608       0.2297       5.2557     163.7991       0.0005
    4942.0    1449.6005       0.0000      50.8611    -160.4086       5.1873      -0.2256       5.1817     163.7991       0.0005
    4943.0    1449.7422       0.0000      50.8611     178.7292       5.2745       0.1168       5.2732     163.7991       0.0005
    4944.0    1446.9010       0.0000      50.8611    -176.8041       4.9150      -0.2734       4.9071     163.7991       0.0005
    4945.0    1449.3189       0.0000      50.8611    -162.9393       5.0767       0.0058       5.0765     163.7991       0.0005
    4946.0    1449.4594       0.0000      50.8611    -179.4370       5.0613      -0.0496       5.0609     163.7991       0.0005
    4947.0    1443.9297       0.0000      50.8611    -179.8938       5.1058      -0.0075       5.1057     163.7991       0.0005
    4948.0    1441.1115       0.0000      50.8611    -179.0831       5.0246      -0.0802       5.0239     163.7991       0.0005
    4949.0    1452.3126       0.0000      50.8611     162.5096       5.0650       0.0346       5.0648     163.7991       0.0005
    4950.0    1449.4594       0.0000      50.8611     162.5749       5.0592       0.0288       5.0590     163.7991       0.0005
    4951.0    1447.1861       0.0000      50.8611    -179.8718       5.1409      -0.0094       5.1408     163.7991       0.0005
    4952.0    1441.3955       0.0000      50.8611    -178.6785       5.1442      -0.1185       5.1427     163.7991       0.0005
    4953.0    1449.1789       0.0000      50.8611    -162.4426       5.0261      -0.0400       5.0259     163.7991       0.0005
    4954.0       0.0000       0.0000      50.8611    -162.8578       5.0648      -0.0018       5.0648     163.7991       0.0005
