~VERSION INFORMATION
VERS.           2.0   :CWLS Log ASCII Standard - VERSION 2.0
WRAP.           NO    :One Line per depth step
PROD.  Schlumberger   :LAS Producer
PROG.  DLIS to ASCII 19C2-270                          :LAS Program name and version
CREA.        2017/09/16 17:42                          :LAS Creation date {YYYY/MM/DD hh:mm}
DLIS_CREA.  2017-Sep-15 15:33                          :DLIS Creation date and time {YYYY-MMM-DD hh:mm}
SOURCE.     LPC_S2-1_2BV.DLIS                          :DLIS File Name
FILE-ID.     PERFO_Perfo_WPGRT_036LTP                  :File Identification Number
#--------------------------------------------------
~WELL INFORMATION
#MNEM.UNIT      DATA             DESCRIPTION
#---- ------ --------------   -----------------------------
STRT .S          212.0       :START TIME      
STOP .S          624.0       :STOP TIME      
STEP .S            1.0       :STEP     
NULL .          -999.25      :NULL VALUE
COMP .        SHELL INTERNATIONAL E P                  :COMPANY
WELL .        WPP TEST 2                               :WELL
FLD  .        WILDCAT                                  :FIELD
LOC  .                                                 :LOCATION
CNTY .        HARRIS                                   :COUNTY
STAT .        TEXAS                                    :STATE
CTRY .                                                 :COUNTRY
API  .                                                 :API NUMBER
UWI  .                                                 :UNIQUE WELL ID
DATE .                                                 :LOG DATE
SRVC .        Schlumberger                             :SERVICE COMPANY
LATI .DEG                                              :LATITUDE
LONG .DEG                                              :LONGITUDE
GDAT .                                                 :GeoDetic Datum
#-----------------------------------------------------------------------------
~PARAMETER INFORMATION
#MNEM.UNIT    VALUE                      DESCRIPTION
#---- -----   --------------------       ------------------------
U-PHASE_B_COMP_PER_YT.                 0 :Phase B Comparator Period Yt
U-PHASE_A_COMP_PER_XT.                 0 :Phase A Comparator Period Xt
U-MAX_EXC_CUR_LIMIT.MA       240.00000   :Requested CM Current Limit
U-REQ_EXC_FQ.HZ              50          :Requested CM Frequency
U-TILT_Y_OFFSET.           0.19916       :WPTET Tilt Y Offset
U-TILT_Y_GAIN.           1.01796         :WPTET Tilt Y Gain
U-TILT_X_OFFSET.          -1.77103       :WPTET Tilt X Offset
U-TILT_X_GAIN.           1.00000         :WPTET Tilt X Gain
U-TILT_OFFSET_TOL.           0.00100     :WPTET Tilt Offset Calibration Tolerance
U-NO_TILT_CAL_ROTATIONS.                 3 :Number of Rotations for Tilt Calibration
HAZI .DEG        0.00000                 :Hole Azimuth
U-STD_TOL_TILT.           0.01000        :Tilt Standard Deviation Tolerance
U-GUN_POS_TOL.DEG        5.00000         :Gun Position Tolerance
ROT_ANGLE_THRESHOLD.DEG        5.00000   :Rotation Stop Angle Tolerance
STOP_ROT_ANGLE.DEG        0.00000        :Rotation Stop Angle
WITN .                                   :Witness's Name
ENGI .                                   :Engineer's Name
COUN .        HARRIS                     :County or Rig Name
FN   .        WILDCAT                    :Field Name
WN   .        WPP TEST 2                 :Well Name
CN   .        SHELL INTERNATIONAL E P    :Company Name
CLAB .        County                     :County/Rig Label
SLAB .        State                      :State/Province Label
RUN  .          1                        :RUN NUMBER
PDAT .        GROUND LEVEL               :Permanent Datum
EPD  .                                   :Elevation of Permanent Datum above Mean Sea Level
LMF  .                                   :Logging Measured From (Name of Logging Elevation Reference)
APD  .                                   :Elevation of Depth Reference (LMF) above Permanent Datum
#-----------------------------------------------------------------------------
~CURVE INFORMATION
#MNEM.UNIT   API CODE                                  DESCRIPTION
#---- -----  --------                                  -----------------------
TIME .S                                                :TIME {F10.1}
FREQ_EMF_SL.HZ                                         :Electromagnetic Field Frequency {F13.4}
PH_SH_WPPCM_SL.DEG                                     :WPPCM Phase Shift {F13.4}
FREQ_EXC_REQ_SL.HZ                                     :Requested Exciter Frequency {F13.4}
RB_SL.DEG                                              :Relative Bearing {F13.4}
SDEV_SL.DEG                                            :Sonde Deviation {F13.4}
TILX_SL.DEG                                            :X-axis Tilt {F13.4}
TILY_SL.DEG                                            :Y-axis Tilt {F13.4}
ROTA_SL.DEG                                            :Motor Rotation Angle {F13.4}
MSPE_SL.RPM                                            :Motor Speed {F13.4}
#-----------------------------------------------------------------------------
# 
#     TIME    FREQ_EMF_SL  PH_SH_WPPCM_ FREQ_EXC_REQ    RB_SL       SDEV_SL      TILX_SL      TILY_SL      ROTA_SL      MSPE_SL
#                          SL           _SL
~A  
# ...
     401.0    1450.6483       0.0000      50.8611     -62.7365       0.8965      -0.7949      -0.4104      31.2869       0.0005
     402.0    1455.7454       0.0000      50.8611     -59.4235       0.8725      -0.7510      -0.4427      31.2869       0.0005
     403.0    1452.7377       0.0000      50.8611     -54.8664       0.8213      -0.6707      -0.4712      31.2869       0.0005
     404.0    1452.7377       0.0000      50.8611     -54.6423       0.8076      -0.6585      -0.4674      31.2869       0.0005
     405.0    1450.6483       0.0000      50.8611     -62.4680       0.8964      -0.7949      -0.4142      31.2869       0.0005
     406.0    1453.6475       0.0000      50.8611     -58.6633       0.8511      -0.7267      -0.4427      31.2869       0.0005
     407.0    1452.7377       0.0000      50.8611     -54.8534       0.8399      -0.6865      -0.4836      31.2869       0.0005
     408.0    1452.7377       0.0000      50.8611     -50.4717       0.8708      -0.6707      -0.5530      31.2869       0.0005
     409.0    1456.9421       0.0000      50.8611     -53.2296       0.8766      -0.7024      -0.5245      31.2869       0.0005
     410.0    1452.7377       0.0000      50.8611     -50.5413       0.8895      -0.6865      -0.5653      31.2869       0.0005
     411.0    1454.5611       0.0000      50.8611     -52.4484       0.9016      -0.7145      -0.5492      31.2869       0.0005
     412.0    1457.8519       0.0000      50.8611     -50.1389       0.8709      -0.6622      -0.5578      31.2869       0.0005
     413.0    1458.1514       0.0000      50.8611     -51.0571       1.0743      -0.8350      -0.6756      31.2869       0.0005
     414.0    1449.7422       0.0000      50.8611     -60.3876       0.9704      -0.8435      -0.4798      31.2869       0.0005
     415.0    1448.5677       0.0000      50.8611     -47.9634       1.0649      -0.7912      -0.7127      31.2869       0.0005
     416.0    1450.9292       0.0000      50.8611     -48.1116       1.0304      -0.7669      -0.6880      31.2869       0.0005
     417.0    1453.9294       0.0000      50.8611     -52.7327       1.0815      -0.8593      -0.6557      31.2869       0.0005
     418.0    1451.8315       0.0000      50.8611     -50.6506       0.9220      -0.7108      -0.5863      31.2869       0.0005
     419.0    1447.4055       0.0000      50.8611     -46.0281       0.6412      -0.4455      -0.4502      31.2869       0.0005
     420.0    1449.7422       0.0000      50.8611     -55.2124       0.9191      -0.7547      -0.5245      31.2869       0.0005
     421.0    1448.8399       0.0000      50.8611     -49.9416       0.9809      -0.7510      -0.6310      31.2869       0.0005
     422.0    1447.6616       0.0000      50.8611     -49.8205       0.9145      -0.6987      -0.5901      31.2869       0.0005
     423.0    1445.5895       0.0000      50.8611     -56.8878       0.9106      -0.7631      -0.4959      31.2869       0.0005
     424.0    1453.9294       0.0000      50.8611     -48.4238       0.9559      -0.7145      -0.6348      31.2869       0.0005
     425.0    1448.8399       0.0000      50.8611     -53.7300       0.8864      -0.7145      -0.5245      31.2869       0.0005
     426.0    1444.6872       0.0000      50.8611     -56.5062       0.9642      -0.8033      -0.5330      31.2869       0.0005
     427.0    1449.7422       0.0000      50.8611     -52.5558       0.9505      -0.7547      -0.5777      33.7709       0.6915
     428.0    1460.8809       0.0000      50.8611     -54.1557       0.8469      -0.6865      -0.4959      38.7721       0.9423
     429.0    1449.7422       0.0000      50.8611     -58.7460       0.9106      -0.7753      -0.4760      44.7885       1.0152
     430.0    1450.6483       0.0000      50.8611     -54.1620       0.7490      -0.6062      -0.4389      50.9019       1.0258
     431.0    1447.6616       0.0000      50.8611     -59.2782       0.9764      -0.8388      -0.4997      57.0016       1.0226
     432.0    1450.9292       0.0000      50.8611     -57.4784       0.9758      -0.8229      -0.5245      63.1044       1.0226
     433.0    1446.7593       0.0000      50.8611     -62.4878       0.8374      -0.7426      -0.3856      69.1930       1.0226
     434.0    1447.6616       0.0000      50.8611     -57.6595       0.9330      -0.7864      -0.4922      75.3078       1.0226
     435.0    1445.8606       0.0000      50.8611     -62.8499       0.9973      -0.8874      -0.4551      81.4104       1.0226
     436.0    1434.6895       0.0000      50.8611     -62.0628       0.9488      -0.8350      -0.4465      87.5252       1.0152
     437.0    1432.6593       0.0000      50.8611     -61.7890       0.8524      -0.7510      -0.4018      93.6155       1.0226
     438.0    1430.8804       0.0000      50.8611     -63.0009       0.9215      -0.8192      -0.4179      99.7172       1.0226
     439.0    1422.7448       0.0000      50.8611     -65.3070       0.9037      -0.8192      -0.3771     106.2402       1.0226
     440.0    1414.7384       0.0000      50.8611     -62.1303       1.0387      -0.9154      -0.4874     112.3297       1.0226
     441.0    1402.3422       0.0000      50.8611     -64.0891       0.9574      -0.8593      -0.4179     118.4229       1.0152
     442.0    1396.7706       0.0000      50.8611     -61.7663       0.9473      -0.8313      -0.4465     124.5124       1.0152
     443.0    1389.3082       0.0000      50.8611     -63.6680       1.0071      -0.8995      -0.4465     130.6105       1.0226
     444.0    1380.3184       0.0000      50.8611     -62.2946       1.0972      -0.9714      -0.5083     136.7038       1.0080
     445.0    1365.0909       0.0000      50.8611     -60.9738       1.0287      -0.8995      -0.4990     142.7810       1.0152
     446.0    1360.0098       0.0000      50.8611     -63.5388       1.0877      -0.9714      -0.4874     148.8792       1.0226
     447.0    1352.4135       0.0000      50.8611     -64.9292       1.0065      -0.9117      -0.4265     154.9818       1.0194
     448.0    1334.9703       0.0000      50.8611     -69.7269       1.1133      -1.0443      -0.3856     161.0969       1.0226
     449.0    1325.6670       0.0000      50.8611     -60.5850       1.0986      -0.9555      -0.5406     166.7938       1.0226
     450.0    1313.5106       0.0000      50.8611     -62.2946       1.0972      -0.9714      -0.5083     172.8957       1.0226
     451.0    1293.2293       0.0000      50.8611     -62.4408       1.1399      -1.0079      -0.5282     179.2736       1.0152
     452.0    1266.8918       0.0000      50.8611     -63.3686       0.9800      -0.8752      -0.4389     185.4952       1.0226
     453.0    1259.8796       0.0000      50.8611     -57.4479       1.0896      -0.9117      -0.5853     191.5868       1.0226
     454.0    1226.2521       0.0000      50.8611     -56.7966       1.0370      -0.8668      -0.5691     197.7019       1.0226
     455.0    1220.5141       0.0000      50.8611     -59.1563       1.3030      -1.1162      -0.6681     203.8016       1.0226
     456.0    1211.4625       0.0000      50.8611     -61.9493       1.2210      -1.0760      -0.5739     209.9035       1.0226
     457.0    1205.7337       0.0000      50.8611     -60.0235       1.1465      -0.9920      -0.5739     216.0194       1.0226
     458.0    1192.7916       0.0000      50.8611     -58.0266       1.1693      -0.9920      -0.6186     222.1204       1.0152
     459.0    1194.9910       0.0000      50.8611     -53.8818       1.0849      -0.8715      -0.6385     228.2121       1.0226
     460.0    1199.8721       0.0000      50.8611     -55.0164       1.2004      -0.9836      -0.6880     234.2995       1.0226
     461.0    1198.8419       0.0000      50.8611     -56.3579       1.1914      -0.9920      -0.6595     240.3891       1.0226
     462.0    1203.3585       0.0000      50.8611     -59.0638       1.1573      -0.9920      -0.5939     246.4787       1.0194
     463.0    1214.3783       0.0000      50.8611     -47.7869       1.1222      -0.8313      -0.7536     252.8782       1.0226
