~VERSION INFORMATION
VERS.           2.0   :CWLS Log ASCII Standard - VERSION 2.0
WRAP.           NO    :One Line per depth step
PROD.  Schlumberger   :LAS Producer
PROG.  DLIS to ASCII 19C2-270                          :LAS Program name and version
CREA.        2017/09/16 17:42                          :LAS Creation date {YYYY/MM/DD hh:mm}
DLIS_CREA.  2017-Sep-15 14:28                          :DLIS Creation date and time {YYYY-MMM-DD hh:mm}
SOURCE.     LPC_S2-1_A5.DLIS                           :DLIS File Name
FILE-ID.     PERFO_Perfo_WPGRT_029LTP                  :File Identification Number
#--------------------------------------------------
~WELL INFORMATION
#MNEM.UNIT      DATA             DESCRIPTION
#---- ------ --------------   -----------------------------
STRT .S        13288.0       :START TIME      
STOP .S        13773.0       :STOP TIME      
STEP .S            1.0       :STEP     
NULL .          -999.25      :NULL VALUE
COMP .        SHELL INTERNATIONAL E P                  :COMPANY
WELL .        WPP TEST 2                               :WELL
FLD  .        WILDCAT                                  :FIELD
LOC  .                                                 :LOCATION
CNTY .        HARRIS                                   :COUNTY
STAT .        TEXAS                                    :STATE
CTRY .                                                 :COUNTRY
API  .                                                 :API NUMBER
UWI  .                                                 :UNIQUE WELL ID
DATE .                                                 :LOG DATE
SRVC .        Schlumberger                             :SERVICE COMPANY
LATI .DEG                                              :LATITUDE
LONG .DEG                                              :LONGITUDE
GDAT .                                                 :GeoDetic Datum
#-----------------------------------------------------------------------------
~PARAMETER INFORMATION
#MNEM.UNIT    VALUE                      DESCRIPTION
#---- -----   --------------------       ------------------------
U-PHASE_B_COMP_PER_YT.                 0 :Phase B Comparator Period Yt
U-PHASE_A_COMP_PER_XT.                 0 :Phase A Comparator Period Xt
U-MAX_EXC_CUR_LIMIT.MA       240.00000   :Requested CM Current Limit
U-REQ_EXC_FQ.HZ              50          :Requested CM Frequency
U-TILT_Y_OFFSET.           0.19916       :WPTET Tilt Y Offset
U-TILT_Y_GAIN.           1.01796         :WPTET Tilt Y Gain
U-TILT_X_OFFSET.          -1.77103       :WPTET Tilt X Offset
U-TILT_X_GAIN.           1.00000         :WPTET Tilt X Gain
U-TILT_OFFSET_TOL.           0.00100     :WPTET Tilt Offset Calibration Tolerance
U-NO_TILT_CAL_ROTATIONS.                 3 :Number of Rotations for Tilt Calibration
HAZI .DEG        0.00000                 :Hole Azimuth
U-STD_TOL_TILT.           0.01000        :Tilt Standard Deviation Tolerance
U-GUN_POS_TOL.DEG        5.00000         :Gun Position Tolerance
ROT_ANGLE_THRESHOLD.DEG        5.00000   :Rotation Stop Angle Tolerance
STOP_ROT_ANGLE.DEG       80.00000        :Rotation Stop Angle
WITN .                                   :Witness's Name
ENGI .                                   :Engineer's Name
COUN .        HARRIS                     :County or Rig Name
FN   .        WILDCAT                    :Field Name
WN   .        WPP TEST 2                 :Well Name
CN   .        SHELL INTERNATIONAL E P    :Company Name
CLAB .        County                     :County/Rig Label
SLAB .        State                      :State/Province Label
RUN  .          1                        :RUN NUMBER
PDAT .        GROUND LEVEL               :Permanent Datum
EPD  .                                   :Elevation of Permanent Datum above Mean Sea Level
LMF  .                                   :Logging Measured From (Name of Logging Elevation Reference)
APD  .                                   :Elevation of Depth Reference (LMF) above Permanent Datum
#-----------------------------------------------------------------------------
~CURVE INFORMATION
#MNEM.UNIT   API CODE                                  DESCRIPTION
#---- -----  --------                                  -----------------------
TIME .S                                                :TIME {F10.1}
FREQ_EMF_SL.HZ                                         :Electromagnetic Field Frequency {F13.4}
PH_SH_WPPCM_SL.DEG                                     :WPPCM Phase Shift {F13.4}
FREQ_EXC_REQ_SL.HZ                                     :Requested Exciter Frequency {F13.4}
RB_SL.DEG                                              :Relative Bearing {F13.4}
SDEV_SL.DEG                                            :Sonde Deviation {F13.4}
TILX_SL.DEG                                            :X-axis Tilt {F13.4}
TILY_SL.DEG                                            :Y-axis Tilt {F13.4}
ROTA_SL.DEG                                            :Motor Rotation Angle {F13.4}
MSPE_SL.RPM                                            :Motor Speed {F13.4}
#-----------------------------------------------------------------------------
# 
#     TIME    FREQ_EMF_SL  PH_SH_WPPCM_ FREQ_EXC_REQ    RB_SL       SDEV_SL      TILX_SL      TILY_SL      ROTA_SL      MSPE_SL
#                          SL           _SL
~A  
# ...
   13540.0    1046.6952       0.0000      50.8611       3.1973       4.3028       0.2397      -4.2961     304.4620       1.0226
   13541.0    1098.9973       0.0000      50.8611       9.5947       4.1134       0.6852      -4.0556     310.5607       1.0226
   13542.0    1180.0998       0.0000      50.8611      14.2646       4.2220       1.0394      -4.0916     316.6595       1.0226
   13543.0    1240.4772       0.0000      50.8611      19.4367       3.9949       1.3284      -3.7667     322.7641       1.0226
   13544.0    1267.1678       0.0000      50.8611      24.9044       4.0146       1.6893      -3.6406     328.8686       1.0226
   13545.0    1304.3543       0.0000      50.8611      31.2038       3.8762       2.0071      -3.3148     334.9551       1.0226
   13546.0    1329.3101       0.0000      50.8611      39.4648       3.6591       2.3248      -2.8241     341.0670       1.0226
   13547.0    1357.6214       0.0000      50.8611      44.8854       3.4746       2.4513      -2.4610     347.1846       1.0226
   13548.0    1386.9166       0.0000      50.8611      52.4519       3.4949       2.7702      -2.1290     353.3022       1.0226
   13549.0    1414.7384       0.0000      50.8611      56.9881       3.3043       2.7702      -1.7994     348.6010       1.0226
   13550.0    1446.5814       0.0000      50.8611      65.5527       3.1757       2.8907      -1.3137       5.9108       1.0226
   13551.0    1465.3063       0.0000      50.8611      70.9998       3.1426       2.9711      -1.0226      12.0163       1.0226
   13552.0    1502.5973       0.0000      50.8611      81.3078       3.0044       2.9698      -0.4538      18.1283       1.0226
   13553.0    1528.7330       0.0000      50.8611      87.4205       2.8961       2.8931      -0.1304      24.2280       1.0226
   13554.0    1562.3961       0.0000      50.8611      95.4552       2.9822       2.9686       0.2834      30.3458       1.0226
   13555.0    1576.9414       0.0000      50.8611     102.3916       3.0371       2.9662       0.6514      36.4636       1.0226
   13556.0    1612.5614       0.0000      50.8611     111.7385       2.9747       2.7630       1.1011      42.5625       1.0226
   13557.0    1627.6041       0.0000      50.8611     119.4817       2.9030       2.5268       1.4282      48.6551       1.0223
   13558.0    1642.9307       0.0000      50.8611     129.1626       2.8450       2.2055       1.7962      54.7679       1.0226
   13559.0    1654.5288       0.0000      50.8611     138.3046       2.8990       1.9279       2.1642      60.8726       1.0226
   13560.0    1670.0120       0.0000      50.8611     143.1636       3.0096       1.8038       2.4083      66.9711       1.0124
   13561.0    1677.7447       0.0000      50.8611     151.4812       3.0246       1.4435       2.6573      73.0581       1.0226
   13562.0    1674.1072       0.0000      50.8611     157.9163       3.0833       1.1587       2.8569      79.5737       1.0226
   13563.0    1662.4709       0.0000      50.8611     165.6450       3.2087       0.7948       3.1083      85.6603       1.0226
   13564.0    1669.8938       0.0000      50.8611     174.4437       3.2824       0.3176       3.2670      91.7592       1.0226
   13565.0    1658.3137       0.0000      50.8611    -178.5769       3.4328      -0.0852       3.4318      97.8639       1.0226
   13566.0    1646.6628       0.0000      50.8611    -173.4280       3.5756      -0.4090       3.5520     103.9685       1.0226
   13567.0    1627.3791       0.0000      50.8611    -166.8260       3.5642      -0.8118       3.4702     110.0674       1.0226
   13568.0    1608.7618       0.0000      50.8611    -158.3309       3.6051      -1.3304       3.3500     116.1796       1.0226
   13569.0    1583.8298       0.0000      50.8611    -152.3953       3.8243      -1.7710       3.3884     122.2843       1.0226
   13570.0    1562.5000       0.0000      50.8611    -145.6690       3.8566      -2.1739       3.1840     128.3889       1.0223
   13571.0    1535.2074       0.0000      50.8611    -147.0264       4.0271      -2.1896       3.3762     134.4755       1.0226
   13572.0    1511.8060       0.0000      50.8611    -135.3738       4.1274      -2.8981       2.9362     140.5745       1.0226
   13573.0    1483.2924       0.0000      50.8611    -129.2016       4.2598      -3.2998       2.6909     146.6793       1.0226
   13574.0    1458.7655       0.0000      50.8611    -124.5830       4.3051      -3.5432       2.4419     153.1766       1.0124
   13575.0    1434.6004       0.0000      50.8611    -118.7376       4.4071      -3.8633       2.1172     159.2767       1.0226
   13576.0    1411.5601       0.0000      50.8611    -115.6416       4.4213      -3.9850       1.9115     165.3819       1.0024
   13577.0    1381.1422       0.0000      50.8611    -107.8558       4.5209      -4.3027       1.3849     171.4742       1.0223
   13578.0    1339.3624       0.0000      50.8611    -102.2191       4.6045      -4.4999       0.9736     177.5613       1.0226
   13579.0    1318.8890       0.0000      50.8611     -96.4477       4.6916      -4.6618       0.5263     183.6603       1.0226
   13580.0    1282.9349       0.0000      50.8611     -90.4421       4.7813      -4.7811       0.0368     189.7651       1.0226
   13581.0    1239.6257       0.0000      50.8611     -86.0216       4.7963      -4.7847      -0.3324     195.8576       1.0226
   13582.0    1177.2390       0.0000      50.8611     -80.8158       4.9223      -4.8590      -0.7846     201.9570       1.0330
   13583.0    1110.3148       0.0000      50.8611     -77.8997       4.9362      -4.8261      -1.0336     208.0684       1.0127
   13584.0    1047.5517       0.0000      50.8611     -72.4002       5.0228      -4.7871      -1.5169     214.1749       1.0124
   13585.0    1021.6752       0.0000      50.8611     -65.4654       5.0400      -4.5839      -2.0906     220.2553       1.0124
   13586.0     998.6299       0.0000      50.8611     -63.2804       5.0354      -4.4963      -2.2615     226.7725       1.0226
   13587.0     980.4853       0.0000      50.8611     -56.8349       4.9514      -4.1433      -2.7063     232.8781       1.0226
   13588.0     967.1197       0.0000      50.8611     -53.3251       5.0104      -4.0167      -2.9901     238.9828       1.0226
   13589.0     961.9068       0.0000      50.8611     -47.7634       4.9974      -3.6978      -3.3569     245.0819       1.0226
   13590.0     955.3329       0.0000      50.8611     -41.7533       4.8910      -3.2548      -3.6468     251.1692       1.0226
   13591.0     949.0024       0.0000      50.8611     -36.8708       4.9619      -2.9748      -3.9677     257.2739       1.0226
   13592.0     950.1304       0.0000      50.8611     -32.6828       4.9160      -2.6523      -4.1362     263.3791       1.0226
   13593.0     957.7415       0.0000      50.8611     -28.4660       4.8925      -2.3297      -4.2997     269.4909       1.0226
   13594.0     959.3216       0.0000      50.8611     -22.7247       4.7941      -1.8502      -4.4212     275.5897       1.0226
   13595.0     962.0261       0.0000      50.8611     -16.5823       4.6536      -1.3268      -4.4596     281.6946       1.0330
   13596.0     972.6727       0.0000      50.8611     -13.3071       4.5535      -1.0468      -4.4310     287.8129       1.0124
   13597.0     991.5053       0.0000      50.8611      -6.5943       4.6430      -0.5319      -4.6121     293.9113       1.0124
   13598.0    1008.8311       0.0000      50.8611      -2.0138       4.5406      -0.1595      -4.5377     300.4221       1.0226
   13599.0    1022.5283       0.0000      50.8611       2.1394       4.3040       0.1606      -4.3010     306.5267       1.0226
   13600.0    1067.6017       0.0000      50.8611       8.4929       4.3062       0.6354      -4.2589     312.6132       1.0226
   13601.0    1134.4610       0.0000      50.8611       9.2903       4.2328       0.6828      -4.1771     318.7120       1.0226
   13602.0    1216.6060       0.0000      50.8611      19.7623       4.0454       1.3668      -3.8066     324.8298       1.0226
