~VERSION INFORMATION
VERS.           2.0   :CWLS Log ASCII Standard - VERSION 2.0
WRAP.           NO    :One Line per depth step
PROD.  Schlumberger   :LAS Producer
PROG.  DLIS to ASCII 19C2-270                          :LAS Program name and version
CREA.        2017/09/16 17:42                          :LAS Creation date {YYYY/MM/DD hh:mm}
DLIS_CREA.  2017-Sep-15 15:10                          :DLIS Creation date and time {YYYY-MMM-DD hh:mm}
SOURCE.     LPC_S2-1_2A5.DLIS                          :DLIS File Name
FILE-ID.     PERFO_Perfo_WPGRT_033LTP                  :File Identification Number
#--------------------------------------------------
~WELL INFORMATION
#MNEM.UNIT      DATA             DESCRIPTION
#---- ------ --------------   -----------------------------
STRT .S        15770.0       :START TIME      
STOP .S        16224.0       :STOP TIME      
STEP .S            1.0       :STEP     
NULL .          -999.25      :NULL VALUE
COMP .        SHELL INTERNATIONAL E P                  :COMPANY
WELL .        WPP TEST 2                               :WELL
FLD  .        WILDCAT                                  :FIELD
LOC  .                                                 :LOCATION
CNTY .        HARRIS                                   :COUNTY
STAT .        TEXAS                                    :STATE
CTRY .                                                 :COUNTRY
API  .                                                 :API NUMBER
UWI  .                                                 :UNIQUE WELL ID
DATE .                                                 :LOG DATE
SRVC .        Schlumberger                             :SERVICE COMPANY
LATI .DEG                                              :LATITUDE
LONG .DEG                                              :LONGITUDE
GDAT .                                                 :GeoDetic Datum
#-----------------------------------------------------------------------------
~PARAMETER INFORMATION
#MNEM.UNIT    VALUE                      DESCRIPTION
#---- -----   --------------------       ------------------------
U-PHASE_B_COMP_PER_YT.                 0 :Phase B Comparator Period Yt
U-PHASE_A_COMP_PER_XT.                 0 :Phase A Comparator Period Xt
U-MAX_EXC_CUR_LIMIT.MA       240.00000   :Requested CM Current Limit
U-REQ_EXC_FQ.HZ              50          :Requested CM Frequency
U-TILT_Y_OFFSET.           0.19916       :WPTET Tilt Y Offset
U-TILT_Y_GAIN.           1.01796         :WPTET Tilt Y Gain
U-TILT_X_OFFSET.          -1.77103       :WPTET Tilt X Offset
U-TILT_X_GAIN.           1.00000         :WPTET Tilt X Gain
U-TILT_OFFSET_TOL.           0.00100     :WPTET Tilt Offset Calibration Tolerance
U-NO_TILT_CAL_ROTATIONS.                 3 :Number of Rotations for Tilt Calibration
HAZI .DEG        0.00000                 :Hole Azimuth
U-STD_TOL_TILT.           0.01000        :Tilt Standard Deviation Tolerance
U-GUN_POS_TOL.DEG        5.00000         :Gun Position Tolerance
ROT_ANGLE_THRESHOLD.DEG        5.00000   :Rotation Stop Angle Tolerance
STOP_ROT_ANGLE.DEG       80.00000        :Rotation Stop Angle
WITN .                                   :Witness's Name
ENGI .                                   :Engineer's Name
COUN .        HARRIS                     :County or Rig Name
FN   .        WILDCAT                    :Field Name
WN   .        WPP TEST 2                 :Well Name
CN   .        SHELL INTERNATIONAL E P    :Company Name
CLAB .        County                     :County/Rig Label
SLAB .        State                      :State/Province Label
RUN  .          1                        :RUN NUMBER
PDAT .        GROUND LEVEL               :Permanent Datum
EPD  .                                   :Elevation of Permanent Datum above Mean Sea Level
LMF  .                                   :Logging Measured From (Name of Logging Elevation Reference)
APD  .                                   :Elevation of Depth Reference (LMF) above Permanent Datum
#-----------------------------------------------------------------------------
~CURVE INFORMATION
#MNEM.UNIT   API CODE                                  DESCRIPTION
#---- -----  --------                                  -----------------------
TIME .S                                                :TIME {F10.1}
FREQ_EMF_SL.HZ                                         :Electromagnetic Field Frequency {F13.4}
PH_SH_WPPCM_SL.DEG                                     :WPPCM Phase Shift {F13.4}
FREQ_EXC_REQ_SL.HZ                                     :Requested Exciter Frequency {F13.4}
RB_SL.DEG                                              :Relative Bearing {F13.4}
SDEV_SL.DEG                                            :Sonde Deviation {F13.4}
TILX_SL.DEG                                            :X-axis Tilt {F13.4}
TILY_SL.DEG                                            :Y-axis Tilt {F13.4}
ROTA_SL.DEG                                            :Motor Rotation Angle {F13.4}
MSPE_SL.RPM                                            :Motor Speed {F13.4}
#-----------------------------------------------------------------------------
# 
#     TIME    FREQ_EMF_SL  PH_SH_WPPCM_ FREQ_EXC_REQ    RB_SL       SDEV_SL      TILX_SL      TILY_SL      ROTA_SL      MSPE_SL
#                          SL           _SL
~A  
# ...
   15959.0    1505.7829       0.0000      50.8611     152.5053       3.5508       1.6381       3.1492     138.6581       0.0005
   15960.0    1508.9331       0.0000      50.8611     148.6628       3.6870       1.9163       3.1482     138.6581       0.0005
   15961.0    1512.0157       0.0000      50.8611     149.2241       3.6114       1.8470       3.1022     138.6581       0.0005
   15962.0    1512.0968       0.0000      50.8611     152.3990       3.6542       1.6921       3.2379     138.6581       0.0005
   15963.0    1512.0157       0.0000      50.8611     147.7066       3.8161       2.0378       3.2249     138.6581       0.0005
   15964.0    1512.0968       0.0000      50.8611     152.1693       3.6958       1.7245       3.2678     138.6581       0.0005
   15965.0    1508.9331       0.0000      50.8611     152.2314       3.6926       1.7195       3.2668     140.9592       0.5631
   15966.0    1512.0968       0.0000      50.8611     159.5297       3.7907       1.3248       3.5509     145.2691       0.8700
   15967.0    1515.3556       0.0000      50.8611     165.3689       3.9639       1.0005       3.8351     151.0314       1.0226
   15968.0    1515.0318       0.0000      50.8611     172.3487       3.8748       0.5155       3.8402     157.5412       1.0226
   15969.0    1508.9331       0.0000      50.8611     169.9637       3.9606       0.0716       3.9598     163.6591       1.0331
   15970.0    1508.7712       0.0000      50.8611    -175.3171       4.0574      -0.3311       4.0436     169.7580       1.0226
   15971.0    1502.1646       0.0000      50.8611    -168.1176       4.1324      -0.8502       4.0436     175.8764       1.0229
   15972.0    1492.7553       0.0000      50.8611    -161.0481       4.2349      -1.3744       4.0048     181.9757       1.0226
   15973.0    1483.5432       0.0000      50.8611    -156.4985       4.4525      -1.7740       4.0825     188.0939       1.0226
   15974.0    1474.1341       0.0000      50.8611    -148.0544       4.4317      -2.3431       3.7595     194.1940       1.0384
   15975.0    1464.6163       0.0000      50.8611    -142.9847       4.5527      -2.7390       3.6337     200.3121       1.0334
   15976.0    1458.5399       0.0000      50.8611    -135.7861       4.6173      -3.2180       3.3077     206.4427       1.0226
   15977.0    1440.9781       0.0000      50.8611    -130.5446       4.7141      -3.5805       3.0623     212.5294       1.0226
   15978.0    1429.1886       0.0000      50.8611    -125.4409       4.7948      -3.9049       2.7782     218.6282       1.0226
   15979.0    1408.9276       0.0000      50.8611    -119.4434       4.8994      -4.2654       2.4061     224.7206       1.0223
   15980.0    1403.2343       0.0000      50.8611    -114.8433       5.1388      -4.6620       2.1567     230.8233       1.0223
   15981.0    1378.7442       0.0000      50.8611    -109.2637       5.1925      -4.9010       1.7110     237.3051       1.0226
   15982.0    1365.1592       0.0000      50.8611    -103.8799       5.2558      -5.1018       1.2592     243.4231       1.0331
   15983.0    1352.0339       0.0000      50.8611     -99.6597       5.2998      -5.2244       0.8881     249.5155       1.0123
   15984.0    1328.9714       0.0000      50.8611     -93.4367       5.3937      -5.3840       0.3228     255.6020       1.0226
   15985.0    1278.3512       0.0000      50.8611     -88.1693       5.3888      -5.3860      -0.1719     261.7006       1.0226
   15986.0    1253.4685       0.0000      50.8611     -82.9276       5.3888      -5.3476      -0.6626     267.7931       1.0226
   15987.0    1233.4448       0.0000      50.8611     -78.1384       5.4239      -5.3077      -1.1133     273.8976       1.0226
   15988.0    1205.8409       0.0000      50.8611     -73.1724       5.5417      -5.3037      -1.6020     279.9964       1.0226
   15989.0    1185.8086       0.0000      50.8611     -67.6496       5.5209      -5.1049      -2.0967     286.0952       1.0226
   15990.0    1167.8850       0.0000      50.8611     -62.1864       5.5454      -4.9030      -2.5843     292.1875       1.0226
   15991.0    1154.3683       0.0000      50.8611     -61.5922       5.7103      -5.0205      -2.7131     298.2930       1.0331
   15992.0    1135.9047       0.0000      50.8611     -53.6481       5.5449      -4.4632      -3.2835     304.4146       1.0226
   15993.0    1123.0690       0.0000      50.8611     -48.2827       5.5474      -4.1378      -3.6883     310.9272       1.0226
   15994.0    1114.3027       0.0000      50.8611     -44.5354       5.5791      -3.9099      -3.9735     317.0318       1.0226
   15995.0    1095.3389       0.0000      50.8611     -39.0833       5.5478      -3.4942      -4.3036     323.1306       1.0226
   15996.0    1088.3031       0.0000      50.8611     -33.2446       5.4379      -2.9780      -4.5459     329.2293       1.0226
   15997.0    1088.2614       0.0000      50.8611     -27.9054       5.4211      -2.5342      -4.7892     335.3339       1.0226
   15998.0    1083.4708       0.0000      50.8611     -23.3564       5.4830      -2.1709      -5.0325     341.4393       1.0224
   15999.0    1085.3657       0.0000      50.8611     -17.7672       5.4162      -1.6505      -5.1572     347.5256       1.0226
   16000.0    1096.9188       0.0000      50.8611     -12.4844       5.2406      -1.1314      -5.1163     353.6243       1.0226
   16001.0    1110.6945       0.0000      50.8611      -7.8984       5.2882      -0.7257      -5.2379     350.7292       1.0229
   16002.0    1121.4115       0.0000      50.8611      -3.1721       5.0802      -0.2808      -5.0723       5.8467       1.0226
   16003.0    1125.4109       0.0000      50.8611       1.7933       5.1557       0.1610      -5.1531      11.9456       1.0226
   16004.0    1141.6233       0.0000      50.8611       7.6070       4.8711       0.6440      -4.8280      18.0445       1.0226
   16005.0    1163.9228       0.0000      50.8611      12.8895       4.8651       1.0838      -4.7422      24.5602       1.0226
   16006.0    1189.7208       0.0000      50.8611      19.2950       4.7315       1.5618      -4.4651      30.6589       1.0226
   16007.0    1210.4605       0.0000      50.8611      25.9008       4.5079       1.9675      -4.0542      36.7459       1.0226
   16008.0    1249.0572       0.0000      50.8611      30.3576       4.4569       2.2507      -3.8447      42.8518       1.0226
   16009.0    1283.2514       0.0000      50.8611      36.5749       4.3816       2.6091      -3.5176      48.9562       1.0223
   16010.0    1339.2221       0.0000      50.8611      44.0449       4.2143       2.9285      -3.0279      55.0432       1.0226
   16011.0    1357.3842       0.0000      50.8611      48.4790       4.0779       3.0520      -2.7018      61.1420       1.0226
   16012.0    1381.3173       0.0000      50.8611      57.0216       4.0666       3.4105      -2.2122      67.2598       1.0226
   16013.0    1384.4483       0.0000      50.8611      62.7022       3.9301       3.4918      -1.8013      73.3521       1.0226
   16014.0    1406.3912       0.0000      50.8611      71.1145       3.8150       3.6093      -1.2340      79.4511       1.0226
   16015.0    1423.3300       0.0000      50.8611      78.1648       3.6119       3.5350      -0.7402      85.5498       1.0226
   16016.0    1437.8101       0.0000      50.8611      85.4783       3.7002       3.6886      -0.2915      91.6545       1.0226
   16017.0    1449.9678       0.0000      50.8611      93.1597       3.6540       3.6485       0.2012      98.1772       1.0226
   16018.0    1462.1048       0.0000      50.8611     100.2692       3.4242       3.3693       0.6101     104.2891       1.0223
   16019.0    1471.1274       0.0000      50.8611     107.1708       3.7317       3.5651       1.1007     110.3945       1.0223
   16020.0    1492.6765       0.0000      50.8611     115.5066       3.5100       3.1675       1.5106     116.4754       1.0123
   16021.0    1502.2440       0.0000      50.8611     123.6231       3.6104       3.0058       1.9982     122.5620       1.0123
