~VERSION INFORMATION
VERS.           2.0   :CWLS Log ASCII Standard - VERSION 2.0
WRAP.           NO    :One Line per depth step
PROD.  Schlumberger   :LAS Producer
PROG.  DLIS to ASCII 19C2-270                          :LAS Program name and version
CREA.        2017/09/16 17:42                          :LAS Creation date {YYYY/MM/DD hh:mm}
DLIS_CREA.  2017-Sep-15 17:22                          :DLIS Creation date and time {YYYY-MMM-DD hh:mm}
SOURCE.     LPC_S4-1_AV.DLIS                           :DLIS File Name
FILE-ID.     PERFO_Perfo_WPGRT_047LTP                  :File Identification Number
#--------------------------------------------------
~WELL INFORMATION
#MNEM.UNIT      DATA             DESCRIPTION
#---- ------ --------------   -----------------------------
STRT .S         1296.0       :START TIME      
STOP .S         1779.0       :STOP TIME      
STEP .S            1.0       :STEP     
NULL .          -999.25      :NULL VALUE
COMP .        SHELL INTERNATIONAL E P                  :COMPANY
WELL .        WPP TEST 2                               :WELL
FLD  .        WILDCAT                                  :FIELD
LOC  .        NA                                       :LOCATION
CNTY .        HARRIS                                   :COUNTY
STAT .        TEXAS                                    :STATE
CTRY .                                                 :COUNTRY
API  .        NA                                       :API NUMBER
UWI  .                                                 :UNIQUE WELL ID
DATE .        15-Sep-2017                              :LOG DATE {DD-MMM-YYYY}
SRVC .        Schlumberger                             :SERVICE COMPANY
LATI .DEG                                              :LATITUDE
LONG .DEG                                              :LONGITUDE
GDAT .                                                 :GeoDetic Datum
SECT .        NA                                       :Section
RANG .        NA                                       :Range
TOWN .        NA                                       :Township
#-----------------------------------------------------------------------------
~PARAMETER INFORMATION
#MNEM.UNIT    VALUE                      DESCRIPTION
#---- -----   --------------------       ------------------------
U-PHASE_B_COMP_PER_YT.                 0 :Phase B Comparator Period Yt
U-PHASE_A_COMP_PER_XT.                 0 :Phase A Comparator Period Xt
U-MAX_EXC_CUR_LIMIT.MA       240.00000   :Requested CM Current Limit
U-REQ_EXC_FQ.HZ              50          :Requested CM Frequency
U-TILT_Y_OFFSET.           0.19916       :WPTET Tilt Y Offset
U-TILT_Y_GAIN.           1.01796         :WPTET Tilt Y Gain
U-TILT_X_OFFSET.          -1.77103       :WPTET Tilt X Offset
U-TILT_X_GAIN.           1.00000         :WPTET Tilt X Gain
U-TILT_OFFSET_TOL.           0.00100     :WPTET Tilt Offset Calibration Tolerance
U-NO_TILT_CAL_ROTATIONS.                 3 :Number of Rotations for Tilt Calibration
HAZI .DEG        0.00000                 :Hole Azimuth
U-STD_TOL_TILT.           0.01000        :Tilt Standard Deviation Tolerance
U-GUN_POS_TOL.DEG        5.00000         :Gun Position Tolerance
ROT_ANGLE_THRESHOLD.DEG        5.00000   :Rotation Stop Angle Tolerance
STOP_ROT_ANGLE.DEG        0.00000        :Rotation Stop Angle
WITN .        MR. DHRUA ARORA            :Witness's Name
ENGI .        MORRIS MOORE               :Engineer's Name
COUN .        HARRIS                     :County or Rig Name
FN   .        WILDCAT                    :Field Name
WN   .        WPP TEST 2                 :Well Name
CN   .        SHELL INTERNATIONAL E P    :Company Name
CLAB .        County                     :County/Rig Label
SLAB .        State                      :State/Province Label
RUN  .          1                        :RUN NUMBER
PDAT .        GROUND LEVEL               :Permanent Datum
EPD  .                                   :Elevation of Permanent Datum above Mean Sea Level
LMF  .          NA                       :Logging Measured From (Name of Logging Elevation Reference)
APD  .                                   :Elevation of Depth Reference (LMF) above Permanent Datum
#-----------------------------------------------------------------------------
~CURVE INFORMATION
#MNEM.UNIT   API CODE                                  DESCRIPTION
#---- -----  --------                                  -----------------------
TIME .S                                                :TIME {F10.1}
FREQ_EMF_SL.HZ                                         :Electromagnetic Field Frequency {F13.4}
PH_SH_WPPCM_SL.DEG                                     :WPPCM Phase Shift {F13.4}
FREQ_EXC_REQ_SL.HZ                                     :Requested Exciter Frequency {F13.4}
RB_SL.DEG                                              :Relative Bearing {F13.4}
SDEV_SL.DEG                                            :Sonde Deviation {F13.4}
TILX_SL.DEG                                            :X-axis Tilt {F13.4}
TILY_SL.DEG                                            :Y-axis Tilt {F13.4}
ROTA_SL.DEG                                            :Motor Rotation Angle {F13.4}
MSPE_SL.RPM                                            :Motor Speed {F13.4}
#-----------------------------------------------------------------------------
# 
#     TIME    FREQ_EMF_SL  PH_SH_WPPCM_ FREQ_EXC_REQ    RB_SL       SDEV_SL      TILX_SL      TILY_SL      ROTA_SL      MSPE_SL
#                          SL           _SL
~A  
# ...
    1737.0     848.1476       0.0000      50.8611     -63.7685       1.2143      -1.0887      -0.5374     350.1030       1.0226
    1738.0     860.6181       0.0000      50.8611     -63.3459       1.1963      -1.0684      -0.5363     356.2048       1.0226
    1739.0     876.1938       0.0000      50.8611     -62.0108       1.1413      -1.0073      -0.5363       2.3066       1.0226
    1740.0     896.9294       0.0000      50.8611     -62.0846       1.2323      -1.0882      -0.5772       8.4084       1.0226
    1741.0     918.5095       0.0000      50.8611     -57.1553       1.1779      -0.9881      -0.6399      14.4980       1.0226
    1742.0     945.7262       0.0000      50.8611     -58.1053       1.2114      -1.0288      -0.6393      20.5998       1.0226
    1743.0     979.3561       0.0000      50.8611     -56.1094       1.2604      -1.0469      -0.7004      26.7101       1.0173
    1744.0    1018.6106       0.0000      50.8611     -54.4449       1.2391      -1.0079      -0.7205      32.8042       1.0226
    1745.0    1101.3753       0.0000      50.8611     -56.6230       1.1610      -0.9682      -0.6399      38.9060       1.0226
    1746.0    1212.4571       0.0000      50.8611     -53.0991       1.2360      -0.9875      -0.7418      45.0079       1.0226
    1747.0    1285.5562       0.0000      50.8611     -53.4742       1.2798      -1.0282      -0.7614      51.5177       1.0226
    1748.0    1339.3753       0.0000      50.8611     -52.8926       1.2354      -0.9864      -0.7413      57.6195       1.0226
    1749.0    1389.6183       0.0000      50.8611     -51.3044       1.0599      -0.8263      -0.6601      63.7344       1.0226
    1750.0    1433.5078       0.0000      50.8611     -53.3795       1.1056      -0.8874      -0.6595      69.8493       1.0279
    1751.0    1478.7855       0.0000      50.8611     -48.0608       1.1392      -0.8472      -0.7614      75.9511       1.0226
    1752.0    1533.6938       0.0000      50.8611     -47.7337       1.2537      -0.9275      -0.8432      82.0668       1.0226
    1753.0    1581.4894       0.0000      50.8611     -47.6815       1.0245      -0.7570      -0.6897      88.1438       1.0226
    1754.0    1633.4607       0.0000      50.8611     -44.4124       1.0671      -0.7465      -0.7620      94.2718       1.0173
    1755.0    1682.1822       0.0000      50.8611     -47.3578       1.1248      -0.8274      -0.7620     100.3490       1.0226
    1756.0    1721.2678       0.0000      50.8611     -48.5550       1.1828      -0.8868      -0.7822     106.4508       1.0226
    1757.0    1760.0456       0.0000      50.8611     -41.9437       0.9700      -0.6475      -0.7222     112.5526       1.0226
    1758.0    1796.0115       0.0000      50.8611     -42.8950       1.0677      -0.7267      -0.7822     118.6544       1.0226
    1759.0    1814.7527       0.0000      50.8611     -48.5295       0.9962      -0.7465      -0.6595     125.1773       1.0173
    1760.0    1831.0547       0.0000      50.8611     -46.0803       1.0101      -0.7267      -0.7009     128.2060       0.0005
    1761.0    1833.4123       0.0000      50.8611     -46.0785       0.9811      -0.7063      -0.6802     128.2060       0.0005
    1762.0    1835.8356       0.0000      50.8611     -46.1126       0.9818      -0.7074      -0.6808     128.2060       0.0005
    1763.0    1838.3627       0.0000      50.8611     -49.3445       0.9575      -0.7256      -0.6192     128.2060       0.0005
    1764.0    1831.0547       0.0000      50.8611     -47.2216       0.9999      -0.7272      -0.6785     128.2060       0.0005
    1765.0    1834.5957       0.0000      50.8611     -46.8757       0.9126      -0.6662      -0.6236     128.2060       0.0005
    1766.0    1835.9139       0.0000      50.8611     -47.6581       1.0104      -0.7465      -0.6802     128.2060       0.0005
    1767.0    1838.2715       0.0000      50.8611     -49.1575       0.9460      -0.7063      -0.6203     128.2060       0.0005
    1768.0    1838.2054       0.0000      50.8611     -46.8956       0.9398      -0.6876      -0.6393     128.2060       0.0005
    1769.0    1838.2715       0.0000      50.8611     -46.2456       0.9820      -0.7069      -0.6791     128.2060       0.0005
    1770.0    1831.0547       0.0000      50.8611     -40.2145       0.9711      -0.6266      -0.7418     128.2060       0.0005
    1771.0    1833.4123       0.0000      50.8611     -46.0818       1.0392      -0.7471      -0.7217     128.2060       0.0005
    1772.0    1838.2054       0.0000      50.8611     -46.2030       0.9237      -0.6667      -0.6393     128.2060       0.0005
    1773.0    1835.8356       0.0000      50.8611     -46.2599       0.9454      -0.6667      -0.6572     128.2060       0.0005
    1774.0    1835.8356       0.0000      50.8611     -45.7429       0.9835      -0.7052      -0.6802     128.2060       0.0005
    1775.0    1835.8356       0.0000      50.8611     -37.9325       1.0478      -0.6453      -0.8230     128.2060       0.0005
    1776.0    1835.7821       0.0000      50.8611     -29.2617       1.2911      -0.5891      -1.1059     128.2060       0.0005
    1777.0    1840.1297       0.0000      50.8611     -49.1154       1.0744      -0.8142      -0.6897     128.2060       0.0005
    1778.0    1835.8356       0.0000      50.8611     -31.7507       1.1142      -0.5869      -0.9457     128.2060       0.0005
    1779.0    1833.4123       0.0000      50.8611     -39.7803       0.9919      -0.6271      -0.7603     128.2060       0.0005
