~VERSION INFORMATION
VERS.           2.0   :CWLS Log ASCII Standard - VERSION 2.0
WRAP.           NO    :One Line per depth step
PROD.  Schlumberger   :LAS Producer
PROG.  DLIS to ASCII 19C2-270                          :LAS Program name and version
CREA.        2017/09/16 17:42                          :LAS Creation date {YYYY/MM/DD hh:mm}
DLIS_CREA.  2017-Sep-15 17:32                          :DLIS Creation date and time {YYYY-MMM-DD hh:mm}
SOURCE.     LPC_S4-1_A5.DLIS                           :DLIS File Name
FILE-ID.     PERFO_Perfo_WPGRT_048LTP                  :File Identification Number
#--------------------------------------------------
~WELL INFORMATION
#MNEM.UNIT      DATA             DESCRIPTION
#---- ------ --------------   -----------------------------
STRT .S         1889.0       :START TIME      
STOP .S         2373.0       :STOP TIME      
STEP .S            1.0       :STEP     
NULL .          -999.25      :NULL VALUE
COMP .        SHELL INTERNATIONAL E P                  :COMPANY
WELL .        WPP TEST 2                               :WELL
FLD  .        WILDCAT                                  :FIELD
LOC  .        NA                                       :LOCATION
CNTY .        HARRIS                                   :COUNTY
STAT .        TEXAS                                    :STATE
CTRY .                                                 :COUNTRY
API  .        NA                                       :API NUMBER
UWI  .                                                 :UNIQUE WELL ID
DATE .        15-Sep-2017                              :LOG DATE {DD-MMM-YYYY}
SRVC .        Schlumberger                             :SERVICE COMPANY
LATI .DEG                                              :LATITUDE
LONG .DEG                                              :LONGITUDE
GDAT .                                                 :GeoDetic Datum
SECT .        NA                                       :Section
RANG .        NA                                       :Range
TOWN .        NA                                       :Township
#-----------------------------------------------------------------------------
~PARAMETER INFORMATION
#MNEM.UNIT    VALUE                      DESCRIPTION
#---- -----   --------------------       ------------------------
U-PHASE_B_COMP_PER_YT.                 0 :Phase B Comparator Period Yt
U-PHASE_A_COMP_PER_XT.                 0 :Phase A Comparator Period Xt
U-MAX_EXC_CUR_LIMIT.MA       240.00000   :Requested CM Current Limit
U-REQ_EXC_FQ.HZ              50          :Requested CM Frequency
U-TILT_Y_OFFSET.           0.19916       :WPTET Tilt Y Offset
U-TILT_Y_GAIN.           1.01796         :WPTET Tilt Y Gain
U-TILT_X_OFFSET.          -1.77103       :WPTET Tilt X Offset
U-TILT_X_GAIN.           1.00000         :WPTET Tilt X Gain
U-TILT_OFFSET_TOL.           0.00100     :WPTET Tilt Offset Calibration Tolerance
U-NO_TILT_CAL_ROTATIONS.                 3 :Number of Rotations for Tilt Calibration
HAZI .DEG        0.00000                 :Hole Azimuth
U-STD_TOL_TILT.           0.01000        :Tilt Standard Deviation Tolerance
U-GUN_POS_TOL.DEG        5.00000         :Gun Position Tolerance
ROT_ANGLE_THRESHOLD.DEG        5.00000   :Rotation Stop Angle Tolerance
STOP_ROT_ANGLE.DEG        0.00000        :Rotation Stop Angle
WITN .        MR. DHRUA ARORA            :Witness's Name
ENGI .        MORRIS MOORE               :Engineer's Name
COUN .        HARRIS                     :County or Rig Name
FN   .        WILDCAT                    :Field Name
WN   .        WPP TEST 2                 :Well Name
CN   .        SHELL INTERNATIONAL E P    :Company Name
CLAB .        County                     :County/Rig Label
SLAB .        State                      :State/Province Label
RUN  .          1                        :RUN NUMBER
PDAT .        GROUND LEVEL               :Permanent Datum
EPD  .                                   :Elevation of Permanent Datum above Mean Sea Level
LMF  .          NA                       :Logging Measured From (Name of Logging Elevation Reference)
APD  .                                   :Elevation of Depth Reference (LMF) above Permanent Datum
#-----------------------------------------------------------------------------
~CURVE INFORMATION
#MNEM.UNIT   API CODE                                  DESCRIPTION
#---- -----  --------                                  -----------------------
TIME .S                                                :TIME {F10.1}
FREQ_EMF_SL.HZ                                         :Electromagnetic Field Frequency {F13.4}
PH_SH_WPPCM_SL.DEG                                     :WPPCM Phase Shift {F13.4}
FREQ_EXC_REQ_SL.HZ                                     :Requested Exciter Frequency {F13.4}
RB_SL.DEG                                              :Relative Bearing {F13.4}
SDEV_SL.DEG                                            :Sonde Deviation {F13.4}
TILX_SL.DEG                                            :X-axis Tilt {F13.4}
TILY_SL.DEG                                            :Y-axis Tilt {F13.4}
ROTA_SL.DEG                                            :Motor Rotation Angle {F13.4}
MSPE_SL.RPM                                            :Motor Speed {F13.4}
#-----------------------------------------------------------------------------
# 
#     TIME    FREQ_EMF_SL  PH_SH_WPPCM_ FREQ_EXC_REQ    RB_SL       SDEV_SL      TILX_SL      TILY_SL      ROTA_SL      MSPE_SL
#                          SL           _SL
~A  
# ...
    2015.0    1694.0492       0.0000      50.8611    -152.7246       4.1369      -1.8945       3.6762     208.5966       1.0226
    2016.0    1654.1225       0.0000      50.8611    -147.1263       4.0861      -2.2166       3.4308     214.6955       1.0226
    2017.0    1612.3293       0.0000      50.8611    -140.8138       4.2122      -2.6600       3.2635     220.7972       1.0122
    2018.0    1565.6565       0.0000      50.8611    -133.9332       4.4145      -3.1776       3.0613     226.8869       1.0226
    2019.0    1511.9151       0.0000      50.8611    -127.9290       4.3905      -3.4618       2.6972     232.9888       1.0226
    2020.0    1467.7874       0.0000      50.8611    -124.3593       4.6294      -3.8203       2.6108     239.4987       1.0226
    2021.0    1428.9534       0.0000      50.8611    -117.1189       4.6534      -4.1409       2.1194     245.6006       1.0226
    2022.0    1375.9281       0.0000      50.8611    -110.4825       4.8911      -4.5812       1.7097     251.7157       1.0226
    2023.0    1334.0614       0.0000      50.8611    -108.2007       4.8270      -4.5850       1.5060     257.8182       1.0226
    2024.0    1282.6861       0.0000      50.8611    -103.4132       5.0817      -4.9427       1.1774     263.9078       1.0122
    2025.0    1179.3390       0.0000      50.8611     -96.4054       5.0555      -5.0238       0.5633     270.0096       1.0226
    2026.0    1081.2732       0.0000      50.8611     -90.8386       5.0266      -5.0260       0.0734     276.1112       1.0125
    2027.0    1015.8052       0.0000      50.8611     -87.6545       5.2276      -5.2231      -0.2136     282.2139       1.0226
    2028.0     963.2097       0.0000      50.8611     -81.8943       5.2805      -5.2276      -0.7436     288.3157       1.0226
    2029.0     942.3393       0.0000      50.8611     -77.0770       5.1562      -5.0253      -1.1517     294.4183       1.0226
    2030.0     911.8548       0.0000      50.8611     -69.0265       5.1677      -4.8244      -1.8475     300.5078       1.0226
    2031.0     893.2767       0.0000      50.8611     -65.9334       5.2385      -4.7820      -2.1338     306.6127       1.0228
    2032.0     868.1160       0.0000      50.8611     -61.5878       5.3482      -4.7024      -2.5419     313.1203       1.0226
    2033.0     859.5267       0.0000      50.8611     -56.2638       5.1748      -4.3015      -2.8713     319.2221       1.0226
    2034.0     845.0641       0.0000      50.8611     -51.3954       5.1960      -4.0583      -3.2393     325.3269       1.0228
    2035.0     839.9417       0.0000      50.8611     -43.8918       5.2298      -3.6232      -3.7662     331.4266       1.0226
    2036.0     831.1539       0.0000      50.8611     -42.0009       5.3477      -3.5755      -3.9714     337.5291       1.0226
    2037.0     832.1377       0.0000      50.8611     -36.2171       5.1774      -3.0564      -4.1751     343.6340       1.0226
    2038.0     837.9767       0.0000      50.8611     -32.7857       5.2616      -2.8465      -4.4212     349.7459       1.0226
    2039.0     845.0831       0.0000      50.8611     -26.7672       5.0940      -2.2917      -4.5469     355.8477       1.0226
    2040.0     843.1901       0.0000      50.8611     -21.1394       5.1332      -1.8491      -4.7869       1.9250       1.0332
    2041.0     856.5037       0.0000      50.8611     -17.2750       5.0152      -1.4876      -4.7884       8.0404       1.0226
    2042.0     875.6023       0.0000      50.8611     -11.5400       4.8465      -0.9684      -4.7483      14.1423       1.0226
    2043.0     893.4031       0.0000      50.8611      -6.6562       4.8630      -0.5630      -4.8301      20.2441       1.0226
    2044.0     909.7838       0.0000      50.8611      -0.9722       4.8709      -0.0825      -4.8702      26.7671       1.0332
    2045.0     936.4407       0.0000      50.8611       5.9547       4.6081       0.4776      -4.5832      32.8689       1.0226
    2046.0     968.5419       0.0000      50.8611       9.5186       4.6067       0.7610      -4.5431      38.9707       1.0226
    2047.0    1006.0099       0.0000      50.8611      13.6401       4.4204       1.0414      -4.2955      45.0725       1.0226
    2048.0    1075.5235       0.0000      50.8611      21.1531       4.5601       1.6439      -4.2523      51.1620       1.0122
    2049.0    1186.1674       0.0000      50.8611      27.5134       4.4283       2.0441      -3.9267      57.2640       1.0228
    2050.0    1273.9955       0.0000      50.8611      32.0298       4.0093       2.1251      -3.3982      63.3919       1.0226
    2051.0    1321.9463       0.0000      50.8611      37.2895       3.9148       2.3707      -3.1135      69.5069       1.0226
    2052.0    1362.9968       0.0000      50.8611      44.4144       3.9576       2.7686      -2.8258      75.6224       1.0332
    2053.0    1409.3356       0.0000      50.8611      52.2055       3.8097       3.0096      -2.3336      81.7242       1.0226
    2054.0    1461.8554       0.0000      50.8611      56.8623       3.5976       3.0118      -1.9656      87.8522       1.0332
    2055.0    1509.0969       0.0000      50.8611      64.4613       3.4265       3.0914      -1.4765      93.9701       1.0226
    2056.0    1555.8466       0.0000      50.8611      70.9415       3.5219       3.3286      -1.1494     100.4768       1.0226
    2057.0    1601.9276       0.0000      50.8611      79.5243       3.3875       3.3309      -0.6155     106.5816       1.0226
    2058.0    1654.4849       0.0000      50.8611      89.2315       3.3312       3.3309      -0.0446     112.6804       1.0226
    2059.0    1690.4344       0.0000      50.8611      95.0048       3.2219       3.2096       0.2809     118.7699       1.0226
    2060.0    1731.9958       0.0000      50.8611     103.0047       3.2522       3.1687       0.7315     124.8849       1.0332
    2061.0    1766.6456       0.0000      50.8611     111.2447       3.2700       3.0475       1.1843     130.9897       1.0226
    2062.0    1798.2737       0.0000      50.8611     120.9945       3.0904       2.6488       1.5909     137.0763       1.0226
    2063.0    1816.8605       0.0000      50.8611     126.7700       3.2052       2.5670       1.9180     143.1782       1.0226
    2064.0    1831.0547       0.0000      50.8611     133.9590       3.1206       2.2456       2.1656     149.2869       1.0226
    2065.0    1840.5512       0.0000      50.8611     139.9357       3.3618       2.1630       2.5722     155.3476       0.0007
    2066.0    1845.4724       0.0000      50.8611     142.9147       3.3256       2.0046       2.6524     155.3476       0.0005
    2067.0    1850.3290       0.0000      50.8611     143.0396       3.2709       1.9660       2.6131     155.3476       0.0005
    2068.0    1845.4724       0.0000      50.8611     143.1792       3.2157       1.9266       2.5737     155.3476       0.0005
    2069.0    1845.4724       0.0000      50.8611     141.7918       3.3734       2.0857       2.6501     155.3476       0.0005
    2070.0    1845.5635       0.0000      50.8611     143.3273       3.3577       2.0046       2.6926     155.3476       0.0005
    2071.0    1845.5635       0.0000      50.8611     145.2519       3.3762       1.9236       2.7736     155.3476       0.0005
    2072.0    1850.1473       0.0000      50.8611     142.9252       3.3252       2.0039       2.6524     155.3476       0.0005
    2073.0    1845.4724       0.0000      50.8611     141.0709       3.2566       2.0456       2.5328     155.3476       0.0005
    2074.0    1845.5635       0.0000      50.8611     142.0909       3.2627       2.0039       2.5737     155.3476       0.0005
    2075.0    1850.0572       0.0000      50.8611     144.0140       3.2787       1.9258       2.6524     155.3476       0.0005
    2076.0    1850.2379       0.0000      50.8611     144.0457       3.2773       1.9236       2.6524     155.3476       0.0005
    2077.0    1850.2379       0.0000      50.8611     137.9480       3.4635       2.3192       2.5707     155.3476       0.0005
