~VERSION INFORMATION
VERS.           2.0   :CWLS Log ASCII Standard - VERSION 2.0
WRAP.           NO    :One Line per depth step
PROD.  Schlumberger   :LAS Producer
PROG.  DLIS to ASCII 19C2-270                          :LAS Program name and version
CREA.        2017/09/16 17:42                          :LAS Creation date {YYYY/MM/DD hh:mm}
DLIS_CREA.  2017-Sep-15 13:45                          :DLIS Creation date and time {YYYY-MMM-DD hh:mm}
SOURCE.     LPC_S1-1_2B5.DLIS                          :DLIS File Name
FILE-ID.     PERFO_Perfo_WPGRT_026LTP                  :File Identification Number
#--------------------------------------------------
~WELL INFORMATION
#MNEM.UNIT      DATA             DESCRIPTION
#---- ------ --------------   -----------------------------
STRT .S        10666.0       :START TIME      
STOP .S        11234.0       :STOP TIME      
STEP .S            1.0       :STEP     
NULL .          -999.25      :NULL VALUE
COMP .        SHELL INTERNATIONAL E P                  :COMPANY
WELL .        WPP TEST 2                               :WELL
FLD  .        WILDCAT                                  :FIELD
LOC  .                                                 :LOCATION
CNTY .        HARRIS                                   :COUNTY
STAT .        TEXAS                                    :STATE
CTRY .                                                 :COUNTRY
API  .                                                 :API NUMBER
UWI  .                                                 :UNIQUE WELL ID
DATE .                                                 :LOG DATE
SRVC .        Schlumberger                             :SERVICE COMPANY
LATI .DEG                                              :LATITUDE
LONG .DEG                                              :LONGITUDE
GDAT .                                                 :GeoDetic Datum
#-----------------------------------------------------------------------------
~PARAMETER INFORMATION
#MNEM.UNIT    VALUE                      DESCRIPTION
#---- -----   --------------------       ------------------------
U-PHASE_B_COMP_PER_YT.                 0 :Phase B Comparator Period Yt
U-PHASE_A_COMP_PER_XT.                 0 :Phase A Comparator Period Xt
U-MAX_EXC_CUR_LIMIT.MA       240.00000   :Requested CM Current Limit
U-REQ_EXC_FQ.HZ              50          :Requested CM Frequency
U-TILT_Y_OFFSET.           0.19916       :WPTET Tilt Y Offset
U-TILT_Y_GAIN.           1.01796         :WPTET Tilt Y Gain
U-TILT_X_OFFSET.          -1.77103       :WPTET Tilt X Offset
U-TILT_X_GAIN.           1.00000         :WPTET Tilt X Gain
U-TILT_OFFSET_TOL.           0.00100     :WPTET Tilt Offset Calibration Tolerance
U-NO_TILT_CAL_ROTATIONS.                 3 :Number of Rotations for Tilt Calibration
HAZI .DEG        0.00000                 :Hole Azimuth
U-STD_TOL_TILT.           0.01000        :Tilt Standard Deviation Tolerance
U-GUN_POS_TOL.DEG        5.00000         :Gun Position Tolerance
ROT_ANGLE_THRESHOLD.DEG        5.00000   :Rotation Stop Angle Tolerance
STOP_ROT_ANGLE.DEG       80.00000        :Rotation Stop Angle
WITN .                                   :Witness's Name
ENGI .                                   :Engineer's Name
COUN .        HARRIS                     :County or Rig Name
FN   .        WILDCAT                    :Field Name
WN   .        WPP TEST 2                 :Well Name
CN   .        SHELL INTERNATIONAL E P    :Company Name
CLAB .        County                     :County/Rig Label
SLAB .        State                      :State/Province Label
RUN  .          1                        :RUN NUMBER
PDAT .        GROUND LEVEL               :Permanent Datum
EPD  .                                   :Elevation of Permanent Datum above Mean Sea Level
LMF  .                                   :Logging Measured From (Name of Logging Elevation Reference)
APD  .                                   :Elevation of Depth Reference (LMF) above Permanent Datum
#-----------------------------------------------------------------------------
~CURVE INFORMATION
#MNEM.UNIT   API CODE                                  DESCRIPTION
#---- -----  --------                                  -----------------------
TIME .S                                                :TIME {F10.1}
FREQ_EMF_SL.HZ                                         :Electromagnetic Field Frequency {F13.4}
PH_SH_WPPCM_SL.DEG                                     :WPPCM Phase Shift {F13.4}
FREQ_EXC_REQ_SL.HZ                                     :Requested Exciter Frequency {F13.4}
RB_SL.DEG                                              :Relative Bearing {F13.4}
SDEV_SL.DEG                                            :Sonde Deviation {F13.4}
TILX_SL.DEG                                            :X-axis Tilt {F13.4}
TILY_SL.DEG                                            :Y-axis Tilt {F13.4}
ROTA_SL.DEG                                            :Motor Rotation Angle {F13.4}
MSPE_SL.RPM                                            :Motor Speed {F13.4}
#-----------------------------------------------------------------------------
# 
#     TIME    FREQ_EMF_SL  PH_SH_WPPCM_ FREQ_EXC_REQ    RB_SL       SDEV_SL      TILX_SL      TILY_SL      ROTA_SL      MSPE_SL
#                          SL           _SL
~A  
# ...
   10918.0    1449.3992       0.0000      50.8611    -159.3898       3.6641      -1.2890       3.4293      62.0732       0.0005
   10919.0    1447.4468       0.0000      50.8611    -159.2290       3.7505      -1.3292       3.5064      62.0732       0.0005
   10920.0    1447.4468       0.0000      50.8611    -157.8520       3.6588      -1.3786       3.3884      62.0732       0.0005
   10921.0    1454.3703       0.0000      50.8611    -159.2166       3.6735      -1.3029       3.4340      62.0732       0.0005
   10922.0    1446.7593       0.0000      50.8611    -159.2028       3.7461      -1.3292       3.5017      62.0732       0.0005
   10923.0    1444.8177       0.0000      50.8611    -158.7771       3.6355      -1.3153       3.3884      62.0732       0.0005
   10924.0    1453.0836       0.0000      50.8611    -159.0318       3.7556      -1.3430       3.5064      62.0732       0.0005
   10925.0    1457.7278       0.0000      50.8611    -156.7337       3.7624      -1.4852       3.4561      62.0732       0.0005
   10926.0    1447.0164       0.0000      50.8611    -158.1596       3.6585      -1.3601       3.3955      62.0732       0.0005
   10927.0    1447.7927       0.0000      50.8611    -157.8312       3.7137      -1.4003       3.4387      62.0732       0.0005
   10928.0    1452.0502       0.0000      50.8611    -157.5304       3.6436      -1.3910       3.3663      62.0732       0.0005
   10929.0    1458.0723       0.0000      50.8611    -160.2109       3.7608      -1.2720       3.5379      62.0732       0.0005
   10930.0    1449.3992       0.0000      50.8611    -158.4699       3.7597      -1.3786       3.4970      62.0732       0.0005
   10931.0    1444.8177       0.0000      50.8611    -159.2824       3.6718      -1.2983       3.4340      62.0732       0.0005
   10932.0    1452.7377       0.0000      50.8611    -158.5629       3.7235      -1.3601       3.4655      62.0732       0.0005
   10933.0    1454.7120       0.0000      50.8611    -158.0414       3.7472      -1.4003       3.4749      62.0732       0.0005
   10934.0    1449.3992       0.0000      50.8611    -160.9633       3.7379      -1.2179       3.5332      62.0732       0.0005
   10935.0    1449.7422       0.0000      50.8611    -161.1124       3.6869      -1.1916       3.4876      62.0732       0.0005
   10936.0    1447.4468       0.0000      50.8611    -160.2593       3.7443      -1.2627       3.5238      62.0732       0.0005
   10937.0    1452.0502       0.0000      50.8611    -158.7730       3.7856      -1.3694       3.5285      62.0732       0.0005
   10938.0    1453.0576       0.0000      50.8611    -158.9356       3.7769      -1.3562       3.5241      62.0732       0.0005
   10939.0    1455.0550       0.0000      50.8611    -159.3743       3.6745      -1.2936       3.4387      62.0732       0.0005
   10940.0    1443.7886       0.0000      50.8611    -159.8098       3.6883      -1.2720       3.4608      62.0732       0.0005
   10941.0    1449.7422       0.0000      50.8611    -157.8055       3.7093      -1.4003       3.4340      62.0732       0.0005
   10942.0    1452.0502       0.0000      50.8611    -154.7511       3.7130      -1.5826       3.3569      62.0732       0.0005
   10943.0    1452.0502       0.0000      50.8611    -158.4043       3.7259      -1.3680       3.4622      62.0732       0.0005
   10944.0    1449.3992       0.0000      50.8611    -158.8832       3.7263      -1.3416       3.4749      62.0732       0.0005
   10945.0    1447.4468       0.0000      50.8611    -158.1249       3.7351      -1.3910       3.4655      62.0732       0.0005
   10946.0    1447.4468       0.0000      50.8611    -158.9393       3.6752      -1.3200       3.4293      62.0732       0.0005
   10947.0    1457.3848       0.0000      50.8611    -159.4130       3.6308      -1.2766       3.3978      62.0732       0.0005
   10948.0    1452.0502       0.0000      50.8611    -160.3831       3.7512      -1.2581       3.5332      62.0732       0.0005
   10949.0    1444.8177       0.0000      50.8611    -157.8160       3.7926      -1.4312       3.5111      62.0732       0.0005
   10950.0    1449.7716       0.0000      50.8611    -155.6088       3.7520      -1.5474       3.4166      62.0732       0.0005
   10951.0    1455.0550       0.0000      50.8611    -158.2314       3.7322      -1.3832       3.4655      62.0732       0.0005
   10952.0    1449.7422       0.0000      50.8611    -158.2682       3.7260      -1.3786       3.4608      62.0732       0.0005
   10953.0    1444.8177       0.0000      50.8611    -158.4287       3.7268      -1.3694       3.4655      62.0732       0.0005
   10954.0    1453.0836       0.0000      50.8611    -158.2495       3.6976      -1.3694       3.4340      62.0732       0.0005
   10955.0    1455.0550       0.0000      50.8611    -157.8838       3.7462      -1.4095       3.4702      62.0732       0.0005
   10956.0    1449.7422       0.0000      50.8611    -158.4156       3.6788      -1.3523       3.4199      62.0732       0.0005
   10957.0    1444.4732       0.0000      50.8611    -159.3973       3.6926      -1.2983       3.4561      62.0732       0.0005
   10958.0    1447.4468       0.0000      50.8611    -159.1209       3.7329      -1.3292       3.4876      62.0732       0.0005
   10959.0    1452.0502       0.0000      50.8611    -157.4998       3.6984      -1.4141       3.4166      62.0732       0.0005
   10960.0    1449.3992       0.0000      50.8611    -158.6535       3.6671      -1.3338       3.4152      62.0732       0.0005
   10961.0    1447.4468       0.0000      50.8611    -160.1045       3.6858      -1.2535       3.4655      62.0732       0.0005
   10962.0    1449.0812       0.0000      50.8611    -157.8286       3.8407      -1.4490       3.5560      62.0732       0.0005
   10963.0    1444.8177       0.0000      50.8611    -159.0813       3.6380      -1.2983       3.3978      62.0732       0.0005
   10964.0    1450.0867       0.0000      50.8611    -158.4651       3.6482      -1.3384       3.3931      62.0732       0.0005
   10965.0    1449.9143       0.0000      50.8611    -158.2340       3.6717      -1.3601       3.4096      62.0732       0.0005
   10966.0    1450.0867       0.0000      50.8611    -159.3631       3.7472      -1.3200       3.5064      62.0732       0.0005
   10967.0    1450.0867       0.0000      50.8611    -158.6572       3.7649      -1.3694       3.5064      62.0732       0.0005
   10968.0    1447.4468       0.0000      50.8611    -158.2227       3.6932      -1.3694       3.4293      62.0732       0.0005
   10969.0    1455.0550       0.0000      50.8611    -157.7794       3.7049      -1.4003       3.4293      62.0732       0.0005
   10970.0    1449.0575       0.0000      50.8611    -159.1075       3.6424      -1.2983       3.4025      62.0732       0.0005
   10971.0    1447.4468       0.0000      50.8611    -158.5167       3.7789      -1.3832       3.5158      62.0732       0.0005
   10972.0    1450.0867       0.0000      50.8611    -157.3441       3.7659      -1.4497       3.4749      62.0732       0.0005
   10973.0    1452.0502       0.0000      50.8611    -159.0316       3.7166      -1.3292       3.4702      62.0732       0.0005
   10974.0    1451.7085       0.0000      50.8611    -159.6721       3.7397      -1.2983       3.5064      62.0732       0.0005
   10975.0    1447.4468       0.0000      50.8611    -158.2314       3.7322      -1.3832       3.4655      62.0732       0.0005
   10976.0    1453.0836       0.0000      50.8611    -158.9946       3.8237      -1.3694       3.5693      62.0732       0.0005
   10977.0    1457.7278       0.0000      50.8611    -159.1360       3.7478      -1.3338       3.5017      62.0732       0.0005
   10978.0    1452.0502       0.0000      50.8611    -159.3631       3.7472      -1.3200       3.5064      62.0732       0.0005
   10979.0    1450.0867       0.0000      50.8611    -159.2028       3.7461      -1.3292       3.5017      62.0732       0.0005
   10980.0    1444.8177       0.0000      50.8611    -158.2629       3.6871      -1.3647       3.4246      62.0732       0.0005
