~VERSION INFORMATION
VERS.           2.0   :CWLS Log ASCII Standard - VERSION 2.0
WRAP.           NO    :One Line per depth step
PROD.  Schlumberger   :LAS Producer
PROG.  DLIS to ASCII 19C2-270                          :LAS Program name and version
CREA.        2017/09/16 17:42                          :LAS Creation date {YYYY/MM/DD hh:mm}
DLIS_CREA.  2017-Sep-15 15:20                          :DLIS Creation date and time {YYYY-MMM-DD hh:mm}
SOURCE.     LPC_S2-1_2B5.DLIS                          :DLIS File Name
FILE-ID.     PERFO_Perfo_WPGRT_034LTP                  :File Identification Number
#--------------------------------------------------
~WELL INFORMATION
#MNEM.UNIT      DATA             DESCRIPTION
#---- ------ --------------   -----------------------------
STRT .S        16366.0       :START TIME      
STOP .S        16828.0       :STOP TIME      
STEP .S            1.0       :STEP     
NULL .          -999.25      :NULL VALUE
COMP .        SHELL INTERNATIONAL E P                  :COMPANY
WELL .        WPP TEST 2                               :WELL
FLD  .        WILDCAT                                  :FIELD
LOC  .                                                 :LOCATION
CNTY .        HARRIS                                   :COUNTY
STAT .        TEXAS                                    :STATE
CTRY .                                                 :COUNTRY
API  .                                                 :API NUMBER
UWI  .                                                 :UNIQUE WELL ID
DATE .                                                 :LOG DATE
SRVC .        Schlumberger                             :SERVICE COMPANY
LATI .DEG                                              :LATITUDE
LONG .DEG                                              :LONGITUDE
GDAT .                                                 :GeoDetic Datum
#-----------------------------------------------------------------------------
~PARAMETER INFORMATION
#MNEM.UNIT    VALUE                      DESCRIPTION
#---- -----   --------------------       ------------------------
U-PHASE_B_COMP_PER_YT.                 0 :Phase B Comparator Period Yt
U-PHASE_A_COMP_PER_XT.                 0 :Phase A Comparator Period Xt
U-MAX_EXC_CUR_LIMIT.MA       240.00000   :Requested CM Current Limit
U-REQ_EXC_FQ.HZ              50          :Requested CM Frequency
U-TILT_Y_OFFSET.           0.19916       :WPTET Tilt Y Offset
U-TILT_Y_GAIN.           1.01796         :WPTET Tilt Y Gain
U-TILT_X_OFFSET.          -1.77103       :WPTET Tilt X Offset
U-TILT_X_GAIN.           1.00000         :WPTET Tilt X Gain
U-TILT_OFFSET_TOL.           0.00100     :WPTET Tilt Offset Calibration Tolerance
U-NO_TILT_CAL_ROTATIONS.                 3 :Number of Rotations for Tilt Calibration
HAZI .DEG        0.00000                 :Hole Azimuth
U-STD_TOL_TILT.           0.01000        :Tilt Standard Deviation Tolerance
U-GUN_POS_TOL.DEG        5.00000         :Gun Position Tolerance
ROT_ANGLE_THRESHOLD.DEG        5.00000   :Rotation Stop Angle Tolerance
STOP_ROT_ANGLE.DEG       80.00000        :Rotation Stop Angle
WITN .                                   :Witness's Name
ENGI .                                   :Engineer's Name
COUN .        HARRIS                     :County or Rig Name
FN   .        WILDCAT                    :Field Name
WN   .        WPP TEST 2                 :Well Name
CN   .        SHELL INTERNATIONAL E P    :Company Name
CLAB .        County                     :County/Rig Label
SLAB .        State                      :State/Province Label
RUN  .          1                        :RUN NUMBER
PDAT .        GROUND LEVEL               :Permanent Datum
EPD  .                                   :Elevation of Permanent Datum above Mean Sea Level
LMF  .                                   :Logging Measured From (Name of Logging Elevation Reference)
APD  .                                   :Elevation of Depth Reference (LMF) above Permanent Datum
#-----------------------------------------------------------------------------
~CURVE INFORMATION
#MNEM.UNIT   API CODE                                  DESCRIPTION
#---- -----  --------                                  -----------------------
TIME .S                                                :TIME {F10.1}
FREQ_EMF_SL.HZ                                         :Electromagnetic Field Frequency {F13.4}
PH_SH_WPPCM_SL.DEG                                     :WPPCM Phase Shift {F13.4}
FREQ_EXC_REQ_SL.HZ                                     :Requested Exciter Frequency {F13.4}
RB_SL.DEG                                              :Relative Bearing {F13.4}
SDEV_SL.DEG                                            :Sonde Deviation {F13.4}
TILX_SL.DEG                                            :X-axis Tilt {F13.4}
TILY_SL.DEG                                            :Y-axis Tilt {F13.4}
ROTA_SL.DEG                                            :Motor Rotation Angle {F13.4}
MSPE_SL.RPM                                            :Motor Speed {F13.4}
#-----------------------------------------------------------------------------
# 
#     TIME    FREQ_EMF_SL  PH_SH_WPPCM_ FREQ_EXC_REQ    RB_SL       SDEV_SL      TILX_SL      TILY_SL      ROTA_SL      MSPE_SL
#                          SL           _SL
~A  
# ...
   16429.0    1447.8928       0.0000      50.8611    -139.4880       4.6807      -3.0371       3.5561     213.1354       1.0161
   16430.0    1430.9204       0.0000      50.8611    -133.1965       4.7214      -3.4387       3.2290     219.2511       1.0293
   16431.0    1438.5951       0.0000      50.8611    -127.2565       4.8019      -3.8211       2.9035     225.3655       1.0226
   16432.0    1430.2219       0.0000      50.8611    -121.5123       4.9420      -4.2116       2.5805     231.4429       1.0226
   16433.0    1419.7717       0.0000      50.8611    -116.4050       5.0513      -4.5232       2.2436     237.5586       1.0226
   16434.0    1411.8976       0.0000      50.8611    -110.6527       5.0493      -4.7241       1.7783     243.6489       1.0226
   16435.0    1410.8224       0.0000      50.8611    -105.7246       5.1745      -4.9803       1.4004     249.7378       1.0161
   16436.0    1393.3765       0.0000      50.8611     -99.6239       5.2651      -5.1908       0.8787     255.8390       1.0226
   16437.0    1382.4184       0.0000      50.8611     -94.6064       5.3480      -5.3306       0.4289     261.9289       1.0226
   16438.0    1373.9400       0.0000      50.8611     -88.3711       5.4035      -5.4013      -0.1533     268.0313       1.0226
   16439.0    1375.6128       0.0000      50.8611     -84.6266       5.3602      -5.3362      -0.5017     274.1323       1.0267
   16440.0    1352.1635       0.0000      50.8611     -78.2378       5.4963      -5.3804      -1.1191     280.2541       1.0186
   16441.0    1340.8704       0.0000      50.8611     -74.5643       5.5208      -5.3210      -1.4674     286.7454       1.0226
   16442.0    1318.8473       0.0000      50.8611     -69.2985       5.5615      -5.2005      -1.9638     292.8471       1.0293
   16443.0    1314.5250       0.0000      50.8611     -64.2234       5.6317      -5.0687      -2.4471     298.9480       1.0226
   16444.0    1284.8608       0.0000      50.8611     -58.8542       5.6611      -4.8430      -2.9239     305.0504       1.0226
   16445.0    1248.5878       0.0000      50.8611     -54.5764       5.6149      -4.5731      -3.2510     311.1578       1.0267
   16446.0    1240.3208       0.0000      50.8611     -50.4203       5.5657      -4.2863      -3.5429     317.2676       1.0226
   16447.0    1215.6809       0.0000      50.8611     -44.5522       5.5635      -3.8999      -3.9616     323.3686       1.0226
   16448.0    1195.5135       0.0000      50.8611     -39.2471       5.4556      -3.4484      -4.2225     329.4843       1.0226
   16449.0    1184.1938       0.0000      50.8611     -34.5289       5.4767      -3.1005      -4.5087     335.5867       1.0226
   16450.0    1163.2018       0.0000      50.8611     -29.2656       5.3756      -2.6242      -4.6878     341.7009       1.0226
   16451.0    1163.3831       0.0000      50.8611     -24.6914       5.3408      -2.2281      -4.8513     347.7932       1.0226
   16452.0    1156.0022       0.0000      50.8611     -19.4141       5.3166      -1.7654      -5.0132     353.9094       1.0226
   16453.0    1158.8219       0.0000      50.8611     -15.2413       5.2878      -1.3886      -5.1007     223.6163       1.0226
   16454.0    1148.8971       0.0000      50.8611      -7.8077       5.1742      -0.7018      -5.1261       6.5174       1.0226
   16455.0    1148.1849       0.0000      50.8611      -4.5336       5.0663      -0.3997      -5.0500      12.6330       1.0226
   16456.0    1159.0872       0.0000      50.8611       1.7918       5.0272       0.1570      -5.0247      18.7364       1.0226
   16457.0    1163.8512       0.0000      50.8611       7.2669       4.8594       0.6141      -4.8203      24.8398       1.0226
   16458.0    1174.8636       0.0000      50.8611      12.5069       4.8841       1.0559      -4.7679      30.9444       1.0267
   16459.0    1177.5860       0.0000      50.8611      18.6133       4.6493       1.4825      -4.4056      37.0543       1.0186
   16460.0    1188.6877       0.0000      50.8611      22.9954       4.6370       1.8094      -4.2674      43.1491       1.0121
   16461.0    1207.6240       0.0000      50.8611      29.3175       4.5252       2.2111      -3.9444      49.2481       1.0226
   16462.0    1233.2097       0.0000      50.8611      35.1328       4.3767       2.5172      -3.5781      55.3483       1.0186
   16463.0    1253.1424       0.0000      50.8611      41.4450       4.2297       2.7983      -3.1692      61.4394       1.0226
   16464.0    1284.8608       0.0000      50.8611      48.2088       4.1259       3.0739      -2.7489      67.5419       1.0186
   16465.0    1304.4990       0.0000      50.8611      54.0378       4.0661       3.2900      -2.3866      74.0386       1.0226
   16466.0    1322.6094       0.0000      50.8611      61.2058       3.9385       3.4506      -1.8959      80.1411       1.0226
   16467.0    1333.0071       0.0000      50.8611      67.2350       3.7800       3.4852      -1.4617      86.2363       1.0226
   16468.0    1348.3447       0.0000      50.8611      75.7150       3.6695       3.5559      -0.9048      92.3408       1.0186
   16469.0    1362.0167       0.0000      50.8611      81.9255       3.6405       3.6017      -0.5098      98.4475       1.0226
   16470.0    1366.3006       0.0000      50.8611      90.6714       3.5566       3.5559       0.0413     104.5631       1.0226
   16471.0    1382.0418       0.0000      50.8611      98.0075       3.5581       3.5213       0.4968     110.6664       1.0293
   16472.0    1395.0892       0.0000      50.8611     103.6164       3.5605       3.4603       0.8378     116.7805       1.0267
   16473.0    1403.8474       0.0000      50.8611     115.2395       3.5153       3.1791       1.4978     122.9081       1.0226
   16474.0    1403.4431       0.0000      50.8611     120.7539       3.5201       3.0241       1.7995     129.0144       1.0226
   16475.0    1417.5908       0.0000      50.8611     128.6541       3.8193       2.9823       2.3818     135.1094       1.0161
   16476.0    1429.1158       0.0000      50.8611     137.9287       3.6812       2.4617       2.7326     141.2183       1.0226
   16477.0    1428.4246       0.0000      50.8611     144.0102       3.6765       2.1597       2.9738     147.7390       1.0226
   16478.0    1438.5951       0.0000      50.8611     153.0155       3.7332       1.6929       3.3263     153.8685       1.0253
   16479.0    1443.3865       0.0000      50.8611     159.7210       3.8453       1.3314       3.6068     159.9572       1.0226
   16480.0    1448.6087       0.0000      50.8611     165.9207       3.8510       0.9354       3.7351     166.0584       1.0226
   16481.0    1447.1892       0.0000      50.8611     174.2578       3.9809       0.3980       3.9609     172.1743       1.0226
   16482.0    1453.8806       0.0000      50.8611    -179.7098       3.9765      -0.0190       3.9764     178.2696       1.0267
   16483.0    1454.2031       0.0000      50.8611    -172.6112       4.1339      -0.5315       4.0991     184.3788       1.0226
   16484.0    1455.7454       0.0000      50.8611    -166.0598       4.1454      -0.9982       4.0230     190.5101       1.0226
   16485.0    1450.1740       0.0000      50.8611    -159.1650       4.3383      -1.5413       4.0524     196.6128       1.0226
   16486.0    1449.0311       0.0000      50.8611    -154.0929       4.4165      -1.9277       3.9707     202.7197       1.0334
   16487.0    1456.4749       0.0000      50.8611    -147.1760       4.5135      -2.4442       3.7916     208.8291       1.0226
   16488.0    1448.6087       0.0000      50.8611    -142.6317       4.7033      -2.8515       3.7351     214.9318       1.0226
   16489.0    1443.7886       0.0000      50.8611    -136.2022       4.7673      -3.2974       3.4391     221.4393       1.0226
   16490.0    1431.3324       0.0000      50.8611    -129.3417       4.8570      -3.7545       3.0769     227.5455       1.0267
   16491.0    1424.0273       0.0000      50.8611    -124.1977       4.8510      -4.0107       2.7244     233.6426       1.0161
