~VERSION INFORMATION
VERS.           2.0   :CWLS Log ASCII Standard - VERSION 2.0
WRAP.           NO    :One Line per depth step
PROD.  Schlumberger   :LAS Producer
PROG.  DLIS to ASCII 19C2-270                          :LAS Program name and version
CREA.        2017/09/16 17:42                          :LAS Creation date {YYYY/MM/DD hh:mm}
DLIS_CREA.  2017-Sep-15 12:00                          :DLIS Creation date and time {YYYY-MMM-DD hh:mm}
SOURCE.     LPC_S1-1_A5.DLIS                           :DLIS File Name
FILE-ID.     PERFO_Perfo_WPGRT_019LTP                  :File Identification Number
#--------------------------------------------------
~WELL INFORMATION
#MNEM.UNIT      DATA             DESCRIPTION
#---- ------ --------------   -----------------------------
STRT .S         4414.0       :START TIME      
STOP .S         5447.0       :STOP TIME      
STEP .S            1.0       :STEP     
NULL .          -999.25      :NULL VALUE
COMP .        SHELL INTERNATIONAL E P                  :COMPANY
WELL .        WPP TEST 2                               :WELL
FLD  .        WILDCAT                                  :FIELD
LOC  .                                                 :LOCATION
CNTY .        HARRIS                                   :COUNTY
STAT .        TEXAS                                    :STATE
CTRY .                                                 :COUNTRY
API  .                                                 :API NUMBER
UWI  .                                                 :UNIQUE WELL ID
DATE .                                                 :LOG DATE
SRVC .        Schlumberger                             :SERVICE COMPANY
LATI .DEG                                              :LATITUDE
LONG .DEG                                              :LONGITUDE
GDAT .                                                 :GeoDetic Datum
#-----------------------------------------------------------------------------
~PARAMETER INFORMATION
#MNEM.UNIT    VALUE                      DESCRIPTION
#---- -----   --------------------       ------------------------
U-PHASE_B_COMP_PER_YT.                 0 :Phase B Comparator Period Yt
U-PHASE_A_COMP_PER_XT.                 0 :Phase A Comparator Period Xt
U-MAX_EXC_CUR_LIMIT.MA       240.00000   :Requested CM Current Limit
U-REQ_EXC_FQ.HZ              50          :Requested CM Frequency
U-TILT_Y_OFFSET.           0.19916       :WPTET Tilt Y Offset
U-TILT_Y_GAIN.           1.01796         :WPTET Tilt Y Gain
U-TILT_X_OFFSET.          -1.77103       :WPTET Tilt X Offset
U-TILT_X_GAIN.           1.00000         :WPTET Tilt X Gain
U-TILT_OFFSET_TOL.           0.00100     :WPTET Tilt Offset Calibration Tolerance
U-NO_TILT_CAL_ROTATIONS.                 3 :Number of Rotations for Tilt Calibration
HAZI .DEG        0.00000                 :Hole Azimuth
U-STD_TOL_TILT.           0.01000        :Tilt Standard Deviation Tolerance
U-GUN_POS_TOL.DEG        5.00000         :Gun Position Tolerance
ROT_ANGLE_THRESHOLD.DEG        5.00000   :Rotation Stop Angle Tolerance
STOP_ROT_ANGLE.DEG       80.00000        :Rotation Stop Angle
WITN .                                   :Witness's Name
ENGI .                                   :Engineer's Name
COUN .        HARRIS                     :County or Rig Name
FN   .        WILDCAT                    :Field Name
WN   .        WPP TEST 2                 :Well Name
CN   .        SHELL INTERNATIONAL E P    :Company Name
CLAB .        County                     :County/Rig Label
SLAB .        State                      :State/Province Label
RUN  .          1                        :RUN NUMBER
PDAT .        GROUND LEVEL               :Permanent Datum
EPD  .                                   :Elevation of Permanent Datum above Mean Sea Level
LMF  .                                   :Logging Measured From (Name of Logging Elevation Reference)
APD  .                                   :Elevation of Depth Reference (LMF) above Permanent Datum
#-----------------------------------------------------------------------------
~CURVE INFORMATION
#MNEM.UNIT   API CODE                                  DESCRIPTION
#---- -----  --------                                  -----------------------
TIME .S                                                :TIME {F10.1}
FREQ_EMF_SL.HZ                                         :Electromagnetic Field Frequency {F13.4}
PH_SH_WPPCM_SL.DEG                                     :WPPCM Phase Shift {F13.4}
FREQ_EXC_REQ_SL.HZ                                     :Requested Exciter Frequency {F13.4}
RB_SL.DEG                                              :Relative Bearing {F13.4}
SDEV_SL.DEG                                            :Sonde Deviation {F13.4}
TILX_SL.DEG                                            :X-axis Tilt {F13.4}
TILY_SL.DEG                                            :Y-axis Tilt {F13.4}
ROTA_SL.DEG                                            :Motor Rotation Angle {F13.4}
MSPE_SL.RPM                                            :Motor Speed {F13.4}
#-----------------------------------------------------------------------------
# 
#     TIME    FREQ_EMF_SL  PH_SH_WPPCM_ FREQ_EXC_REQ    RB_SL       SDEV_SL      TILX_SL      TILY_SL      ROTA_SL      MSPE_SL
#                          SL           _SL
~A  
# ...
    4603.0    1390.8295       0.0000      50.8611    -110.9293       4.7721      -4.4567       1.7027     231.6735       1.0226
    4604.0    1360.0098       0.0000      50.8611    -103.5448       5.0431      -4.9021       1.1768     238.1934       1.0226
    4605.0    1323.9414       0.0000      50.8611     -98.0029       4.9307      -4.8821       0.6861     244.2953       1.0226
    4606.0    1297.0757       0.0000      50.8611     -95.1206       4.9590      -4.9387       0.4408     250.4103       1.0226
    4607.0    1222.9802       0.0000      50.8611     -88.9731       5.0568      -5.0556      -0.0907     256.4999       1.0202
    4608.0    1146.8630       0.0000      50.8611     -83.3528       5.2214      -5.1852      -0.6037     262.6017       1.0226
    4609.0    1078.5275       0.0000      50.8611     -77.8946       5.4044      -5.2838      -1.1315     268.7051       1.0309
    4610.0    1024.0295       0.0000      50.8611     -74.3249       5.2059      -5.0118      -1.4048     274.8201       1.0226
    4611.0     993.4339       0.0000      50.8611     -69.3498       5.2751      -4.9351      -1.8582     280.9219       1.0226
    4612.0     973.2453       0.0000      50.8611     -64.3473       5.4319      -4.8949      -2.3489     287.0237       1.0226
    4613.0     950.9454       0.0000      50.8611     -58.9111       5.4622      -4.6758      -2.8173     293.1255       1.0226
    4614.0     942.9990       0.0000      50.8611     -53.1382       5.3522      -4.2796      -3.2075     299.2428       1.0226
    4615.0     930.1748       0.0000      50.8611     -48.7856       5.2531      -3.9492      -3.4585     305.3431       1.0309
    4616.0     923.0121       0.0000      50.8611     -45.1374       5.3181      -3.7666      -3.7484     311.8661       1.0309
    4617.0     917.5399       0.0000      50.8611     -38.3511       5.3845      -3.3375      -4.2204     317.9680       1.0202
    4618.0     916.0712       0.0000      50.8611     -32.6976       5.4176      -2.9231      -4.5568     324.0576       1.0226
    4619.0     915.3702       0.0000      50.8611     -30.2633       5.1313      -2.5835      -4.4305     330.1584       1.0309
    4620.0     920.4336       0.0000      50.8611     -25.3223       5.0988      -2.1782      -4.6070     336.2617       1.0226
    4621.0     924.5026       0.0000      50.8611     -19.5539       5.0740      -1.6962      -4.7799     342.3666       1.0226
    4622.0     938.5867       0.0000      50.8611     -11.8488       5.0936      -1.0444      -4.9843     348.4538       1.0226
    4623.0     944.7719       0.0000      50.8611      -8.9881       4.9731      -0.7760      -4.9118     354.5432       1.0226
    4624.0     960.5533       0.0000      50.8611      -5.2568       4.7684      -0.4364      -4.7483      82.5450       1.0226
    4625.0     978.4915       0.0000      50.8611       0.5936       4.7395       0.0492      -4.7390       6.7600       1.0250
    4626.0     997.1547       0.0000      50.8611       7.1982       4.6401       0.5805      -4.6033      12.8719       1.0250
    4627.0    1017.8825       0.0000      50.8611      13.0628       4.6095       1.0406      -4.4900      18.9668       1.0226
    4628.0    1050.2962       0.0000      50.8611      16.8010       4.4381       1.2816      -4.2483      25.4736       1.0226
    4629.0    1116.4219       0.0000      50.8611      20.7351       4.2672       1.5099      -3.9900      31.5754       1.0309
    4630.0    1217.1390       0.0000      50.8611      29.4686       4.3495       2.1379      -3.7856      37.6780       1.0226
    4631.0    1264.8295       0.0000      50.8611      36.5147       4.2702       2.5396      -3.4306      43.7798       1.0226
    4632.0    1295.4330       0.0000      50.8611      41.5330       4.0425       2.6783      -3.0254      49.8700       1.0226
    4633.0    1326.6509       0.0000      50.8611      46.6569       3.9233       2.8518      -2.6909      55.9596       1.0226
    4634.0    1357.6343       0.0000      50.8611      53.6085       3.7572       3.0235      -2.2262      62.0492       1.0309
    4635.0    1388.9516       0.0000      50.8611      62.6171       3.7205       3.3027      -1.7096      68.1417       1.0226
    4636.0    1414.0921       0.0000      50.8611      67.9352       3.5744       3.3119      -1.3416      74.2443       1.0250
    4637.0    1444.0724       0.0000      50.8611      75.3709       3.5475       3.4324      -0.8955      80.3538       1.0309
    4638.0    1466.5133       0.0000      50.8611      81.9071       3.4577       3.4232      -0.4866      86.4463       1.0226
    4639.0    1495.2880       0.0000      50.8611      90.8206       3.4295       3.4288       0.0486      92.5505       1.0226
    4640.0    1527.7784       0.0000      50.8611     101.0622       3.2393       3.1786       0.6210      99.0448       1.0226
    4641.0    1547.9591       0.0000      50.8611     106.0685       3.1180       2.9961       0.8627     105.1514       1.0226
    4642.0    1570.6009       0.0000      50.8611     114.7584       3.1789       2.8847       1.3291     111.2484       1.0226
    4643.0    1592.7501       0.0000      50.8611     123.4655       3.2548       2.7149       1.7938     117.3509       1.0226
    4644.0    1601.6515       0.0000      50.8611     129.6628       3.3594       2.5853       2.1432     123.4527       1.0226
    4645.0    1619.2563       0.0000      50.8611     140.9093       3.3019       2.0814       2.5614     129.5497       1.0202
    4646.0    1629.5428       0.0000      50.8611     144.5103       3.4819       2.0197       2.8350     135.6447       1.0226
    4647.0    1641.6118       0.0000      50.8611     152.5128       3.5018       1.6157       3.1059     141.7459       1.0226
    4648.0    1646.6628       0.0000      50.8611     163.4864       3.5650       1.0096       3.4181     147.8588       1.0250
    4649.0    1644.9164       0.0000      50.8611     167.7241       3.6772       0.7814       3.5929     153.9637       1.0226
    4650.0    1636.9127       0.0000      50.8611     175.3890       3.6904       0.2958       3.6783     160.0532       1.0226
    4651.0    1630.1935       0.0000      50.8611     -97.2266       3.7163      -0.0566       3.7155     166.1451       1.0226
    4652.0    1626.7490       0.0000      50.8611    -170.4652       3.9247      -0.6500       3.8698     172.6621       1.0250
    4653.0    1619.6281       0.0000      50.8611    -164.2203       3.9367      -1.0699       3.7880     178.7670       1.0226
    4654.0    1598.0114       0.0000      50.8611    -159.9428       4.0102      -1.3749       3.7657     184.8721       1.0250
    4655.0    1575.4045       0.0000      50.8611    -152.8263       4.1793      -1.9079       3.7155     190.9592       1.0226
    4656.0    1568.6802       0.0000      50.8611    -145.5655       4.2987      -2.4301       3.5427     197.0596       1.0250
    4657.0    1531.1052       0.0000      50.8611    -141.5166       4.3184      -2.6857       3.3791     203.1522       1.0226
    4658.0    1504.0550       0.0000      50.8611    -133.4081       4.4541      -3.2343       3.0590     209.2672       1.0226
    4659.0    1484.0995       0.0000      50.8611    -129.3297       4.4606      -3.4489       2.8253     215.3691       1.0226
    4660.0    1458.7655       0.0000      50.8611    -123.0349       4.6273      -3.8780       2.5205     221.4710       1.0226
    4661.0    1425.3084       0.0000      50.8611    -117.1951       4.5749      -4.0660       2.0874     227.5753       1.0226
    4662.0    1399.1323       0.0000      50.8611    -112.7948       4.9520      -4.5644       1.9165     233.6888       1.0250
    4663.0    1371.8344       0.0000      50.8611    -106.5074       4.4937      -4.3070       1.2772     239.7907       1.0226
    4664.0    1337.9003       0.0000      50.8611    -101.3280       4.8873      -4.7908       0.9611     246.2179       1.0250
    4665.0    1309.7130       0.0000      50.8611     -94.5165       5.1415      -5.1231       0.4055     252.4149       1.0226
