~VERSION INFORMATION
VERS.           2.0   :CWLS Log ASCII Standard - VERSION 2.0
WRAP.           NO    :One Line per depth step
PROD.  Schlumberger   :LAS Producer
PROG.  DLIS to ASCII 19C2-270                          :LAS Program name and version
CREA.        2017/09/16 17:42                          :LAS Creation date {YYYY/MM/DD hh:mm}
DLIS_CREA.  2017-Sep-15 13:07                          :DLIS Creation date and time {YYYY-MMM-DD hh:mm}
SOURCE.     LPC_S1-1_2AV.DLIS                          :DLIS File Name
FILE-ID.     PERFO_Perfo_WPGRT_022LTP                  :File Identification Number
#--------------------------------------------------
~WELL INFORMATION
#MNEM.UNIT      DATA             DESCRIPTION
#---- ------ --------------   -----------------------------
STRT .S         8392.0       :START TIME      
STOP .S         9264.0       :STOP TIME      
STEP .S            1.0       :STEP     
NULL .          -999.25      :NULL VALUE
COMP .        SHELL INTERNATIONAL E P                  :COMPANY
WELL .        WPP TEST 2                               :WELL
FLD  .        WILDCAT                                  :FIELD
LOC  .                                                 :LOCATION
CNTY .        HARRIS                                   :COUNTY
STAT .        TEXAS                                    :STATE
CTRY .                                                 :COUNTRY
API  .                                                 :API NUMBER
UWI  .                                                 :UNIQUE WELL ID
DATE .                                                 :LOG DATE
SRVC .        Schlumberger                             :SERVICE COMPANY
LATI .DEG                                              :LATITUDE
LONG .DEG                                              :LONGITUDE
GDAT .                                                 :GeoDetic Datum
#-----------------------------------------------------------------------------
~PARAMETER INFORMATION
#MNEM.UNIT    VALUE                      DESCRIPTION
#---- -----   --------------------       ------------------------
U-PHASE_B_COMP_PER_YT.                 0 :Phase B Comparator Period Yt
U-PHASE_A_COMP_PER_XT.                 0 :Phase A Comparator Period Xt
U-MAX_EXC_CUR_LIMIT.MA       240.00000   :Requested CM Current Limit
U-REQ_EXC_FQ.HZ              50          :Requested CM Frequency
U-TILT_Y_OFFSET.           0.19916       :WPTET Tilt Y Offset
U-TILT_Y_GAIN.           1.01796         :WPTET Tilt Y Gain
U-TILT_X_OFFSET.          -1.77103       :WPTET Tilt X Offset
U-TILT_X_GAIN.           1.00000         :WPTET Tilt X Gain
U-TILT_OFFSET_TOL.           0.00100     :WPTET Tilt Offset Calibration Tolerance
U-NO_TILT_CAL_ROTATIONS.                 3 :Number of Rotations for Tilt Calibration
HAZI .DEG        0.00000                 :Hole Azimuth
U-STD_TOL_TILT.           0.01000        :Tilt Standard Deviation Tolerance
U-GUN_POS_TOL.DEG        5.00000         :Gun Position Tolerance
ROT_ANGLE_THRESHOLD.DEG        5.00000   :Rotation Stop Angle Tolerance
STOP_ROT_ANGLE.DEG       80.00000        :Rotation Stop Angle
WITN .                                   :Witness's Name
ENGI .                                   :Engineer's Name
COUN .        HARRIS                     :County or Rig Name
FN   .        WILDCAT                    :Field Name
WN   .        WPP TEST 2                 :Well Name
CN   .        SHELL INTERNATIONAL E P    :Company Name
CLAB .        County                     :County/Rig Label
SLAB .        State                      :State/Province Label
RUN  .          1                        :RUN NUMBER
PDAT .        GROUND LEVEL               :Permanent Datum
EPD  .                                   :Elevation of Permanent Datum above Mean Sea Level
LMF  .                                   :Logging Measured From (Name of Logging Elevation Reference)
APD  .                                   :Elevation of Depth Reference (LMF) above Permanent Datum
#-----------------------------------------------------------------------------
~CURVE INFORMATION
#MNEM.UNIT   API CODE                                  DESCRIPTION
#---- -----  --------                                  -----------------------
TIME .S                                                :TIME {F10.1}
FREQ_EMF_SL.HZ                                         :Electromagnetic Field Frequency {F13.4}
PH_SH_WPPCM_SL.DEG                                     :WPPCM Phase Shift {F13.4}
FREQ_EXC_REQ_SL.HZ                                     :Requested Exciter Frequency {F13.4}
RB_SL.DEG                                              :Relative Bearing {F13.4}
SDEV_SL.DEG                                            :Sonde Deviation {F13.4}
TILX_SL.DEG                                            :X-axis Tilt {F13.4}
TILY_SL.DEG                                            :Y-axis Tilt {F13.4}
ROTA_SL.DEG                                            :Motor Rotation Angle {F13.4}
MSPE_SL.RPM                                            :Motor Speed {F13.4}
#-----------------------------------------------------------------------------
# 
#     TIME    FREQ_EMF_SL  PH_SH_WPPCM_ FREQ_EXC_REQ    RB_SL       SDEV_SL      TILX_SL      TILY_SL      ROTA_SL      MSPE_SL
#                          SL           _SL
~A  
# ...
    8833.0    1337.1725       0.0000      50.8611     -45.5044       1.0388      -0.7403      -0.7274     228.4783       1.0226
    8834.0    1344.4073       0.0000      50.8611     -56.0369       1.0216      -0.8472      -0.5708     234.5782       1.0226
    8835.0    1340.9742       0.0000      50.8611     -52.3183       1.0791      -0.8540      -0.6595     240.6901       1.0226
    8836.0    1343.5367       0.0000      50.8611     -47.7446       0.9911      -0.7335      -0.6664     246.7999       1.0226
    8837.0    1351.7222       0.0000      50.8611     -39.6929       1.0030      -0.6403      -0.7683     252.9005       1.0226
    8838.0    1349.5681       0.0000      50.8611     -50.5488       1.0273      -0.7934      -0.6525     259.4052       1.0315
    8839.0    1352.6064       0.0000      50.8611     -50.5205       1.0629      -0.8199      -0.6734     265.5273       1.0226
    8840.0    1360.0098       0.0000      50.8611     -52.1277       0.9730      -0.7669      -0.5977     271.6013       1.0208
    8841.0    1358.7284       0.0000      50.8611     -60.7231       0.9875      -0.8608      -0.4820     277.7010       1.0226
    8842.0    1364.8415       0.0000      50.8611     -47.8492       0.9619      -0.7130      -0.6456     283.8006       1.0226
    8843.0    1375.0666       0.0000      50.8611     -56.1534       0.8913      -0.7403      -0.4959     289.9054       1.0138
    8844.0    1372.4451       0.0000      50.8611     -50.8755       1.0229      -0.7934      -0.6456     295.9864       1.0053
    8845.0    1377.3059       0.0000      50.8611     -51.0542       1.0564      -0.8199      -0.6656     302.0717       1.0226
    8846.0    1370.1607       0.0000      50.8611     -54.1511       0.9052      -0.7335      -0.5299     308.1601       1.0208
    8847.0    1372.4451       0.0000      50.8611     -54.2043       0.9198      -0.7464      -0.5368     314.2889       1.0208
    8848.0    1374.6670       0.0000      50.8611     -56.4437       0.8513      -0.7070      -0.4681     320.4077       1.0226
    8849.0    1382.7230       0.0000      50.8611     -51.3244       1.0090      -0.7865      -0.6317     326.5063       1.0226
    8850.0    1382.7230       0.0000      50.8611     -50.4876       0.9265      -0.7130      -0.5908     333.0027       1.0226
    8851.0    1383.2451       0.0000      50.8611     -59.2458       1.1023      -0.9472      -0.5638     339.1194       1.0226
    8852.0    1390.0429       0.0000      50.8611     -62.2119       0.6400      -0.5660      -0.2984     345.2068       1.0226
    8853.0    1391.8590       0.0000      50.8611     -56.7249       0.8924      -0.7464      -0.4890     351.3197       1.0226
    8854.0    1394.6196       0.0000      50.8611     -53.2786       0.8981      -0.7199      -0.5368     357.4234       1.0226
    8855.0    1390.0429       0.0000      50.8611     -57.0844       0.9620      -0.8070      -0.5229       3.5282       1.0226
    8856.0    1389.8087       0.0000      50.8611     -63.5659       0.9073      -0.8121      -0.4037       9.6280       1.0226
    8857.0    1400.1741       0.0000      50.8611     -68.0436       0.8703      -0.8070      -0.3254      15.7268       1.0226
    8858.0    1393.2679       0.0000      50.8611     -64.8037       0.9731      -0.8805      -0.4142      21.8234       1.0208
    8859.0    1390.5125       0.0000      50.8611     -66.8872       0.9143      -0.8404      -0.3594      27.9108       1.0226
    8860.0    1393.2679       0.0000      50.8611     -65.8564       0.9587      -0.8737      -0.3933      34.0106       1.0138
    8861.0    1392.7964       0.0000      50.8611     -77.7712       0.9902      -0.9677      -0.2097      40.1019       1.0226
    8862.0    1394.1518       0.0000      50.8611     -63.3912       0.8355      -0.7472      -0.3733      46.6107       1.0226
    8863.0    1386.3703       0.0000      50.8611     -63.9821       0.8933      -0.8010      -0.3864      52.7238       1.0226
    8864.0    1386.8344       0.0000      50.8611     -65.5485       0.8512      -0.7737      -0.3532      58.8133       1.0297
    8865.0    1383.6421       0.0000      50.8611     -67.0452       1.0494      -0.9669      -0.4072      64.9321       1.0138
    8866.0    1385.4475       0.0000      50.8611     -62.5253       1.0077      -0.8950      -0.4620      71.0203       1.0226
    8867.0    1382.7773       0.0000      50.8611     -67.5451       1.0476      -0.9677      -0.4003      77.1344       1.0226
    8868.0    1375.4077       0.0000      50.8611     -66.0239       1.1416      -1.0429      -0.4637      83.2331       1.0315
    8869.0    1371.5260       0.0000      50.8611     -64.0994       0.9204      -0.8275      -0.4003      89.3502       1.0226
    8870.0    1369.3128       0.0000      50.8611     -67.7618       0.9872      -0.9139      -0.3733      95.4683       1.0226
    8871.0    1365.2913       0.0000      50.8611     -68.4493       1.0183      -0.9472      -0.3733     101.5564       1.0208
    8872.0    1356.9395       0.0000      50.8611     -63.0942       1.0992      -0.9805      -0.4959     107.6602       1.0226
    8873.0    1351.3432       0.0000      50.8611     -69.4980       1.0434      -0.9745      -0.3671     113.7640       1.0226
    8874.0    1353.0510       0.0000      50.8611     -67.3266       1.0924      -1.0079      -0.4211     120.1999       1.0226
    8875.0    1356.0554       0.0000      50.8611     -61.4904       1.0399      -0.9139      -0.4959     126.3787       1.0226
    8876.0    1344.4073       0.0000      50.8611     -55.3567       0.9759      -0.8010      -0.5499     132.4724       1.0226
    8877.0    1338.9205       0.0000      50.8611     -56.2190       1.1877      -0.9874      -0.6595     138.5871       1.0315
    8878.0    1335.9377       0.0000      50.8611     -56.2549       1.0765      -0.8942      -0.5986     144.6778       1.0208
    8879.0    1340.1134       0.0000      50.8611     -55.8339       1.1368      -0.9404      -0.6386     150.8005       1.0315
    8880.0    1330.3971       0.0000      50.8611     -60.6026       1.0309      -0.8957      -0.5068     156.9077       1.0226
    8881.0    1323.7953       0.0000      50.8611     -57.8807       1.1508      -0.9745      -0.6117     163.0117       1.0226
    8882.0    1331.6761       0.0000      50.8611     -55.0659       1.1399      -0.9344      -0.6525     169.1115       1.0138
    8883.0    1333.7734       0.0000      50.8611     -55.0163       1.2218      -1.0010      -0.7004     175.2032       1.0226
    8884.0    1329.1588       0.0000      50.8611     -48.3216       1.1450      -0.8540      -0.7613     181.3202       1.0226
    8885.0    1325.0036       0.0000      50.8611     -52.4005       1.0695      -0.8472      -0.6525     187.4211       1.0226
    8886.0    1326.6509       0.0000      50.8611     -54.3192       1.0847      -0.8805      -0.6325     193.8560       1.0226
    8887.0    1330.8219       0.0000      50.8611     -54.4464       1.0846      -0.8805      -0.6317     200.0326       1.0297
    8888.0    1325.0036       0.0000      50.8611     -54.7767       1.1190      -0.9139      -0.6456     206.1457       1.0315
    8889.0    1333.7734       0.0000      50.8611     -48.1749       1.0111      -0.7540      -0.6734     212.2479       1.0315
    8890.0    1334.2030       0.0000      50.8611     -55.5310       1.1655      -0.9609      -0.6595     218.3861       1.0226
    8891.0    1346.1088       0.0000      50.8611     -52.9688       1.0279      -0.8207      -0.6186     224.4900       1.0226
    8892.0    1338.8529       0.0000      50.8611     -52.1009       1.0737      -0.8472      -0.6595     230.6080       1.0244
    8893.0    1336.7396       0.0000      50.8611     -53.8876       1.0824      -0.8737      -0.6386     236.7079       1.0226
    8894.0    1340.9742       0.0000      50.8611     -58.5047       1.0408      -0.8874      -0.5438     242.8118       1.0226
    8895.0    1337.6070       0.0000      50.8611     -50.5341       1.1326      -0.8737      -0.7204     248.9288       1.0226
