~VERSION INFORMATION
VERS.           2.0   :CWLS Log ASCII Standard - VERSION 2.0
WRAP.           NO    :One Line per depth step
PROD.  Schlumberger   :LAS Producer
PROG.  DLIS to ASCII 19C2-270                          :LAS Program name and version
CREA.        2017/09/16 17:42                          :LAS Creation date {YYYY/MM/DD hh:mm}
DLIS_CREA.  2017-Sep-15 19:24                          :DLIS Creation date and time {YYYY-MMM-DD hh:mm}
SOURCE.     LPC_S5-1_BV.DLIS                           :DLIS File Name
FILE-ID.     PERFO_Perfo_WPGRT_061LTP                  :File Identification Number
#--------------------------------------------------
~WELL INFORMATION
#MNEM.UNIT      DATA             DESCRIPTION
#---- ------ --------------   -----------------------------
STRT .S          101.0       :START TIME      
STOP .S          592.0       :STOP TIME      
STEP .S            1.0       :STEP     
NULL .          -999.25      :NULL VALUE
COMP .        SHELL INTERNATIONAL E P                  :COMPANY
WELL .        WPP TEST 2                               :WELL
FLD  .        WILDCAT                                  :FIELD
LOC  .        NA                                       :LOCATION
CNTY .        HARRIS                                   :COUNTY
STAT .        TEXAS                                    :STATE
CTRY .                                                 :COUNTRY
API  .        NA                                       :API NUMBER
UWI  .                                                 :UNIQUE WELL ID
DATE .        15-Sep-2017                              :LOG DATE {DD-MMM-YYYY}
SRVC .        Schlumberger                             :SERVICE COMPANY
LATI .DEG                                              :LATITUDE
LONG .DEG                                              :LONGITUDE
GDAT .                                                 :GeoDetic Datum
SECT .        NA                                       :Section
RANG .        NA                                       :Range
TOWN .        NA                                       :Township
#-----------------------------------------------------------------------------
~PARAMETER INFORMATION
#MNEM.UNIT    VALUE                      DESCRIPTION
#---- -----   --------------------       ------------------------
U-PHASE_B_COMP_PER_YT.                 0 :Phase B Comparator Period Yt
U-PHASE_A_COMP_PER_XT.                 0 :Phase A Comparator Period Xt
U-MAX_EXC_CUR_LIMIT.MA       240.00000   :Requested CM Current Limit
U-REQ_EXC_FQ.HZ              50          :Requested CM Frequency
U-TILT_Y_OFFSET.           0.19916       :WPTET Tilt Y Offset
U-TILT_Y_GAIN.           1.01796         :WPTET Tilt Y Gain
U-TILT_X_OFFSET.          -1.77103       :WPTET Tilt X Offset
U-TILT_X_GAIN.           1.00000         :WPTET Tilt X Gain
U-TILT_OFFSET_TOL.           0.00100     :WPTET Tilt Offset Calibration Tolerance
U-NO_TILT_CAL_ROTATIONS.                 3 :Number of Rotations for Tilt Calibration
HAZI .DEG        0.00000                 :Hole Azimuth
U-STD_TOL_TILT.           0.01000        :Tilt Standard Deviation Tolerance
U-GUN_POS_TOL.DEG        5.00000         :Gun Position Tolerance
ROT_ANGLE_THRESHOLD.DEG        5.00000   :Rotation Stop Angle Tolerance
STOP_ROT_ANGLE.DEG        0.00000        :Rotation Stop Angle
WITN .        MR. DHRUA ARORA            :Witness's Name
ENGI .        MORRIS MOORE               :Engineer's Name
COUN .        HARRIS                     :County or Rig Name
FN   .        WILDCAT                    :Field Name
WN   .        WPP TEST 2                 :Well Name
CN   .        SHELL INTERNATIONAL E P    :Company Name
CLAB .        County                     :County/Rig Label
SLAB .        State                      :State/Province Label
RUN  .          1                        :RUN NUMBER
PDAT .        GROUND LEVEL               :Permanent Datum
EPD  .                                   :Elevation of Permanent Datum above Mean Sea Level
LMF  .          NA                       :Logging Measured From (Name of Logging Elevation Reference)
APD  .                                   :Elevation of Depth Reference (LMF) above Permanent Datum
#-----------------------------------------------------------------------------
~CURVE INFORMATION
#MNEM.UNIT   API CODE                                  DESCRIPTION
#---- -----  --------                                  -----------------------
TIME .S                                                :TIME {F10.1}
FREQ_EMF_SL.HZ                                         :Electromagnetic Field Frequency {F13.4}
PH_SH_WPPCM_SL.DEG                                     :WPPCM Phase Shift {F13.4}
FREQ_EXC_REQ_SL.HZ                                     :Requested Exciter Frequency {F13.4}
RB_SL.DEG                                              :Relative Bearing {F13.4}
SDEV_SL.DEG                                            :Sonde Deviation {F13.4}
TILX_SL.DEG                                            :X-axis Tilt {F13.4}
TILY_SL.DEG                                            :Y-axis Tilt {F13.4}
ROTA_SL.DEG                                            :Motor Rotation Angle {F13.4}
MSPE_SL.RPM                                            :Motor Speed {F13.4}
#-----------------------------------------------------------------------------
# 
#     TIME    FREQ_EMF_SL  PH_SH_WPPCM_ FREQ_EXC_REQ    RB_SL       SDEV_SL      TILX_SL      TILY_SL      ROTA_SL      MSPE_SL
#                          SL           _SL
~A  
# ...
     542.0    1233.5526       0.0000      50.8611     -53.0147       0.9109      -0.7267      -0.5483      60.5127       1.0188
     543.0    1238.5129       0.0000      50.8611     -51.3010       0.8107      -0.6319      -0.5074      66.6408       1.0226
     544.0    1241.4829       0.0000      50.8611     -55.9186       0.6730      -0.5579      -0.3765      72.7426       1.0226
     545.0    1244.4691       0.0000      50.8611     -57.2069       0.6949      -0.5773      -0.3816      78.8461       1.0257
     546.0    1248.2700       0.0000      50.8611     -62.2896       0.6887      -0.6093      -0.3209      84.9471       1.0226
     547.0    1271.9649       0.0000      50.8611     -60.9593       0.8570      -0.7411      -0.4206      91.3214       1.0226
     548.0    1279.9009       0.0000      50.8611     -64.3916       0.6473      -0.5836      -0.2800      97.5718       1.0226
     549.0    1288.4424       0.0000      50.8611     -71.6454       0.7116      -0.6752      -0.2244     103.6866       1.0226
     550.0    1314.2523       0.0000      50.8611     -71.9172       0.7679      -0.7298      -0.2359     109.7895       1.0226
     551.0    1319.1838       0.0000      50.8611     -63.6817       0.8449      -0.7556      -0.3765     115.8902       1.0226
     552.0    1339.0964       0.0000      50.8611     -68.1794       0.8540      -0.7926      -0.3177     121.9940       1.0226
     553.0    1349.4695       0.0000      50.8611     -72.3189       0.9128      -0.8698      -0.2768     128.0938       1.0226
     554.0    1352.8998       0.0000      50.8611     -71.4747       0.8911      -0.8441      -0.2800     134.1957       1.0295
     555.0    1364.3404       0.0000      50.8611     -71.6086       0.8696      -0.8215      -0.2736     140.3107       1.0226
     556.0    1368.1662       0.0000      50.8611     -66.6672       1.0136      -0.9307      -0.3995     146.4134       1.0226
     557.0    1377.7069       0.0000      50.8611     -66.2210       0.9258      -0.8472      -0.3733     152.5153       1.0226
     558.0    1387.8193       0.0000      50.8611     -75.6797       1.0136      -0.9821      -0.2506     158.6172       1.0226
     559.0    1389.5751       0.0000      50.8611     -71.0425       1.0232      -0.9677      -0.3324     164.7191       1.0226
     560.0    1397.0867       0.0000      50.8611     -73.8062       1.0953      -1.0512      -0.3030     171.2290       1.0226
     561.0    1407.2628       0.0000      50.8611     -65.6527       1.0689      -0.9708      -0.4372     177.3309       1.0226
     562.0    1415.5448       0.0000      50.8611     -72.5535       1.1153      -1.0625      -0.3356     183.4460       1.0226
     563.0    1412.7007       0.0000      50.8611     -80.8403       1.0697      -1.0562      -0.1688     189.5479       1.0226
     564.0    1418.6200       0.0000      50.8611     -67.7720       1.0185      -0.9420      -0.3848     195.6629       1.0226
     565.0    1431.2121       0.0000      50.8611     -67.6358       1.2008      -1.1108      -0.4551     201.7648       1.0226
     566.0    1430.9805       0.0000      50.8611     -71.8632       1.2940      -1.2219      -0.4193     207.8675       1.0188
     567.0    1428.0741       0.0000      50.8611     -67.0138       1.3018      -1.1911      -0.5157     213.7080       0.3678
     568.0    1437.0624       0.0000      50.8611     -69.8449       1.2156      -1.1397      -0.4174     214.0002       0.0005
     569.0    1441.0732       0.0000      50.8611     -64.4093       1.1494      -1.0367      -0.4959     214.0002       0.0005
     570.0    1437.6661       0.0000      50.8611     -70.4888       1.2443      -1.1717      -0.4174     214.0002       0.0005
     571.0    1438.7164       0.0000      50.8611     -66.1583       1.1617      -1.0625      -0.4697     214.0002       0.0005
     572.0    1436.0035       0.0000      50.8611     -69.7900       1.2305      -1.1541      -0.4257     214.0002       0.0005
     573.0    1437.0624       0.0000      50.8611     -66.2846       1.0578      -0.9677      -0.4257     214.0002       0.0005
     574.0    1439.7710       0.0000      50.8611     -67.8455       1.1757      -1.0882      -0.4436     214.0002       0.0005
     575.0    1436.8289       0.0000      50.8611     -68.4445       1.1300      -1.0512      -0.4142     214.0002       0.0005
     576.0    1437.0624       0.0000      50.8611     -65.8299       1.2493      -1.1397      -0.5106     214.0002       0.0005
     577.0    1438.7164       0.0000      50.8611     -70.6427       1.1719      -1.1058      -0.3880     214.0002       0.0005
     578.0    1437.0624       0.0000      50.8611     -66.9033       1.1691      -1.0738      -0.4582     214.0002       0.0005
     579.0    1438.9423       0.0000      50.8611     -67.7948       1.1353      -1.0512      -0.4289     214.0002       0.0005
     580.0    1438.7164       0.0000      50.8611     -66.1736       1.3264      -1.2137      -0.5253     214.0002       0.0005
     581.0    1437.8834       0.0000      50.8611     -65.4307       1.2025      -1.0945      -0.4959     214.0002       0.0005
     582.0    1437.8834       0.0000      50.8611     -66.6561       1.1854      -1.0882      -0.4697     214.0002       0.0005
     583.0    1438.9423       0.0000      50.8611     -58.1706       1.4509      -1.1899      -0.8154     214.0002       0.0005
     584.0    1440.6118       0.0000      50.8611     -65.4991       1.2858      -1.1685      -0.5336     214.0002       0.0005
     585.0    1439.7710       0.0000      50.8611     -61.8395       1.3672      -1.2056      -0.6448     214.0002       0.0005
     586.0    1437.8834       0.0000      50.8611     -65.3238       0.9905      -0.9030      -0.4059     214.0002       0.0005
     587.0    1439.7710       0.0000      50.8611     -66.7212       1.1459      -1.0530      -0.4519     214.0002       0.0005
     588.0    1440.6118       0.0000      50.8611     -66.7918       1.2678      -1.1622      -0.5042     214.0002       0.0005
     589.0    1436.8289       0.0000      50.8611     -66.5320       1.4248      -1.3035      -0.5694     214.0002       0.0005
     590.0    1434.1313       0.0000      50.8611     -70.0476       1.1896      -1.1139      -0.4059     214.0002       0.0005
     591.0    1442.9607       0.0000      50.8611     -56.1011       1.0898      -0.9049      -0.6071     214.0002       0.0005
     592.0    1438.7164       0.0000      50.8611     -61.5287       1.2138      -1.0656      -0.5745     214.0002       0.0005
