~VERSION INFORMATION
VERS.           2.0   :CWLS Log ASCII Standard - VERSION 2.0
WRAP.           NO    :One Line per depth step
PROD.  Schlumberger   :LAS Producer
PROG.  DLIS to ASCII 19C2-270                          :LAS Program name and version
CREA.        2017/09/16 17:42                          :LAS Creation date {YYYY/MM/DD hh:mm}
DLIS_CREA.  2017-Sep-15 17:44                          :DLIS Creation date and time {YYYY-MMM-DD hh:mm}
SOURCE.     LPC_S4-1_B5.DLIS                           :DLIS File Name
FILE-ID.     PERFO_Perfo_WPGRT_050LTP                  :File Identification Number
#--------------------------------------------------
~WELL INFORMATION
#MNEM.UNIT      DATA             DESCRIPTION
#---- ------ --------------   -----------------------------
STRT .S         2640.0       :START TIME      
STOP .S         3106.0       :STOP TIME      
STEP .S            1.0       :STEP     
NULL .          -999.25      :NULL VALUE
COMP .        SHELL INTERNATIONAL E P                  :COMPANY
WELL .        WPP TEST 2                               :WELL
FLD  .        WILDCAT                                  :FIELD
LOC  .        NA                                       :LOCATION
CNTY .        HARRIS                                   :COUNTY
STAT .        TEXAS                                    :STATE
CTRY .                                                 :COUNTRY
API  .        NA                                       :API NUMBER
UWI  .                                                 :UNIQUE WELL ID
DATE .        15-Sep-2017                              :LOG DATE {DD-MMM-YYYY}
SRVC .        Schlumberger                             :SERVICE COMPANY
LATI .DEG                                              :LATITUDE
LONG .DEG                                              :LONGITUDE
GDAT .                                                 :GeoDetic Datum
SECT .        NA                                       :Section
RANG .        NA                                       :Range
TOWN .        NA                                       :Township
#-----------------------------------------------------------------------------
~PARAMETER INFORMATION
#MNEM.UNIT    VALUE                      DESCRIPTION
#---- -----   --------------------       ------------------------
U-PHASE_B_COMP_PER_YT.                 0 :Phase B Comparator Period Yt
U-PHASE_A_COMP_PER_XT.                 0 :Phase A Comparator Period Xt
U-MAX_EXC_CUR_LIMIT.MA       240.00000   :Requested CM Current Limit
U-REQ_EXC_FQ.HZ              50          :Requested CM Frequency
U-TILT_Y_OFFSET.           0.19916       :WPTET Tilt Y Offset
U-TILT_Y_GAIN.           1.01796         :WPTET Tilt Y Gain
U-TILT_X_OFFSET.          -1.77103       :WPTET Tilt X Offset
U-TILT_X_GAIN.           1.00000         :WPTET Tilt X Gain
U-TILT_OFFSET_TOL.           0.00100     :WPTET Tilt Offset Calibration Tolerance
U-NO_TILT_CAL_ROTATIONS.                 3 :Number of Rotations for Tilt Calibration
HAZI .DEG        0.00000                 :Hole Azimuth
U-STD_TOL_TILT.           0.01000        :Tilt Standard Deviation Tolerance
U-GUN_POS_TOL.DEG        5.00000         :Gun Position Tolerance
ROT_ANGLE_THRESHOLD.DEG        5.00000   :Rotation Stop Angle Tolerance
STOP_ROT_ANGLE.DEG        0.00000        :Rotation Stop Angle
WITN .        MR. DHRUA ARORA            :Witness's Name
ENGI .        MORRIS MOORE               :Engineer's Name
COUN .        HARRIS                     :County or Rig Name
FN   .        WILDCAT                    :Field Name
WN   .        WPP TEST 2                 :Well Name
CN   .        SHELL INTERNATIONAL E P    :Company Name
CLAB .        County                     :County/Rig Label
SLAB .        State                      :State/Province Label
RUN  .          1                        :RUN NUMBER
PDAT .        GROUND LEVEL               :Permanent Datum
EPD  .                                   :Elevation of Permanent Datum above Mean Sea Level
LMF  .          NA                       :Logging Measured From (Name of Logging Elevation Reference)
APD  .                                   :Elevation of Depth Reference (LMF) above Permanent Datum
#-----------------------------------------------------------------------------
~CURVE INFORMATION
#MNEM.UNIT   API CODE                                  DESCRIPTION
#---- -----  --------                                  -----------------------
TIME .S                                                :TIME {F10.1}
FREQ_EMF_SL.HZ                                         :Electromagnetic Field Frequency {F13.4}
PH_SH_WPPCM_SL.DEG                                     :WPPCM Phase Shift {F13.4}
FREQ_EXC_REQ_SL.HZ                                     :Requested Exciter Frequency {F13.4}
RB_SL.DEG                                              :Relative Bearing {F13.4}
SDEV_SL.DEG                                            :Sonde Deviation {F13.4}
TILX_SL.DEG                                            :X-axis Tilt {F13.4}
TILY_SL.DEG                                            :Y-axis Tilt {F13.4}
ROTA_SL.DEG                                            :Motor Rotation Angle {F13.4}
MSPE_SL.RPM                                            :Motor Speed {F13.4}
#-----------------------------------------------------------------------------
# 
#     TIME    FREQ_EMF_SL  PH_SH_WPPCM_ FREQ_EXC_REQ    RB_SL       SDEV_SL      TILX_SL      TILY_SL      ROTA_SL      MSPE_SL
#                          SL           _SL
~A  
# ...
    2703.0    1630.9993       0.0000      50.8611    -153.9788       4.0445      -1.7732       3.6337     223.1989       1.0283
    2704.0    1595.9171       0.0000      50.8611    -148.2677       4.2211      -2.2173       3.5884     229.5067       1.0226
    2705.0    1559.0355       0.0000      50.8611    -142.3058       4.3136      -2.6357       3.4122     235.6086       1.0226
    2706.0    1518.4552       0.0000      50.8611    -137.9362       4.2645      -2.8555       3.1647     241.7121       1.0226
    2707.0    1484.5626       0.0000      50.8611    -131.3507       4.4508      -3.3397       2.9387     247.8140       1.0226
    2708.0    1450.7375       0.0000      50.8611    -124.1680       4.5730      -3.7816       2.5662     253.9159       1.0226
    2709.0    1412.9038       0.0000      50.8611    -119.7326       4.7114      -4.0890       2.3353     260.0162       1.0226
    2710.0    1374.2967       0.0000      50.8611    -113.9527       4.8238      -4.4075       1.9551     266.1196       1.0226
    2711.0    1336.4793       0.0000      50.8611    -108.1465       4.7621      -4.5235       1.4815     272.2214       1.0226
    2712.0    1300.6902       0.0000      50.8611    -104.0437       4.8703      -4.7244       1.1805     278.3364       1.0283
    2713.0    1244.2423       0.0000      50.8611     -97.2415       4.9631      -4.9230       0.6251     284.4447       1.0170
    2714.0    1159.6898       0.0000      50.8611     -92.6111       5.1700      -5.1640       0.2355     290.5407       1.0283
    2715.0    1080.5398       0.0000      50.8611     -87.8451       5.0829      -5.0793      -0.1904     296.8708       1.0226
    2716.0    1028.7545       0.0000      50.8611     -83.0572       5.1428      -5.1049      -0.6209     303.1654       1.0226
    2717.0     985.3494       0.0000      50.8611     -78.0018       5.2606      -5.1450      -1.0922     309.2741       1.0283
    2718.0     958.9835       0.0000      50.8611     -71.0009       5.3132      -5.0223      -1.7271     315.3821       1.0226
    2719.0     939.8752       0.0000      50.8611     -68.7713       5.2858      -4.9252      -1.9122     321.4839       1.0226
    2720.0     919.1853       0.0000      50.8611     -63.3589       5.2238      -4.6674      -2.3404     327.5857       1.0283
    2721.0     904.4625       0.0000      50.8611     -57.8808       5.3182      -4.5010      -2.8225     333.7138       1.0226
    2722.0     889.8586       0.0000      50.8611     -51.5675       5.3139      -4.1598      -3.3001     339.8156       1.0226
    2723.0     880.0062       0.0000      50.8611     -48.0137       5.3012      -3.9378      -3.5432     345.9174       1.0226
    2724.0     874.5947       0.0000      50.8611     -42.2293       5.1779      -3.4770      -3.8317     352.0206       1.0226
    2725.0     870.8351       0.0000      50.8611     -38.0211       5.2551      -3.2338      -4.1372     358.1358       1.0277
    2726.0     870.7137       0.0000      50.8611     -31.0631       5.1165      -2.6414      -4.3758       4.2359       1.0226
    2727.0     875.6227       0.0000      50.8611     -28.4604       5.1947      -2.4728      -4.5654      10.5390       1.0226
    2728.0     878.9680       0.0000      50.8611     -23.6525       5.0305      -2.0164      -4.6063      16.8352       1.0226
    2729.0     885.0216       0.0000      50.8611     -18.3360       4.9833      -1.5658      -4.7290      22.9370       1.0226
    2730.0     895.7648       0.0000      50.8611     -13.1361       4.9649      -1.1261      -4.8346      29.0142       1.0226
    2731.0     908.4963       0.0000      50.8611      -7.4962       4.8134      -0.6274      -4.7721      35.1169       1.0226
    2732.0     924.0887       0.0000      50.8611      -4.4514       4.7412      -0.3674      -4.7267      41.2065       1.0226
    2733.0     945.6223       0.0000      50.8611       1.6394       4.7290       0.1349      -4.7267      47.3083       1.0226
    2734.0     976.2581       0.0000      50.8611       7.2725       4.6264       0.5865      -4.5870      53.4101       1.0226
    2735.0    1011.4663       0.0000      50.8611      14.8509       4.5527       1.1656      -4.3996      59.5189       1.0341
    2736.0    1089.9857       0.0000      50.8611      19.7448       4.4176       1.4913      -4.1543      65.6399       1.0226
    2737.0    1180.0964       0.0000      50.8611      25.4442       4.3066       1.8484      -3.8874      71.7680       1.0226
    2738.0    1266.0905       0.0000      50.8611      30.9191       4.1113       2.1128      -3.5239      77.8697       1.0226
    2739.0    1312.2453       0.0000      50.8611      37.2592       4.0122       2.4275      -3.1923      83.9847       1.0226
    2740.0    1359.2632       0.0000      50.8611      43.2438       4.0486       2.7722      -2.9470      90.4945       1.0226
    2741.0    1400.6475       0.0000      50.8611      49.3474       3.8650       2.9307      -2.5165      96.6047       1.0277
    2742.0    1444.1389       0.0000      50.8611      54.0057       3.6988       2.9920      -2.1723     102.7112       1.0226
    2743.0    1479.1751       0.0000      50.8611      63.0278       3.6713       3.2710      -1.6646     108.8130       1.0226
    2744.0    1525.4061       0.0000      50.8611      70.5721       3.5142       3.3134      -1.1672     114.9480       1.0329
    2745.0    1566.1796       0.0000      50.8611      76.5668       3.4630       3.3681      -0.8037     121.0691       1.0226
    2746.0    1603.7982       0.0000      50.8611      84.6003       3.3047       3.2900      -0.3108     127.1709       1.0170
    2747.0    1644.8449       0.0000      50.8611      93.1854       3.2359       3.2308       0.1798     133.2604       1.0226
    2748.0    1680.2203       0.0000      50.8611     100.6015       3.3236       3.2666       0.6103     139.3623       1.0226
    2749.0    1710.7665       0.0000      50.8611     111.3246       3.2532       3.0300       1.1827     145.4642       1.0226
    2750.0    1734.0907       0.0000      50.8611     116.7492       3.1637       2.8247       1.4235     151.5661       1.0226
    2751.0    1749.3173       0.0000      50.8611     123.6155       3.2023       2.6663       1.7722     157.6556       1.0226
    2752.0    1771.0958       0.0000      50.8611     133.2554       3.2135       2.3405       2.2004     164.1639       1.0226
    2753.0    1782.4465       0.0000      50.8611     140.5088       3.3363       2.1207       2.5729     170.2674       1.0226
    2754.0    1777.9393       0.0000      50.8611     147.5490       3.3632       1.8038       2.8376     176.3693       1.0226
    2755.0    1780.0632       0.0000      50.8611     156.4905       3.2967       1.3152       3.0204     182.4466       1.0226
    2756.0    1770.8616       0.0000      50.8611     163.0345       3.4373       1.0027       3.2873     188.5616       1.0277
    2757.0    1761.9862       0.0000      50.8611     170.5381       3.6261       0.5944       3.5758     194.6511       1.0226
    2758.0    1749.3173       0.0000      50.8611     175.7422       3.7118       0.2731       3.7007     200.7530       1.0226
    2759.0    1723.1236       0.0000      50.8611    -176.3355       3.6016      -0.2301       3.5929     206.8558       1.0226
    2760.0    1706.1986       0.0000      50.8611    -170.1397       3.7911      -0.6486       3.7348     212.9577       1.0226
    2761.0    1675.7944       0.0000      50.8611    -162.9803       4.0162      -1.1752       3.8382     219.0727       1.0226
    2762.0    1644.8449       0.0000      50.8611    -155.9811       4.1107      -1.6717       3.7542     225.1746       1.0226
    2763.0    1608.9817       0.0000      50.8611    -151.6554       4.0815      -1.9361       3.5906     231.2773       1.0226
    2764.0    1576.3270       0.0000      50.8611    -144.7426       4.1509      -2.3947       3.3884     237.7750       1.0226
    2765.0    1535.0304       0.0000      50.8611    -138.3847       4.3637      -2.8957       3.2613     243.8900       1.0226
