~VERSION INFORMATION
VERS.           2.0   :CWLS Log ASCII Standard - VERSION 2.0
WRAP.           NO    :One Line per depth step
PROD.  Schlumberger   :LAS Producer
PROG.  DLIS to ASCII 19C2-270                          :LAS Program name and version
CREA.        2017/09/16 17:42                          :LAS Creation date {YYYY/MM/DD hh:mm}
DLIS_CREA.  2017-Sep-15 15:51                          :DLIS Creation date and time {YYYY-MMM-DD hh:mm}
SOURCE.     LPC_S3-1_AV.DLIS                           :DLIS File Name
FILE-ID.     PERFO_Perfo_WPGRT_037LTP                  :File Identification Number
#--------------------------------------------------
~WELL INFORMATION
#MNEM.UNIT      DATA             DESCRIPTION
#---- ------ --------------   -----------------------------
STRT .S         1283.0       :START TIME      
STOP .S         1755.0       :STOP TIME      
STEP .S            1.0       :STEP     
NULL .          -999.25      :NULL VALUE
COMP .        SHELL INTERNATIONAL E P                  :COMPANY
WELL .        WPP TEST 2                               :WELL
FLD  .        WILDCAT                                  :FIELD
LOC  .                                                 :LOCATION
CNTY .        HARRIS                                   :COUNTY
STAT .        TEXAS                                    :STATE
CTRY .                                                 :COUNTRY
API  .                                                 :API NUMBER
UWI  .                                                 :UNIQUE WELL ID
DATE .                                                 :LOG DATE
SRVC .        Schlumberger                             :SERVICE COMPANY
LATI .DEG                                              :LATITUDE
LONG .DEG                                              :LONGITUDE
GDAT .                                                 :GeoDetic Datum
#-----------------------------------------------------------------------------
~PARAMETER INFORMATION
#MNEM.UNIT    VALUE                      DESCRIPTION
#---- -----   --------------------       ------------------------
U-PHASE_B_COMP_PER_YT.                 0 :Phase B Comparator Period Yt
U-PHASE_A_COMP_PER_XT.                 0 :Phase A Comparator Period Xt
U-MAX_EXC_CUR_LIMIT.MA       240.00000   :Requested CM Current Limit
U-REQ_EXC_FQ.HZ              50          :Requested CM Frequency
U-TILT_Y_OFFSET.           0.19916       :WPTET Tilt Y Offset
U-TILT_Y_GAIN.           1.01796         :WPTET Tilt Y Gain
U-TILT_X_OFFSET.          -1.77103       :WPTET Tilt X Offset
U-TILT_X_GAIN.           1.00000         :WPTET Tilt X Gain
U-TILT_OFFSET_TOL.           0.00100     :WPTET Tilt Offset Calibration Tolerance
U-NO_TILT_CAL_ROTATIONS.                 3 :Number of Rotations for Tilt Calibration
HAZI .DEG        0.00000                 :Hole Azimuth
U-STD_TOL_TILT.           0.01000        :Tilt Standard Deviation Tolerance
U-GUN_POS_TOL.DEG        5.00000         :Gun Position Tolerance
ROT_ANGLE_THRESHOLD.DEG        5.00000   :Rotation Stop Angle Tolerance
STOP_ROT_ANGLE.DEG        0.00000        :Rotation Stop Angle
WITN .                                   :Witness's Name
ENGI .                                   :Engineer's Name
COUN .        HARRIS                     :County or Rig Name
FN   .        WILDCAT                    :Field Name
WN   .        WPP TEST 2                 :Well Name
CN   .        SHELL INTERNATIONAL E P    :Company Name
CLAB .        County                     :County/Rig Label
SLAB .        State                      :State/Province Label
RUN  .          1                        :RUN NUMBER
PDAT .        GROUND LEVEL               :Permanent Datum
EPD  .                                   :Elevation of Permanent Datum above Mean Sea Level
LMF  .                                   :Logging Measured From (Name of Logging Elevation Reference)
APD  .                                   :Elevation of Depth Reference (LMF) above Permanent Datum
#-----------------------------------------------------------------------------
~CURVE INFORMATION
#MNEM.UNIT   API CODE                                  DESCRIPTION
#---- -----  --------                                  -----------------------
TIME .S                                                :TIME {F10.1}
FREQ_EMF_SL.HZ                                         :Electromagnetic Field Frequency {F13.4}
PH_SH_WPPCM_SL.DEG                                     :WPPCM Phase Shift {F13.4}
FREQ_EXC_REQ_SL.HZ                                     :Requested Exciter Frequency {F13.4}
RB_SL.DEG                                              :Relative Bearing {F13.4}
SDEV_SL.DEG                                            :Sonde Deviation {F13.4}
TILX_SL.DEG                                            :X-axis Tilt {F13.4}
TILY_SL.DEG                                            :Y-axis Tilt {F13.4}
ROTA_SL.DEG                                            :Motor Rotation Angle {F13.4}
MSPE_SL.RPM                                            :Motor Speed {F13.4}
#-----------------------------------------------------------------------------
# 
#     TIME    FREQ_EMF_SL  PH_SH_WPPCM_ FREQ_EXC_REQ    RB_SL       SDEV_SL      TILX_SL      TILY_SL      ROTA_SL      MSPE_SL
#                          SL           _SL
~A  
# ...
    1535.0    1378.9683       0.0000      50.8611     -49.9476       1.1085      -0.8472      -0.7137     314.8681       1.0121
    1536.0    1386.2218       0.0000      50.8611     -47.9200       1.0453      -0.7759      -0.7004     320.9809       1.0226
    1537.0    1411.8976       0.0000      50.8611     -50.0464       0.9521      -0.7308      -0.6094     327.0827       1.0226
    1538.0    1424.2815       0.0000      50.8611     -51.7470       1.0466      -0.8202      -0.6461     333.1598       1.0202
    1539.0    1445.4289       0.0000      50.8611     -50.5735       1.0737      -0.8292      -0.6820     339.2493       1.0226
    1540.0    1458.0879       0.0000      50.8611     -51.0851       1.1195      -0.8693      -0.7046     345.3511       1.0226
    1541.0    1468.5909       0.0000      50.8611     -47.5476       0.9432      -0.6955      -0.6370     351.4660       1.0226
    1542.0    1480.9639       0.0000      50.8611     -52.0876       1.0230      -0.8021      -0.6236     357.5809       1.0309
    1543.0    1492.8344       0.0000      50.8611     -52.8516       0.8848      -0.7038      -0.5235       4.1038       1.0226
    1544.0    1504.1804       0.0000      50.8611     -50.2816       0.8832      -0.6775      -0.5643      10.2288       1.0250
    1545.0    1505.6210       0.0000      50.8611     -46.9231       0.9525      -0.6955      -0.6503      16.3336       1.0309
    1546.0    1517.8942       0.0000      50.8611     -44.0842       0.8673      -0.6070      -0.6094      22.4484       1.0226
    1547.0    1520.4436       0.0000      50.8611     -37.1629       0.9212      -0.5578      -0.7229      28.5502       1.0226
    1548.0    1518.6285       0.0000      50.8611     -50.7679       0.9783      -0.7578      -0.6186      34.6652       1.0309
    1549.0    1520.4436       0.0000      50.8611     -51.8489       0.8460      -0.6644      -0.5235      40.7707       1.0202
    1550.0    1523.7387       0.0000      50.8611     -56.6058       0.8606      -0.7177      -0.4734      46.8828       1.0226
    1551.0    1520.4436       0.0000      50.8611     -57.5098       0.8883      -0.7488      -0.4776      52.9846       1.0226
    1552.0    1517.5682       0.0000      50.8611     -56.9402       0.7477      -0.6242      -0.4100      59.0865       1.0226
    1553.0    1522.6563       0.0000      50.8611     -63.4247       0.9300      -0.8292      -0.4184      65.1883       1.0309
    1554.0    1506.6864       0.0000      50.8611     -60.1415       0.8860      -0.7669      -0.4417      71.3032       1.0226
    1555.0    1502.0941       0.0000      50.8611     -59.8137       0.8787      -0.7578      -0.4417      77.8130       1.0226
    1556.0    1496.7263       0.0000      50.8611     -56.9578       0.8678      -0.7267      -0.4734      83.9025       1.0226
    1557.0    1488.9650       0.0000      50.8611     -61.8976       0.8795      -0.7759      -0.4142      90.0043       1.0226
    1558.0    1466.9109       0.0000      50.8611     -58.3287       0.8853      -0.7537      -0.4642      96.1068       1.0226
    1559.0    1458.4730       0.0000      50.8611     -65.5324       0.9159      -0.8292      -0.3783     102.2086       1.0226
    1560.0    1451.0891       0.0000      50.8611     -51.8157       0.6432      -0.5086      -0.3916     108.3104       1.0226
    1561.0    1427.8176       0.0000      50.8611     -67.5180       0.8930      -0.8250      -0.3416     114.4121       1.0226
    1562.0    1408.4359       0.0000      50.8611     -62.6092       1.0153      -0.9005      -0.4684     120.5016       1.0226
    1563.0    1388.0667       0.0000      50.8611     -63.7845       0.9798      -0.8783      -0.4325     126.6057       1.0226
    1564.0    1382.6077       0.0000      50.8611     -60.3744       0.9389      -0.8160      -0.4642     132.6929       1.0226
    1565.0    1363.5171       0.0000      50.8611     -67.9090       0.8664      -0.8029      -0.3232     138.7948       1.0226
    1566.0    1346.9828       0.0000      50.8611     -63.1560       1.0116      -0.9005      -0.4592     144.8974       1.0226
    1567.0    1320.6377       0.0000      50.8611     -56.6322       1.0750      -0.8964      -0.5911     151.3950       1.0202
    1568.0    1305.0431       0.0000      50.8611     -52.7438       1.0287      -0.8160      -0.6228     157.4845       1.0202
    1569.0    1271.4738       0.0000      50.8611     -67.1089       1.0408      -0.9587      -0.4050     163.5864       1.0226
    1570.0    1226.8852       0.0000      50.8611     -64.8142       1.0694      -0.9677      -0.4551     169.6738       1.0286
    1571.0    1194.9479       0.0000      50.8611     -58.4018       1.0420      -0.8874      -0.5460     175.7786       1.0226
    1572.0    1166.9155       0.0000      50.8611     -61.2178       1.1410      -0.9988      -0.5502     181.8805       1.0226
    1573.0    1132.6561       0.0000      50.8611     -63.9133       1.0575      -0.9497      -0.4642     187.9830       1.0226
    1574.0    1108.6381       0.0000      50.8611     -61.2550       1.1184      -0.9808      -0.5368     194.0849       1.0226
    1575.0    1089.1872       0.0000      50.8611     -63.2131       0.9645      -0.8603      -0.4325     200.1744       1.0226
    1576.0    1071.3069       0.0000      50.8611     -63.4552       1.1117      -0.9947      -0.4959     206.2763       1.0226
    1577.0    1063.9010       0.0000      50.8611     -59.7073       1.1462      -0.9898      -0.5777     212.3760       1.0250
    1578.0    1063.3687       0.0000      50.8611     -62.3107       1.0389      -0.9185      -0.4826     218.4709       1.0226
    1579.0    1056.9746       0.0000      50.8611     -64.4783       1.1514      -1.0390      -0.4959     224.9886       1.0250
    1580.0    1054.3634       0.0000      50.8611     -61.3303       1.1386      -0.9988      -0.5460     231.0935       1.0226
    1581.0    1071.4709       0.0000      50.8611     -61.0100       1.1361      -0.9940      -0.5502     237.1939       1.0250
    1582.0    1081.5391       0.0000      50.8611     -57.9738       1.1674      -0.9898      -0.6186     243.3089       1.0250
    1583.0    1090.6731       0.0000      50.8611     -55.7239       1.1169      -0.9234      -0.6278     249.4007       1.0226
    1584.0    1104.5869       0.0000      50.8611     -53.6381       1.2032      -0.9677      -0.7137     255.5182       1.0226
    1585.0    1133.6628       0.0000      50.8611     -52.6357       1.2063      -0.9587      -0.7321     261.6176       1.0226
    1586.0    1160.0526       0.0000      50.8611     -50.6281       1.0599      -0.8209      -0.6687     267.7201       1.0309
    1587.0    1190.6147       0.0000      50.8611     -50.6452       1.0040      -0.7759      -0.6370     273.8263       1.0202
    1588.0    1225.6602       0.0000      50.8611     -50.3652       1.1359      -0.8742      -0.7229     279.9253       1.0144
    1589.0    1257.0977       0.0000      50.8611     -50.7100       1.1063      -0.8562      -0.7004     285.9901       1.0226
    1590.0    1293.0433       0.0000      50.8611     -50.4522       1.1797      -0.9095      -0.7504     292.1085       1.0202
    1591.0    1317.5272       0.0000      50.8611     -60.5355       1.2682      -1.1054      -0.6186     298.6135       1.0250
    1592.0    1336.4508       0.0000      50.8611     -48.9247       1.1001      -0.8292      -0.7229     304.7192       1.0226
    1593.0    1349.5681       0.0000      50.8611     -49.9208       1.0896      -0.8341      -0.7004     310.8210       1.0226
    1594.0    1367.9475       0.0000      50.8611     -52.0553       1.0353      -0.8160      -0.6370     316.9090       1.0226
    1595.0    1385.6117       0.0000      50.8611     -55.8490       1.0622      -0.8783      -0.5961     323.0144       1.0250
    1596.0    1404.9929       0.0000      50.8611     -52.1763       0.9717      -0.7669      -0.5961     329.1171       1.0250
    1597.0    1422.6848       0.0000      50.8611     -51.3097       1.1420      -0.8915      -0.7137     335.1921       1.0250
