~VERSION INFORMATION
VERS.           2.0   :CWLS Log ASCII Standard - VERSION 2.0
WRAP.           NO    :One Line per depth step
PROD.  Schlumberger   :LAS Producer
PROG.  DLIS to ASCII 19C2-270                          :LAS Program name and version
CREA.        2017/09/16 17:42                          :LAS Creation date {YYYY/MM/DD hh:mm}
DLIS_CREA.  2017-Sep-15 17:02                          :DLIS Creation date and time {YYYY-MMM-DD hh:mm}
SOURCE.     LPC_S3-1_2BV.DLIS                          :DLIS File Name
FILE-ID.     PERFO_Perfo_WPGRT_045LTP                  :File Identification Number
#--------------------------------------------------
~WELL INFORMATION
#MNEM.UNIT      DATA             DESCRIPTION
#---- ------ --------------   -----------------------------
STRT .S          126.0       :START TIME      
STOP .S          554.0       :STOP TIME      
STEP .S            1.0       :STEP     
NULL .          -999.25      :NULL VALUE
COMP .        SHELL INTERNATIONAL E P                  :COMPANY
WELL .        WPP TEST 2                               :WELL
FLD  .        WILDCAT                                  :FIELD
LOC  .        NA                                       :LOCATION
CNTY .        HARRIS                                   :COUNTY
STAT .        TEXAS                                    :STATE
CTRY .                                                 :COUNTRY
API  .        NA                                       :API NUMBER
UWI  .                                                 :UNIQUE WELL ID
DATE .        15-Sep-2017                              :LOG DATE {DD-MMM-YYYY}
SRVC .        Schlumberger                             :SERVICE COMPANY
LATI .DEG                                              :LATITUDE
LONG .DEG                                              :LONGITUDE
GDAT .                                                 :GeoDetic Datum
SECT .        NA                                       :Section
RANG .        NA                                       :Range
TOWN .        NA                                       :Township
#-----------------------------------------------------------------------------
~PARAMETER INFORMATION
#MNEM.UNIT    VALUE                      DESCRIPTION
#---- -----   --------------------       ------------------------
U-PHASE_B_COMP_PER_YT.                 0 :Phase B Comparator Period Yt
U-PHASE_A_COMP_PER_XT.                 0 :Phase A Comparator Period Xt
U-MAX_EXC_CUR_LIMIT.MA       240.00000   :Requested CM Current Limit
U-REQ_EXC_FQ.HZ              50          :Requested CM Frequency
U-TILT_Y_OFFSET.           0.19916       :WPTET Tilt Y Offset
U-TILT_Y_GAIN.           1.01796         :WPTET Tilt Y Gain
U-TILT_X_OFFSET.          -1.77103       :WPTET Tilt X Offset
U-TILT_X_GAIN.           1.00000         :WPTET Tilt X Gain
U-TILT_OFFSET_TOL.           0.00100     :WPTET Tilt Offset Calibration Tolerance
U-NO_TILT_CAL_ROTATIONS.                 3 :Number of Rotations for Tilt Calibration
HAZI .DEG        0.00000                 :Hole Azimuth
U-STD_TOL_TILT.           0.01000        :Tilt Standard Deviation Tolerance
U-GUN_POS_TOL.DEG        5.00000         :Gun Position Tolerance
ROT_ANGLE_THRESHOLD.DEG        5.00000   :Rotation Stop Angle Tolerance
STOP_ROT_ANGLE.DEG        0.00000        :Rotation Stop Angle
WITN .        MR. DHRUA ARORA            :Witness's Name
ENGI .        MORRIS MOORE               :Engineer's Name
COUN .        HARRIS                     :County or Rig Name
FN   .        WILDCAT                    :Field Name
WN   .        WPP TEST 2                 :Well Name
CN   .        SHELL INTERNATIONAL E P    :Company Name
CLAB .        County                     :County/Rig Label
SLAB .        State                      :State/Province Label
RUN  .          1                        :RUN NUMBER
PDAT .        GROUND LEVEL               :Permanent Datum
EPD  .                                   :Elevation of Permanent Datum above Mean Sea Level
LMF  .          NA                       :Logging Measured From (Name of Logging Elevation Reference)
APD  .                                   :Elevation of Depth Reference (LMF) above Permanent Datum
#-----------------------------------------------------------------------------
~CURVE INFORMATION
#MNEM.UNIT   API CODE                                  DESCRIPTION
#---- -----  --------                                  -----------------------
TIME .S                                                :TIME {F10.1}
FREQ_EMF_SL.HZ                                         :Electromagnetic Field Frequency {F13.4}
PH_SH_WPPCM_SL.DEG                                     :WPPCM Phase Shift {F13.4}
FREQ_EXC_REQ_SL.HZ                                     :Requested Exciter Frequency {F13.4}
RB_SL.DEG                                              :Relative Bearing {F13.4}
SDEV_SL.DEG                                            :Sonde Deviation {F13.4}
TILX_SL.DEG                                            :X-axis Tilt {F13.4}
TILY_SL.DEG                                            :Y-axis Tilt {F13.4}
ROTA_SL.DEG                                            :Motor Rotation Angle {F13.4}
MSPE_SL.RPM                                            :Motor Speed {F13.4}
#-----------------------------------------------------------------------------
# 
#     TIME    FREQ_EMF_SL  PH_SH_WPPCM_ FREQ_EXC_REQ    RB_SL       SDEV_SL      TILX_SL      TILY_SL      ROTA_SL      MSPE_SL
#                          SL           _SL
~A  
# ...
     315.0    1446.5783       0.0000      50.8611     -78.1730       1.2350      -1.2087      -0.2531     198.8124       0.0005
     316.0    1449.3794       0.0000      50.8611     -78.3576       1.2291      -1.2038      -0.2481     198.8124       0.0005
     317.0    1449.9247       0.0000      50.8611     -73.9350       1.1871      -1.1406      -0.3274     198.8124       0.0005
     318.0    1446.9410       0.0000      50.8611     -83.1105       1.4530      -1.4423      -0.1738     198.8124       0.0005
     319.0    1443.9696       0.0000      50.8611     -76.8733       1.1149      -1.0857      -0.2531     198.8124       0.0005
     320.0    1446.5783       0.0000      50.8611     -73.3351       1.1437      -1.0955      -0.3274     198.8124       0.0005
     321.0    1446.9410       0.0000      50.8611     -80.5317       1.2760      -1.2586      -0.2097     198.8124       0.0005
     322.0    1444.3339       0.0000      50.8611     -77.7129       1.3579      -1.3267      -0.2890     198.8124       0.0005
     323.0    1444.1514       0.0000      50.8611     -77.4395       1.1636      -1.1357      -0.2531     198.8124       0.0005
     324.0    1449.3794       0.0000      50.8611     -75.0635       1.1313      -1.0931      -0.2915     198.8124       0.0005
     325.0    1449.3794       0.0000      50.8611     -73.8226       1.1751      -1.1284      -0.3274     198.8124       0.0005
     326.0    1447.3069       0.0000      50.8611     -80.8522       1.3032      -1.2866      -0.2072     198.8124       0.0005
     327.0    1447.1236       0.0000      50.8611     -83.7687       1.2517      -1.2440      -0.1354     198.8124       0.0005
     328.0    1449.1991       0.0000      50.8611     -80.1938       1.2626      -1.2440      -0.2147     198.8124       0.0005
     329.0    1452.3734       0.0000      50.8611     -67.9056       1.0957      -1.0152      -0.4117     198.8124       0.0005
     330.0    1447.1236       0.0000      50.8611     -80.2211       1.2649      -1.2464      -0.2147     198.8124       0.0005
     331.0    1444.1514       0.0000      50.8611     -78.7237       1.2685      -1.2440      -0.2481     198.8124       0.0005
     332.0    1446.5783       0.0000      50.8611     -80.4058       1.2591      -1.2415      -0.2097     198.8124       0.0005
     333.0    1452.1923       0.0000      50.8611     -77.7183       1.1909      -1.1636      -0.2531     198.8124       0.0005
     334.0    1446.5783       0.0000      50.8611     -80.1558       1.2268      -1.2087      -0.2097     198.8124       0.0005
     335.0    1452.3734       0.0000      50.8611     -80.8878       1.3413      -1.3243      -0.2122     198.8124       0.0005
     336.0    1443.9696       0.0000      50.8611     -83.4179       1.1791      -1.1710      -0.1354     198.8124       0.0005
     337.0    1444.5172       0.0000      50.8611     -77.6319       1.1940      -1.1661      -0.2556     198.8124       0.0005
     338.0    1449.5604       0.0000      50.8611     -70.1346       1.2051      -1.1333      -0.4092     198.8124       0.0005
     339.0    1449.5604       0.0000      50.8611     -78.3792       1.2315      -1.2062      -0.2481     198.8124       0.0005
     340.0    1444.3339       0.0000      50.8611     -83.9065       1.2537      -1.2464      -0.1329     198.8124       0.0005
     341.0    1447.1236       0.0000      50.8611     -80.7501       1.1081      -1.0931      -0.1788     198.8124       0.0005
     342.0    1446.7593       0.0000      50.8611     -79.7530       1.1925      -1.1734      -0.2122     198.8124       0.0005
     343.0    1446.7593       0.0000      50.8611     -78.7021       1.2661      -1.2415      -0.2481     198.8124       0.0005
     344.0    1449.7422       0.0000      50.8611     -76.8078       1.2777      -1.2440      -0.2915     198.8124       0.0005
     345.0    1446.7593       0.0000      50.8611     -74.8461       1.2524      -1.2087      -0.3274     198.8124       0.0005
     346.0    1446.3980       0.0000      50.8611     -75.8984       1.1972      -1.1612      -0.2915     198.8124       0.0005
     347.0    1455.0167       0.0000      50.8611     -76.5287       1.2404      -1.2062      -0.2890     198.8124       0.0005
     348.0    1446.9410       0.0000      50.8611     -79.9294       1.2278      -1.2087      -0.2147     198.8124       0.0005
     349.0    1441.1912       0.0000      50.8611     -76.4955       1.4626      -1.4218      -0.3424     198.8124       0.0005
     350.0    1446.5783       0.0000      50.8611     -65.1830       1.3338      -1.2087      -0.5603     198.8124       0.0005
     351.0    1449.3794       0.0000      50.8611     -74.3750       1.2605      -1.2136      -0.3399     198.8124       0.0005
     352.0    1441.3729       0.0000      50.8611     -76.2426       1.1908      -1.1563      -0.2840     198.8124       0.0005
     353.0    1435.4876       0.0000      50.8611     -75.0741       1.3001      -1.2562      -0.3349     198.8124       0.0005
     354.0    1443.7886       0.0000      50.8611     -72.4813       1.2653      -1.2062      -0.3807     198.8124       0.0005
     355.0    1446.3980       0.0000      50.8611     -71.1780       1.5213      -1.4399      -0.4910     198.8124       0.0005
     356.0    1446.5783       0.0000      50.8611     -71.3503       1.1967      -1.1333      -0.3832     198.8124       0.0005
     357.0    1446.9410       0.0000      50.8611     -74.3125       1.3806      -1.3292      -0.3733     198.8124       0.0005
     358.0    1446.7593       0.0000      50.8611     -85.1197       1.0344      -1.0295      -0.0899     198.8124       0.0005
     359.0    1440.8298       0.0000      50.8611     -79.1188       1.3436      -1.3194      -0.2531     198.8124       0.0005
     360.0    1443.6083       0.0000      50.8611     -75.5157       1.1755      -1.1381      -0.2940     198.8124       0.0005
     361.0    1452.1923       0.0000      50.8611     -76.7476       1.2729      -1.2391      -0.2915     198.8124       0.0005
     362.0    1443.9696       0.0000      50.8611     -71.8727       1.1925      -1.1333      -0.3708     198.8124       0.0005
     363.0    1441.1912       0.0000      50.8611     -77.7786       1.1957      -1.1685      -0.2531     198.8124       0.0005
     364.0    1446.7593       0.0000      50.8611     -76.0526       1.3241      -1.2841      -0.3199     198.8124       0.0005
     365.0    1449.0195       0.0000      50.8611     -75.4830       1.1630      -1.1259      -0.2915     198.8124       0.0005
     366.0    1443.7886       0.0000      50.8611     -74.8712       1.1350      -1.0955      -0.2965     198.8124       0.0005
     367.0    1446.5783       0.0000      50.8611     -75.1770       1.2894      -1.2464      -0.3299     198.8124       0.0005
     368.0    1446.5783       0.0000      50.8611     -76.4128       1.2410      -1.2062      -0.2915     198.8124       0.0005
     369.0    1446.5783       0.0000      50.8611     -77.4332       1.3158      -1.2841      -0.2865     200.9776       0.5785
     370.0    1444.8476       0.0000      50.8611     -77.1892       1.1744      -1.1451      -0.2602     205.4509       0.8814
     371.0    1455.9294       0.0000      50.8611     -74.7834       1.2577      -1.2136      -0.3299     211.2713       1.0226
     372.0    1446.7593       0.0000      50.8611     -73.8352       1.3497      -1.2964      -0.3758     217.3761       1.0226
     373.0    1454.8364       0.0000      50.8611     -73.6232       1.4097      -1.3498      -0.3932     223.4941       1.0327
     374.0    1446.9410       0.0000      50.8611     -70.3221       1.3665      -1.2866      -0.4600     229.6062       1.0226
     375.0    1438.2433       0.0000      50.8611     -66.8357       1.3584      -1.2489      -0.5343     235.7081       1.0226
     376.0    1432.2046       0.0000      50.8611     -62.5752       1.4104      -1.2513      -0.6495     241.8348       1.0220
     377.0    1428.9392       0.0000      50.8611     -66.3304       1.4515      -1.3292      -0.5827     248.3046       1.0226
