~VERSION INFORMATION
VERS.           2.0   :CWLS Log ASCII Standard - VERSION 2.0
WRAP.           NO    :One Line per depth step
PROD.  Schlumberger   :LAS Producer
PROG.  DLIS to ASCII 19C2-270                          :LAS Program name and version
CREA.        2017/09/16 17:42                          :LAS Creation date {YYYY/MM/DD hh:mm}
DLIS_CREA.  2017-Sep-15 12:43                          :DLIS Creation date and time {YYYY-MMM-DD hh:mm}
SOURCE.     LPC_S1-1_BV.DLIS                           :DLIS File Name
FILE-ID.     PERFO_Perfo_WPGRT_021LTP                  :File Identification Number
#--------------------------------------------------
~WELL INFORMATION
#MNEM.UNIT      DATA             DESCRIPTION
#---- ------ --------------   -----------------------------
STRT .S         6992.0       :START TIME      
STOP .S         7825.0       :STOP TIME      
STEP .S            1.0       :STEP     
NULL .          -999.25      :NULL VALUE
COMP .        SHELL INTERNATIONAL E P                  :COMPANY
WELL .        WPP TEST 2                               :WELL
FLD  .        WILDCAT                                  :FIELD
LOC  .                                                 :LOCATION
CNTY .        HARRIS                                   :COUNTY
STAT .        TEXAS                                    :STATE
CTRY .                                                 :COUNTRY
API  .                                                 :API NUMBER
UWI  .                                                 :UNIQUE WELL ID
DATE .                                                 :LOG DATE
SRVC .        Schlumberger                             :SERVICE COMPANY
LATI .DEG                                              :LATITUDE
LONG .DEG                                              :LONGITUDE
GDAT .                                                 :GeoDetic Datum
#-----------------------------------------------------------------------------
~PARAMETER INFORMATION
#MNEM.UNIT    VALUE                      DESCRIPTION
#---- -----   --------------------       ------------------------
U-PHASE_B_COMP_PER_YT.                 0 :Phase B Comparator Period Yt
U-PHASE_A_COMP_PER_XT.                 0 :Phase A Comparator Period Xt
U-MAX_EXC_CUR_LIMIT.MA       240.00000   :Requested CM Current Limit
U-REQ_EXC_FQ.HZ              50          :Requested CM Frequency
U-TILT_Y_OFFSET.           0.19916       :WPTET Tilt Y Offset
U-TILT_Y_GAIN.           1.01796         :WPTET Tilt Y Gain
U-TILT_X_OFFSET.          -1.77103       :WPTET Tilt X Offset
U-TILT_X_GAIN.           1.00000         :WPTET Tilt X Gain
U-TILT_OFFSET_TOL.           0.00100     :WPTET Tilt Offset Calibration Tolerance
U-NO_TILT_CAL_ROTATIONS.                 3 :Number of Rotations for Tilt Calibration
HAZI .DEG        0.00000                 :Hole Azimuth
U-STD_TOL_TILT.           0.01000        :Tilt Standard Deviation Tolerance
U-GUN_POS_TOL.DEG        5.00000         :Gun Position Tolerance
ROT_ANGLE_THRESHOLD.DEG        5.00000   :Rotation Stop Angle Tolerance
STOP_ROT_ANGLE.DEG       80.00000        :Rotation Stop Angle
WITN .                                   :Witness's Name
ENGI .                                   :Engineer's Name
COUN .        HARRIS                     :County or Rig Name
FN   .        WILDCAT                    :Field Name
WN   .        WPP TEST 2                 :Well Name
CN   .        SHELL INTERNATIONAL E P    :Company Name
CLAB .        County                     :County/Rig Label
SLAB .        State                      :State/Province Label
RUN  .          1                        :RUN NUMBER
PDAT .        GROUND LEVEL               :Permanent Datum
EPD  .                                   :Elevation of Permanent Datum above Mean Sea Level
LMF  .                                   :Logging Measured From (Name of Logging Elevation Reference)
APD  .                                   :Elevation of Depth Reference (LMF) above Permanent Datum
#-----------------------------------------------------------------------------
~CURVE INFORMATION
#MNEM.UNIT   API CODE                                  DESCRIPTION
#---- -----  --------                                  -----------------------
TIME .S                                                :TIME {F10.1}
FREQ_EMF_SL.HZ                                         :Electromagnetic Field Frequency {F13.4}
PH_SH_WPPCM_SL.DEG                                     :WPPCM Phase Shift {F13.4}
FREQ_EXC_REQ_SL.HZ                                     :Requested Exciter Frequency {F13.4}
RB_SL.DEG                                              :Relative Bearing {F13.4}
SDEV_SL.DEG                                            :Sonde Deviation {F13.4}
TILX_SL.DEG                                            :X-axis Tilt {F13.4}
TILY_SL.DEG                                            :Y-axis Tilt {F13.4}
ROTA_SL.DEG                                            :Motor Rotation Angle {F13.4}
MSPE_SL.RPM                                            :Motor Speed {F13.4}
#-----------------------------------------------------------------------------
# 
#     TIME    FREQ_EMF_SL  PH_SH_WPPCM_ FREQ_EXC_REQ    RB_SL       SDEV_SL      TILX_SL      TILY_SL      ROTA_SL      MSPE_SL
#                          SL           _SL
~A  
# ...
    7496.0    1076.8107       0.0000      50.8611     -62.8487       1.1765      -1.0468      -0.5368      92.2605       1.0226
    7497.0    1062.2674       0.0000      50.8611     -61.9985       1.0572      -0.9336      -0.4959      98.3623       1.0226
    7498.0    1052.8685       0.0000      50.8611     -65.3625       1.1932      -1.0846      -0.4972     104.4769       1.0229
    7499.0    1057.1884       0.0000      50.8611     -68.2857       1.3377      -1.2428      -0.4947     110.5921       1.0226
    7500.0    1055.5542       0.0000      50.8611     -62.0037       1.2283      -1.0846      -0.5765     116.7071       1.0226
    7501.0    1062.0743       0.0000      50.8611     -62.7431       1.0859      -0.9653      -0.4972     123.2044       1.0226
    7502.0    1080.1689       0.0000      50.8611     -56.4149       1.1163      -0.9299      -0.6174     129.3063       1.0226
    7503.0    1101.8708       0.0000      50.8611     -60.3455       1.2480      -1.0846      -0.6174     135.3959       1.0226
    7504.0    1126.2697       0.0000      50.8611     -57.6928       1.1457      -0.9677      -0.6125     141.5105       1.0330
    7505.0    1150.4971       0.0000      50.8611     -59.4180       1.2160      -1.0468      -0.6186     147.6260       1.0334
    7506.0    1179.7399       0.0000      50.8611     -54.9944       1.2295      -1.0067      -0.7053     153.7164       1.0226
    7507.0    1235.3977       0.0000      50.8611     -53.5005       1.1069      -0.8898      -0.6583     159.8183       1.0226
    7508.0    1259.8116       0.0000      50.8611     -56.2808       1.1122      -0.9251      -0.6174     165.9329       1.0330
    7509.0    1282.8653       0.0000      50.8611     -56.7767       1.0610      -0.8874      -0.5814     172.0229       1.0226
    7510.0    1295.0331       0.0000      50.8611     -52.8861       1.1648      -0.9287      -0.7028     178.1259       1.0223
    7511.0    1314.4003       0.0000      50.8611     -55.7751       1.1704      -0.9677      -0.6583     184.2402       1.0330
    7512.0    1338.9820       0.0000      50.8611     -52.2096       1.0766      -0.8508      -0.6595     190.3555       1.0226
    7513.0    1359.7744       0.0000      50.8611     -52.1914       1.0739      -0.8484      -0.6583     196.8654       1.0226
    7514.0    1373.3716       0.0000      50.8611     -49.4786       0.9629      -0.7315      -0.6260     202.9673       1.0226
    7515.0    1397.5319       0.0000      50.8611     -48.4168       0.8734      -0.6536      -0.5789     209.0700       1.0124
    7516.0    1409.0682       0.0000      50.8611     -50.3293       1.0991      -0.8460      -0.7016     215.1726       1.0226
    7517.0    1426.2170       0.0000      50.8611     -48.8218       1.1240      -0.8460      -0.7400     221.2745       1.0226
    7518.0    1435.0370       0.0000      50.8611     -51.2064       0.9855      -0.7681      -0.6174     227.3764       1.0226
    7519.0    1461.6168       0.0000      50.8611     -49.2587       1.0106      -0.7657      -0.6595     233.4783       1.0330
    7520.0    1470.8808       0.0000      50.8611     -42.9302       1.1242      -0.7657      -0.8230     239.5933       1.0226
    7521.0    1480.4510       0.0000      50.8611     -42.9098       0.9531      -0.6488      -0.6979     245.6952       1.0226
    7522.0    1499.0095       0.0000      50.8611     -54.4420       0.9979      -0.8118      -0.5802     251.7971       1.0330
    7523.0    1515.0636       0.0000      50.8611     -61.5229       1.0532      -0.9251      -0.5021     257.9122       1.0226
    7524.0    1518.6285       0.0000      50.8611     -46.3571       0.8965      -0.6488      -0.6186     264.0141       1.0226
    7525.0    1522.0146       0.0000      50.8611     -47.6467       0.9227      -0.6817      -0.6211     270.5238       1.0226
    7526.0    1528.5327       0.0000      50.8611     -65.7409       2.0931      -1.9176      -0.8181     276.6515       1.0229
    7527.0    1538.2658       0.0000      50.8611     -59.6948       0.9854      -0.8508      -0.4972     282.7669       1.0226
    7528.0    1531.9631       0.0000      50.8611     -49.5546       1.0112      -0.7693      -0.6558     288.8818       1.0226
    7529.0    1522.3143       0.0000      50.8611     -60.2736       0.9239      -0.8022      -0.4575     294.9713       1.0226
    7530.0    1525.2169       0.0000      50.8611     -49.9807       0.8965      -0.6865      -0.5765     301.0731       1.0226
    7531.0    1521.6942       0.0000      50.8611     -51.5854       0.9294      -0.7282      -0.5774     307.1749       1.0226
    7532.0    1508.9493       0.0000      50.8611     -55.5920       0.8779      -0.7243      -0.4959     313.2643       1.0226
    7533.0    1496.2024       0.0000      50.8611     -57.0752       0.7707      -0.6464      -0.4191     319.3661       1.0226
    7534.0    1495.8205       0.0000      50.8611     -58.4132       0.9446      -0.8046      -0.4947     325.4679       1.0226
    7535.0    1474.1495       0.0000      50.8611     -59.7683       0.7485      -0.6464      -0.3770     331.5698       1.0226
    7536.0    1461.8897       0.0000      50.8611     -58.7768       0.8014      -0.6853      -0.4154     337.6724       1.0127
    7537.0    1455.5653       0.0000      50.8611     -48.3191       0.9232      -0.6889      -0.6137     344.1822       1.0226
    7538.0    1437.9718       0.0000      50.8611     -61.4029       0.8708      -0.7644      -0.4166     350.2840       1.0226
    7539.0    1423.4166       0.0000      50.8611     -59.1600       0.8904      -0.7644      -0.4563     356.3858       1.0226
    7540.0    1409.2383       0.0000      50.8611     -62.7067       0.8192      -0.7279      -0.3757       2.4884       1.0226
    7541.0    1397.8628       0.0000      50.8611     -55.8066       0.8829      -0.7303      -0.4959       8.5778       1.0226
    7542.0    1378.7578       0.0000      50.8611     -68.3760       0.9143      -0.8496      -0.3373      14.6805       1.0226
    7543.0    1357.7210       0.0000      50.8611     -65.7675       0.7150      -0.6521      -0.2933      20.7822       1.0226
    7544.0    1347.0603       0.0000      50.8611     -71.1648       0.8952      -0.8472      -0.2890      26.8717       1.0226
    7545.0    1336.5122       0.0000      50.8611     -60.7934       0.9249      -0.8070      -0.4514      32.9826       1.0124
    7546.0    1314.3262       0.0000      50.8611     -68.3805       0.9946      -0.9239      -0.3671      39.0631       1.0124
    7547.0    1290.4237       0.0000      50.8611     -64.0152       0.9425      -0.8472      -0.4129      45.1525       1.0226
    7548.0    1285.5620       0.0000      50.8611     -67.2365       0.9649      -0.8898      -0.3733      51.2553       1.0226
    7549.0    1257.5584       0.0000      50.8611     -64.4243       0.8547      -0.7705      -0.3684      57.7407       1.0226
    7550.0    1210.7048       0.0000      50.8611     -66.1116       1.0172      -0.9299      -0.4117      63.8546       1.0226
    7551.0    1166.6948       0.0000      50.8611     -69.4696       1.0643      -0.9970      -0.3720      69.9827       1.0226
    7552.0    1149.0101       0.0000      50.8611     -59.4907       0.8916      -0.7681      -0.4526      76.0845       1.0226
    7553.0    1121.4652       0.0000      50.8611     -66.6533       1.0542      -0.9677      -0.4178      82.1863       1.0226
    7554.0    1097.2298       0.0000      50.8611     -64.7285       1.0715      -0.9689      -0.4575      88.2766       1.0223
    7555.0    1080.3705       0.0000      50.8611     -62.9386       0.9759      -0.8691      -0.4439      94.3915       1.0226
    7556.0    1075.0163       0.0000      50.8611     -65.9086       1.0147      -0.9263      -0.4142     100.5060       1.0229
    7557.0    1051.1509       0.0000      50.8611     -65.6428       1.1064      -1.0079      -0.4563     106.5964       1.0124
    7558.0    1049.4874       0.0000      50.8611     -62.8343       1.0863      -0.9665      -0.4959     112.7241       1.0226
