~VERSION INFORMATION
VERS.           2.0   :CWLS Log ASCII Standard - VERSION 2.0
WRAP.           NO    :One Line per depth step
PROD.  Schlumberger   :LAS Producer
PROG.  DLIS to ASCII 19C2-270                          :LAS Program name and version
CREA.        2017/09/16 17:42                          :LAS Creation date {YYYY/MM/DD hh:mm}
DLIS_CREA.  2017-Sep-15 17:44                          :DLIS Creation date and time {YYYY-MMM-DD hh:mm}
SOURCE.     LPC_S4-1_B5.DLIS                           :DLIS File Name
FILE-ID.     PERFO_Perfo_WPGRT_050LTP                  :File Identification Number
#--------------------------------------------------
~WELL INFORMATION
#MNEM.UNIT      DATA             DESCRIPTION
#---- ------ --------------   -----------------------------
STRT .S         2640.0       :START TIME      
STOP .S         3106.0       :STOP TIME      
STEP .S            1.0       :STEP     
NULL .          -999.25      :NULL VALUE
COMP .        SHELL INTERNATIONAL E P                  :COMPANY
WELL .        WPP TEST 2                               :WELL
FLD  .        WILDCAT                                  :FIELD
LOC  .        NA                                       :LOCATION
CNTY .        HARRIS                                   :COUNTY
STAT .        TEXAS                                    :STATE
CTRY .                                                 :COUNTRY
API  .        NA                                       :API NUMBER
UWI  .                                                 :UNIQUE WELL ID
DATE .        15-Sep-2017                              :LOG DATE {DD-MMM-YYYY}
SRVC .        Schlumberger                             :SERVICE COMPANY
LATI .DEG                                              :LATITUDE
LONG .DEG                                              :LONGITUDE
GDAT .                                                 :GeoDetic Datum
SECT .        NA                                       :Section
RANG .        NA                                       :Range
TOWN .        NA                                       :Township
#-----------------------------------------------------------------------------
~PARAMETER INFORMATION
#MNEM.UNIT    VALUE                      DESCRIPTION
#---- -----   --------------------       ------------------------
U-PHASE_B_COMP_PER_YT.                 0 :Phase B Comparator Period Yt
U-PHASE_A_COMP_PER_XT.                 0 :Phase A Comparator Period Xt
U-MAX_EXC_CUR_LIMIT.MA       240.00000   :Requested CM Current Limit
U-REQ_EXC_FQ.HZ              50          :Requested CM Frequency
U-TILT_Y_OFFSET.           0.19916       :WPTET Tilt Y Offset
U-TILT_Y_GAIN.           1.01796         :WPTET Tilt Y Gain
U-TILT_X_OFFSET.          -1.77103       :WPTET Tilt X Offset
U-TILT_X_GAIN.           1.00000         :WPTET Tilt X Gain
U-TILT_OFFSET_TOL.           0.00100     :WPTET Tilt Offset Calibration Tolerance
U-NO_TILT_CAL_ROTATIONS.                 3 :Number of Rotations for Tilt Calibration
HAZI .DEG        0.00000                 :Hole Azimuth
U-STD_TOL_TILT.           0.01000        :Tilt Standard Deviation Tolerance
U-GUN_POS_TOL.DEG        5.00000         :Gun Position Tolerance
ROT_ANGLE_THRESHOLD.DEG        5.00000   :Rotation Stop Angle Tolerance
STOP_ROT_ANGLE.DEG        0.00000        :Rotation Stop Angle
WITN .        MR. DHRUA ARORA            :Witness's Name
ENGI .        MORRIS MOORE               :Engineer's Name
COUN .        HARRIS                     :County or Rig Name
FN   .        WILDCAT                    :Field Name
WN   .        WPP TEST 2                 :Well Name
CN   .        SHELL INTERNATIONAL E P    :Company Name
CLAB .        County                     :County/Rig Label
SLAB .        State                      :State/Province Label
RUN  .          1                        :RUN NUMBER
PDAT .        GROUND LEVEL               :Permanent Datum
EPD  .                                   :Elevation of Permanent Datum above Mean Sea Level
LMF  .          NA                       :Logging Measured From (Name of Logging Elevation Reference)
APD  .                                   :Elevation of Depth Reference (LMF) above Permanent Datum
#-----------------------------------------------------------------------------
~CURVE INFORMATION
#MNEM.UNIT   API CODE                                  DESCRIPTION
#---- -----  --------                                  -----------------------
TIME .S                                                :TIME {F10.1}
FREQ_EMF_SL.HZ                                         :Electromagnetic Field Frequency {F13.4}
PH_SH_WPPCM_SL.DEG                                     :WPPCM Phase Shift {F13.4}
FREQ_EXC_REQ_SL.HZ                                     :Requested Exciter Frequency {F13.4}
RB_SL.DEG                                              :Relative Bearing {F13.4}
SDEV_SL.DEG                                            :Sonde Deviation {F13.4}
TILX_SL.DEG                                            :X-axis Tilt {F13.4}
TILY_SL.DEG                                            :Y-axis Tilt {F13.4}
ROTA_SL.DEG                                            :Motor Rotation Angle {F13.4}
MSPE_SL.RPM                                            :Motor Speed {F13.4}
#-----------------------------------------------------------------------------
# 
#     TIME    FREQ_EMF_SL  PH_SH_WPPCM_ FREQ_EXC_REQ    RB_SL       SDEV_SL      TILX_SL      TILY_SL      ROTA_SL      MSPE_SL
#                          SL           _SL
~A  
# ...
    2955.0    1627.6041       0.0000      50.8611    -150.9822       4.1069      -1.9908       3.5906     238.6099       1.0277
    2956.0    1589.0839       0.0000      50.8611    -146.4617       4.1592      -2.2954       3.4657     244.7334       1.0226
    2957.0    1553.4426       0.0000      50.8611    -138.7452       4.3693      -2.8789       3.2828     251.2518       1.0170
    2958.0    1511.7670       0.0000      50.8611    -132.6951       4.4854      -3.2951       3.0397     257.3375       1.0277
    2959.0    1469.3529       0.0000      50.8611    -129.2954       4.4718      -3.4580       2.8308     263.4439       1.0226
    2960.0    1433.2585       0.0000      50.8611    -123.1069       4.5640      -3.8217       2.4911     269.5457       1.0226
    2961.0    1394.8068       0.0000      50.8611    -115.5609       4.7697      -4.3015       2.0562     275.6367       1.0226
    2962.0    1363.7603       0.0000      50.8611    -111.0611       4.8716      -4.5447       1.7484     281.7385       1.0226
    2963.0    1326.8150       0.0000      50.8611    -105.2096       4.8926      -4.7196       1.2819     287.8403       1.0226
    2964.0    1276.8530       0.0000      50.8611    -101.2017       4.9243      -4.8303       0.9545     293.9422       1.0226
    2965.0    1202.5981       0.0000      50.8611     -95.9658       5.0358      -5.0078       0.5218     300.0449       1.0226
    2966.0    1117.4277       0.0000      50.8611     -89.4645       5.2046      -5.2042      -0.0484     306.1467       1.0226
    2967.0    1049.2029       0.0000      50.8611     -84.1731       5.1515      -5.1238      -0.5220     312.2501       1.0226
    2968.0    1002.2032       0.0000      50.8611     -79.4336       5.1916      -5.1026      -0.9502     318.3519       1.0226
    2969.0     972.4383       0.0000      50.8611     -74.5726       5.1712      -4.9844      -1.3739     324.6673       1.0226
    2970.0     944.9923       0.0000      50.8611     -70.3492       5.3593      -5.0457      -1.7999     330.9619       1.0226
    2971.0     923.1853       0.0000      50.8611     -64.7540       5.2043      -4.7054      -2.2177     337.0623       1.0226
    2972.0     908.3672       0.0000      50.8611     -62.3431       5.1729      -4.5805      -2.3984     343.1655       1.0226
    2973.0     894.0240       0.0000      50.8611     -55.8458       5.2712      -4.3585      -2.9560     349.2790       1.0226
    2974.0     879.9471       0.0000      50.8611     -50.4975       5.3208      -4.1029      -3.3819     355.3822       1.0226
    2975.0     873.6745       0.0000      50.8611     -45.6209       5.2809      -3.7719      -3.6906       1.4840       1.0226
    2976.0     871.3433       0.0000      50.8611     -39.5024       5.1818      -3.2929      -3.9952       7.5858       1.0170
    2977.0     868.7476       0.0000      50.8611     -36.7235       5.2153      -3.1155      -4.1781      13.6688       1.0170
    2978.0     866.4807       0.0000      50.8611     -30.9046       5.2526      -2.6949      -4.5052      19.7526       1.0226
    2979.0     872.1971       0.0000      50.8611     -26.9197       5.1424      -2.3267      -4.5825      25.8560       1.0226
    2980.0     876.7759       0.0000      50.8611     -23.0341       5.2037      -2.0389      -4.7824      31.9578       1.0226
    2981.0     882.4803       0.0000      50.8611     -15.1232       4.9369      -1.2868      -4.7654      38.2485       1.0176
    2982.0     896.2405       0.0000      50.8611     -10.2190       4.8885      -0.8662      -4.8107      44.5547       1.0226
    2983.0     909.5422       0.0000      50.8611      -6.2993       4.7751      -0.5236      -4.7460      50.6443       1.0176
    2984.0     932.0141       0.0000      50.8611      -0.5274       4.7701      -0.0439      -4.7699      56.7606       1.0226
    2985.0     957.6424       0.0000      50.8611       4.3715       4.6995       0.3578      -4.6858      62.8494       1.0116
    2986.0     979.6132       0.0000      50.8611      11.5861       4.5970       0.9224      -4.5030      68.9396       1.0226
    2987.0    1026.1257       0.0000      50.8611      15.1685       4.4126       1.1528      -4.2585      75.0414       1.0226
    2988.0    1116.2161       0.0000      50.8611      21.0025       4.2521       1.5226      -3.9692      81.1367       1.0170
    2989.0    1221.2283       0.0000      50.8611      28.5721       4.1621       1.9857      -3.6556      87.2327       1.0226
    2990.0    1283.2079       0.0000      50.8611      32.7206       4.1307       2.2289      -3.4740      93.3491       1.0170
    2991.0    1331.9727       0.0000      50.8611      41.3367       4.0210       2.6561      -3.0162      99.4472       1.0277
    2992.0    1368.4333       0.0000      50.8611      45.7619       3.8725       2.7722      -2.6994     105.5601       1.0170
    2993.0    1415.0745       0.0000      50.8611      51.6688       3.8077       2.9854      -2.3597     111.6691       1.0226
    2994.0    1449.5841       0.0000      50.8611      58.5808       3.5042       2.9898      -1.8259     118.1759       1.0170
    2995.0    1497.6932       0.0000      50.8611      64.4667       3.5115       3.1673      -1.5136     124.2668       1.0226
    2996.0    1547.5445       0.0000      50.8611      73.6360       3.4268       3.2878      -0.9650     130.3686       1.0226
    2997.0    1589.2975       0.0000      50.8611      80.0621       3.3197       3.2688      -0.5732     136.4705       1.0226
    2998.0    1631.3805       0.0000      50.8611      87.8229       3.3705       3.3681      -0.1279     142.5738       1.0226
    2999.0    1668.2607       0.0000      50.8611      96.7705       3.1457       3.1227       0.3672     148.6619       1.0176
    3000.0    1696.6807       0.0000      50.8611     101.0741       3.1080       3.0468       0.5955     154.7638       1.0226
    3001.0    1723.5883       0.0000      50.8611     112.5010       3.1929       2.9497       1.2214     160.8673       1.0226
    3002.0    1751.1280       0.0000      50.8611     121.8455       3.2593       2.7656       1.7188     166.9676       1.0226
    3003.0    1771.0958       0.0000      50.8611     127.2852       3.2004       2.5458       1.9380     173.0662       1.0233
    3004.0    1782.4465       0.0000      50.8611     135.8180       3.2476       2.2624       2.3276     179.1737       1.0226
    3005.0    1793.6862       0.0000      50.8611     142.2093       3.3359       2.0426       2.6354     185.2888       1.0226
    3006.0    1788.8833       0.0000      50.8611     151.4185       3.4665       1.6577       3.0420     191.7956       1.0226
    3007.0    1784.5813       0.0000      50.8611     161.5283       3.4667       1.0976       3.2873     197.8742       1.0127
    3008.0    1777.6921       0.0000      50.8611     164.8211       3.4292       0.8967       3.3089     203.9768       1.0176
    3009.0    1766.6456       0.0000      50.8611     174.3959       3.6350       0.3534       3.6167     210.0663       1.0176
    3010.0    1757.8126       0.0000      50.8611     -10.3953       3.8170       0.0343       3.8166     216.1686       1.0233
    3011.0    1736.1111       0.0000      50.8611    -173.6194       3.8211      -0.4243       3.7973     222.2725       1.0226
    3012.0    1708.3678       0.0000      50.8611    -163.5661       3.7893      -1.0714       3.6337     228.3728       1.0226
    3013.0    1675.9950       0.0000      50.8611    -161.3823       3.9162      -1.2489       3.7110     234.4692       1.0283
    3014.0    1638.7847       0.0000      50.8611    -154.6536       4.0906      -1.7498       3.6962     240.5789       1.0226
    3015.0    1601.6515       0.0000      50.8611    -147.5383       4.2092      -2.2574       3.5497     246.6808       1.0226
    3016.0    1569.2905       0.0000      50.8611    -143.2293       4.3069      -2.5766       3.4486     252.7957       1.0283
    3017.0    1533.1190       0.0000      50.8611    -134.6629       4.3884      -3.1199       3.0829     258.8984       1.0226
