~VERSION INFORMATION
VERS.           2.0   :CWLS Log ASCII Standard - VERSION 2.0
WRAP.           NO    :One Line per depth step
PROD.  Schlumberger   :LAS Producer
PROG.  DLIS to ASCII 19C2-270                          :LAS Program name and version
CREA.        2017/09/16 17:42                          :LAS Creation date {YYYY/MM/DD hh:mm}
DLIS_CREA.  2017-Sep-15 18:59                          :DLIS Creation date and time {YYYY-MMM-DD hh:mm}
SOURCE.     LPC_S5-1_A5.DLIS                           :DLIS File Name
FILE-ID.     PERFO_Perfo_WPGRT_058LTP                  :File Identification Number
#--------------------------------------------------
~WELL INFORMATION
#MNEM.UNIT      DATA             DESCRIPTION
#---- ------ --------------   -----------------------------
STRT .S         7119.0       :START TIME      
STOP .S         7636.0       :STOP TIME      
STEP .S            1.0       :STEP     
NULL .          -999.25      :NULL VALUE
COMP .        SHELL INTERNATIONAL E P                  :COMPANY
WELL .        WPP TEST 2                               :WELL
FLD  .        WILDCAT                                  :FIELD
LOC  .        NA                                       :LOCATION
CNTY .        HARRIS                                   :COUNTY
STAT .        TEXAS                                    :STATE
CTRY .                                                 :COUNTRY
API  .        NA                                       :API NUMBER
UWI  .                                                 :UNIQUE WELL ID
DATE .        15-Sep-2017                              :LOG DATE {DD-MMM-YYYY}
SRVC .        Schlumberger                             :SERVICE COMPANY
LATI .DEG                                              :LATITUDE
LONG .DEG                                              :LONGITUDE
GDAT .                                                 :GeoDetic Datum
SECT .        NA                                       :Section
RANG .        NA                                       :Range
TOWN .        NA                                       :Township
#-----------------------------------------------------------------------------
~PARAMETER INFORMATION
#MNEM.UNIT    VALUE                      DESCRIPTION
#---- -----   --------------------       ------------------------
U-PHASE_B_COMP_PER_YT.                 0 :Phase B Comparator Period Yt
U-PHASE_A_COMP_PER_XT.                 0 :Phase A Comparator Period Xt
U-MAX_EXC_CUR_LIMIT.MA       240.00000   :Requested CM Current Limit
U-REQ_EXC_FQ.HZ              50          :Requested CM Frequency
U-TILT_Y_OFFSET.           0.19916       :WPTET Tilt Y Offset
U-TILT_Y_GAIN.           1.01796         :WPTET Tilt Y Gain
U-TILT_X_OFFSET.          -1.77103       :WPTET Tilt X Offset
U-TILT_X_GAIN.           1.00000         :WPTET Tilt X Gain
U-TILT_OFFSET_TOL.           0.00100     :WPTET Tilt Offset Calibration Tolerance
U-NO_TILT_CAL_ROTATIONS.                 3 :Number of Rotations for Tilt Calibration
HAZI .DEG        0.00000                 :Hole Azimuth
U-STD_TOL_TILT.           0.01000        :Tilt Standard Deviation Tolerance
U-GUN_POS_TOL.DEG        5.00000         :Gun Position Tolerance
ROT_ANGLE_THRESHOLD.DEG        5.00000   :Rotation Stop Angle Tolerance
STOP_ROT_ANGLE.DEG        0.00000        :Rotation Stop Angle
WITN .        MR. DHRUA ARORA            :Witness's Name
ENGI .        MORRIS MOORE               :Engineer's Name
COUN .        HARRIS                     :County or Rig Name
FN   .        WILDCAT                    :Field Name
WN   .        WPP TEST 2                 :Well Name
CN   .        SHELL INTERNATIONAL E P    :Company Name
CLAB .        County                     :County/Rig Label
SLAB .        State                      :State/Province Label
RUN  .          1                        :RUN NUMBER
PDAT .        GROUND LEVEL               :Permanent Datum
EPD  .                                   :Elevation of Permanent Datum above Mean Sea Level
LMF  .          NA                       :Logging Measured From (Name of Logging Elevation Reference)
APD  .                                   :Elevation of Depth Reference (LMF) above Permanent Datum
#-----------------------------------------------------------------------------
~CURVE INFORMATION
#MNEM.UNIT   API CODE                                  DESCRIPTION
#---- -----  --------                                  -----------------------
TIME .S                                                :TIME {F10.1}
FREQ_EMF_SL.HZ                                         :Electromagnetic Field Frequency {F13.4}
PH_SH_WPPCM_SL.DEG                                     :WPPCM Phase Shift {F13.4}
FREQ_EXC_REQ_SL.HZ                                     :Requested Exciter Frequency {F13.4}
RB_SL.DEG                                              :Relative Bearing {F13.4}
SDEV_SL.DEG                                            :Sonde Deviation {F13.4}
TILX_SL.DEG                                            :X-axis Tilt {F13.4}
TILY_SL.DEG                                            :Y-axis Tilt {F13.4}
ROTA_SL.DEG                                            :Motor Rotation Angle {F13.4}
MSPE_SL.RPM                                            :Motor Speed {F13.4}
#-----------------------------------------------------------------------------
# 
#     TIME    FREQ_EMF_SL  PH_SH_WPPCM_ FREQ_EXC_REQ    RB_SL       SDEV_SL      TILX_SL      TILY_SL      ROTA_SL      MSPE_SL
#                          SL           _SL
~A  
# ...
    7560.0    1131.4454       0.0000      50.8611      34.3187       4.2711       2.4063      -3.5266     241.0134       1.0180
    7561.0    1156.6870       0.0000      50.8611      41.3122       4.0736       2.6875      -3.0588     247.1168       1.0180
    7562.0    1182.5981       0.0000      50.8611      50.1442       3.9734       3.0490      -2.5452     253.5895       1.0167
    7563.0    1209.7124       0.0000      50.8611      55.8953       3.8991       3.2273      -2.1854     259.6921       1.0226
    7564.0    1239.8207       0.0000      50.8611      59.7427       3.9436       3.4057      -1.9859     265.7939       1.0226
    7565.0    1283.5697       0.0000      50.8611      67.7947       3.6603       3.3880      -1.3824     271.8842       1.0167
    7566.0    1301.5225       0.0000      50.8611      76.6408       3.5383       3.4410      -0.8149     277.9860       1.0226
    7567.0    1324.1526       0.0000      50.8611      82.5328       3.6423       3.6113      -0.4730     284.1008       1.0226
    7568.0    1340.4103       0.0000      50.8611      91.0830       3.5775       3.5760       0.0667     290.2044       1.0226
    7569.0    1357.0748       0.0000      50.8611      98.2331       3.3924       3.3575       0.4854     296.3045       1.0226
    7570.0    1369.6991       0.0000      50.8611     108.8124       3.3202       3.1422       1.0709     302.4070       1.0226
    7571.0    1388.3692       0.0000      50.8611     116.3618       3.5187       3.1518       1.5615     308.5105       1.0226
    7572.0    1407.4900       0.0000      50.8611     123.1146       3.4612       2.8979       1.8886     314.6106       1.0226
    7573.0    1417.2535       0.0000      50.8611     131.4471       3.3851       2.5364       2.2386     320.7254       1.0226
    7574.0    1427.8404       0.0000      50.8611     137.4752       3.4833       2.3533       2.5658     327.2353       1.0180
    7575.0    1446.4082       0.0000      50.8611     147.3305       3.5344       1.9066       2.9746     333.3380       1.0226
    7576.0    1463.8819       0.0000      50.8611     151.8814       3.7188       1.7508       3.2788     339.4406       1.0226
    7577.0    1477.1533       0.0000      50.8611     160.1443       3.6709       1.2463       3.4522     345.5424       1.0226
    7578.0    1483.0171       0.0000      50.8611     167.8482       3.7172       0.7820       3.6337     351.6573       1.0226
    7579.0    1491.4428       0.0000      50.8611     175.0233       3.7249       0.3225       3.7106     357.7591       1.0226
    7580.0    1505.2410       0.0000      50.8611    -178.4150       3.8577      -0.1065       3.8562       3.8609       1.0226
    7581.0    1519.0292       0.0000      50.8611    -170.0122       4.0635      -0.7042       4.0017       9.9759       1.0226
    7582.0    1527.0738       0.0000      50.8611    -166.3822       3.9788      -0.9372       3.8660      15.1487       0.0005
    7583.0    1528.5327       0.0000      50.8611    -165.1491       4.0514      -1.0384       3.9151      15.1487       0.0005
    7584.0    1526.6759       0.0000      50.8611    -167.7317       4.1559      -0.8825       4.0606      15.1487       0.0005
    7585.0    1525.2169       0.0000      50.8611    -164.1295       4.0237      -1.0978       3.8693      15.1487       0.0005
    7586.0    1527.0738       0.0000      50.8611    -164.7510       4.1618      -1.0930       4.0148      15.1487       0.0005
    7587.0    1522.3180       0.0000      50.8611    -165.4155       4.0465      -1.0175       3.9151      15.1487       0.0005
    7588.0    1526.6759       0.0000      50.8611    -165.1575       4.1825      -1.0705       4.0426      15.1487       0.0005
    7589.0    1524.8271       0.0000      50.8611    -166.4968       4.1714      -0.9725       4.0557      15.1487       0.0005
    7590.0    1524.1749       0.0000      50.8611    -165.1396       4.0571      -1.0400       3.9200      15.1487       0.0005
    7591.0    1528.1411       0.0000      50.8611    -166.1420       4.1169      -0.9854       3.9968      15.1487       0.0005
    7592.0    1525.2169       0.0000      50.8611    -164.3036       4.0598      -1.0962       3.9069      15.1487       0.0005
    7593.0    1525.2169       0.0000      50.8611    -166.5907       4.0821      -0.9452       3.9707      15.1487       0.0005
    7594.0    1523.7643       0.0000      50.8611    -166.1165       4.0569      -0.9725       3.9380      15.1487       0.0005
    7595.0    1526.6759       0.0000      50.8611    -167.1550       4.4587      -0.9902       4.3468      15.1487       0.0005
    7596.0    1523.3681       0.0000      50.8611    -165.5222       4.1373      -1.0416       4.0001      15.1487       0.0005
    7597.0    1527.0738       0.0000      50.8611    -166.3958       4.2499      -0.9998       4.1293      15.1487       0.0005
    7598.0    1525.2169       0.0000      50.8611    -165.7575       3.4331      -0.8135       3.3214      15.1487       0.0005
    7599.0    1526.6759       0.0000      50.8611    -166.0494       4.1773      -0.9822       4.0361      15.1487       0.0005
    7600.0    1528.1411       0.0000      50.8611    -163.9123       4.1446      -1.1476       3.9788      15.1487       0.0005
    7601.0    1525.2169       0.0000      50.8611    -166.7129       4.1171      -0.9452       4.0066      15.1487       0.0005
    7602.0    1526.6759       0.0000      50.8611    -164.0230       4.1680      -1.1460       4.0066      15.1487       0.0005
    7603.0    1525.2169       0.0000      50.8611    -163.9888       3.9260      -1.0014       3.7679      15.1487       0.0005
    7604.0    1527.0738       0.0000      50.8611    -162.1018       2.7371      -0.8376       2.6034      15.1487       0.0005
    7605.0    1526.6759       0.0000      50.8611    -166.0433       4.3893      -1.1300       4.2062      15.1487       0.0005
    7606.0    1530.3976       0.0000      50.8611    -162.6356       3.6312      -1.0834       3.4653      15.1487       0.0005
    7607.0    1523.7643       0.0000      50.8611    -166.7511       4.5184      -1.0352       4.3975      15.1487       0.0005
    7608.0    1527.4860       0.0000      50.8611    -167.6807       4.3679      -0.9259       4.2552      15.1487       0.0005
    7609.0    1528.5327       0.0000      50.8611    -164.9745       4.1771      -1.0802       4.0328      15.1487       0.0005
    7610.0    1526.2923       0.0000      50.8611    -164.4035       4.0153      -1.0802       3.8660      15.1487       0.0005
    7611.0    1525.2169       0.0000      50.8611    -166.4422       3.9262      -0.9195       3.8153      15.1487       0.0005
    7612.0    1525.6212       0.0000      50.8611    -166.2932       4.1059      -0.9725       3.9887      15.1487       0.0005
    7613.0    1527.0738       0.0000      50.8611    -165.2417       4.0489      -1.0304       3.9151      15.1487       0.0005
    7614.0    1526.6759       0.0000      50.8611    -166.7977       3.9661      -0.9050       3.8611      15.1487       0.0005
    7615.0    1524.8271       0.0000      50.8611    -165.4809       4.0412      -1.0127       3.9118      15.1487       0.0005
    7616.0    1528.9386       0.0000      50.8611    -167.5970       4.1580      -0.8922       4.0606      15.1487       0.0005
    7617.0    1528.5327       0.0000      50.8611    -165.6508       4.0700      -1.0079       3.9429      15.1487       0.0005
    7618.0    1525.2169       0.0000      50.8611    -164.0908       4.1571      -1.1380       3.9968      15.1487       0.0005
    7619.0    1525.2169       0.0000      50.8611    -165.9724       4.1069      -0.9950       3.9837      15.1487       0.0005
    7620.0    1527.0738       0.0000      50.8611    -166.0921       4.1229      -0.9902       4.0017      15.1487       0.0005
    7621.0    1528.5327       0.0000      50.8611    -164.4544       4.0941      -1.0962       3.9429      15.1487       0.0005
    7622.0    1526.6759       0.0000      50.8611    -166.6688       4.0474      -0.9323       3.9380      15.1487       0.0005
