~VERSION INFORMATION
VERS.           2.0   :CWLS Log ASCII Standard - VERSION 2.0
WRAP.           NO    :One Line per depth step
PROD.  Schlumberger   :LAS Producer
PROG.  DLIS to ASCII 19C2-270                          :LAS Program name and version
CREA.        2017/09/16 17:42                          :LAS Creation date {YYYY/MM/DD hh:mm}
DLIS_CREA.  2017-Sep-15 12:43                          :DLIS Creation date and time {YYYY-MMM-DD hh:mm}
SOURCE.     LPC_S1-1_BV.DLIS                           :DLIS File Name
FILE-ID.     PERFO_Perfo_WPGRT_021LTP                  :File Identification Number
#--------------------------------------------------
~WELL INFORMATION
#MNEM.UNIT      DATA             DESCRIPTION
#---- ------ --------------   -----------------------------
STRT .S         6992.0       :START TIME      
STOP .S         7825.0       :STOP TIME      
STEP .S            1.0       :STEP     
NULL .          -999.25      :NULL VALUE
COMP .        SHELL INTERNATIONAL E P                  :COMPANY
WELL .        WPP TEST 2                               :WELL
FLD  .        WILDCAT                                  :FIELD
LOC  .                                                 :LOCATION
CNTY .        HARRIS                                   :COUNTY
STAT .        TEXAS                                    :STATE
CTRY .                                                 :COUNTRY
API  .                                                 :API NUMBER
UWI  .                                                 :UNIQUE WELL ID
DATE .                                                 :LOG DATE
SRVC .        Schlumberger                             :SERVICE COMPANY
LATI .DEG                                              :LATITUDE
LONG .DEG                                              :LONGITUDE
GDAT .                                                 :GeoDetic Datum
#-----------------------------------------------------------------------------
~PARAMETER INFORMATION
#MNEM.UNIT    VALUE                      DESCRIPTION
#---- -----   --------------------       ------------------------
U-PHASE_B_COMP_PER_YT.                 0 :Phase B Comparator Period Yt
U-PHASE_A_COMP_PER_XT.                 0 :Phase A Comparator Period Xt
U-MAX_EXC_CUR_LIMIT.MA       240.00000   :Requested CM Current Limit
U-REQ_EXC_FQ.HZ              50          :Requested CM Frequency
U-TILT_Y_OFFSET.           0.19916       :WPTET Tilt Y Offset
U-TILT_Y_GAIN.           1.01796         :WPTET Tilt Y Gain
U-TILT_X_OFFSET.          -1.77103       :WPTET Tilt X Offset
U-TILT_X_GAIN.           1.00000         :WPTET Tilt X Gain
U-TILT_OFFSET_TOL.           0.00100     :WPTET Tilt Offset Calibration Tolerance
U-NO_TILT_CAL_ROTATIONS.                 3 :Number of Rotations for Tilt Calibration
HAZI .DEG        0.00000                 :Hole Azimuth
U-STD_TOL_TILT.           0.01000        :Tilt Standard Deviation Tolerance
U-GUN_POS_TOL.DEG        5.00000         :Gun Position Tolerance
ROT_ANGLE_THRESHOLD.DEG        5.00000   :Rotation Stop Angle Tolerance
STOP_ROT_ANGLE.DEG       80.00000        :Rotation Stop Angle
WITN .                                   :Witness's Name
ENGI .                                   :Engineer's Name
COUN .        HARRIS                     :County or Rig Name
FN   .        WILDCAT                    :Field Name
WN   .        WPP TEST 2                 :Well Name
CN   .        SHELL INTERNATIONAL E P    :Company Name
CLAB .        County                     :County/Rig Label
SLAB .        State                      :State/Province Label
RUN  .          1                        :RUN NUMBER
PDAT .        GROUND LEVEL               :Permanent Datum
EPD  .                                   :Elevation of Permanent Datum above Mean Sea Level
LMF  .                                   :Logging Measured From (Name of Logging Elevation Reference)
APD  .                                   :Elevation of Depth Reference (LMF) above Permanent Datum
#-----------------------------------------------------------------------------
~CURVE INFORMATION
#MNEM.UNIT   API CODE                                  DESCRIPTION
#---- -----  --------                                  -----------------------
TIME .S                                                :TIME {F10.1}
FREQ_EMF_SL.HZ                                         :Electromagnetic Field Frequency {F13.4}
PH_SH_WPPCM_SL.DEG                                     :WPPCM Phase Shift {F13.4}
FREQ_EXC_REQ_SL.HZ                                     :Requested Exciter Frequency {F13.4}
RB_SL.DEG                                              :Relative Bearing {F13.4}
SDEV_SL.DEG                                            :Sonde Deviation {F13.4}
TILX_SL.DEG                                            :X-axis Tilt {F13.4}
TILY_SL.DEG                                            :Y-axis Tilt {F13.4}
ROTA_SL.DEG                                            :Motor Rotation Angle {F13.4}
MSPE_SL.RPM                                            :Motor Speed {F13.4}
#-----------------------------------------------------------------------------
# 
#     TIME    FREQ_EMF_SL  PH_SH_WPPCM_ FREQ_EXC_REQ    RB_SL       SDEV_SL      TILX_SL      TILY_SL      ROTA_SL      MSPE_SL
#                          SL           _SL
~A  
# ...
    7118.0    1432.2022       0.0000      50.8611     -70.9262       0.8926      -0.8436      -0.2915     322.8765       1.0226
    7119.0    1420.5409       0.0000      50.8611     -70.1659       0.8592      -0.8082      -0.2915     328.9784       1.0226
    7120.0    1408.8995       0.0000      50.8611     -61.5166       0.8711      -0.7657      -0.4154     335.0801       1.0226
    7121.0    1386.7525       0.0000      50.8611     -70.5321       0.8971      -0.8448      -0.2989     341.1695       1.0124
    7122.0    1373.5338       0.0000      50.8611     -68.7236       1.0333      -0.9629      -0.3745     347.2721       1.0226
    7123.0    1357.5420       0.0000      50.8611     -66.1528       0.9263      -0.8472      -0.3745     353.3998       1.0229
    7124.0    1351.9308       0.0000      50.8611     -65.3765       0.8905      -0.8094      -0.3708     359.4901       1.0223
    7125.0    1331.6761       0.0000      50.8611     -67.2997       0.9607      -0.8862      -0.3708       5.5915       1.0226
    7126.0    1309.6523       0.0000      50.8611     -72.4558       1.3826      -1.3183      -0.4154      12.0894       1.0226
    7127.0    1292.6524       0.0000      50.8611     -67.3380       1.0887      -1.0042      -0.4191      18.2141       1.0226
    7128.0    1280.5982       0.0000      50.8611     -74.5069       1.1282      -1.0858      -0.3013      24.3188       1.0226
    7129.0    1246.8086       0.0000      50.8611     -63.2284       1.0886      -0.9713      -0.4898      30.4333       1.0229
    7130.0    1208.5598       0.0000      50.8611     -62.0526       1.0502      -0.9275      -0.4923      36.5232       1.0226
    7131.0    1178.0622       0.0000      50.8611     -70.8515       1.0273      -0.9701      -0.3373      42.6220       1.0226
    7132.0    1150.8339       0.0000      50.8611     -71.8797       1.2210      -1.1601      -0.3782      48.7148       1.0223
    7133.0    1118.0603       0.0000      50.8611     -66.3888       1.1399      -1.0444      -0.4563      54.8163       1.0226
    7134.0    1095.2616       0.0000      50.8611     -61.8761       0.9660      -0.8520      -0.4551      60.9190       1.0226
    7135.0    1083.4477       0.0000      50.8611     -68.2123       1.1263      -1.0456      -0.4178      67.0208       1.0226
    7136.0    1070.3035       0.0000      50.8611     -65.2554       1.1945      -1.0846      -0.4996      73.1226       1.0226
    7137.0    1062.0743       0.0000      50.8611     -60.1698       1.0722      -0.9299      -0.5331      79.2374       1.0226
    7138.0    1063.6330       0.0000      50.8611     -62.9185       1.0896      -0.9701      -0.4959      85.7574       1.0124
    7139.0    1063.8261       0.0000      50.8611     -60.4047       1.2501      -1.0870      -0.6174      91.8498       1.0226
    7140.0    1070.1567       0.0000      50.8611     -55.2393       1.0831      -0.8898      -0.6174      97.9617       1.0226
    7141.0    1081.6312       0.0000      50.8611     -55.1354       1.2254      -1.0054      -0.7004     104.0694       1.0226
    7142.0    1086.7969       0.0000      50.8611     -53.9899       1.0503      -0.8496      -0.6174     110.1562       1.0124
    7143.0    1115.9127       0.0000      50.8611     -60.0008       1.1671      -1.0103      -0.5838     116.2576       1.0226
    7144.0    1134.3073       0.0000      50.8611     -48.7922       1.2399      -0.9320      -0.8163     122.3576       1.0121
    7145.0    1181.6040       0.0000      50.8611     -54.7937       1.2770      -1.0432      -0.7364     128.4760       1.0226
    7146.0    1226.5873       0.0000      50.8611     -51.7405       1.1271      -0.8849      -0.6979     134.5808       1.0226
    7147.0    1259.7450       0.0000      50.8611     -53.9451       1.1925      -0.9641      -0.7016     140.6678       1.0327
    7148.0    1271.5429       0.0000      50.8611     -57.5794       1.2375      -1.0444      -0.6632     146.7824       1.0226
    7149.0    1295.1053       0.0000      50.8611     -39.0725       1.1059      -0.6962      -0.8566     152.8971       1.0437
    7150.0    1316.4198       0.0000      50.8611     -46.1153       1.0659      -0.7681      -0.7388     159.4053       1.0226
    7151.0    1328.7855       0.0000      50.8611     -44.8909       1.0920      -0.7693      -0.7736     165.5101       1.0226
    7152.0    1349.5681       0.0000      50.8611     -55.2613       1.1715      -0.9617      -0.6669     171.6120       1.0226
    7153.0    1373.2107       0.0000      50.8611     -48.8914       1.1276      -0.8496      -0.7413     177.7241       1.0226
    7154.0    1394.9238       0.0000      50.8611     -52.0170       1.0718      -0.8448      -0.6595     183.8289       1.0226
    7155.0    1408.5660       0.0000      50.8611     -47.9014       0.9781      -0.7255      -0.6558     189.9436       1.0330
    7156.0    1420.3901       0.0000      50.8611     -46.1969       1.0103      -0.7291      -0.6992     196.0336       1.0226
    7157.0    1440.5657       0.0000      50.8611     -41.4770       1.0919      -0.7231      -0.8181     202.1355       1.0226
    7158.0    1452.7377       0.0000      50.8611     -53.4723       0.9059      -0.7279      -0.5393     208.2250       1.0226
    7159.0    1461.7983       0.0000      50.8611     -54.9436       1.0796      -0.8837      -0.6198     214.3269       1.0226
    7160.0    1483.1991       0.0000      50.8611     -40.9356       0.8143      -0.5331      -0.6137     220.4288       1.0226
    7161.0    1492.7395       0.0000      50.8611     -44.4240       0.9252      -0.6476      -0.6607     226.5307       1.0226
    7162.0    1502.3077       0.0000      50.8611     -49.2533       1.0123      -0.7669      -0.6607     233.0389       1.0330
    7163.0    1512.0968       0.0000      50.8611     -51.0958       0.9792      -0.7620      -0.6149     239.1535       1.0226
    7164.0    1515.4538       0.0000      50.8611     -52.1108       0.8701      -0.6865      -0.5344     245.2584       1.0226
    7165.0    1528.4332       0.0000      50.8611     -56.2306       0.6802      -0.5648      -0.3782     251.3611       1.0226
    7166.0    1525.1179       0.0000      50.8611     -52.4504       1.0133      -0.8034      -0.6174     257.4631       1.0226
    7167.0    1531.7629       0.0000      50.8611     -48.6087       0.8142      -0.6110      -0.5381     263.5779       1.0330
    7168.0    1522.1140       0.0000      50.8611     -47.0507       1.5466      -1.1321      -1.0535     269.6804       1.0226
    7169.0    1518.3352       0.0000      50.8611     -43.1948       0.8357      -0.5696      -0.6088     275.7830       1.0223
    7170.0    1508.9493       0.0000      50.8611     -54.3105       0.8483      -0.6889      -0.4947     281.8848       1.0226
    7171.0    1502.8906       0.0000      50.8611     -54.0765       0.8494      -0.6877      -0.4984     287.9866       1.0226
    7172.0    1499.2965       0.0000      50.8611     -66.2431       0.6300      -0.5769      -0.2531     294.1011       1.0330
    7173.0    1489.5771       0.0000      50.8611     -56.4620       0.8237      -0.6865      -0.4551     300.2033       1.0226
    7174.0    1477.0604       0.0000      50.8611     -60.5148       0.8429      -0.7339      -0.4142     306.6856       1.0226
    7175.0    1461.9814       0.0000      50.8611     -68.8244       0.8232      -0.7669      -0.2976     312.8026       1.0226
    7176.0    1450.0129       0.0000      50.8611     -63.8171       0.8520      -0.7644      -0.3757     318.8921       1.0226
    7177.0    1440.8298       0.0000      50.8611     -56.0812       0.8742      -0.7243      -0.4886     324.9939       1.0226
    7178.0    1426.4790       0.0000      50.8611     -59.2189       1.0302      -0.8837      -0.5282     331.0957       1.0226
    7179.0    1412.1543       0.0000      50.8611     -69.3358       0.9458      -0.8849      -0.3336     337.2106       1.0229
    7180.0    1397.2728       0.0000      50.8611     -62.5963       1.0365      -0.9203      -0.4761     343.3124       1.0226
