~VERSION INFORMATION
VERS.           2.0   :CWLS Log ASCII Standard - VERSION 2.0
WRAP.           NO    :One Line per depth step
PROD.  Schlumberger   :LAS Producer
PROG.  DLIS to ASCII 19C2-270                          :LAS Program name and version
CREA.        2017/09/16 17:42                          :LAS Creation date {YYYY/MM/DD hh:mm}
DLIS_CREA.  2017-Sep-15 17:22                          :DLIS Creation date and time {YYYY-MMM-DD hh:mm}
SOURCE.     LPC_S4-1_AV.DLIS                           :DLIS File Name
FILE-ID.     PERFO_Perfo_WPGRT_047LTP                  :File Identification Number
#--------------------------------------------------
~WELL INFORMATION
#MNEM.UNIT      DATA             DESCRIPTION
#---- ------ --------------   -----------------------------
STRT .S         1296.0       :START TIME      
STOP .S         1779.0       :STOP TIME      
STEP .S            1.0       :STEP     
NULL .          -999.25      :NULL VALUE
COMP .        SHELL INTERNATIONAL E P                  :COMPANY
WELL .        WPP TEST 2                               :WELL
FLD  .        WILDCAT                                  :FIELD
LOC  .        NA                                       :LOCATION
CNTY .        HARRIS                                   :COUNTY
STAT .        TEXAS                                    :STATE
CTRY .                                                 :COUNTRY
API  .        NA                                       :API NUMBER
UWI  .                                                 :UNIQUE WELL ID
DATE .        15-Sep-2017                              :LOG DATE {DD-MMM-YYYY}
SRVC .        Schlumberger                             :SERVICE COMPANY
LATI .DEG                                              :LATITUDE
LONG .DEG                                              :LONGITUDE
GDAT .                                                 :GeoDetic Datum
SECT .        NA                                       :Section
RANG .        NA                                       :Range
TOWN .        NA                                       :Township
#-----------------------------------------------------------------------------
~PARAMETER INFORMATION
#MNEM.UNIT    VALUE                      DESCRIPTION
#---- -----   --------------------       ------------------------
U-PHASE_B_COMP_PER_YT.                 0 :Phase B Comparator Period Yt
U-PHASE_A_COMP_PER_XT.                 0 :Phase A Comparator Period Xt
U-MAX_EXC_CUR_LIMIT.MA       240.00000   :Requested CM Current Limit
U-REQ_EXC_FQ.HZ              50          :Requested CM Frequency
U-TILT_Y_OFFSET.           0.19916       :WPTET Tilt Y Offset
U-TILT_Y_GAIN.           1.01796         :WPTET Tilt Y Gain
U-TILT_X_OFFSET.          -1.77103       :WPTET Tilt X Offset
U-TILT_X_GAIN.           1.00000         :WPTET Tilt X Gain
U-TILT_OFFSET_TOL.           0.00100     :WPTET Tilt Offset Calibration Tolerance
U-NO_TILT_CAL_ROTATIONS.                 3 :Number of Rotations for Tilt Calibration
HAZI .DEG        0.00000                 :Hole Azimuth
U-STD_TOL_TILT.           0.01000        :Tilt Standard Deviation Tolerance
U-GUN_POS_TOL.DEG        5.00000         :Gun Position Tolerance
ROT_ANGLE_THRESHOLD.DEG        5.00000   :Rotation Stop Angle Tolerance
STOP_ROT_ANGLE.DEG        0.00000        :Rotation Stop Angle
WITN .        MR. DHRUA ARORA            :Witness's Name
ENGI .        MORRIS MOORE               :Engineer's Name
COUN .        HARRIS                     :County or Rig Name
FN   .        WILDCAT                    :Field Name
WN   .        WPP TEST 2                 :Well Name
CN   .        SHELL INTERNATIONAL E P    :Company Name
CLAB .        County                     :County/Rig Label
SLAB .        State                      :State/Province Label
RUN  .          1                        :RUN NUMBER
PDAT .        GROUND LEVEL               :Permanent Datum
EPD  .                                   :Elevation of Permanent Datum above Mean Sea Level
LMF  .          NA                       :Logging Measured From (Name of Logging Elevation Reference)
APD  .                                   :Elevation of Depth Reference (LMF) above Permanent Datum
#-----------------------------------------------------------------------------
~CURVE INFORMATION
#MNEM.UNIT   API CODE                                  DESCRIPTION
#---- -----  --------                                  -----------------------
TIME .S                                                :TIME {F10.1}
FREQ_EMF_SL.HZ                                         :Electromagnetic Field Frequency {F13.4}
PH_SH_WPPCM_SL.DEG                                     :WPPCM Phase Shift {F13.4}
FREQ_EXC_REQ_SL.HZ                                     :Requested Exciter Frequency {F13.4}
RB_SL.DEG                                              :Relative Bearing {F13.4}
SDEV_SL.DEG                                            :Sonde Deviation {F13.4}
TILX_SL.DEG                                            :X-axis Tilt {F13.4}
TILY_SL.DEG                                            :Y-axis Tilt {F13.4}
ROTA_SL.DEG                                            :Motor Rotation Angle {F13.4}
MSPE_SL.RPM                                            :Motor Speed {F13.4}
#-----------------------------------------------------------------------------
# 
#     TIME    FREQ_EMF_SL  PH_SH_WPPCM_ FREQ_EXC_REQ    RB_SL       SDEV_SL      TILX_SL      TILY_SL      ROTA_SL      MSPE_SL
#                          SL           _SL
~A  
# ...
    1548.0    1852.7365       0.0000      50.8611     -44.4294       1.0090      -0.7063      -0.7205     122.3802       0.0005
    1549.0    1855.2111       0.0000      50.8611     -51.8913       1.0006      -0.7867      -0.6180     122.3802       0.0005
    1550.0    1860.1190       0.0000      50.8611     -46.1041       0.9802      -0.7063      -0.6797     122.3802       0.0005
    1551.0    1855.2111       0.0000      50.8611     -44.4295       1.0098      -0.7069      -0.7211     122.3802       0.0005
    1552.0    1857.6988       0.0000      50.8611     -47.7092       1.0088      -0.7459      -0.6791     122.3802       0.0005
    1553.0    1860.1997       0.0000      50.8611     -43.6538       0.9675      -0.6667      -0.6998     122.3802       0.0005
    1554.0    1855.1567       0.0000      50.8611     -41.9064       0.9681      -0.6464      -0.7205     122.3802       0.0005
    1555.0    1860.1190       0.0000      50.8611     -46.8997       0.9963      -0.7272      -0.6797     122.3802       0.0005
    1556.0    1852.7365       0.0000      50.8611     -51.5410       0.9302      -0.7272      -0.5772     122.3802       0.0005
    1557.0    1855.1567       0.0000      50.8611     -44.4217       0.8952      -0.6266      -0.6393     122.3802       0.0005
    1558.0    1857.7923       0.0000      50.8611     -45.1851       0.9650      -0.6854      -0.6791     122.3802       0.0005
    1559.0    1855.2913       0.0000      50.8611     -47.1062       0.9092      -0.6662      -0.6186     122.3802       0.0005
    1560.0    1857.6313       0.0000      50.8611     -42.6768       0.9539      -0.6469      -0.7004     122.3802       0.0005
    1561.0    1852.8036       0.0000      50.8611     -46.8978       0.9681      -0.7074      -0.6595     122.3802       0.0005
    1562.0    1855.2913       0.0000      50.8611     -41.8164       0.9690      -0.6458      -0.7211     122.3802       0.0005
    1563.0    1860.0644       0.0000      50.8611     -44.7271       0.8672      -0.6062      -0.6175     122.3802       0.0005
    1564.0    1860.1190       0.0000      50.8611     -45.2288       0.9658      -0.6860      -0.6797     122.3802       0.0005
    1565.0    1855.2913       0.0000      50.8611     -45.2106       1.0243      -0.7272      -0.7211     122.3802       0.0005
    1566.0    1855.2111       0.0000      50.8611     -46.2278       0.9521      -0.6865      -0.6589     122.3802       0.0005
    1567.0    1860.1190       0.0000      50.8611     -47.7754       0.9814      -0.7267      -0.6595     122.3802       0.0005
    1568.0    1855.1567       0.0000      50.8611     -43.6049       0.9958      -0.6865      -0.7211     122.3802       0.0005
    1569.0    1857.6988       0.0000      50.8611     -44.7744       0.9103      -0.6447      -0.6388     122.3802       0.0005
    1570.0    1857.6988       0.0000      50.8611     -43.7078       0.9385      -0.6464      -0.6791     122.3802       0.0005
    1571.0    1855.2111       0.0000      50.8611     -46.1205       0.9245      -0.6673      -0.6393     122.3802       0.0005
    1572.0    1857.6988       0.0000      50.8611     -48.0077       0.8967      -0.6673      -0.5984     122.3802       0.0005
    1573.0    1852.8036       0.0000      50.8611     -48.9239       0.9427      -0.7063      -0.6197     122.3802       0.0005
    1574.0    1857.6988       0.0000      50.8611     -49.4596       0.9534      -0.7256      -0.6180     122.3802       0.0005
    1575.0    1857.6313       0.0000      50.8611     -45.3549       0.9371      -0.6662      -0.6589     122.3802       0.0005
    1576.0    1860.1190       0.0000      50.8611     -46.8956       0.9398      -0.6876      -0.6393     122.3802       0.0005
    1577.0    1860.1190       0.0000      50.8611     -47.4034       0.9117      -0.6667      -0.6175     122.3802       0.0005
    1578.0    1852.6950       0.0000      50.8611     -49.9513       0.8992      -0.6871      -0.5772     122.3802       0.0005
    1579.0    1857.6988       0.0000      50.8611     -42.6909       0.9888      -0.6678      -0.7200     122.3802       0.0005
    1580.0    1855.2111       0.0000      50.8611     -44.4527       1.0098      -0.7069      -0.7205     122.3802       0.0005
    1581.0    1857.6313       0.0000      50.8611     -48.8920       0.9100      -0.6860      -0.5979     122.3802       0.0005
    1582.0    1852.8036       0.0000      50.8611     -51.2767       0.9572      -0.7465      -0.5984     122.3802       0.0005
    1583.0    1857.6313       0.0000      50.8611     -53.4293       1.0040      -0.8065      -0.5979     126.3032       0.6796
    1584.0    1860.1997       0.0000      50.8611     -44.4774       0.9824      -0.6871      -0.6998     131.2351       0.9403
    1585.0    1855.2111       0.0000      50.8611     -48.9172       0.8555      -0.6453      -0.5576     137.2256       1.0173
    1586.0    1862.5104       0.0000      50.8611     -49.8852       0.8981      -0.6871      -0.5777     143.3346       1.0226
    1587.0    1850.3290       0.0000      50.8611     -43.3542       0.8796      -0.6051      -0.6382     149.4365       1.0226
    1588.0    1838.1644       0.0000      50.8611     -52.7201       0.8904      -0.7074      -0.5363     155.5514       1.0226
    1589.0    1821.5148       0.0000      50.8611     -47.1062       0.9092      -0.6662      -0.6186     161.6486       1.0174
    1590.0    1793.6350       0.0000      50.8611     -50.3579       0.8452      -0.6458      -0.5380     168.1494       1.0226
    1591.0    1757.8126       0.0000      50.8611     -54.3478       0.8515      -0.6871      -0.4948     174.2450       1.0173
    1592.0    1719.0845       0.0000      50.8611     -50.9703       0.7553      -0.5864      -0.4752     180.3361       1.0174
    1593.0    1690.1317       0.0000      50.8611     -56.4204       0.8244      -0.6871      -0.4551     186.4319       1.0226
    1594.0    1644.6777       0.0000      50.8611     -54.8533       0.7905      -0.6464      -0.4551     192.5404       1.0280
    1595.0    1605.2662       0.0000      50.8611     -59.6604       0.9364      -0.8065      -0.4747     198.6488       1.0226
    1596.0    1548.6697       0.0000      50.8611     -55.2502       0.7627      -0.6266      -0.4349     204.7507       1.0226
    1597.0    1494.3705       0.0000      50.8611     -61.4084       0.7365      -0.6464      -0.3525     210.8541       1.0226
    1598.0    1451.1905       0.0000      50.8611     -61.6109       0.8735      -0.7674      -0.4136     216.9560       1.0226
    1599.0    1407.6122       0.0000      50.8611     -62.1674       0.8908      -0.7883      -0.4147     223.0579       1.0226
    1600.0    1363.9241       0.0000      50.8611     -62.8030       0.9078      -0.8076      -0.4142     229.1598       1.0226
    1601.0    1315.4413       0.0000      50.8611     -68.5860       0.8474      -0.7867      -0.3111     235.2748       1.0226
    1602.0    1229.1847       0.0000      50.8611     -71.8478       0.8063      -0.7663      -0.2506     241.7754       1.0174
    1603.0    1152.6115       0.0000      50.8611     -65.7554       0.9084      -0.8274      -0.3738     247.8743       1.0226
    1604.0    1062.1010       0.0000      50.8611     -69.2899       0.8842      -0.8268      -0.3122     253.9622       1.0229
    1605.0    1005.1349       0.0000      50.8611     -70.4699       0.9879      -0.9275      -0.3313     260.0772       1.0226
    1606.0     962.5025       0.0000      50.8611     -69.7781       0.9031      -0.8472      -0.3122     266.1789       1.0226
    1607.0     933.7496       0.0000      50.8611     -71.3240       0.9787      -0.9270      -0.3122     272.2964       1.0284
    1608.0     910.1733       0.0000      50.8611     -63.4441       1.0150      -0.9072      -0.4545     278.4097       1.0173
    1609.0     888.3249       0.0000      50.8611     -70.1839       0.9867      -0.9286      -0.3324     284.4806       1.0226
    1610.0     864.8203       0.0000      50.8611     -67.1695       1.0706      -0.9869      -0.4142     290.5771       1.0226
