~VERSION INFORMATION
VERS.           2.0   :CWLS Log ASCII Standard - VERSION 2.0
WRAP.           NO    :One Line per depth step
PROD.  Schlumberger   :LAS Producer
PROG.  DLIS to ASCII 19C2-270                          :LAS Program name and version
CREA.        2017/09/16 17:42                          :LAS Creation date {YYYY/MM/DD hh:mm}
DLIS_CREA.  2017-Sep-15 14:18                          :DLIS Creation date and time {YYYY-MMM-DD hh:mm}
SOURCE.     LPC_S2-1_AV.DLIS                           :DLIS File Name
FILE-ID.     PERFO_Perfo_WPGRT_028LTP                  :File Identification Number
#--------------------------------------------------
~WELL INFORMATION
#MNEM.UNIT      DATA             DESCRIPTION
#---- ------ --------------   -----------------------------
STRT .S        12646.0       :START TIME      
STOP .S        13087.0       :STOP TIME      
STEP .S            1.0       :STEP     
NULL .          -999.25      :NULL VALUE
COMP .        SHELL INTERNATIONAL E P                  :COMPANY
WELL .        WPP TEST 2                               :WELL
FLD  .        WILDCAT                                  :FIELD
LOC  .                                                 :LOCATION
CNTY .        HARRIS                                   :COUNTY
STAT .        TEXAS                                    :STATE
CTRY .                                                 :COUNTRY
API  .                                                 :API NUMBER
UWI  .                                                 :UNIQUE WELL ID
DATE .                                                 :LOG DATE
SRVC .        Schlumberger                             :SERVICE COMPANY
LATI .DEG                                              :LATITUDE
LONG .DEG                                              :LONGITUDE
GDAT .                                                 :GeoDetic Datum
#-----------------------------------------------------------------------------
~PARAMETER INFORMATION
#MNEM.UNIT    VALUE                      DESCRIPTION
#---- -----   --------------------       ------------------------
U-PHASE_B_COMP_PER_YT.                 0 :Phase B Comparator Period Yt
U-PHASE_A_COMP_PER_XT.                 0 :Phase A Comparator Period Xt
U-MAX_EXC_CUR_LIMIT.MA       240.00000   :Requested CM Current Limit
U-REQ_EXC_FQ.HZ              50          :Requested CM Frequency
U-TILT_Y_OFFSET.           0.19916       :WPTET Tilt Y Offset
U-TILT_Y_GAIN.           1.01796         :WPTET Tilt Y Gain
U-TILT_X_OFFSET.          -1.77103       :WPTET Tilt X Offset
U-TILT_X_GAIN.           1.00000         :WPTET Tilt X Gain
U-TILT_OFFSET_TOL.           0.00100     :WPTET Tilt Offset Calibration Tolerance
U-NO_TILT_CAL_ROTATIONS.                 3 :Number of Rotations for Tilt Calibration
HAZI .DEG        0.00000                 :Hole Azimuth
U-STD_TOL_TILT.           0.01000        :Tilt Standard Deviation Tolerance
U-GUN_POS_TOL.DEG        5.00000         :Gun Position Tolerance
ROT_ANGLE_THRESHOLD.DEG        5.00000   :Rotation Stop Angle Tolerance
STOP_ROT_ANGLE.DEG       80.00000        :Rotation Stop Angle
WITN .                                   :Witness's Name
ENGI .                                   :Engineer's Name
COUN .        HARRIS                     :County or Rig Name
FN   .        WILDCAT                    :Field Name
WN   .        WPP TEST 2                 :Well Name
CN   .        SHELL INTERNATIONAL E P    :Company Name
CLAB .        County                     :County/Rig Label
SLAB .        State                      :State/Province Label
RUN  .          1                        :RUN NUMBER
PDAT .        GROUND LEVEL               :Permanent Datum
EPD  .                                   :Elevation of Permanent Datum above Mean Sea Level
LMF  .                                   :Logging Measured From (Name of Logging Elevation Reference)
APD  .                                   :Elevation of Depth Reference (LMF) above Permanent Datum
#-----------------------------------------------------------------------------
~CURVE INFORMATION
#MNEM.UNIT   API CODE                                  DESCRIPTION
#---- -----  --------                                  -----------------------
TIME .S                                                :TIME {F10.1}
FREQ_EMF_SL.HZ                                         :Electromagnetic Field Frequency {F13.4}
PH_SH_WPPCM_SL.DEG                                     :WPPCM Phase Shift {F13.4}
FREQ_EXC_REQ_SL.HZ                                     :Requested Exciter Frequency {F13.4}
RB_SL.DEG                                              :Relative Bearing {F13.4}
SDEV_SL.DEG                                            :Sonde Deviation {F13.4}
TILX_SL.DEG                                            :X-axis Tilt {F13.4}
TILY_SL.DEG                                            :Y-axis Tilt {F13.4}
ROTA_SL.DEG                                            :Motor Rotation Angle {F13.4}
MSPE_SL.RPM                                            :Motor Speed {F13.4}
#-----------------------------------------------------------------------------
# 
#     TIME    FREQ_EMF_SL  PH_SH_WPPCM_ FREQ_EXC_REQ    RB_SL       SDEV_SL      TILX_SL      TILY_SL      ROTA_SL      MSPE_SL
#                          SL           _SL
~A  
# ...
   12772.0     970.7988       0.0000      50.8611     -61.9324       1.1172      -0.9858      -0.5256     233.8509       1.0226
   12773.0     973.7284       0.0000      50.8611     -55.3990       1.0952      -0.9024      -0.6186     239.9550       1.0226
   12774.0     979.6584       0.0000      50.8611     -52.9936       1.0059      -0.8040      -0.5961     246.0555       1.0226
   12775.0     991.7137       0.0000      50.8611     -57.7299       1.1235      -0.9496      -0.6002     252.1560       1.0226
   12776.0    1007.2047       0.0000      50.8611     -58.0145       1.0966      -0.9275      -0.5818     258.2502       1.0150
   12777.0    1022.1164       0.0000      50.8611     -49.7490       1.2587      -0.9607      -0.8118     264.7564       1.0226
   12778.0    1038.5894       0.0000      50.8611     -57.6238       1.0093      -0.8572      -0.5256     270.8831       1.0150
   12779.0    1083.6944       0.0000      50.8611     -57.7998       1.1179      -0.9456      -0.5961     276.9957       1.0226
   12780.0    1159.4141       0.0000      50.8611     -53.3924       1.0605      -0.8472      -0.6339     283.1032       1.0226
   12781.0    1232.0065       0.0000      50.8611     -50.7569       1.0463      -0.8110      -0.6595     289.1912       1.0197
   12782.0    1262.1293       0.0000      50.8611     -57.1725       0.9752      -0.8181      -0.5297     295.2915       1.0226
   12783.0    1290.5599       0.0000      50.8611     -51.1127       0.9894      -0.7709      -0.6186     301.3857       1.0197
   12784.0    1318.9512       0.0000      50.8611     -54.6399       1.0883      -0.8874      -0.6298     307.4763       1.0275
   12785.0    1352.6276       0.0000      50.8611     -54.7166       1.0387      -0.8472      -0.6002     313.5863       1.0226
   12786.0    1373.2910       0.0000      50.8611     -58.3677       0.9513      -0.8070      -0.5000     319.6873       1.0226
   12787.0    1397.8628       0.0000      50.8611     -48.0185       1.0098      -0.7528      -0.6707     325.7815       1.0197
   12788.0    1431.7537       0.0000      50.8611     -50.0416       1.0908      -0.8361      -0.7004     331.8945       1.0226
   12789.0    1451.9139       0.0000      50.8611     -58.0624       1.0002      -0.8472      -0.5297     338.3891       1.0226
   12790.0    1481.1220       0.0000      50.8611     -48.8562       0.9307      -0.7016      -0.6074     344.4877       1.0226
   12791.0    1506.5095       0.0000      50.8611     -49.0065       0.8995      -0.6795      -0.5890     350.6038       1.0226
   12792.0    1540.0891       0.0000      50.8611     -49.5934       0.9544      -0.7267      -0.6186     356.6997       1.0150
   12793.0    1553.7017       0.0000      50.8611     -48.9401       0.9874      -0.7448      -0.6482       2.7966       1.0226
   12794.0    1576.5134       0.0000      50.8611     -50.9163       0.8990      -0.6976      -0.5665       8.9260       1.0256
   12795.0    1613.3347       0.0000      50.8611     -53.2425       0.9846      -0.7890      -0.5890      15.0422       1.0226
   12796.0    1625.5415       0.0000      50.8611     -54.2183       0.9745      -0.7920      -0.5665      21.1559       1.0226
   12797.0    1628.6426       0.0000      50.8611     -50.6567       0.8797      -0.6795      -0.5552      27.2441       1.0226
   12798.0    1643.8734       0.0000      50.8611     -61.3601       1.0485      -0.9195      -0.4888      33.3258       1.0150
   12799.0    1650.5282       0.0000      50.8611     -58.9547       0.9629      -0.8251      -0.4959      39.4255       1.0226
   12800.0    1651.2227       0.0000      50.8611     -61.6338       0.9835      -0.8653      -0.4663      44.9388       0.0008
   12801.0    1650.5282       0.0000      50.8611     -62.1320       1.0120      -0.8944      -0.4735      45.0518       0.0005
   12802.0    1652.6692       0.0000      50.8611     -51.6125       0.8696      -0.6825      -0.5368      45.0518       0.0005
   12803.0    1657.2407       0.0000      50.8611     -53.9472       0.9125      -0.7377      -0.5368      45.0518       0.0005
   12804.0    1656.1727       0.0000      50.8611     -58.7511       0.9783      -0.8361      -0.5072      45.0518       0.0005
   12805.0    1657.2407       0.0000      50.8611     -54.8880       0.9155      -0.7488      -0.5256      45.0518       0.0005
   12806.0    1656.5629       0.0000      50.8611     -55.6176       0.9582      -0.7920      -0.5368      45.0518       0.0005
   12807.0    1654.4117       0.0000      50.8611     -52.7235       0.9358      -0.7448      -0.5665      45.0518       0.0005
   12808.0    1658.3137       0.0000      50.8611     -54.8880       0.9155      -0.7488      -0.5256      45.0518       0.0005
   12809.0    1654.4117       0.0000      50.8611     -56.9708       0.8946      -0.7488      -0.4888      45.0518       0.0005
   12810.0    1655.4848       0.0000      50.8611     -56.4058       0.9144      -0.7598      -0.5031      45.0518       0.0005
   12811.0    1658.3137       0.0000      50.8611     -55.3122       0.9824      -0.8070      -0.5593      45.0518       0.0005
   12812.0    1651.5962       0.0000      50.8611     -55.6969       0.9018      -0.7448      -0.5072      45.0518       0.0005
   12813.0    1652.6692       0.0000      50.8611     -54.2235       0.8870      -0.7197      -0.5184      45.0518       0.0005
   12814.0    1658.3137       0.0000      50.8611     -57.5865       0.9823      -0.8291      -0.5256      45.0518       0.0005
   12815.0    1650.5282       0.0000      50.8611     -51.5122       0.8629      -0.6755      -0.5368      45.0518       0.0005
   12816.0    1655.4848       0.0000      50.8611     -51.1508       0.9421      -0.7337      -0.5890      45.0518       0.0005
   12817.0    1658.3137       0.0000      50.8611     -57.1699       0.9018      -0.7558      -0.4888      45.0518       0.0005
   12818.0    1656.1727       0.0000      50.8611     -57.2541       0.9379      -0.7890      -0.5072      45.0518       0.0005
   12819.0    1653.3438       0.0000      50.8611     -57.1784       0.9480      -0.7960      -0.5143      45.0518       0.0005
   12820.0    1656.5629       0.0000      50.8611     -50.2472       0.9685      -0.7448      -0.6186      45.0518       0.0005
   12821.0    1654.4117       0.0000      50.8611     -52.1578       0.9429      -0.7448      -0.5777      45.0518       0.0005
   12822.0    1656.1727       0.0000      50.8611     -57.0850       0.9352      -0.7849      -0.5072      45.0518       0.0005
   12823.0    1654.4117       0.0000      50.8611     -58.8290       0.9682      -0.8251      -0.5000      45.0518       0.0005
   12824.0    1649.8668       0.0000      50.8611     -57.8983       0.8617      -0.7267      -0.4591      45.0518       0.0005
   12825.0    1654.4117       0.0000      50.8611     -58.5022       0.9440      -0.8030      -0.4888      45.0518       0.0005
   12826.0    1655.4848       0.0000      50.8611     -48.1462       0.8827      -0.6574      -0.5890      45.0518       0.0005
   12827.0    1653.3438       0.0000      50.8611     -55.3808       0.9452      -0.7779      -0.5368      45.0518       0.0005
   12828.0    1650.9449       0.0000      50.8611     -58.2949       0.9225      -0.7849      -0.4847      45.0518       0.0005
   12829.0    1656.5629       0.0000      50.8611     -55.6599       0.8456      -0.6976      -0.4775      45.0518       0.0005
   12830.0    1654.4117       0.0000      50.8611     -57.2894       0.9937      -0.8361      -0.5368      45.0518       0.0005
   12831.0    1657.7766       0.0000      50.8611     -53.3366       0.9291      -0.7448      -0.5537      45.0518       0.0005
   12832.0    1658.3137       0.0000      50.8611     -56.9047       0.9287      -0.7779      -0.5072      45.0518       0.0005
   12833.0    1654.4117       0.0000      50.8611     -55.1464       0.9707      -0.7960      -0.5552      45.0518       0.0005
   12834.0    1653.3438       0.0000      50.8611     -54.2030       0.8689      -0.7046      -0.5072      45.0518       0.0005
