~VERSION INFORMATION
VERS.           2.0   :CWLS Log ASCII Standard - VERSION 2.0
WRAP.           NO    :One Line per depth step
PROD.  Schlumberger   :LAS Producer
PROG.  DLIS to ASCII 19C2-270                          :LAS Program name and version
CREA.        2017/09/16 17:42                          :LAS Creation date {YYYY/MM/DD hh:mm}
DLIS_CREA.  2017-Sep-15 14:18                          :DLIS Creation date and time {YYYY-MMM-DD hh:mm}
SOURCE.     LPC_S2-1_AV.DLIS                           :DLIS File Name
FILE-ID.     PERFO_Perfo_WPGRT_028LTP                  :File Identification Number
#--------------------------------------------------
~WELL INFORMATION
#MNEM.UNIT      DATA             DESCRIPTION
#---- ------ --------------   -----------------------------
STRT .S        12646.0       :START TIME      
STOP .S        13087.0       :STOP TIME      
STEP .S            1.0       :STEP     
NULL .          -999.25      :NULL VALUE
COMP .        SHELL INTERNATIONAL E P                  :COMPANY
WELL .        WPP TEST 2                               :WELL
FLD  .        WILDCAT                                  :FIELD
LOC  .                                                 :LOCATION
CNTY .        HARRIS                                   :COUNTY
STAT .        TEXAS                                    :STATE
CTRY .                                                 :COUNTRY
API  .                                                 :API NUMBER
UWI  .                                                 :UNIQUE WELL ID
DATE .                                                 :LOG DATE
SRVC .        Schlumberger                             :SERVICE COMPANY
LATI .DEG                                              :LATITUDE
LONG .DEG                                              :LONGITUDE
GDAT .                                                 :GeoDetic Datum
#-----------------------------------------------------------------------------
~PARAMETER INFORMATION
#MNEM.UNIT    VALUE                      DESCRIPTION
#---- -----   --------------------       ------------------------
U-PHASE_B_COMP_PER_YT.                 0 :Phase B Comparator Period Yt
U-PHASE_A_COMP_PER_XT.                 0 :Phase A Comparator Period Xt
U-MAX_EXC_CUR_LIMIT.MA       240.00000   :Requested CM Current Limit
U-REQ_EXC_FQ.HZ              50          :Requested CM Frequency
U-TILT_Y_OFFSET.           0.19916       :WPTET Tilt Y Offset
U-TILT_Y_GAIN.           1.01796         :WPTET Tilt Y Gain
U-TILT_X_OFFSET.          -1.77103       :WPTET Tilt X Offset
U-TILT_X_GAIN.           1.00000         :WPTET Tilt X Gain
U-TILT_OFFSET_TOL.           0.00100     :WPTET Tilt Offset Calibration Tolerance
U-NO_TILT_CAL_ROTATIONS.                 3 :Number of Rotations for Tilt Calibration
HAZI .DEG        0.00000                 :Hole Azimuth
U-STD_TOL_TILT.           0.01000        :Tilt Standard Deviation Tolerance
U-GUN_POS_TOL.DEG        5.00000         :Gun Position Tolerance
ROT_ANGLE_THRESHOLD.DEG        5.00000   :Rotation Stop Angle Tolerance
STOP_ROT_ANGLE.DEG       80.00000        :Rotation Stop Angle
WITN .                                   :Witness's Name
ENGI .                                   :Engineer's Name
COUN .        HARRIS                     :County or Rig Name
FN   .        WILDCAT                    :Field Name
WN   .        WPP TEST 2                 :Well Name
CN   .        SHELL INTERNATIONAL E P    :Company Name
CLAB .        County                     :County/Rig Label
SLAB .        State                      :State/Province Label
RUN  .          1                        :RUN NUMBER
PDAT .        GROUND LEVEL               :Permanent Datum
EPD  .                                   :Elevation of Permanent Datum above Mean Sea Level
LMF  .                                   :Logging Measured From (Name of Logging Elevation Reference)
APD  .                                   :Elevation of Depth Reference (LMF) above Permanent Datum
#-----------------------------------------------------------------------------
~CURVE INFORMATION
#MNEM.UNIT   API CODE                                  DESCRIPTION
#---- -----  --------                                  -----------------------
TIME .S                                                :TIME {F10.1}
FREQ_EMF_SL.HZ                                         :Electromagnetic Field Frequency {F13.4}
PH_SH_WPPCM_SL.DEG                                     :WPPCM Phase Shift {F13.4}
FREQ_EXC_REQ_SL.HZ                                     :Requested Exciter Frequency {F13.4}
RB_SL.DEG                                              :Relative Bearing {F13.4}
SDEV_SL.DEG                                            :Sonde Deviation {F13.4}
TILX_SL.DEG                                            :X-axis Tilt {F13.4}
TILY_SL.DEG                                            :Y-axis Tilt {F13.4}
ROTA_SL.DEG                                            :Motor Rotation Angle {F13.4}
MSPE_SL.RPM                                            :Motor Speed {F13.4}
#-----------------------------------------------------------------------------
# 
#     TIME    FREQ_EMF_SL  PH_SH_WPPCM_ FREQ_EXC_REQ    RB_SL       SDEV_SL      TILX_SL      TILY_SL      ROTA_SL      MSPE_SL
#                          SL           _SL
~A  
# ...
   12835.0    1651.5962       0.0000      50.8611     -53.3229       0.9290      -0.7448      -0.5552      45.0518       0.0005
   12836.0    1657.2407       0.0000      50.8611     -56.0617       0.8546      -0.7086      -0.4775      45.0518       0.0005
   12837.0    1654.4117       0.0000      50.8611     -57.2719       0.9727      -0.8181      -0.5256      45.0518       0.0005
   12838.0    1653.3438       0.0000      50.8611     -56.8226       0.9101      -0.7598      -0.5000      45.0518       0.0005
   12839.0    1652.6692       0.0000      50.8611     -50.2472       0.9685      -0.7448      -0.6186      45.0518       0.0005
   12840.0    1656.1727       0.0000      50.8611     -57.1369       0.8791      -0.7377      -0.4775      45.0518       0.0005
   12841.0    1656.1727       0.0000      50.8611     -57.8142       0.9424      -0.7960      -0.5031      45.0518       0.0005
   12842.0    1651.5962       0.0000      50.8611     -58.8539       0.9223      -0.7890      -0.4775      45.0518       0.0005
   12843.0    1658.5827       0.0000      50.8611     -52.1938       0.8898      -0.7031      -0.5453      45.0518       0.0005
   12844.0    1657.2407       0.0000      50.8611     -52.1578       0.9429      -0.7448      -0.5777      45.0518       0.0005
   12845.0    1657.2407       0.0000      50.8611     -56.9047       0.9287      -0.7779      -0.5072      45.0518       0.0005
   12846.0    1655.4848       0.0000      50.8611     -57.1082       0.9133      -0.7669      -0.4959      45.0518       0.0005
   12847.0    1654.4117       0.0000      50.8611     -58.7080       0.8976      -0.7669      -0.4663      45.0518       0.0005
   12848.0    1660.0829       0.0000      50.8611     -48.6142       0.9011      -0.6755      -0.5961      45.0518       0.0005
   12849.0    1654.4117       0.0000      50.8611     -54.3475       0.8815      -0.7156      -0.5143      45.0518       0.0005
   12850.0    1652.6692       0.0000      50.8611     -59.6270       0.9229      -0.7960      -0.4663      45.0518       0.0005
   12851.0    1652.6692       0.0000      50.8611     -52.8498       0.9396      -0.7488      -0.5665      45.0518       0.0005
   12852.0    1656.1727       0.0000      50.8611     -55.7029       0.9854      -0.8141      -0.5552      45.0518       0.0005
   12853.0    1654.4117       0.0000      50.8611     -53.0799       0.9820      -0.7849      -0.5890      45.0518       0.0005
   12854.0    1654.4117       0.0000      50.8611     -55.5093       0.9801      -0.8070      -0.5552      45.0518       0.0005
   12855.0    1655.8246       0.0000      50.8611     -59.8599       0.9585      -0.8289      -0.4811      45.0518       0.0005
   12856.0    1655.4848       0.0000      50.8611     -46.3781       0.9160      -0.6614      -0.6258      45.0518       0.0005
   12857.0    1654.4117       0.0000      50.8611     -58.0890       0.9270      -0.7849      -0.4888      45.0518       0.0005
   12858.0    1650.9449       0.0000      50.8611     -51.3180       0.9080      -0.7086      -0.5665      45.0518       0.0005
   12859.0    1657.2407       0.0000      50.8611     -61.0549       0.9242      -0.8070      -0.4479      45.0518       0.0005
   12860.0    1656.1727       0.0000      50.8611     -55.7532       0.9648      -0.7960      -0.5440      45.0518       0.0005
   12861.0    1646.0043       0.0000      50.8611     -51.9458       0.9472      -0.7448      -0.5849      45.0518       0.0005
   12862.0    1654.4117       0.0000      50.8611     -51.5153       0.9284      -0.7267      -0.5777      45.0518       0.0005
   12863.0    1659.0149       0.0000      50.8611     -53.1055       1.0315      -0.8251      -0.6186      45.0518       0.0005
   12864.0    1651.2227       0.0000      50.8611     -54.1667       0.9680      -0.7849      -0.5665      45.0518       0.0005
   12865.0    1651.5962       0.0000      50.8611     -50.0976       0.8716      -0.6685      -0.5593      45.0518       0.0005
   12866.0    1655.4848       0.0000      50.8611     -58.3332       0.9754      -0.8251      -0.5113      45.0518       0.0005
   12867.0    1654.7566       0.0000      50.8611     -58.9715       0.9545      -0.8178      -0.4921      45.0518       0.0005
   12868.0    1656.5629       0.0000      50.8611     -50.4426       0.9547      -0.7307      -0.6033      45.0518       0.0005
   12869.0    1658.3137       0.0000      50.8611     -52.4044       1.0728      -0.8472      -0.6554      45.0518       0.0005
   12870.0    1656.1727       0.0000      50.8611     -49.8295       0.9130      -0.6976      -0.5890      45.0518       0.0005
   12871.0    1653.3438       0.0000      50.8611     -58.1505       1.0185      -0.8653      -0.5368      45.0518       0.0005
   12872.0    1650.5282       0.0000      50.8611     -57.2617       1.0151      -0.8472      -0.5511      45.0518       0.0005
   12873.0    1655.4848       0.0000      50.8611     -50.2459       0.9215      -0.7086      -0.5890      45.0518       0.0005
   12874.0    1657.2407       0.0000      50.8611     -51.5153       0.9284      -0.7267      -0.5777      45.0518       0.0005
   12875.0    1655.1097       0.0000      50.8611     -50.7747       0.9990      -0.7739      -0.6298      45.0518       0.0005
   12876.0    1654.4117       0.0000      50.8611     -58.2973       0.8824      -0.7488      -0.4622      45.0518       0.0005
   12877.0    1655.4848       0.0000      50.8611     -55.7303       0.9545      -0.7890      -0.5368      45.0518       0.0005
   12878.0    1654.4117       0.0000      50.8611     -56.6535       0.9264      -0.7739      -0.5072      45.0518       0.0005
   12879.0    1651.5962       0.0000      50.8611     -53.0340       0.9045      -0.7227      -0.5440      45.0518       0.0005
   12880.0    1652.6692       0.0000      50.8611     -55.5594       0.9277      -0.7598      -0.5215      45.0518       0.0005
   12881.0    1653.3438       0.0000      50.8611     -59.2059       0.9944      -0.8542      -0.5072      45.0518       0.0005
   12882.0    1650.5282       0.0000      50.8611     -69.8901       0.9334      -0.8763      -0.3211      45.0518       0.0005
   12883.0    1651.5962       0.0000      50.8611     -68.5903       0.8384      -0.7156      -0.3303      45.0518       0.0005
   12884.0    1657.2407       0.0000      50.8611     -45.4339       1.0315      -0.7367      -0.7218      45.0518       0.0005
   12885.0    1657.2407       0.0000      50.8611     -51.9589       1.2050      -0.9346      -0.7515      45.0518       0.0005
   12886.0    1655.4848       0.0000      50.8611     -48.1402       0.8571      -0.6353      -0.5736      45.0518       0.0005
   12887.0    1653.3438       0.0000      50.8611     -56.7488       1.0001      -0.8361      -0.5481      45.0518       0.0005
   12888.0    1655.4848       0.0000      50.8611     -56.6671       1.0841      -0.9054      -0.5961      45.0518       0.0005
   12889.0    1657.9519       0.0000      50.8611     -53.9943       0.8771      -0.7086      -0.5143      45.0518       0.0005
   12890.0    1653.3438       0.0000      50.8611     -53.1095       1.0001      -0.8000      -0.6002      45.0518       0.0005
   12891.0    1652.6692       0.0000      50.8611     -51.2415       1.0920      -0.8472      -0.6850      45.0518       0.0005
   12892.0    1653.3438       0.0000      50.8611     -56.0816       0.9668      -0.8030      -0.5368      45.0518       0.0005
   12893.0    1656.1727       0.0000      50.8611     -56.7176       0.9041      -0.7558      -0.4959      45.0518       0.0005
   12894.0    1655.4848       0.0000      50.8611     -56.0539       0.9393      -0.7769      -0.5000      45.0518       0.0005
   12895.0    1655.4848       0.0000      50.8611     -51.5147       0.8935      -0.7006      -0.5481      45.0518       0.0005
   12896.0    1654.4117       0.0000      50.8611     -50.0625       0.9516      -0.7126      -0.5992      45.0518       0.0007
   12897.0    1649.4652       0.0000      50.8611     -56.3489       1.0093      -0.8402      -0.5593      47.9174       0.7321
