~VERSION INFORMATION
VERS.           2.0   :CWLS Log ASCII Standard - VERSION 2.0
WRAP.           NO    :One Line per depth step
PROD.  Schlumberger   :LAS Producer
PROG.  DLIS to ASCII 19C2-270                          :LAS Program name and version
CREA.        2017/09/16 17:42                          :LAS Creation date {YYYY/MM/DD hh:mm}
DLIS_CREA.  2017-Sep-15 16:29                          :DLIS Creation date and time {YYYY-MMM-DD hh:mm}
SOURCE.     LPC_S3-1_2AV.DLIS                          :DLIS File Name
FILE-ID.     PERFO_Perfo_WPGRT_041LTP                  :File Identification Number
#--------------------------------------------------
~WELL INFORMATION
#MNEM.UNIT      DATA             DESCRIPTION
#---- ------ --------------   -----------------------------
STRT .S         3547.0       :START TIME      
STOP .S         3943.0       :STOP TIME      
STEP .S            1.0       :STEP     
NULL .          -999.25      :NULL VALUE
COMP .        SHELL INTERNATIONAL E P                  :COMPANY
WELL .        WPP TEST 2                               :WELL
FLD  .        WILDCAT                                  :FIELD
LOC  .                                                 :LOCATION
CNTY .        HARRIS                                   :COUNTY
STAT .        TEXAS                                    :STATE
CTRY .                                                 :COUNTRY
API  .                                                 :API NUMBER
UWI  .                                                 :UNIQUE WELL ID
DATE .                                                 :LOG DATE
SRVC .        Schlumberger                             :SERVICE COMPANY
LATI .DEG                                              :LATITUDE
LONG .DEG                                              :LONGITUDE
GDAT .                                                 :GeoDetic Datum
#-----------------------------------------------------------------------------
~PARAMETER INFORMATION
#MNEM.UNIT    VALUE                      DESCRIPTION
#---- -----   --------------------       ------------------------
U-PHASE_B_COMP_PER_YT.                 0 :Phase B Comparator Period Yt
U-PHASE_A_COMP_PER_XT.                 0 :Phase A Comparator Period Xt
U-MAX_EXC_CUR_LIMIT.MA       240.00000   :Requested CM Current Limit
U-REQ_EXC_FQ.HZ              50          :Requested CM Frequency
U-TILT_Y_OFFSET.           0.19916       :WPTET Tilt Y Offset
U-TILT_Y_GAIN.           1.01796         :WPTET Tilt Y Gain
U-TILT_X_OFFSET.          -1.77103       :WPTET Tilt X Offset
U-TILT_X_GAIN.           1.00000         :WPTET Tilt X Gain
U-TILT_OFFSET_TOL.           0.00100     :WPTET Tilt Offset Calibration Tolerance
U-NO_TILT_CAL_ROTATIONS.                 3 :Number of Rotations for Tilt Calibration
HAZI .DEG        0.00000                 :Hole Azimuth
U-STD_TOL_TILT.           0.01000        :Tilt Standard Deviation Tolerance
U-GUN_POS_TOL.DEG        5.00000         :Gun Position Tolerance
ROT_ANGLE_THRESHOLD.DEG        5.00000   :Rotation Stop Angle Tolerance
STOP_ROT_ANGLE.DEG        0.00000        :Rotation Stop Angle
WITN .                                   :Witness's Name
ENGI .                                   :Engineer's Name
COUN .        HARRIS                     :County or Rig Name
FN   .        WILDCAT                    :Field Name
WN   .        WPP TEST 2                 :Well Name
CN   .        SHELL INTERNATIONAL E P    :Company Name
CLAB .        County                     :County/Rig Label
SLAB .        State                      :State/Province Label
RUN  .          1                        :RUN NUMBER
PDAT .        GROUND LEVEL               :Permanent Datum
EPD  .                                   :Elevation of Permanent Datum above Mean Sea Level
LMF  .                                   :Logging Measured From (Name of Logging Elevation Reference)
APD  .                                   :Elevation of Depth Reference (LMF) above Permanent Datum
#-----------------------------------------------------------------------------
~CURVE INFORMATION
#MNEM.UNIT   API CODE                                  DESCRIPTION
#---- -----  --------                                  -----------------------
TIME .S                                                :TIME {F10.1}
FREQ_EMF_SL.HZ                                         :Electromagnetic Field Frequency {F13.4}
PH_SH_WPPCM_SL.DEG                                     :WPPCM Phase Shift {F13.4}
FREQ_EXC_REQ_SL.HZ                                     :Requested Exciter Frequency {F13.4}
RB_SL.DEG                                              :Relative Bearing {F13.4}
SDEV_SL.DEG                                            :Sonde Deviation {F13.4}
TILX_SL.DEG                                            :X-axis Tilt {F13.4}
TILY_SL.DEG                                            :Y-axis Tilt {F13.4}
ROTA_SL.DEG                                            :Motor Rotation Angle {F13.4}
MSPE_SL.RPM                                            :Motor Speed {F13.4}
#-----------------------------------------------------------------------------
# 
#     TIME    FREQ_EMF_SL  PH_SH_WPPCM_ FREQ_EXC_REQ    RB_SL       SDEV_SL      TILX_SL      TILY_SL      ROTA_SL      MSPE_SL
#                          SL           _SL
~A  
# ...
    3862.0    1396.1640       0.0000      50.8611     -70.5007       0.8369      -0.7890      -0.2757      86.5919       1.0292
    3863.0    1402.3598       0.0000      50.8611     -58.1729       0.9218      -0.7824      -0.4867      92.7007       1.0226
    3864.0    1404.0790       0.0000      50.8611     -62.0864       0.8747      -0.7669      -0.4116      98.8006       1.0226
    3865.0    1397.8628       0.0000      50.8611     -57.3456       1.0290      -0.8628      -0.5552     104.9023       1.0226
    3866.0    1403.3013       0.0000      50.8611     -70.3154       1.0475      -0.9833      -0.3549     110.9919       1.0226
    3867.0    1410.8012       0.0000      50.8611     -72.3093       0.9722      -0.9250      -0.2981     117.0902       1.0268
    3868.0    1406.8885       0.0000      50.8611     -62.8554       1.0322      -0.9185      -0.4709     123.1971       1.0292
    3869.0    1401.7308       0.0000      50.8611     -57.8177       0.9188      -0.7734      -0.4934     129.3140       1.0226
    3870.0    1411.2654       0.0000      50.8611     -56.7623       0.9951      -0.8316      -0.5460     135.4290       1.0292
    3871.0    1419.8147       0.0000      50.8611     -62.2973       1.2650      -1.1193      -0.5869     141.9501       1.0226
    3872.0    1416.4855       0.0000      50.8611     -65.3933       1.1529      -1.0480      -0.4801     148.0520       1.0226
    3873.0    1415.3847       0.0000      50.8611     -61.6119       0.9912      -0.8718      -0.4709     154.1671       1.0226
    3874.0    1405.6229       0.0000      50.8611     -60.0915       1.0634      -0.9210      -0.5276     160.2690       1.0226
    3875.0    1415.2134       0.0000      50.8611     -62.8938       1.1356      -1.0079      -0.5184     166.3840       1.0226
    3876.0    1416.0424       0.0000      50.8611     -61.9994       1.2509      -1.1038      -0.5869     172.4736       1.0226
    3877.0    1433.1590       0.0000      50.8611     -61.8305       1.1714      -1.0325      -0.5527     178.5755       1.0226
    3878.0    1416.4855       0.0000      50.8611     -68.0774       0.9998      -0.9275      -0.3733     184.6650       1.0292
    3879.0    1408.4384       0.0000      50.8611     -57.7156       1.1745      -0.9923      -0.6278     190.7676       1.0226
    3880.0    1410.1646       0.0000      50.8611     -58.1914       1.2515      -1.0636      -0.6595     196.8695       1.0098
    3881.0    1406.2500       0.0000      50.8611     -57.0807       1.2059      -1.0079      -0.6569     202.9468       1.0226
    3882.0    1403.4431       0.0000      50.8611     -59.3340       1.0032      -0.8628      -0.5118     209.0567       1.0292
    3883.0    1391.7118       0.0000      50.8611     -65.6546       1.0800      -0.9833      -0.4459     215.5717       1.0226
    3884.0    1397.2430       0.0000      50.8611     -58.0523       1.1694      -0.9923      -0.6186     221.6736       1.0226
    3885.0    1388.9627       0.0000      50.8611     -48.8110       1.2122      -0.9120      -0.7980     227.7632       1.0226
    3886.0    1384.3064       0.0000      50.8611     -54.2821       1.2849      -1.0415      -0.7479     233.8651       1.0226
    3887.0    1379.7261       0.0000      50.8611     -62.5160       0.9761      -0.8653      -0.4459     239.9670       1.0226
    3888.0    1371.0595       0.0000      50.8611     -60.3849       1.1530      -1.0013      -0.5711     246.0696       1.0268
    3889.0    1371.6514       0.0000      50.8611     -46.3038       1.2276      -0.8874      -0.8481     252.1592       1.0185
    3890.0    1360.0098       0.0000      50.8611     -48.6641       1.2235      -0.9185      -0.8072     258.2610       1.0226
    3891.0    1356.3707       0.0000      50.8611     -58.5007       1.1060      -0.9431      -0.5777     264.3628       1.0226
    3892.0    1346.4071       0.0000      50.8611     -50.0820       0.9191      -0.7071      -0.5685     270.4646       1.0226
    3893.0    1350.5738       0.0000      50.8611     -52.3607       1.1209      -0.8874      -0.6845     276.5665       1.0226
    3894.0    1344.9906       0.0000      50.8611     -49.5514       1.1447      -0.8653      -0.7387     282.6814       1.0226
    3895.0    1330.1343       0.0000      50.8611     -50.4247       1.0379      -0.8005      -0.6595     289.1912       1.0226
    3896.0    1333.6382       0.0000      50.8611     -56.5551       1.0644      -0.8874      -0.5869     295.2930       1.0226
    3897.0    1324.5680       0.0000      50.8611     -55.3363       1.2183      -1.0013      -0.6937     301.3949       1.0226
    3898.0    1323.7574       0.0000      50.8611     -47.5941       1.0386      -0.7669      -0.7004     307.4966       1.0226
    3899.0    1309.5369       0.0000      50.8611     -51.7022       1.1296      -0.8808      -0.6978     313.5984       1.0226
    3900.0    1304.9021       0.0000      50.8611     -45.8590       1.1165      -0.7980      -0.7796     319.7083       1.0268
    3901.0    1303.9590       0.0000      50.8611     -51.8903       0.9123      -0.7177      -0.5619     325.8152       1.0226
    3902.0    1310.8537       0.0000      50.8611     -50.0113       0.9512      -0.7267      -0.6120     331.9182       1.0226
    3903.0    1316.5868       0.0000      50.8611     -48.6046       0.9358      -0.7021      -0.6186     338.0188       1.0226
    3904.0    1321.2699       0.0000      50.8611     -52.7618       1.0622      -0.8522      -0.6278     344.1206       1.0226
    3905.0    1322.6281       0.0000      50.8611     -48.5128       1.0473      -0.7824      -0.6937     350.2224       1.0226
    3906.0    1330.7007       0.0000      50.8611     -63.0375       0.9250      -0.8226      -0.4208     356.3322       1.0292
    3907.0    1331.6761       0.0000      50.8611     -48.2946       0.9077      -0.6775      -0.6028       2.8682       1.0292
    3908.0    1337.3162       0.0000      50.8611     -53.1403       0.9660      -0.7734      -0.5777       8.9752       1.0226
    3909.0    1336.7396       0.0000      50.8611     -52.5544       0.8290      -0.6554      -0.5026      15.0646       1.0226
    3910.0    1342.8358       0.0000      50.8611     -52.4376       0.9949      -0.7890      -0.6028      21.1664       1.0226
    3911.0    1351.5834       0.0000      50.8611     -50.6586       0.9606      -0.7423      -0.6094      27.2813       1.0268
    3912.0    1355.9636       0.0000      50.8611     -57.4781       0.8219      -0.6931      -0.4392      33.3709       1.0226
    3913.0    1360.3529       0.0000      50.8611     -54.8162       0.9149      -0.7487      -0.5249      39.4807       1.0292
    3914.0    1363.0856       0.0000      50.8611     -56.0597       0.9440      -0.7824      -0.5276      45.6008       1.0226
    3915.0    1365.2913       0.0000      50.8611     -59.0615       0.8966      -0.7669      -0.4617      51.7026       1.0226
    3916.0    1373.2910       0.0000      50.8611     -61.4660       0.7815      -0.6865      -0.3733      57.8175       1.0226
    3917.0    1380.3355       0.0000      50.8611     -57.5099       0.8353      -0.7021      -0.4484      63.9071       1.0226
    3918.0    1375.8415       0.0000      50.8611     -58.3473       1.0076      -0.8562      -0.5302      70.0100       1.0161
    3919.0    1390.1077       0.0000      50.8611     -51.7070       0.9982      -0.7862      -0.6107      76.2695       1.0226
    3920.0    1395.7176       0.0000      50.8611     -59.7871       0.8631      -0.7423      -0.4367      82.2264       1.0226
    3921.0    1396.3569       0.0000      50.8611     -62.5749       0.9894      -0.8783      -0.4551      88.3413       1.0226
    3922.0    1390.6414       0.0000      50.8611     -69.6750       0.9123      -0.8472      -0.3191      94.4439       1.0268
    3923.0    1395.5510       0.0000      50.8611     -55.0063       0.9361      -0.7669      -0.5368     100.5588       1.0226
    3924.0    1404.0790       0.0000      50.8611     -72.1579       0.7269      -0.6735      -0.2465     106.6625       1.0226
