~VERSION INFORMATION
VERS.           2.0   :CWLS Log ASCII Standard - VERSION 2.0
WRAP.           NO    :One Line per depth step
PROD.  Schlumberger   :LAS Producer
PROG.  DLIS to ASCII 19C2-270                          :LAS Program name and version
CREA.        2017/09/16 17:42                          :LAS Creation date {YYYY/MM/DD hh:mm}
DLIS_CREA.  2017-Sep-15 18:49                          :DLIS Creation date and time {YYYY-MMM-DD hh:mm}
SOURCE.     LPC_S5-1_AV.DLIS                           :DLIS File Name
FILE-ID.     PERFO_Perfo_WPGRT_057LTP                  :File Identification Number
#--------------------------------------------------
~WELL INFORMATION
#MNEM.UNIT      DATA             DESCRIPTION
#---- ------ --------------   -----------------------------
STRT .S         6545.0       :START TIME      
STOP .S         7010.0       :STOP TIME      
STEP .S            1.0       :STEP     
NULL .          -999.25      :NULL VALUE
COMP .        SHELL INTERNATIONAL E P                  :COMPANY
WELL .        WPP TEST 2                               :WELL
FLD  .        WILDCAT                                  :FIELD
LOC  .        NA                                       :LOCATION
CNTY .        HARRIS                                   :COUNTY
STAT .        TEXAS                                    :STATE
CTRY .                                                 :COUNTRY
API  .        NA                                       :API NUMBER
UWI  .                                                 :UNIQUE WELL ID
DATE .        15-Sep-2017                              :LOG DATE {DD-MMM-YYYY}
SRVC .        Schlumberger                             :SERVICE COMPANY
LATI .DEG                                              :LATITUDE
LONG .DEG                                              :LONGITUDE
GDAT .                                                 :GeoDetic Datum
SECT .        NA                                       :Section
RANG .        NA                                       :Range
TOWN .        NA                                       :Township
#-----------------------------------------------------------------------------
~PARAMETER INFORMATION
#MNEM.UNIT    VALUE                      DESCRIPTION
#---- -----   --------------------       ------------------------
U-PHASE_B_COMP_PER_YT.                 0 :Phase B Comparator Period Yt
U-PHASE_A_COMP_PER_XT.                 0 :Phase A Comparator Period Xt
U-MAX_EXC_CUR_LIMIT.MA       240.00000   :Requested CM Current Limit
U-REQ_EXC_FQ.HZ              50          :Requested CM Frequency
U-TILT_Y_OFFSET.           0.19916       :WPTET Tilt Y Offset
U-TILT_Y_GAIN.           1.01796         :WPTET Tilt Y Gain
U-TILT_X_OFFSET.          -1.77103       :WPTET Tilt X Offset
U-TILT_X_GAIN.           1.00000         :WPTET Tilt X Gain
U-TILT_OFFSET_TOL.           0.00100     :WPTET Tilt Offset Calibration Tolerance
U-NO_TILT_CAL_ROTATIONS.                 3 :Number of Rotations for Tilt Calibration
HAZI .DEG        0.00000                 :Hole Azimuth
U-STD_TOL_TILT.           0.01000        :Tilt Standard Deviation Tolerance
U-GUN_POS_TOL.DEG        5.00000         :Gun Position Tolerance
ROT_ANGLE_THRESHOLD.DEG        5.00000   :Rotation Stop Angle Tolerance
STOP_ROT_ANGLE.DEG        0.00000        :Rotation Stop Angle
WITN .        MR. DHRUA ARORA            :Witness's Name
ENGI .        MORRIS MOORE               :Engineer's Name
COUN .        HARRIS                     :County or Rig Name
FN   .        WILDCAT                    :Field Name
WN   .        WPP TEST 2                 :Well Name
CN   .        SHELL INTERNATIONAL E P    :Company Name
CLAB .        County                     :County/Rig Label
SLAB .        State                      :State/Province Label
RUN  .          1                        :RUN NUMBER
PDAT .        GROUND LEVEL               :Permanent Datum
EPD  .                                   :Elevation of Permanent Datum above Mean Sea Level
LMF  .          NA                       :Logging Measured From (Name of Logging Elevation Reference)
APD  .                                   :Elevation of Depth Reference (LMF) above Permanent Datum
#-----------------------------------------------------------------------------
~CURVE INFORMATION
#MNEM.UNIT   API CODE                                  DESCRIPTION
#---- -----  --------                                  -----------------------
TIME .S                                                :TIME {F10.1}
FREQ_EMF_SL.HZ                                         :Electromagnetic Field Frequency {F13.4}
PH_SH_WPPCM_SL.DEG                                     :WPPCM Phase Shift {F13.4}
FREQ_EXC_REQ_SL.HZ                                     :Requested Exciter Frequency {F13.4}
RB_SL.DEG                                              :Relative Bearing {F13.4}
SDEV_SL.DEG                                            :Sonde Deviation {F13.4}
TILX_SL.DEG                                            :X-axis Tilt {F13.4}
TILY_SL.DEG                                            :Y-axis Tilt {F13.4}
ROTA_SL.DEG                                            :Motor Rotation Angle {F13.4}
MSPE_SL.RPM                                            :Motor Speed {F13.4}
#-----------------------------------------------------------------------------
# 
#     TIME    FREQ_EMF_SL  PH_SH_WPPCM_ FREQ_EXC_REQ    RB_SL       SDEV_SL      TILX_SL      TILY_SL      ROTA_SL      MSPE_SL
#                          SL           _SL
~A  
# ...
    6797.0    1240.3423       0.0000      50.8611     -50.0853       0.9745      -0.7476      -0.6235     185.9573       1.0226
    6798.0    1249.1566       0.0000      50.8611     -54.1775       0.9954      -0.8070      -0.5826     192.0592       1.0226
    6799.0    1267.7181       0.0000      50.8611     -53.3018       0.9065      -0.7267      -0.5417     198.1596       1.0213
    6800.0    1298.4360       0.0000      50.8611     -52.1645       0.8753      -0.6913      -0.5368     204.6541       1.0133
    6801.0    1302.9563       0.0000      50.8611     -49.0252       0.8752      -0.6608      -0.5728     210.7698       1.0213
    6802.0    1312.3899       0.0000      50.8611     -51.1186       0.9210      -0.7171      -0.5777     216.8513       1.0226
    6803.0    1328.2594       0.0000      50.8611     -49.1128       0.7967      -0.6014      -0.5221     222.9505       1.0226
    6804.0    1339.9004       0.0000      50.8611     -58.2558       0.8140      -0.6913      -0.4289     229.0551       1.0226
    6805.0    1348.2310       0.0000      50.8611     -49.6325       0.9475      -0.7219      -0.6137     235.1469       1.0146
    6806.0    1356.8079       0.0000      50.8611     -58.2587       0.8385      -0.7130      -0.4411     241.2489       1.0169
    6807.0    1361.6035       0.0000      50.8611     -66.3991       0.8422      -0.7717      -0.3373     247.3630       1.0226
    6808.0    1381.3850       0.0000      50.8611     -51.2655       0.8531      -0.6656      -0.5319     253.4649       1.0226
    6809.0    1387.1632       0.0000      50.8611     -62.3606       0.8945      -0.7926      -0.4142     259.5802       1.0226
    6810.0    1394.7577       0.0000      50.8611     -65.3440       0.8828      -0.8022      -0.3684     265.6950       1.0226
    6811.0    1405.9132       0.0000      50.8611     -60.7078       0.9615      -0.8376      -0.4698     271.7977       1.0226
    6812.0    1417.9345       0.0000      50.8611     -69.2606       0.9825      -0.9179      -0.3471     277.9481       1.0226
    6813.0    1424.0243       0.0000      50.8611     -59.1609       0.8745      -0.7508      -0.4452     284.4194       1.0321
    6814.0    1429.4651       0.0000      50.8611     -59.3073       1.0215      -0.8777      -0.5221     290.5212       1.0226
    6815.0    1443.4335       0.0000      50.8611     -59.4257       0.8728      -0.7508      -0.4403     296.6230       1.0226
    6816.0    1444.5030       0.0000      50.8611     -63.4065       0.9030      -0.8070      -0.4043     302.7380       1.0226
    6817.0    1455.7454       0.0000      50.8611     -61.8340       0.9228      -0.8118      -0.4354     308.8301       1.0226
    6818.0    1463.1997       0.0000      50.8611     -67.5433       0.9755      -0.9010      -0.3725     314.9326       1.0226
    6819.0    1459.8619       0.0000      50.8611     -70.9938       0.9394      -0.8874      -0.3062     321.0334       1.0133
    6820.0    1468.6404       0.0000      50.8611     -60.1095       0.9066      -0.7861      -0.4501     327.1244       1.0226
    6821.0    1483.0114       0.0000      50.8611     -64.1149       1.0311      -0.9275      -0.4501     333.2139       1.0239
    6822.0    1481.0143       0.0000      50.8611     -66.0282       1.1084      -1.0127      -0.4501     339.3288       1.0239
    6823.0    1490.0512       0.0000      50.8611     -63.8760       1.0223      -0.9179      -0.4501     345.4437       1.0226
    6824.0    1486.1458       0.0000      50.8611     -59.2211       1.1690      -1.0030      -0.5990     351.5818       1.0226
    6825.0    1488.1694       0.0000      50.8611     -62.3263       1.0583      -0.9372      -0.4910     358.0319       1.0321
    6826.0    1483.3861       0.0000      50.8611     -61.5463       1.1065      -0.9725      -0.5270       4.1441       1.0321
    6827.0    1465.9493       0.0000      50.8611     -58.2988       1.1390      -0.9677      -0.5990      10.2371       1.0226
    6828.0    1473.6866       0.0000      50.8611     -62.1063       1.0496      -0.9275      -0.4910      16.3504       1.0226
    6829.0    1471.7146       0.0000      50.8611     -61.9875       1.0669      -0.9420      -0.5008      22.4522       1.0226
    6830.0    1470.2374       0.0000      50.8611     -64.9000       1.1198      -1.0127      -0.4759      28.5556       1.0321
    6831.0    1455.0250       0.0000      50.8611     -57.5864       1.2783      -1.0786      -0.6857      34.6704       1.0321
    6832.0    1455.0250       0.0000      50.8611     -56.8006       1.2045      -1.0079      -0.6595      40.7715       1.0226
    6833.0    1440.8298       0.0000      50.8611     -60.8836       1.1133      -0.9725      -0.5417      46.8737       1.0226
    6834.0    1429.1158       0.0000      50.8611     -52.0176       1.1129      -0.8761      -0.6808      52.9755       1.0226
    6835.0    1421.4939       0.0000      50.8611     -39.7957       0.9719      -0.6239      -0.7282      59.0283       1.0226
    6836.0    1417.5908       0.0000      50.8611     -50.6324       1.2015      -0.9275      -0.7625      64.8329       1.0226
    6837.0    1402.4406       0.0000      50.8611     -58.8674       1.1669      -0.9982      -0.6039      71.2813       1.0226
    6838.0    1390.5696       0.0000      50.8611     -53.0243       1.1049      -0.8825      -0.6644      77.3963       1.0226
    6839.0    1380.7362       0.0000      50.8611     -51.9138       1.1086      -0.8713      -0.6808      83.4981       1.0226
    6840.0    1371.6973       0.0000      50.8611     -59.3396       1.2060      -1.0352      -0.6022      89.5998       1.0213
    6841.0    1359.6947       0.0000      50.8611     -35.3061       0.9971      -0.5757      -0.8132      95.7023       1.0213
    6842.0    1334.3551       0.0000      50.8611     -47.5108       1.1226      -0.8251      -0.7564     101.7918       1.0226
    6843.0    1328.2594       0.0000      50.8611     -48.2358       1.1620      -0.8665      -0.7723     107.8935       1.0226
    6844.0    1311.5072       0.0000      50.8611     -49.0799       1.0216      -0.7717      -0.6693     113.9957       1.0226
    6845.0    1290.7078       0.0000      50.8611     -49.9270       1.1218      -0.8568      -0.7216     120.0975       1.0226
    6846.0    1272.6776       0.0000      50.8611     -50.4031       1.0320      -0.7958      -0.6546     126.1993       1.0226
    6847.0    1253.7202       0.0000      50.8611     -63.0320       1.1263      -1.0030      -0.5107     132.3146       1.0321
    6848.0    1238.1581       0.0000      50.8611     -43.1947       1.0102      -0.6913      -0.7364     138.4039       1.0226
    6849.0    1227.3517       0.0000      50.8611     -42.8102       0.9197      -0.6255      -0.6742     144.9142       1.0321
    6850.0    1218.3345       0.0000      50.8611     -51.0369       1.1159      -0.8681      -0.7004     151.0161       1.0226
    6851.0    1211.0412       0.0000      50.8611     -50.3664       1.0418      -0.8022      -0.6644     157.1180       1.0213
    6852.0    1211.7846       0.0000      50.8611     -54.3221       0.9451      -0.7669      -0.5515     163.2075       1.0226
    6853.0    1211.2046       0.0000      50.8611     -53.8841       0.9114      -0.7363      -0.5368     169.3094       1.0226
    6854.0    1216.9861       0.0000      50.8611     -51.7971       0.9428      -0.7412      -0.5826     175.4248       1.0226
    6855.0    1227.0942       0.0000      50.8611     -48.0647       1.0254      -0.7620      -0.6857     181.5267       1.0226
    6856.0    1228.1294       0.0000      50.8611     -49.8799       0.9041      -0.6913      -0.5826     187.6286       1.0226
    6857.0    1249.4242       0.0000      50.8611     -49.8799       0.9041      -0.6913      -0.5826     193.7301       1.0226
    6858.0    1271.1983       0.0000      50.8611     -49.7139       0.8936      -0.6817      -0.5777     199.8324       1.0226
    6859.0    1286.3725       0.0000      50.8611     -50.9878       0.8045      -0.6255      -0.5058     205.9473       1.0226
