~VERSION INFORMATION
VERS.           2.0   :CWLS Log ASCII Standard - VERSION 2.0
WRAP.           NO    :One Line per depth step
PROD.  Schlumberger   :LAS Producer
PROG.  DLIS to ASCII 19C2-270                          :LAS Program name and version
CREA.        2017/09/16 17:42                          :LAS Creation date {YYYY/MM/DD hh:mm}
DLIS_CREA.  2017-Sep-15 16:01                          :DLIS Creation date and time {YYYY-MMM-DD hh:mm}
SOURCE.     LPC_S3-1_A5.DLIS                           :DLIS File Name
FILE-ID.     PERFO_Perfo_WPGRT_038LTP                  :File Identification Number
#--------------------------------------------------
~WELL INFORMATION
#MNEM.UNIT      DATA             DESCRIPTION
#---- ------ --------------   -----------------------------
STRT .S         1883.0       :START TIME      
STOP .S         2380.0       :STOP TIME      
STEP .S            1.0       :STEP     
NULL .          -999.25      :NULL VALUE
COMP .        SHELL INTERNATIONAL E P                  :COMPANY
WELL .        WPP TEST 2                               :WELL
FLD  .        WILDCAT                                  :FIELD
LOC  .                                                 :LOCATION
CNTY .        HARRIS                                   :COUNTY
STAT .        TEXAS                                    :STATE
CTRY .                                                 :COUNTRY
API  .                                                 :API NUMBER
UWI  .                                                 :UNIQUE WELL ID
DATE .                                                 :LOG DATE
SRVC .        Schlumberger                             :SERVICE COMPANY
LATI .DEG                                              :LATITUDE
LONG .DEG                                              :LONGITUDE
GDAT .                                                 :GeoDetic Datum
#-----------------------------------------------------------------------------
~PARAMETER INFORMATION
#MNEM.UNIT    VALUE                      DESCRIPTION
#---- -----   --------------------       ------------------------
U-PHASE_B_COMP_PER_YT.                 0 :Phase B Comparator Period Yt
U-PHASE_A_COMP_PER_XT.                 0 :Phase A Comparator Period Xt
U-MAX_EXC_CUR_LIMIT.MA       240.00000   :Requested CM Current Limit
U-REQ_EXC_FQ.HZ              50          :Requested CM Frequency
U-TILT_Y_OFFSET.           0.19916       :WPTET Tilt Y Offset
U-TILT_Y_GAIN.           1.01796         :WPTET Tilt Y Gain
U-TILT_X_OFFSET.          -1.77103       :WPTET Tilt X Offset
U-TILT_X_GAIN.           1.00000         :WPTET Tilt X Gain
U-TILT_OFFSET_TOL.           0.00100     :WPTET Tilt Offset Calibration Tolerance
U-NO_TILT_CAL_ROTATIONS.                 3 :Number of Rotations for Tilt Calibration
HAZI .DEG        0.00000                 :Hole Azimuth
U-STD_TOL_TILT.           0.01000        :Tilt Standard Deviation Tolerance
U-GUN_POS_TOL.DEG        5.00000         :Gun Position Tolerance
ROT_ANGLE_THRESHOLD.DEG        5.00000   :Rotation Stop Angle Tolerance
STOP_ROT_ANGLE.DEG        0.00000        :Rotation Stop Angle
WITN .                                   :Witness's Name
ENGI .                                   :Engineer's Name
COUN .        HARRIS                     :County or Rig Name
FN   .        WILDCAT                    :Field Name
WN   .        WPP TEST 2                 :Well Name
CN   .        SHELL INTERNATIONAL E P    :Company Name
CLAB .        County                     :County/Rig Label
SLAB .        State                      :State/Province Label
RUN  .          1                        :RUN NUMBER
PDAT .        GROUND LEVEL               :Permanent Datum
EPD  .                                   :Elevation of Permanent Datum above Mean Sea Level
LMF  .                                   :Logging Measured From (Name of Logging Elevation Reference)
APD  .                                   :Elevation of Depth Reference (LMF) above Permanent Datum
#-----------------------------------------------------------------------------
~CURVE INFORMATION
#MNEM.UNIT   API CODE                                  DESCRIPTION
#---- -----  --------                                  -----------------------
TIME .S                                                :TIME {F10.1}
FREQ_EMF_SL.HZ                                         :Electromagnetic Field Frequency {F13.4}
PH_SH_WPPCM_SL.DEG                                     :WPPCM Phase Shift {F13.4}
FREQ_EXC_REQ_SL.HZ                                     :Requested Exciter Frequency {F13.4}
RB_SL.DEG                                              :Relative Bearing {F13.4}
SDEV_SL.DEG                                            :Sonde Deviation {F13.4}
TILX_SL.DEG                                            :X-axis Tilt {F13.4}
TILY_SL.DEG                                            :Y-axis Tilt {F13.4}
ROTA_SL.DEG                                            :Motor Rotation Angle {F13.4}
MSPE_SL.RPM                                            :Motor Speed {F13.4}
#-----------------------------------------------------------------------------
# 
#     TIME    FREQ_EMF_SL  PH_SH_WPPCM_ FREQ_EXC_REQ    RB_SL       SDEV_SL      TILX_SL      TILY_SL      ROTA_SL      MSPE_SL
#                          SL           _SL
~A  
# ...
    2072.0    1538.0545       0.0000      50.8611     147.4436       3.4799       1.8719       2.9324      48.5364       0.0005
    2073.0    1538.0545       0.0000      50.8611     147.0780       3.4455       1.8719       2.8915      48.5364       0.0005
    2074.0    1536.2342       0.0000      50.8611     145.7920       3.4631       1.9461       2.8631      48.5364       0.0005
    2075.0    1535.7197       0.0000      50.8611     146.7071       3.5579       1.9522       2.9733      48.5364       0.0005
    2076.0    1538.0545       0.0000      50.8611     147.4109       3.5632       1.9182       3.0017      48.5364       0.0005
    2077.0    1538.5668       0.0000      50.8611     146.4773       3.4351       1.8964       2.8631      48.5364       0.0005
    2078.0    1535.2074       0.0000      50.8611     147.7775       3.4189       1.8222       2.8915      48.5364       0.0005
    2079.0    1535.7197       0.0000      50.8611     145.8594       3.5018       1.9645       2.8978      48.5364       0.0005
    2080.0    1534.6973       0.0000      50.8611     147.0780       3.4455       1.8719       2.8915      48.5364       0.0005
    2081.0    1536.7510       0.0000      50.8611     148.4074       3.4029       1.7820       2.8978      48.5364       0.0005
    2082.0    1537.1417       0.0000      50.8611     147.1867       3.4871       1.8889       2.9300      48.5364       0.0005
    2083.0    1540.4039       0.0000      50.8611     147.5763       3.4750       1.8624       2.9324      48.5364       0.0005
    2084.0    1539.0813       0.0000      50.8611     146.2005       3.5220       1.9583       2.9262      48.5364       0.0005
    2085.0    1538.0545       0.0000      50.8611     146.0309       3.4454       1.9243       2.8569      48.5364       0.0005
    2086.0    1539.0813       0.0000      50.8611     147.8348       3.4241       1.8222       2.8978      48.5364       0.0005
    2087.0    1538.0545       0.0000      50.8611     146.4346       3.4708       1.9182       2.8915      48.5364       0.0005
    2088.0    1541.9408       0.0000      50.8611     145.7064       3.4664       1.9522       2.8631      48.5364       0.0005
    2089.0    1536.2342       0.0000      50.8611     148.0917       3.4141       1.8038       2.8978      48.5364       0.0005
    2090.0    1534.6973       0.0000      50.8611     147.0926       3.4303       1.8624       2.8791      48.5364       0.0005
    2091.0    1546.6708       0.0000      50.8611     147.7159       3.5176       1.8780       2.9733      48.5364       0.0005
    2092.0    1539.0813       0.0000      50.8611     147.6606       3.5124       1.8780       2.9671      48.5364       0.0005
    2093.0    1536.2342       0.0000      50.8611     146.2005       3.5220       1.9583       2.9262      48.5364       0.0005
    2094.0    1538.7681       0.0000      50.8611     146.2473       3.4233       1.9012       2.8458      48.5364       0.0005
    2095.0    1541.9408       0.0000      50.8611     146.1728       3.4472       1.9182       2.8631      48.5364       0.0005
    2096.0    1535.7197       0.0000      50.8611     147.8445       3.5536       1.8903       3.0080      48.5364       0.0005
    2097.0    1533.9165       0.0000      50.8611     147.4121       3.4884       1.8780       2.9387      48.5364       0.0005
    2098.0    1538.0545       0.0000      50.8611     147.2693       3.4457       1.8624       2.8978      48.5364       0.0005
    2099.0    1537.5444       0.0000      50.8611     147.2115       3.4405       1.8624       2.8915      48.5364       0.0005
    2100.0    1538.5668       0.0000      50.8611     147.0210       3.4402       1.8719       2.8853      48.5364       0.0005
    2101.0    1533.3997       0.0000      50.8611     146.6019       3.4865       1.9182       2.9102      48.5364       0.0005
    2102.0    1535.2074       0.0000      50.8611     146.2585       3.4439       1.9121       2.8631      48.5364       0.0005
    2103.0    1535.2074       0.0000      50.8611     147.8625       3.4155       1.8161       2.8915      48.5364       0.0005
    2104.0    1536.2342       0.0000      50.8611     147.2429       3.4950       1.8903       2.9387      48.5364       0.0005
    2105.0    1535.7197       0.0000      50.8611     147.6203       3.4735       1.8596       2.9324      48.5364       0.0005
    2106.0    1539.0813       0.0000      50.8611     146.4703       3.4713       1.9167       2.8931      48.5364       0.0005
    2107.0    1532.8851       0.0000      50.8611     147.8001       3.4734       1.8501       2.9387      48.5364       0.0005
    2108.0    1538.0545       0.0000      50.8611     145.7093       3.3672       1.8964       2.7813      48.5364       0.0005
    2109.0    1538.0545       0.0000      50.8611     148.1011       3.5029       1.8501       2.9733      48.5364       0.0005
    2110.0    1540.9140       0.0000      50.8611     147.9021       3.5365       1.8780       2.9955      48.5364       0.0005
    2111.0    1536.2342       0.0000      50.8611     147.2923       3.3621       1.8161       2.8285      48.5364       0.0005
    2112.0    1535.2074       0.0000      50.8611     146.2656       3.4777       1.9304       2.8915      48.5364       0.0005
    2113.0    1537.5444       0.0000      50.8611     146.1170       3.4644       1.9304       2.8756      48.5364       0.0005
    2114.0    1535.7197       0.0000      50.8611     147.5186       3.4698       1.8624       2.9262      48.5364       0.0005
    2115.0    1539.0813       0.0000      50.8611     148.1011       3.5029       1.8501       2.9733      48.5364       0.0005
    2116.0    1535.2074       0.0000      50.8611     145.9988       3.4316       1.9182       2.8444      48.5364       0.0005
    2117.0    1537.5444       0.0000      50.8611     146.9448       3.5069       1.9121       2.9387      48.5364       0.0005
    2118.0    1536.6216       0.0000      50.8611     147.5959       3.4685       1.8578       2.9277      48.5364       0.0005
    2119.0    1536.2342       0.0000      50.8611     146.9448       3.5069       1.9121       2.9387      48.5364       0.0005
    2120.0    1540.9140       0.0000      50.8611     146.7470       3.4998       1.9182       2.9262      48.5364       0.0005
    2121.0    1534.6973       0.0000      50.8611     147.0471       3.4540       1.8780       2.8978      48.5364       0.0005
    2122.0    1538.5668       0.0000      50.8611     146.9448       3.5069       1.9121       2.9387      48.5364       0.0005
    2123.0    1533.3997       0.0000      50.8611     146.8848       3.5240       1.9243       2.9511      48.5364       0.0005
    2124.0    1541.4263       0.0000      50.8611     148.6986       3.4991       1.8161       2.9893      48.5364       0.0005
    2125.0    1538.0545       0.0000      50.8611     143.8109       3.7430       2.2157       3.0114      48.5364       0.0005
    2126.0    1535.2074       0.0000      50.8611     147.4552       3.6028       1.9366       3.0364      48.5364       0.0005
    2127.0    1536.2342       0.0000      50.8611     146.4439       3.4553       1.9114       2.8756      48.5364       0.0005
    2128.0    1538.0545       0.0000      50.8611     146.9306       3.4600       1.8876       2.8978      48.5364       0.0005
    2129.0    1538.5668       0.0000      50.8611     147.1375       3.6264       1.9645       3.0461      48.5364       0.0005
    2130.0    1538.5668       0.0000      50.8611     145.9335       3.4651       1.9400       2.8693      48.5364       0.0005
    2131.0    1538.0545       0.0000      50.8611     142.2985       3.5721       2.1844       2.8222      48.5364       0.0005
    2132.0    1538.5668       0.0000      50.8611     147.5376       3.5993       1.9304       3.0364      48.5364       0.0005
    2133.0    1536.2342       0.0000      50.8611     145.9888       3.4205       1.9121       2.8347      48.5364       0.0005
    2134.0    1533.3997       0.0000      50.8611     147.2495       3.2958       1.7820       2.7716      48.5364       0.0005
