~VERSION INFORMATION
VERS.           2.0   :CWLS Log ASCII Standard - VERSION 2.0
WRAP.           NO    :One Line per depth step
PROD.  Schlumberger   :LAS Producer
PROG.  DLIS to ASCII 19C2-270                          :LAS Program name and version
CREA.        2017/09/16 17:42                          :LAS Creation date {YYYY/MM/DD hh:mm}
DLIS_CREA.  2017-Sep-15 13:58                          :DLIS Creation date and time {YYYY-MMM-DD hh:mm}
SOURCE.     LPC_S1-1_2BV.DLIS                          :DLIS File Name
FILE-ID.     PERFO_Perfo_WPGRT_027LTP                  :File Identification Number
#--------------------------------------------------
~WELL INFORMATION
#MNEM.UNIT      DATA             DESCRIPTION
#---- ------ --------------   -----------------------------
STRT .S        11467.0       :START TIME      
STOP .S        11862.0       :STOP TIME      
STEP .S            1.0       :STEP     
NULL .          -999.25      :NULL VALUE
COMP .        SHELL INTERNATIONAL E P                  :COMPANY
WELL .        WPP TEST 2                               :WELL
FLD  .        WILDCAT                                  :FIELD
LOC  .                                                 :LOCATION
CNTY .        HARRIS                                   :COUNTY
STAT .        TEXAS                                    :STATE
CTRY .                                                 :COUNTRY
API  .                                                 :API NUMBER
UWI  .                                                 :UNIQUE WELL ID
DATE .                                                 :LOG DATE
SRVC .        Schlumberger                             :SERVICE COMPANY
LATI .DEG                                              :LATITUDE
LONG .DEG                                              :LONGITUDE
GDAT .                                                 :GeoDetic Datum
#-----------------------------------------------------------------------------
~PARAMETER INFORMATION
#MNEM.UNIT    VALUE                      DESCRIPTION
#---- -----   --------------------       ------------------------
U-PHASE_B_COMP_PER_YT.                 0 :Phase B Comparator Period Yt
U-PHASE_A_COMP_PER_XT.                 0 :Phase A Comparator Period Xt
U-MAX_EXC_CUR_LIMIT.MA       240.00000   :Requested CM Current Limit
U-REQ_EXC_FQ.HZ              50          :Requested CM Frequency
U-TILT_Y_OFFSET.           0.19916       :WPTET Tilt Y Offset
U-TILT_Y_GAIN.           1.01796         :WPTET Tilt Y Gain
U-TILT_X_OFFSET.          -1.77103       :WPTET Tilt X Offset
U-TILT_X_GAIN.           1.00000         :WPTET Tilt X Gain
U-TILT_OFFSET_TOL.           0.00100     :WPTET Tilt Offset Calibration Tolerance
U-NO_TILT_CAL_ROTATIONS.                 3 :Number of Rotations for Tilt Calibration
HAZI .DEG        0.00000                 :Hole Azimuth
U-STD_TOL_TILT.           0.01000        :Tilt Standard Deviation Tolerance
U-GUN_POS_TOL.DEG        5.00000         :Gun Position Tolerance
ROT_ANGLE_THRESHOLD.DEG        5.00000   :Rotation Stop Angle Tolerance
STOP_ROT_ANGLE.DEG       80.00000        :Rotation Stop Angle
WITN .                                   :Witness's Name
ENGI .                                   :Engineer's Name
COUN .        HARRIS                     :County or Rig Name
FN   .        WILDCAT                    :Field Name
WN   .        WPP TEST 2                 :Well Name
CN   .        SHELL INTERNATIONAL E P    :Company Name
CLAB .        County                     :County/Rig Label
SLAB .        State                      :State/Province Label
RUN  .          1                        :RUN NUMBER
PDAT .        GROUND LEVEL               :Permanent Datum
EPD  .                                   :Elevation of Permanent Datum above Mean Sea Level
LMF  .                                   :Logging Measured From (Name of Logging Elevation Reference)
APD  .                                   :Elevation of Depth Reference (LMF) above Permanent Datum
#-----------------------------------------------------------------------------
~CURVE INFORMATION
#MNEM.UNIT   API CODE                                  DESCRIPTION
#---- -----  --------                                  -----------------------
TIME .S                                                :TIME {F10.1}
FREQ_EMF_SL.HZ                                         :Electromagnetic Field Frequency {F13.4}
PH_SH_WPPCM_SL.DEG                                     :WPPCM Phase Shift {F13.4}
FREQ_EXC_REQ_SL.HZ                                     :Requested Exciter Frequency {F13.4}
RB_SL.DEG                                              :Relative Bearing {F13.4}
SDEV_SL.DEG                                            :Sonde Deviation {F13.4}
TILX_SL.DEG                                            :X-axis Tilt {F13.4}
TILY_SL.DEG                                            :Y-axis Tilt {F13.4}
ROTA_SL.DEG                                            :Motor Rotation Angle {F13.4}
MSPE_SL.RPM                                            :Motor Speed {F13.4}
#-----------------------------------------------------------------------------
# 
#     TIME    FREQ_EMF_SL  PH_SH_WPPCM_ FREQ_EXC_REQ    RB_SL       SDEV_SL      TILX_SL      TILY_SL      ROTA_SL      MSPE_SL
#                          SL           _SL
~A  
# ...
   11656.0    1458.7655       0.0000      50.8611     -63.0740       0.8609      -0.7657      -0.3919     102.8823       0.0005
   11657.0    1457.4039       0.0000      50.8611     -56.4982       1.0121      -0.8448      -0.5567     102.8823       0.0005
   11658.0    1464.8438       0.0000      50.8611     -48.3635       1.0668      -0.8022      -0.6992     102.8823       0.0005
   11659.0    1461.6413       0.0000      50.8611     -50.6991       0.9083      -0.6829      -0.5914     102.8823       0.0005
   11660.0    1452.7377       0.0000      50.8611     -62.1711       0.8858      -0.7669      -0.4191     102.8823       0.0005
   11661.0    1462.1670       0.0000      50.8611     -57.0212       1.0112      -0.8448      -0.5542     102.8823       0.0005
   11662.0    1458.7655       0.0000      50.8611     -60.2688       0.9519      -0.8253      -0.4737     102.8823       0.0005
   11663.0    1460.3274       0.0000      50.8611     -52.2803       0.8437      -0.6670      -0.5158     102.8823       0.0005
   11664.0    1458.7655       0.0000      50.8611     -52.6517       0.9959      -0.7851      -0.6012     102.8823       0.0005
   11665.0    1460.2364       0.0000      50.8611     -59.6782       0.8355      -0.7231      -0.4142     102.8823       0.0005
   11666.0    1458.6811       0.0000      50.8611     -55.2528       0.9400      -0.7681      -0.5344     102.8823       0.0005
   11667.0    1461.8958       0.0000      50.8611     -55.3924       0.9822      -0.8082      -0.5567     102.8823       0.0005
   11668.0    1463.3667       0.0000      50.8611     -54.6371       0.9646      -0.7863      -0.5579     102.8823       0.0005
   11669.0    1457.3007       0.0000      50.8611     -55.4444       1.0541      -0.8679      -0.5975     102.8823       0.0005
   11670.0    1460.3274       0.0000      50.8611     -61.6051       0.9628      -0.8460      -0.4563     102.8823       0.0005
   11671.0    1458.7655       0.0000      50.8611     -60.0563       0.9101      -0.7875      -0.4538     102.8823       0.0005
   11672.0    1458.7655       0.0000      50.8611     -55.5534       0.8830      -0.7291      -0.4959     102.8823       0.0005
   11673.0    1460.1581       0.0000      50.8611     -59.8021       0.8649      -0.7474      -0.4352     102.8823       0.0005
   11674.0    1455.7454       0.0000      50.8611     -63.4205       0.8808      -0.7875      -0.3943     102.8823       0.0005
   11675.0    1460.4310       0.0000      50.8611     -63.3963       0.8819      -0.7887      -0.3943     102.8823       0.0005
   11676.0    1463.2754       0.0000      50.8611     -61.2638       0.9009      -0.7875      -0.4328     105.1124       0.5958
   11677.0    1461.7135       0.0000      50.8611     -58.2174       0.9048      -0.7669      -0.4773     109.5416       0.8805
   11678.0    1451.2849       0.0000      50.8611     -65.2065       0.8914      -0.8082      -0.3720     115.3493       1.0226
   11679.0    1457.3007       0.0000      50.8611     -59.5028       0.9382      -0.8082      -0.4749     121.4460       1.0175
   11680.0    1460.3274       0.0000      50.8611     -61.2709       1.0352      -0.9068      -0.4972     127.9465       1.0226
   11681.0    1458.6091       0.0000      50.8611     -68.2905       0.9554      -0.8874      -0.3534     134.0424       1.0172
   11682.0    1439.3124       0.0000      50.8611     -66.6885       0.9437      -0.8667      -0.3733     140.1547       1.0172
   11683.0    1433.6311       0.0000      50.8611     -66.4464       0.9450      -0.8655      -0.3745     146.2507       1.0175
   11684.0    1436.4602       0.0000      50.8611     -66.1151       0.9707      -0.8874      -0.3931     152.3337       1.0226
   11685.0    1421.8491       0.0000      50.8611     -62.8467       0.9537      -0.8484      -0.4340     158.4355       1.0226
   11686.0    1410.5254       0.0000      50.8611     -62.9378       0.9958      -0.8862      -0.4538     164.5315       1.0172
   11687.0    1403.4431       0.0000      50.8611     -66.5747       0.9899      -0.9080      -0.3931     170.6270       1.0226
   11688.0    1386.8344       0.0000      50.8611     -67.6082       1.0886      -1.0067      -0.4142     176.7288       1.0226
   11689.0    1386.8344       0.0000      50.8611     -64.7973       1.0276      -0.9299      -0.4340     182.8246       1.0172
   11690.0    1367.9475       0.0000      50.8611     -65.8150       1.0622      -0.9689      -0.4352     188.9202       1.0226
   11691.0    1355.9106       0.0000      50.8611     -65.2872       1.0898      -0.9896      -0.4563     195.0222       1.0226
   11692.0    1322.9454       0.0000      50.8611     -62.3851       1.4367      -1.2671      -0.6632     201.5289       1.0226
   11693.0    1298.5135       0.0000      50.8611     -59.4877       1.0995      -0.9470      -0.5579     207.6339       1.0226
   11694.0    1268.2316       0.0000      50.8611     -66.7999       1.1236      -1.0358      -0.4129     213.7359       1.0226
   11695.0    1251.1829       0.0000      50.8611     -55.3719       1.0617      -0.8789      -0.5591     219.8317       1.0172
   11696.0    1232.5773       0.0000      50.8611     -62.8816       1.2240      -1.0894      -0.5579     225.9272       1.0226
   11697.0    1210.2640       0.0000      50.8611     -63.2920       1.2427      -1.1101      -0.5567     232.0423       1.0226
   11698.0    1190.6988       0.0000      50.8611     -60.8733       1.0621      -0.9275      -0.5170     238.1383       1.0172
   11699.0    1178.6696       0.0000      50.8611     -59.6405       1.1479      -0.9872      -0.5802     244.2338       1.0226
   11700.0    1168.0432       0.0000      50.8611     -57.7732       1.1212      -0.9482      -0.5975     250.3356       1.0226
   11701.0    1157.5699       0.0000      50.8611     -59.3914       1.2161      -1.0468      -0.6186     256.4253       1.0226
   11702.0    1152.6103       0.0000      50.8611     -57.3461       1.1477      -0.9665      -0.6186     262.5270       1.0226
   11703.0    1142.2871       0.0000      50.8611     -54.8553       1.1854      -0.9701      -0.6805     268.6286       1.0226
   11704.0    1135.0770       0.0000      50.8611     -56.0201       1.1422      -0.9470      -0.6384     275.1383       1.0226
   11705.0    1143.3515       0.0000      50.8611     -62.4664       1.0688      -0.9470      -0.4947     281.2464       1.0278
   11706.0    1146.0607       0.0000      50.8611     -55.1096       1.1556      -0.9470      -0.6607     287.3424       1.0226
   11707.0    1151.5977       0.0000      50.8611     -52.8989       1.0640      -0.8496      -0.6397     293.4410       1.0226
   11708.0    1144.2516       0.0000      50.8611     -54.8137       1.0369      -0.8472      -0.5975     299.5457       1.0226
   11709.0    1155.5978       0.0000      50.8611     -52.4225       1.1469      -0.9080      -0.6992     305.6352       1.0226
   11710.0    1163.1810       0.0000      50.8611     -51.2347       1.0868      -0.8472      -0.6805     311.7368       1.0226
   11711.0    1171.7708       0.0000      50.8611     -54.2951       1.0220      -0.8277      -0.5963     317.8384       1.0226
   11712.0    1183.6557       0.0000      50.8611     -51.9257       0.9729      -0.7657      -0.5988     323.9402       1.0278
   11713.0    1203.8716       0.0000      50.8611     -56.4194       1.0429      -0.8679      -0.5765     330.0579       1.0226
   11714.0    1216.4792       0.0000      50.8611     -54.3907       0.9938      -0.8070      -0.5789     336.1629       1.0281
   11715.0    1239.0937       0.0000      50.8611     -53.1532       1.0050      -0.8046      -0.5988     342.2589       1.0226
   11716.0    1264.6134       0.0000      50.8611     -50.1018       1.0011      -0.7693      -0.6397     348.7688       1.0226
   11717.0    1287.6505       0.0000      50.8611     -51.6098       1.0299      -0.8070      -0.6397     354.8704       1.0226
   11718.0    1314.2523       0.0000      50.8611     -49.9781       0.9966      -0.7644      -0.6384       0.9850       1.0281
