~VERSION INFORMATION
VERS.           2.0   :CWLS Log ASCII Standard - VERSION 2.0
WRAP.           NO    :One Line per depth step
PROD.  Schlumberger   :LAS Producer
PROG.  DLIS to ASCII 19C2-270                          :LAS Program name and version
CREA.        2017/09/16 17:42                          :LAS Creation date {YYYY/MM/DD hh:mm}
DLIS_CREA.  2017-Sep-15 17:44                          :DLIS Creation date and time {YYYY-MMM-DD hh:mm}
SOURCE.     LPC_S4-1_B5.DLIS                           :DLIS File Name
FILE-ID.     PERFO_Perfo_WPGRT_050LTP                  :File Identification Number
#--------------------------------------------------
~WELL INFORMATION
#MNEM.UNIT      DATA             DESCRIPTION
#---- ------ --------------   -----------------------------
STRT .S         2640.0       :START TIME      
STOP .S         3106.0       :STOP TIME      
STEP .S            1.0       :STEP     
NULL .          -999.25      :NULL VALUE
COMP .        SHELL INTERNATIONAL E P                  :COMPANY
WELL .        WPP TEST 2                               :WELL
FLD  .        WILDCAT                                  :FIELD
LOC  .        NA                                       :LOCATION
CNTY .        HARRIS                                   :COUNTY
STAT .        TEXAS                                    :STATE
CTRY .                                                 :COUNTRY
API  .        NA                                       :API NUMBER
UWI  .                                                 :UNIQUE WELL ID
DATE .        15-Sep-2017                              :LOG DATE {DD-MMM-YYYY}
SRVC .        Schlumberger                             :SERVICE COMPANY
LATI .DEG                                              :LATITUDE
LONG .DEG                                              :LONGITUDE
GDAT .                                                 :GeoDetic Datum
SECT .        NA                                       :Section
RANG .        NA                                       :Range
TOWN .        NA                                       :Township
#-----------------------------------------------------------------------------
~PARAMETER INFORMATION
#MNEM.UNIT    VALUE                      DESCRIPTION
#---- -----   --------------------       ------------------------
U-PHASE_B_COMP_PER_YT.                 0 :Phase B Comparator Period Yt
U-PHASE_A_COMP_PER_XT.                 0 :Phase A Comparator Period Xt
U-MAX_EXC_CUR_LIMIT.MA       240.00000   :Requested CM Current Limit
U-REQ_EXC_FQ.HZ              50          :Requested CM Frequency
U-TILT_Y_OFFSET.           0.19916       :WPTET Tilt Y Offset
U-TILT_Y_GAIN.           1.01796         :WPTET Tilt Y Gain
U-TILT_X_OFFSET.          -1.77103       :WPTET Tilt X Offset
U-TILT_X_GAIN.           1.00000         :WPTET Tilt X Gain
U-TILT_OFFSET_TOL.           0.00100     :WPTET Tilt Offset Calibration Tolerance
U-NO_TILT_CAL_ROTATIONS.                 3 :Number of Rotations for Tilt Calibration
HAZI .DEG        0.00000                 :Hole Azimuth
U-STD_TOL_TILT.           0.01000        :Tilt Standard Deviation Tolerance
U-GUN_POS_TOL.DEG        5.00000         :Gun Position Tolerance
ROT_ANGLE_THRESHOLD.DEG        5.00000   :Rotation Stop Angle Tolerance
STOP_ROT_ANGLE.DEG        0.00000        :Rotation Stop Angle
WITN .        MR. DHRUA ARORA            :Witness's Name
ENGI .        MORRIS MOORE               :Engineer's Name
COUN .        HARRIS                     :County or Rig Name
FN   .        WILDCAT                    :Field Name
WN   .        WPP TEST 2                 :Well Name
CN   .        SHELL INTERNATIONAL E P    :Company Name
CLAB .        County                     :County/Rig Label
SLAB .        State                      :State/Province Label
RUN  .          1                        :RUN NUMBER
PDAT .        GROUND LEVEL               :Permanent Datum
EPD  .                                   :Elevation of Permanent Datum above Mean Sea Level
LMF  .          NA                       :Logging Measured From (Name of Logging Elevation Reference)
APD  .                                   :Elevation of Depth Reference (LMF) above Permanent Datum
#-----------------------------------------------------------------------------
~CURVE INFORMATION
#MNEM.UNIT   API CODE                                  DESCRIPTION
#---- -----  --------                                  -----------------------
TIME .S                                                :TIME {F10.1}
FREQ_EMF_SL.HZ                                         :Electromagnetic Field Frequency {F13.4}
PH_SH_WPPCM_SL.DEG                                     :WPPCM Phase Shift {F13.4}
FREQ_EXC_REQ_SL.HZ                                     :Requested Exciter Frequency {F13.4}
RB_SL.DEG                                              :Relative Bearing {F13.4}
SDEV_SL.DEG                                            :Sonde Deviation {F13.4}
TILX_SL.DEG                                            :X-axis Tilt {F13.4}
TILY_SL.DEG                                            :Y-axis Tilt {F13.4}
ROTA_SL.DEG                                            :Motor Rotation Angle {F13.4}
MSPE_SL.RPM                                            :Motor Speed {F13.4}
#-----------------------------------------------------------------------------
# 
#     TIME    FREQ_EMF_SL  PH_SH_WPPCM_ FREQ_EXC_REQ    RB_SL       SDEV_SL      TILX_SL      TILY_SL      ROTA_SL      MSPE_SL
#                          SL           _SL
~A  
# ...
    2829.0    1766.6456       0.0000      50.8611     126.5095       3.2182       2.5860       1.9142     162.2949       0.0005
    2830.0    1769.2756       0.0000      50.8611     125.3603       3.1139       2.5385       1.8012     162.2949       0.0005
    2831.0    1768.7483       0.0000      50.8611     124.5813       3.1191       2.5670       1.7700     162.2949       0.0005
    2832.0    1773.4550       0.0000      50.8611     124.3843       3.2854       2.7109       1.8540     162.2949       0.0005
    2833.0    1768.9931       0.0000      50.8611     126.5240       3.2213       2.5882       1.9165     162.2949       0.0005
    2834.0    1766.4128       0.0000      50.8611     127.1878       3.1752       2.5290       1.9187     162.2949       0.0005
    2835.0    1768.7483       0.0000      50.8611     125.7356       3.2124       2.6071       1.8756     162.2949       0.0005
    2836.0    1768.9931       0.0000      50.8611     127.0890       3.2477       2.5904       1.9573     162.2949       0.0005
    2837.0    1766.6456       0.0000      50.8611     126.1320       3.3223       2.6831       1.9573     162.2949       0.0005
    2838.0    1768.5260       0.0000      50.8611     125.5979       3.2564       2.6473       1.8949     162.2949       0.0005
    2839.0    1771.0958       0.0000      50.8611     126.1892       3.2521       2.6239       1.9187     162.2949       0.0005
    2840.0    1771.3523       0.0000      50.8611     124.8237       3.3234       2.7276       1.8971     162.2949       0.0005
    2841.0    1766.6456       0.0000      50.8611     125.7230       3.2093       2.6049       1.8733     162.2949       0.0005
    2842.0    1766.1217       0.0000      50.8611     127.0045       3.1975       2.5531       1.9239     162.2949       0.0005
    2843.0    1771.0958       0.0000      50.8611     125.1330       3.1936       2.6116       1.8369     162.2949       0.0005
    2844.0    1764.5536       0.0000      50.8611     125.9721       3.2228       2.6071       1.8926     162.2949       0.0005
    2845.0    1768.5260       0.0000      50.8611     126.1786       3.2804       2.6473       1.9358     162.2949       0.0005
    2846.0    1773.2090       0.0000      50.8611     125.9743       3.1202       2.5246       1.8324     162.2949       0.0005
    2847.0    1771.3523       0.0000      50.8611     126.4315       3.2647       2.6261       1.9380     162.2949       0.0005
    2848.0    1770.8616       0.0000      50.8611     125.0214       3.2358       2.6495       1.8562     162.2949       0.0005
    2849.0    1770.8616       0.0000      50.8611     125.7687       3.3129       2.6875       1.9358     162.2949       0.0005
    2850.0    1768.7483       0.0000      50.8611     126.5474       3.2195       2.5860       1.9165     162.2949       0.0005
    2851.0    1766.6456       0.0000      50.8611     126.9534       3.1891       2.5480       1.9165     162.2949       0.0005
    2852.0    1768.7483       0.0000      50.8611     126.6572       3.2478       2.6049       1.9380     162.2949       0.0005
    2853.0    1768.7483       0.0000      50.8611     124.3939       3.1845       2.6261       1.7983     162.2949       0.0005
    2854.0    1773.4550       0.0000      50.8611     126.0566       3.1091       2.5131       1.8293     162.2949       0.0005
    2855.0    1768.9931       0.0000      50.8611     126.8694       3.1592       2.5268       1.8949     162.2949       0.0005
    2856.0    1766.6456       0.0000      50.8611     124.4452       3.2139       2.6495       1.8176     162.2949       0.0005
    2857.0    1770.8616       0.0000      50.8611     124.6370       3.2670       2.6875       1.8562     162.2949       0.0005
    2858.0    1768.9931       0.0000      50.8611     125.5028       3.2317       2.6305       1.8756     162.2949       0.0005
    2859.0    1766.6456       0.0000      50.8611     126.6486       3.1476       2.5246       1.8778     162.2949       0.0005
    2860.0    1771.0958       0.0000      50.8611     125.5017       3.2266       2.6261       1.8733     162.2949       0.0005
    2861.0    1768.7483       0.0000      50.8611     124.9420       3.2763       2.6853       1.8756     162.2949       0.0005
    2862.0    1771.0958       0.0000      50.8611     126.9772       3.1873       2.5458       1.9165     162.2949       0.0005
    2863.0    1766.6456       0.0000      50.8611     122.5192       3.2629       2.7510       1.7529     162.2949       0.0005
    2864.0    1766.6456       0.0000      50.8611     120.3787       3.6134       3.1125       1.8257     162.2949       0.0005
    2865.0    1771.0958       0.0000      50.8611     131.8475       2.9959       2.2311       1.9960     162.2949       0.0005
    2866.0    1769.5817       0.0000      50.8611     122.3082       3.4060       2.8804       1.8131     162.2949       0.0005
    2867.0    1768.7483       0.0000      50.8611     127.2585       3.0954       2.4632       1.8733     162.2949       0.0005
    2868.0    1766.6456       0.0000      50.8611     126.3855       3.1628       2.5458       1.8756     162.2949       0.0005
    2869.0    1768.9931       0.0000      50.8611     125.3839       3.2738       2.6685       1.8949     162.2949       0.0005
    2870.0    1768.9931       0.0000      50.8611     126.4191       3.1934       2.5692       1.8949     162.2949       0.0005
    2871.0    1766.6456       0.0000      50.8611     125.4467       3.1981       2.6049       1.8540     162.2949       0.0005
    2872.0    1771.0958       0.0000      50.8611     123.5389       3.1244       2.6027       1.7268     162.2949       0.0005
    2873.0    1771.3523       0.0000      50.8611     123.2215       3.2044       2.6808       1.7529     162.2949       0.0005
    2874.0    1768.7483       0.0000      50.8611     128.4083       3.3017       2.5815       2.0481     162.2949       0.0005
    2875.0    1768.5260       0.0000      50.8611     130.7983       3.0880       2.3383       2.0153     162.2949       0.0005
    2876.0    1768.7483       0.0000      50.8611     129.9849       2.9070       2.2245       1.8688     162.2949       0.0005
    2877.0    1771.3523       0.0000      50.8611     124.9750       3.1676       2.5948       1.8109     162.2949       0.0005
    2878.0    1766.9011       0.0000      50.8611     126.2965       3.3497       2.6998       1.9789     162.2949       0.0005
    2879.0    1766.4128       0.0000      50.8611     124.4944       3.3768       2.7824       1.9120     162.2949       0.0005
    2880.0    1768.9931       0.0000      50.8611     128.5951       3.1727       2.4800       1.9767     162.2949       0.0005
    2881.0    1768.9931       0.0000      50.8611     124.3139       3.1288       2.5815       1.7655     162.2949       0.0005
    2882.0    1768.7483       0.0000      50.8611     126.2816       3.2843       2.6451       1.9425     162.2949       0.0005
    2883.0    1764.0889       0.0000      50.8611     126.9974       3.2598       2.6027       1.9596     162.2949       0.0005
    2884.0    1771.0958       0.0000      50.8611     129.9121       3.1848       2.4421       2.0414     164.5062       0.6310
    2885.0    1771.0958       0.0000      50.8611     134.0154       3.2581       2.3427       2.2629     169.5028       0.9064
    2886.0    1784.5813       0.0000      50.8611     142.5055       3.2950       2.0046       2.6138     175.4439       1.0176
    2887.0    1789.1222       0.0000      50.8611     150.7587       3.3656       1.6431       2.9364     181.5406       1.0226
    2888.0    1782.1980       0.0000      50.8611     158.7273       3.4173       1.2393       3.1840     187.6367       1.0170
    2889.0    1768.9931       0.0000      50.8611     163.6912       3.4904       0.9793       3.3498     193.7459       1.0226
    2890.0    1759.8942       0.0000      50.8611     170.1796       3.5048       0.5966       3.4531     199.8608       1.0226
    2891.0    1749.0671       0.0000      50.8611     -10.0770       3.6976       0.0109       3.6962     205.9627       1.0226
