~VERSION INFORMATION
VERS.           2.0   :CWLS Log ASCII Standard - VERSION 2.0
WRAP.           NO    :One Line per depth step
PROD.  Schlumberger   :LAS Producer
PROG.  DLIS to ASCII 19C2-270                          :LAS Program name and version
CREA.        2017/09/16 17:42                          :LAS Creation date {YYYY/MM/DD hh:mm}
DLIS_CREA.  2017-Sep-15 15:51                          :DLIS Creation date and time {YYYY-MMM-DD hh:mm}
SOURCE.     LPC_S3-1_AV.DLIS                           :DLIS File Name
FILE-ID.     PERFO_Perfo_WPGRT_037LTP                  :File Identification Number
#--------------------------------------------------
~WELL INFORMATION
#MNEM.UNIT      DATA             DESCRIPTION
#---- ------ --------------   -----------------------------
STRT .S         1283.0       :START TIME      
STOP .S         1755.0       :STOP TIME      
STEP .S            1.0       :STEP     
NULL .          -999.25      :NULL VALUE
COMP .        SHELL INTERNATIONAL E P                  :COMPANY
WELL .        WPP TEST 2                               :WELL
FLD  .        WILDCAT                                  :FIELD
LOC  .                                                 :LOCATION
CNTY .        HARRIS                                   :COUNTY
STAT .        TEXAS                                    :STATE
CTRY .                                                 :COUNTRY
API  .                                                 :API NUMBER
UWI  .                                                 :UNIQUE WELL ID
DATE .                                                 :LOG DATE
SRVC .        Schlumberger                             :SERVICE COMPANY
LATI .DEG                                              :LATITUDE
LONG .DEG                                              :LONGITUDE
GDAT .                                                 :GeoDetic Datum
#-----------------------------------------------------------------------------
~PARAMETER INFORMATION
#MNEM.UNIT    VALUE                      DESCRIPTION
#---- -----   --------------------       ------------------------
U-PHASE_B_COMP_PER_YT.                 0 :Phase B Comparator Period Yt
U-PHASE_A_COMP_PER_XT.                 0 :Phase A Comparator Period Xt
U-MAX_EXC_CUR_LIMIT.MA       240.00000   :Requested CM Current Limit
U-REQ_EXC_FQ.HZ              50          :Requested CM Frequency
U-TILT_Y_OFFSET.           0.19916       :WPTET Tilt Y Offset
U-TILT_Y_GAIN.           1.01796         :WPTET Tilt Y Gain
U-TILT_X_OFFSET.          -1.77103       :WPTET Tilt X Offset
U-TILT_X_GAIN.           1.00000         :WPTET Tilt X Gain
U-TILT_OFFSET_TOL.           0.00100     :WPTET Tilt Offset Calibration Tolerance
U-NO_TILT_CAL_ROTATIONS.                 3 :Number of Rotations for Tilt Calibration
HAZI .DEG        0.00000                 :Hole Azimuth
U-STD_TOL_TILT.           0.01000        :Tilt Standard Deviation Tolerance
U-GUN_POS_TOL.DEG        5.00000         :Gun Position Tolerance
ROT_ANGLE_THRESHOLD.DEG        5.00000   :Rotation Stop Angle Tolerance
STOP_ROT_ANGLE.DEG        0.00000        :Rotation Stop Angle
WITN .                                   :Witness's Name
ENGI .                                   :Engineer's Name
COUN .        HARRIS                     :County or Rig Name
FN   .        WILDCAT                    :Field Name
WN   .        WPP TEST 2                 :Well Name
CN   .        SHELL INTERNATIONAL E P    :Company Name
CLAB .        County                     :County/Rig Label
SLAB .        State                      :State/Province Label
RUN  .          1                        :RUN NUMBER
PDAT .        GROUND LEVEL               :Permanent Datum
EPD  .                                   :Elevation of Permanent Datum above Mean Sea Level
LMF  .                                   :Logging Measured From (Name of Logging Elevation Reference)
APD  .                                   :Elevation of Depth Reference (LMF) above Permanent Datum
#-----------------------------------------------------------------------------
~CURVE INFORMATION
#MNEM.UNIT   API CODE                                  DESCRIPTION
#---- -----  --------                                  -----------------------
TIME .S                                                :TIME {F10.1}
FREQ_EMF_SL.HZ                                         :Electromagnetic Field Frequency {F13.4}
PH_SH_WPPCM_SL.DEG                                     :WPPCM Phase Shift {F13.4}
FREQ_EXC_REQ_SL.HZ                                     :Requested Exciter Frequency {F13.4}
RB_SL.DEG                                              :Relative Bearing {F13.4}
SDEV_SL.DEG                                            :Sonde Deviation {F13.4}
TILX_SL.DEG                                            :X-axis Tilt {F13.4}
TILY_SL.DEG                                            :Y-axis Tilt {F13.4}
ROTA_SL.DEG                                            :Motor Rotation Angle {F13.4}
MSPE_SL.RPM                                            :Motor Speed {F13.4}
#-----------------------------------------------------------------------------
# 
#     TIME    FREQ_EMF_SL  PH_SH_WPPCM_ FREQ_EXC_REQ    RB_SL       SDEV_SL      TILX_SL      TILY_SL      ROTA_SL      MSPE_SL
#                          SL           _SL
~A  
# ...
    1598.0    1437.2250       0.0000      50.8611     -46.1931       0.9333      -0.6734      -0.6461     341.3095       1.0250
    1599.0    1449.0729       0.0000      50.8611     -51.4265       0.9924      -0.7759      -0.6186     347.4119       1.0226
    1600.0    1465.5299       0.0000      50.8611     -54.0543       0.9783      -0.7890      -0.5735     353.5264       1.0250
    1601.0    1479.5654       0.0000      50.8611     -49.2467       1.0243      -0.7759      -0.6687     359.6288       1.0226
    1602.0    1488.9650       0.0000      50.8611     -48.9039       0.9577      -0.7226      -0.6278       5.7437       1.0226
    1603.0    1497.7720       0.0000      50.8611     -50.4673       1.0904      -0.8423      -0.6912      12.2536       1.0226
    1604.0    1507.0740       0.0000      50.8611     -53.6656       0.9518      -0.7774      -0.5185      18.3655       1.0309
    1605.0    1516.8275       0.0000      50.8611     -53.0899       0.9091      -0.7267      -0.5460      24.4710       1.0226
    1606.0    1526.3105       0.0000      50.8611     -45.8688       0.8944      -0.6373      -0.6236      30.5721       1.0226
    1607.0    1527.7887       0.0000      50.8611     -52.0891       0.7968      -0.5660      -0.5159      36.6775       1.0226
    1608.0    1532.6132       0.0000      50.8611     -49.7494       0.9287      -0.7087      -0.6003      42.7765       1.0226
    1609.0    1530.7432       0.0000      50.8611     -50.8863       0.9521      -0.7380      -0.6003      48.8783       1.0226
    1610.0    1525.2169       0.0000      50.8611     -53.2141       1.0644      -0.8554      -0.6320      54.9941       1.0226
    1611.0    1522.6563       0.0000      50.8611     -55.8877       0.8339      -0.6906      -0.4642      61.0967       1.0226
    1612.0    1522.6563       0.0000      50.8611     -60.9092       0.8885      -0.7759      -0.4325      67.1862       1.0226
    1613.0    1519.3661       0.0000      50.8611     -59.4863       0.9050      -0.7808      -0.4551      73.2903       1.0226
    1614.0    1504.8991       0.0000      50.8611     -59.7867       0.8411      -0.7267      -0.4233      79.3897       1.0226
    1615.0    1495.2979       0.0000      50.8611     -63.3669       0.8946      -0.7980      -0.4008      85.9097       1.0250
    1616.0    1486.9344       0.0000      50.8611     -59.5787       0.9615      -0.8292      -0.4868      92.0145       1.0226
    1617.0    1476.4585       0.0000      50.8611     -62.2096       1.1389      -1.0071      -0.5318      98.1162       1.0226
    1618.0    1467.2157       0.0000      50.8611     -59.5218       1.0764      -0.9275      -0.5460     104.2180       1.0226
    1619.0    1451.0891       0.0000      50.8611     -62.6003       0.9238      -0.8202      -0.4233     110.3198       1.0226
    1620.0    1438.5445       0.0000      50.8611     -59.3065       0.9644      -0.8250      -0.4910     116.4347       1.0226
    1621.0    1416.5046       0.0000      50.8611     -61.8673       1.0476      -0.9208      -0.4955     122.5371       1.0226
    1622.0    1403.4431       0.0000      50.8611     -66.1373       1.0241      -0.9365      -0.4142     128.6259       1.0226
    1623.0    1398.7805       0.0000      50.8611     -63.1446       1.0381      -0.9185      -0.4726     134.7154       1.0226
    1624.0    1364.4333       0.0000      50.8611     -67.4759       0.9276      -0.8562      -0.3549     140.7961       1.0144
    1625.0    1345.5653       0.0000      50.8611     -71.2868       0.9371      -0.8874      -0.3007     146.8959       1.0226
    1626.0    1327.7784       0.0000      50.8611     -66.2172       1.0039      -0.9185      -0.4050     152.9848       1.0202
    1627.0    1312.9027       0.0000      50.8611     -62.4319       1.0128      -0.8964      -0.4684     159.4032       1.0226
    1628.0    1281.2621       0.0000      50.8611     -61.6707       1.0757      -0.9455      -0.5093     165.5967       1.0144
    1629.0    1240.3628       0.0000      50.8611     -63.3957       1.0965      -0.9767      -0.4910     171.6862       1.0226
    1630.0    1202.6571       0.0000      50.8611     -50.2062       0.8773      -0.6734      -0.5594     177.7881       1.0226
    1631.0    1168.4178       0.0000      50.8611     -59.9903       1.1799      -1.0210      -0.5911     183.8804       1.0202
    1632.0    1147.0228       0.0000      50.8611     -64.5855       1.1359      -1.0259      -0.4868     189.9671       1.0226
    1633.0    1117.2696       0.0000      50.8611     -64.5595       1.1409      -1.0300      -0.4893     196.0567       1.0164
    1634.0    1098.8538       0.0000      50.8611     -62.9861       1.1319      -1.0079      -0.5143     202.1339       1.0226
    1635.0    1082.4676       0.0000      50.8611     -61.6674       1.0641      -0.9365      -0.5051     208.2234       1.0226
    1636.0    1072.7400       0.0000      50.8611     -58.7372       1.0866      -0.9275      -0.5643     214.3385       1.0226
    1637.0    1061.6020       0.0000      50.8611     -58.8441       1.1779      -1.0079      -0.6094     220.4281       1.0226
    1638.0    1065.9156       0.0000      50.8611     -61.3712       1.1694      -1.0259      -0.5594     226.5307       1.0226
    1639.0    1065.1548       0.0000      50.8611     -58.2737       1.1496      -0.9767      -0.6052     232.9483       1.0144
    1640.0    1064.7975       0.0000      50.8611     -57.0320       1.1536      -0.9677      -0.6278     239.1579       1.0226
    1641.0    1071.8369       0.0000      50.8611     -55.5616       1.2222      -1.0079      -0.6912     245.2574       1.0144
    1642.0    1077.8762       0.0000      50.8611     -58.2233       1.1750      -0.9988      -0.6186     251.3600       1.0226
    1643.0    1093.6887       0.0000      50.8611     -59.7914       1.1922      -1.0300      -0.6003     257.4619       1.0226
    1644.0    1122.0009       0.0000      50.8611     -57.2735       1.1611      -0.9767      -0.6278     263.5514       1.0226
    1645.0    1149.4126       0.0000      50.8611     -54.6849       1.1307      -0.9222      -0.6541     269.6444       1.0164
    1646.0    1175.5689       0.0000      50.8611     -51.9025       1.1504      -0.9054      -0.7096     275.7690       1.0309
    1647.0    1211.3498       0.0000      50.8611     -52.9937       1.1345      -0.9054      -0.6820     281.8839       1.0144
    1648.0    1239.1013       0.0000      50.8611     -51.0765       1.0600      -0.8202      -0.6645     287.9742       1.0309
    1649.0    1275.0534       0.0000      50.8611     -53.5012       1.2158      -0.9767      -0.7229     294.0890       1.0226
    1650.0    1305.2977       0.0000      50.8611     -47.2302       1.0449      -0.7669      -0.7096     300.1820       1.0179
    1651.0    1321.1072       0.0000      50.8611     -53.6958       1.1517      -0.9275      -0.6820     306.2797       1.0226
    1652.0    1337.8844       0.0000      50.8611     -49.5211       1.1427      -0.8693      -0.7413     312.7917       1.0226
    1653.0    1363.2391       0.0000      50.8611     -44.3875       1.0559      -0.7406      -0.7504     318.8690       1.0121
    1654.0    1385.6117       0.0000      50.8611     -58.6574       1.5461      -1.3490      -0.7137     324.9591       1.0226
    1655.0    1393.8520       0.0000      50.8611     -50.1689       1.0795      -0.8292      -0.6912     331.0609       1.0226
    1656.0    1412.5350       0.0000      50.8611     -52.8540       1.1750      -0.9365      -0.7096     337.1528       1.0226
    1657.0    1431.3734       0.0000      50.8611     -50.2895       1.0842      -0.8341      -0.6912     343.2653       1.0226
    1658.0    1450.0658       0.0000      50.8611     -55.6092       0.8096      -0.6644      -0.4600     349.3672       1.0226
    1659.0    1458.7655       0.0000      50.8611     -51.4988       0.9080      -0.7087      -0.5643     355.4575       1.0286
    1660.0    1469.2828       0.0000      50.8611     -53.2450       1.0347      -0.8292      -0.6186       1.5863       1.0226
