~VERSION INFORMATION
VERS.           2.0   :CWLS Log ASCII Standard - VERSION 2.0
WRAP.           NO    :One Line per depth step
PROD.  Schlumberger   :LAS Producer
PROG.  DLIS to ASCII 19C2-270                          :LAS Program name and version
CREA.        2017/09/16 17:42                          :LAS Creation date {YYYY/MM/DD hh:mm}
DLIS_CREA.  2017-Sep-15 16:48                          :DLIS Creation date and time {YYYY-MMM-DD hh:mm}
SOURCE.     LPC_S3-1_2B5.DLIS                          :DLIS File Name
FILE-ID.     PERFO_Perfo_WPGRT_043LTP                  :File Identification Number
#--------------------------------------------------
~WELL INFORMATION
#MNEM.UNIT      DATA             DESCRIPTION
#---- ------ --------------   -----------------------------
STRT .S         4703.0       :START TIME      
STOP .S         5168.0       :STOP TIME      
STEP .S            1.0       :STEP     
NULL .          -999.25      :NULL VALUE
COMP .        SHELL INTERNATIONAL E P                  :COMPANY
WELL .        WPP TEST 2                               :WELL
FLD  .        WILDCAT                                  :FIELD
LOC  .                                                 :LOCATION
CNTY .        HARRIS                                   :COUNTY
STAT .        TEXAS                                    :STATE
CTRY .                                                 :COUNTRY
API  .                                                 :API NUMBER
UWI  .                                                 :UNIQUE WELL ID
DATE .                                                 :LOG DATE
SRVC .        Schlumberger                             :SERVICE COMPANY
LATI .DEG                                              :LATITUDE
LONG .DEG                                              :LONGITUDE
GDAT .                                                 :GeoDetic Datum
#-----------------------------------------------------------------------------
~PARAMETER INFORMATION
#MNEM.UNIT    VALUE                      DESCRIPTION
#---- -----   --------------------       ------------------------
U-PHASE_B_COMP_PER_YT.                 0 :Phase B Comparator Period Yt
U-PHASE_A_COMP_PER_XT.                 0 :Phase A Comparator Period Xt
U-MAX_EXC_CUR_LIMIT.MA       240.00000   :Requested CM Current Limit
U-REQ_EXC_FQ.HZ              50          :Requested CM Frequency
U-TILT_Y_OFFSET.           0.19916       :WPTET Tilt Y Offset
U-TILT_Y_GAIN.           1.01796         :WPTET Tilt Y Gain
U-TILT_X_OFFSET.          -1.77103       :WPTET Tilt X Offset
U-TILT_X_GAIN.           1.00000         :WPTET Tilt X Gain
U-TILT_OFFSET_TOL.           0.00100     :WPTET Tilt Offset Calibration Tolerance
U-NO_TILT_CAL_ROTATIONS.                 3 :Number of Rotations for Tilt Calibration
HAZI .DEG        0.00000                 :Hole Azimuth
U-STD_TOL_TILT.           0.01000        :Tilt Standard Deviation Tolerance
U-GUN_POS_TOL.DEG        5.00000         :Gun Position Tolerance
ROT_ANGLE_THRESHOLD.DEG        5.00000   :Rotation Stop Angle Tolerance
STOP_ROT_ANGLE.DEG        0.00000        :Rotation Stop Angle
WITN .                                   :Witness's Name
ENGI .                                   :Engineer's Name
COUN .        HARRIS                     :County or Rig Name
FN   .        WILDCAT                    :Field Name
WN   .        WPP TEST 2                 :Well Name
CN   .        SHELL INTERNATIONAL E P    :Company Name
CLAB .        County                     :County/Rig Label
SLAB .        State                      :State/Province Label
RUN  .          1                        :RUN NUMBER
PDAT .        GROUND LEVEL               :Permanent Datum
EPD  .                                   :Elevation of Permanent Datum above Mean Sea Level
LMF  .                                   :Logging Measured From (Name of Logging Elevation Reference)
APD  .                                   :Elevation of Depth Reference (LMF) above Permanent Datum
#-----------------------------------------------------------------------------
~CURVE INFORMATION
#MNEM.UNIT   API CODE                                  DESCRIPTION
#---- -----  --------                                  -----------------------
TIME .S                                                :TIME {F10.1}
FREQ_EMF_SL.HZ                                         :Electromagnetic Field Frequency {F13.4}
PH_SH_WPPCM_SL.DEG                                     :WPPCM Phase Shift {F13.4}
FREQ_EXC_REQ_SL.HZ                                     :Requested Exciter Frequency {F13.4}
RB_SL.DEG                                              :Relative Bearing {F13.4}
SDEV_SL.DEG                                            :Sonde Deviation {F13.4}
TILX_SL.DEG                                            :X-axis Tilt {F13.4}
TILY_SL.DEG                                            :Y-axis Tilt {F13.4}
ROTA_SL.DEG                                            :Motor Rotation Angle {F13.4}
MSPE_SL.RPM                                            :Motor Speed {F13.4}
#-----------------------------------------------------------------------------
# 
#     TIME    FREQ_EMF_SL  PH_SH_WPPCM_ FREQ_EXC_REQ    RB_SL       SDEV_SL      TILX_SL      TILY_SL      ROTA_SL      MSPE_SL
#                          SL           _SL
~A  
# ...
    4766.0    1443.9297       0.0000      50.8611    -152.2245       5.5393      -2.5782       4.8993     182.1337       1.0328
    4767.0    1449.4594       0.0000      50.8611    -145.2174       5.5177      -3.1443       4.5294     188.2232       1.0226
    4768.0    1443.7886       0.0000      50.8611    -140.6997       5.7865      -3.6608       4.4749     194.3251       1.0226
    4769.0    1443.5081       0.0000      50.8611    -133.7570       5.9607      -4.3015       4.1186     200.4464       1.0226
    4770.0    1443.7886       0.0000      50.8611    -128.1611       5.8907      -4.6286       3.6357     206.9501       1.0226
    4771.0    1437.7440       0.0000      50.8611    -122.1667       5.9884      -5.0666       3.1840     213.0520       1.0226
    4772.0    1431.8882       0.0000      50.8611    -117.1203       6.0967      -5.4243       2.7751     219.1539       1.0226
    4773.0    1425.9433       0.0000      50.8611    -112.1087       6.1683      -5.7131       2.3176     225.2558       1.0226
    4774.0    1414.6035       0.0000      50.8611    -106.7153       6.2219      -5.9579       1.7860     231.3578       1.0226
    4775.0    1414.6035       0.0000      50.8611    -100.9182       6.2294      -6.1162       1.1776     237.4604       1.0226
    4776.0    1390.1010       0.0000      50.8611     -93.9524       6.4055      -6.3902       0.4406     243.5623       1.0226
    4777.0    1386.3187       0.0000      50.8611     -89.5386       6.4708      -6.4705      -0.0520     249.6644       1.0226
    4778.0    1389.0574       0.0000      50.8611     -84.8040       6.4994      -6.4724      -0.5874     255.7661       1.0226
    4779.0    1368.2013       0.0000      50.8611     -79.6652       6.4904      -6.3845      -1.1618     261.8674       1.0221
    4780.0    1349.9394       0.0000      50.8611     -73.5668       6.6955      -6.4208      -1.8900     267.9575       1.0221
    4781.0    1348.9588       0.0000      50.8611     -67.8539       6.6432      -6.1511      -2.4994     274.0469       1.0226
    4782.0    1336.2604       0.0000      50.8611     -63.5213       6.7320      -6.0230      -2.9959     280.5451       1.0226
    4783.0    1323.9166       0.0000      50.8611     -59.2163       6.5986      -5.6653      -3.3717     286.6594       1.0226
    4784.0    1292.2844       0.0000      50.8611     -52.6469       6.6320      -5.2674      -4.0181     292.7612       1.0226
    4785.0    1282.4148       0.0000      50.8611     -47.4480       6.6119      -4.8658      -4.4660     298.8630       1.0226
    4786.0    1266.3545       0.0000      50.8611     -43.2659       6.7420      -4.6152      -4.9041     304.9648       1.0226
    4787.0    1238.1561       0.0000      50.8611     -38.2846       6.6796      -4.1328      -5.2385     311.0544       1.0226
    4788.0    1221.0067       0.0000      50.8611     -31.2014       6.7416      -3.4867      -5.7627     317.1562       1.0226
    4789.0    1211.9882       0.0000      50.8611     -26.6637       6.5494      -2.9340      -5.8503     323.2603       1.0221
    4790.0    1205.9483       0.0000      50.8611     -22.1747       6.5088      -2.4520      -6.0255     329.3599       1.0126
    4791.0    1192.1237       0.0000      50.8611     -17.5856       6.4059      -1.9317      -6.1054     335.4499       1.0221
    4792.0    1179.9286       0.0000      50.8611     -12.8546       6.4591      -1.4344      -6.2962     341.5389       1.0221
    4793.0    1187.8066       0.0000      50.8611      -6.4959       6.3861      -0.7210      -6.3449     347.6290       1.0226
    4794.0    1179.7399       0.0000      50.8611      -0.3856       6.2574      -0.0420      -6.2573     354.1388       1.0226
    4795.0    1175.8879       0.0000      50.8611       4.5260       6.1207       0.4821      -6.1015       0.2538       1.0226
    4796.0    1183.9976       0.0000      50.8611       9.6649       6.0160       1.0081      -5.9302       6.3556       1.0226
    4797.0    1189.9127       0.0000      50.8611      14.6867       5.8796       1.4882      -5.6868      12.4574       1.0226
    4798.0    1197.8279       0.0000      50.8611      21.4222       5.9324       2.1634      -5.5213      18.5592       1.0226
    4799.0    1208.0201       0.0000      50.8611      27.0520       5.7402       2.6071      -5.1105      24.6604       1.0221
    4800.0    1229.0361       0.0000      50.8611      33.5424       5.5969       3.0891      -4.6626      30.7636       1.0226
    4801.0    1233.8626       0.0000      50.8611      38.4290       5.4954       3.4124      -4.3024      36.8532       1.0226
    4802.0    1253.9859       0.0000      50.8611      46.8896       5.3881       3.9307      -3.6794      42.9427       1.0226
    4803.0    1278.2990       0.0000      50.8611      53.8458       5.3419       4.3114      -3.1478      49.0576       1.0226
    4804.0    1306.6939       0.0000      50.8611      56.7056       5.2930       4.4223      -2.9025      55.1594       1.0226
    4805.0    1314.9604       0.0000      50.8611      65.4788       4.9437       4.4969      -2.0497      61.2650       1.0231
    4806.0    1327.1301       0.0000      50.8611      70.9286       4.8902       4.6212      -1.5960      67.7719       1.0126
    4807.0    1342.0858       0.0000      50.8611      79.1131       4.7860       4.6996      -0.9029      73.8737       1.0226
    4808.0    1357.1362       0.0000      50.8611      86.5279       4.7869       4.7780      -0.2896      79.9761       1.0231
    4809.0    1367.8213       0.0000      50.8611      92.7356       4.6083       4.6021       0.2186      86.0780       1.0226
    4810.0    1371.1256       0.0000      50.8611      99.4012       4.5508       4.4893       0.7424      92.1674       1.0226
    4811.0    1381.5142       0.0000      50.8611     108.5404       4.7720       4.5237       1.5153      98.2692       1.0226
    4812.0    1392.4580       0.0000      50.8611     118.9748       4.5467       3.9766       2.2007     104.3710       1.0226
    4813.0    1397.9951       0.0000      50.8611     122.5793       4.5712       3.8504       2.4596     110.4736       1.0226
    4814.0    1411.8976       0.0000      50.8611     129.6412       4.6251       3.5597       2.9484     116.5754       1.0226
    4815.0    1417.5908       0.0000      50.8611     137.8574       4.7019       3.1523       3.4838     122.6772       1.0226
    4816.0    1425.9433       0.0000      50.8611     146.5337       4.6516       2.5632       3.8791     128.7921       1.0226
    4817.0    1429.2541       0.0000      50.8611     153.1873       4.5414       2.0467       4.0523     134.8940       1.0226
    4818.0    1440.9704       0.0000      50.8611     158.7770       4.6549       1.6833       4.3386     141.4039       1.0226
    4819.0    1440.8298       0.0000      50.8611     167.2303       4.9041       1.0827       4.7825     147.5058       1.0226
    4820.0    1449.4594       0.0000      50.8611     173.4867       4.8979       0.5548       4.8662     153.6209       1.0226
    4821.0    1444.0714       0.0000      50.8611    -179.4739       4.9872      -0.0458       4.9869     159.3148       1.0226
    4822.0    1446.9010       0.0000      50.8611    -173.2684       5.1785      -0.6062       5.1427     165.4225       1.0226
    4823.0    1449.6005       0.0000      50.8611    -167.9904       5.2641      -1.0939       5.1485     171.5186       1.0226
    4824.0    1450.3149       0.0000      50.8611    -161.3973       5.4642      -1.7404       5.1778     177.6335       1.0226
    4825.0    1446.7593       0.0000      50.8611    -154.6457       5.5503      -2.3735       5.0142     183.7523       1.0328
    4826.0    1443.7886       0.0000      50.8611    -147.1675       5.6365      -3.0525       4.7338     189.8512       1.0226
    4827.0    1446.9010       0.0000      50.8611    -142.1240       5.6504      -3.4657       4.4573     195.9539       1.0231
    4828.0    1441.2532       0.0000      50.8611    -135.9604       5.6311      -3.9113       4.0446     202.0689       1.0231
