~VERSION INFORMATION
VERS.           2.0   :CWLS Log ASCII Standard - VERSION 2.0
WRAP.           NO    :One Line per depth step
PROD.  Schlumberger   :LAS Producer
PROG.  DLIS to ASCII 19C2-270                          :LAS Program name and version
CREA.        2017/09/16 17:42                          :LAS Creation date {YYYY/MM/DD hh:mm}
DLIS_CREA.  2017-Sep-15 18:24                          :DLIS Creation date and time {YYYY-MMM-DD hh:mm}
SOURCE.     LPC_S4-1_2B5.DLIS                          :DLIS File Name
FILE-ID.     PERFO_Perfo_WPGRT_055LTP                  :File Identification Number
#--------------------------------------------------
~WELL INFORMATION
#MNEM.UNIT      DATA             DESCRIPTION
#---- ------ --------------   -----------------------------
STRT .S         5021.0       :START TIME      
STOP .S         5478.0       :STOP TIME      
STEP .S            1.0       :STEP     
NULL .          -999.25      :NULL VALUE
COMP .        SHELL INTERNATIONAL E P                  :COMPANY
WELL .        WPP TEST 2                               :WELL
FLD  .        WILDCAT                                  :FIELD
LOC  .        NA                                       :LOCATION
CNTY .        HARRIS                                   :COUNTY
STAT .        TEXAS                                    :STATE
CTRY .                                                 :COUNTRY
API  .        NA                                       :API NUMBER
UWI  .                                                 :UNIQUE WELL ID
DATE .        15-Sep-2017                              :LOG DATE {DD-MMM-YYYY}
SRVC .        Schlumberger                             :SERVICE COMPANY
LATI .DEG                                              :LATITUDE
LONG .DEG                                              :LONGITUDE
GDAT .                                                 :GeoDetic Datum
SECT .        NA                                       :Section
RANG .        NA                                       :Range
TOWN .        NA                                       :Township
#-----------------------------------------------------------------------------
~PARAMETER INFORMATION
#MNEM.UNIT    VALUE                      DESCRIPTION
#---- -----   --------------------       ------------------------
U-PHASE_B_COMP_PER_YT.                 0 :Phase B Comparator Period Yt
U-PHASE_A_COMP_PER_XT.                 0 :Phase A Comparator Period Xt
U-MAX_EXC_CUR_LIMIT.MA       240.00000   :Requested CM Current Limit
U-REQ_EXC_FQ.HZ              50          :Requested CM Frequency
U-TILT_Y_OFFSET.           0.19916       :WPTET Tilt Y Offset
U-TILT_Y_GAIN.           1.01796         :WPTET Tilt Y Gain
U-TILT_X_OFFSET.          -1.77103       :WPTET Tilt X Offset
U-TILT_X_GAIN.           1.00000         :WPTET Tilt X Gain
U-TILT_OFFSET_TOL.           0.00100     :WPTET Tilt Offset Calibration Tolerance
U-NO_TILT_CAL_ROTATIONS.                 3 :Number of Rotations for Tilt Calibration
HAZI .DEG        0.00000                 :Hole Azimuth
U-STD_TOL_TILT.           0.01000        :Tilt Standard Deviation Tolerance
U-GUN_POS_TOL.DEG        5.00000         :Gun Position Tolerance
ROT_ANGLE_THRESHOLD.DEG        5.00000   :Rotation Stop Angle Tolerance
STOP_ROT_ANGLE.DEG        0.00000        :Rotation Stop Angle
WITN .        MR. DHRUA ARORA            :Witness's Name
ENGI .        MORRIS MOORE               :Engineer's Name
COUN .        HARRIS                     :County or Rig Name
FN   .        WILDCAT                    :Field Name
WN   .        WPP TEST 2                 :Well Name
CN   .        SHELL INTERNATIONAL E P    :Company Name
CLAB .        County                     :County/Rig Label
SLAB .        State                      :State/Province Label
RUN  .          1                        :RUN NUMBER
PDAT .        GROUND LEVEL               :Permanent Datum
EPD  .                                   :Elevation of Permanent Datum above Mean Sea Level
LMF  .          NA                       :Logging Measured From (Name of Logging Elevation Reference)
APD  .                                   :Elevation of Depth Reference (LMF) above Permanent Datum
#-----------------------------------------------------------------------------
~CURVE INFORMATION
#MNEM.UNIT   API CODE                                  DESCRIPTION
#---- -----  --------                                  -----------------------
TIME .S                                                :TIME {F10.1}
FREQ_EMF_SL.HZ                                         :Electromagnetic Field Frequency {F13.4}
PH_SH_WPPCM_SL.DEG                                     :WPPCM Phase Shift {F13.4}
FREQ_EXC_REQ_SL.HZ                                     :Requested Exciter Frequency {F13.4}
RB_SL.DEG                                              :Relative Bearing {F13.4}
SDEV_SL.DEG                                            :Sonde Deviation {F13.4}
TILX_SL.DEG                                            :X-axis Tilt {F13.4}
TILY_SL.DEG                                            :Y-axis Tilt {F13.4}
ROTA_SL.DEG                                            :Motor Rotation Angle {F13.4}
MSPE_SL.RPM                                            :Motor Speed {F13.4}
#-----------------------------------------------------------------------------
# 
#     TIME    FREQ_EMF_SL  PH_SH_WPPCM_ FREQ_EXC_REQ    RB_SL       SDEV_SL      TILX_SL      TILY_SL      ROTA_SL      MSPE_SL
#                          SL           _SL
~A  
# ...
    5336.0    1332.9017       0.0000      50.8611      40.1538       4.8268       3.1098      -3.6877     170.6591       1.0226
    5337.0    1337.9077       0.0000      50.8611      44.9350       4.7223       3.3338      -3.3407     176.7610       1.0226
    5338.0    1352.1635       0.0000      50.8611      51.0429       4.4672       3.4725      -2.8067     183.2709       1.0226
    5339.0    1364.0080       0.0000      50.8611      60.2616       4.5095       3.9144      -2.2355     189.3859       1.0281
    5340.0    1370.6140       0.0000      50.8611      66.4771       4.4225       4.0543      -1.7635     195.4878       1.0226
    5341.0    1379.9901       0.0000      50.8611      71.9271       4.3745       4.1578      -1.3570     201.5897       1.0226
    5342.0    1383.9623       0.0000      50.8611      80.0855       4.0772       4.0154      -0.7028     207.6924       1.0226
    5343.0    1395.1778       0.0000      50.8611      88.1413       4.0354       4.0325      -0.1304     213.8038       1.0281
    5344.0    1405.6136       0.0000      50.8611      96.3719       4.0421       4.0169       0.4485     219.9092       1.0226
    5345.0    1407.6168       0.0000      50.8611     104.2108       3.9756       3.8535       0.9748     226.0111       1.0226
    5346.0    1416.1218       0.0000      50.8611     110.5178       4.0076       3.7525       1.4035     232.1130       1.0226
    5347.0    1429.0346       0.0000      50.8611     117.7446       3.8982       3.4494       1.8136     238.2156       1.0226
    5348.0    1430.5275       0.0000      50.8611     127.8905       4.0180       3.1695       2.4666     244.3239       1.0281
    5349.0    1432.1199       0.0000      50.8611     134.2816       4.0616       2.9066       2.8346     250.4326       1.0226
    5350.0    1442.3536       0.0000      50.8611     141.8675       4.0251       2.4842       3.1641     256.9425       1.0226
    5351.0    1445.1523       0.0000      50.8611     147.5409       4.1122       2.2055       3.4690     263.0705       1.0226
    5352.0    1443.7886       0.0000      50.8611     155.9043       4.2255       1.7235       3.8568     269.1723       1.0226
    5353.0    1445.5334       0.0000      50.8611     164.7067       4.1913       1.1039       4.0414     275.2872       1.0226
    5354.0    1452.7377       0.0000      50.8611     169.6094       4.2147       0.7595       4.1455     281.3890       1.0226
    5355.0    1452.7377       0.0000      50.8611     176.8945       4.4399       0.2409       4.4317     287.5054       1.0226
    5356.0    1449.3576       0.0000      50.8611    -175.7804       4.5251      -0.3330       4.5122     293.5934       1.0185
    5357.0    1446.7593       0.0000      50.8611    -168.0513       4.5697      -0.9458       4.4701     299.6952       1.0226
    5358.0    1454.2866       0.0000      50.8611    -162.4483       4.6701      -1.4071       4.4515     305.7970       1.0226
    5359.0    1449.7422       0.0000      50.8611    -158.2665       4.8360      -1.7893       4.4912     311.9004       1.0226
    5360.0    1446.6761       0.0000      50.8611    -151.1920       4.9639      -2.3906       4.3474     318.0137       1.0226
    5361.0    1446.8547       0.0000      50.8611    -144.7472       5.0804      -2.9310       4.1442     324.1286       1.0226
    5362.0    1446.8547       0.0000      50.8611    -138.8967       5.0455      -3.3144       3.7985     330.4223       1.0172
    5363.0    1437.8012       0.0000      50.8611    -133.4600       5.3211      -3.8585       3.6573     336.7410       1.0281
    5364.0    1432.0265       0.0000      50.8611    -128.1934       5.4223      -4.2589       3.3488     342.8569       1.0226
    5365.0    1430.7140       0.0000      50.8611    -121.5199       5.4709      -4.6618       2.8569     348.9718       1.0226
    5366.0    1423.4223       0.0000      50.8611    -115.8981       5.4734      -4.9223       2.3873     355.0736       1.0226
    5367.0    1417.5108       0.0000      50.8611    -111.5033       5.5716      -5.1828       2.0391       1.1754       1.0226
    5368.0    1407.9593       0.0000      50.8611    -105.2976       5.7122      -5.5090       1.5038       7.2772       1.0187
    5369.0    1392.3268       0.0000      50.8611     -98.8025       5.7341      -5.6660       0.8756      13.3666       1.0175
    5370.0    1382.7039       0.0000      50.8611     -93.7962       5.8215      -5.8084       0.3850      19.4561       1.0175
    5371.0    1380.0714       0.0000      50.8611     -89.3627       5.9269      -5.9265      -0.0660      25.5587       1.0226
    5372.0    1362.7297       0.0000      50.8611     -84.5899       5.9152      -5.8887      -0.5567      31.6545       1.0172
    5373.0    1349.6508       0.0000      50.8611     -78.9737       5.8966      -5.7865      -1.1266      37.7500       1.0226
    5374.0    1352.1635       0.0000      50.8611     -73.1235       6.0075      -5.7475      -1.7412      44.0453       1.0172
    5375.0    1326.8200       0.0000      50.8611     -68.6641       6.0222      -5.6063      -2.1885      50.3507       1.0226
    5376.0    1319.3510       0.0000      50.8611     -63.3317       6.0323      -5.3884      -2.7027      56.4511       1.0226
    5377.0    1295.9854       0.0000      50.8611     -59.0869       6.0679      -5.2035      -3.1128      62.5529       1.0226
    5378.0    1287.7748       0.0000      50.8611     -53.6754       6.1250      -4.9295      -3.6196      68.6547       1.0226
    5379.0    1278.4092       0.0000      50.8611     -47.1099       5.9594      -4.3624      -4.0520      74.7565       1.0175
    5380.0    1257.8265       0.0000      50.8611     -43.2759       6.0784      -4.1627      -4.4212      80.8351       1.0226
    5381.0    1245.3875       0.0000      50.8611     -37.9986       5.9532      -3.6613      -4.6876      86.9309       1.0175
    5382.0    1236.7181       0.0000      50.8611     -32.8078       5.8706      -3.1769      -4.9317      93.0248       1.0226
    5383.0    1226.1290       0.0000      50.8611     -28.2177       5.9677      -2.8166      -5.2563      99.1266       1.0175
    5384.0    1226.1290       0.0000      50.8611     -23.5965       6.0776      -2.4296      -5.5660     105.2293       1.0226
    5385.0    1219.6771       0.0000      50.8611     -17.8877       5.7205      -1.7540      -5.4422     111.3473       1.0226
    5386.0    1204.9279       0.0000      50.8611     -12.7578       5.6698      -1.2513      -5.5288     117.4484       1.0226
    5387.0    1215.4603       0.0000      50.8611      -7.1195       5.7143      -0.7072      -5.6701     123.9566       1.0226
    5388.0    1223.8593       0.0000      50.8611      -1.7029       5.5914      -0.1668      -5.5883     130.0584       1.0226
    5389.0    1225.9366       0.0000      50.8611       4.0114       5.3791       0.3737      -5.3641     136.1357       1.0118
    5390.0    1235.7206       0.0000      50.8611       9.2395       5.3460       0.8581      -5.2762     142.2324       1.0121
    5391.0    1239.1746       0.0000      50.8611      13.6950       5.2449       1.2403      -5.0952     148.3280       1.0226
    5392.0    1254.8401       0.0000      50.8611      20.0264       5.2882       1.8087      -4.9676     154.4299       1.0226
    5393.0    1266.7714       0.0000      50.8611      25.9950       5.0347       2.2043      -4.5240     160.5194       1.0226
    5394.0    1293.6637       0.0000      50.8611      31.9613       4.9245       2.6047      -4.1759     166.6213       1.0226
    5395.0    1317.9116       0.0000      50.8611      38.0246       4.8128       2.9638      -3.7868     172.7232       1.0226
    5396.0    1332.8355       0.0000      50.8611      44.5592       4.7180       3.3083      -3.3593     178.8254       1.0224
    5397.0    1348.1691       0.0000      50.8611      49.8402       4.6161       3.5262      -2.9715     184.9292       1.0226
    5398.0    1357.5616       0.0000      50.8611      57.1526       4.3461       3.6503      -2.3557     191.0311       1.0226
