~VERSION INFORMATION
VERS.           2.0   :CWLS Log ASCII Standard - VERSION 2.0
WRAP.           NO    :One Line per depth step
PROD.  Schlumberger   :LAS Producer
PROG.  DLIS to ASCII 19C2-270                          :LAS Program name and version
CREA.        2017/09/16 17:42                          :LAS Creation date {YYYY/MM/DD hh:mm}
DLIS_CREA.  2017-Sep-15 13:07                          :DLIS Creation date and time {YYYY-MMM-DD hh:mm}
SOURCE.     LPC_S1-1_2AV.DLIS                          :DLIS File Name
FILE-ID.     PERFO_Perfo_WPGRT_022LTP                  :File Identification Number
#--------------------------------------------------
~WELL INFORMATION
#MNEM.UNIT      DATA             DESCRIPTION
#---- ------ --------------   -----------------------------
STRT .S         8392.0       :START TIME      
STOP .S         9264.0       :STOP TIME      
STEP .S            1.0       :STEP     
NULL .          -999.25      :NULL VALUE
COMP .        SHELL INTERNATIONAL E P                  :COMPANY
WELL .        WPP TEST 2                               :WELL
FLD  .        WILDCAT                                  :FIELD
LOC  .                                                 :LOCATION
CNTY .        HARRIS                                   :COUNTY
STAT .        TEXAS                                    :STATE
CTRY .                                                 :COUNTRY
API  .                                                 :API NUMBER
UWI  .                                                 :UNIQUE WELL ID
DATE .                                                 :LOG DATE
SRVC .        Schlumberger                             :SERVICE COMPANY
LATI .DEG                                              :LATITUDE
LONG .DEG                                              :LONGITUDE
GDAT .                                                 :GeoDetic Datum
#-----------------------------------------------------------------------------
~PARAMETER INFORMATION
#MNEM.UNIT    VALUE                      DESCRIPTION
#---- -----   --------------------       ------------------------
U-PHASE_B_COMP_PER_YT.                 0 :Phase B Comparator Period Yt
U-PHASE_A_COMP_PER_XT.                 0 :Phase A Comparator Period Xt
U-MAX_EXC_CUR_LIMIT.MA       240.00000   :Requested CM Current Limit
U-REQ_EXC_FQ.HZ              50          :Requested CM Frequency
U-TILT_Y_OFFSET.           0.19916       :WPTET Tilt Y Offset
U-TILT_Y_GAIN.           1.01796         :WPTET Tilt Y Gain
U-TILT_X_OFFSET.          -1.77103       :WPTET Tilt X Offset
U-TILT_X_GAIN.           1.00000         :WPTET Tilt X Gain
U-TILT_OFFSET_TOL.           0.00100     :WPTET Tilt Offset Calibration Tolerance
U-NO_TILT_CAL_ROTATIONS.                 3 :Number of Rotations for Tilt Calibration
HAZI .DEG        0.00000                 :Hole Azimuth
U-STD_TOL_TILT.           0.01000        :Tilt Standard Deviation Tolerance
U-GUN_POS_TOL.DEG        5.00000         :Gun Position Tolerance
ROT_ANGLE_THRESHOLD.DEG        5.00000   :Rotation Stop Angle Tolerance
STOP_ROT_ANGLE.DEG       80.00000        :Rotation Stop Angle
WITN .                                   :Witness's Name
ENGI .                                   :Engineer's Name
COUN .        HARRIS                     :County or Rig Name
FN   .        WILDCAT                    :Field Name
WN   .        WPP TEST 2                 :Well Name
CN   .        SHELL INTERNATIONAL E P    :Company Name
CLAB .        County                     :County/Rig Label
SLAB .        State                      :State/Province Label
RUN  .          1                        :RUN NUMBER
PDAT .        GROUND LEVEL               :Permanent Datum
EPD  .                                   :Elevation of Permanent Datum above Mean Sea Level
LMF  .                                   :Logging Measured From (Name of Logging Elevation Reference)
APD  .                                   :Elevation of Depth Reference (LMF) above Permanent Datum
#-----------------------------------------------------------------------------
~CURVE INFORMATION
#MNEM.UNIT   API CODE                                  DESCRIPTION
#---- -----  --------                                  -----------------------
TIME .S                                                :TIME {F10.1}
FREQ_EMF_SL.HZ                                         :Electromagnetic Field Frequency {F13.4}
PH_SH_WPPCM_SL.DEG                                     :WPPCM Phase Shift {F13.4}
FREQ_EXC_REQ_SL.HZ                                     :Requested Exciter Frequency {F13.4}
RB_SL.DEG                                              :Relative Bearing {F13.4}
SDEV_SL.DEG                                            :Sonde Deviation {F13.4}
TILX_SL.DEG                                            :X-axis Tilt {F13.4}
TILY_SL.DEG                                            :Y-axis Tilt {F13.4}
ROTA_SL.DEG                                            :Motor Rotation Angle {F13.4}
MSPE_SL.RPM                                            :Motor Speed {F13.4}
#-----------------------------------------------------------------------------
# 
#     TIME    FREQ_EMF_SL  PH_SH_WPPCM_ FREQ_EXC_REQ    RB_SL       SDEV_SL      TILX_SL      TILY_SL      ROTA_SL      MSPE_SL
#                          SL           _SL
~A  
# ...
    8644.0    1383.6421       0.0000      50.8611     -54.4724       0.9451      -0.7669      -0.5499     327.7712       1.0226
    8645.0    1385.4475       0.0000      50.8611     -55.8193       0.8703      -0.7199      -0.4890     334.2808       1.0226
    8646.0    1388.1828       0.0000      50.8611     -58.4377       0.8841      -0.7532      -0.4620     340.3680       1.0226
    8647.0    1385.9718       0.0000      50.8611     -51.1412       0.9000      -0.7002      -0.5638     346.4717       1.0226
    8648.0    1394.1518       0.0000      50.8611     -59.6477       0.8590      -0.7403      -0.4350     352.5754       1.0226
    8649.0    1402.9679       0.0000      50.8611     -58.0935       0.9262      -0.7865      -0.4890     358.6751       1.0226
    8650.0    1389.5751       0.0000      50.8611     -60.6173       0.8730      -0.7600      -0.4281     359.6925       0.0005
    8651.0    1391.3931       0.0000      50.8611     -62.0838       0.9139      -0.8070      -0.4281     359.6925       0.0005
    8652.0    1392.7964       0.0000      50.8611     -62.1466       0.9432      -0.8335      -0.4411     359.6925       0.0005
    8653.0    1388.2377       0.0000      50.8611     -60.3670       0.9206      -0.8002      -0.4551     359.6925       0.0005
    8654.0    1391.8590       0.0000      50.8611     -58.9819       0.8567      -0.7335      -0.4411     359.6925       0.0005
    8655.0    1394.1518       0.0000      50.8611     -59.2221       0.9701      -0.8335      -0.4959     359.6925       0.0005
    8656.0    1392.3268       0.0000      50.8611     -59.6477       0.8590      -0.7403      -0.4350     359.6925       0.0005
    8657.0    1390.5125       0.0000      50.8611     -62.3500       0.8798      -0.7797      -0.4072     359.6925       0.0005
    8658.0    1395.0892       0.0000      50.8611     -61.2364       0.8317      -0.7267      -0.4011     359.6925       0.0005
    8659.0    1392.7964       0.0000      50.8611     -62.6420       0.9759      -0.8669      -0.4481     359.6925       0.0005
    8660.0    1392.3268       0.0000      50.8611     -59.9979       0.8553      -0.7403      -0.4281     359.6925       0.0005
    8661.0    1388.2377       0.0000      50.8611     -61.8320       0.8776      -0.7737      -0.4142     359.6925       0.0005
    8662.0    1390.9840       0.0000      50.8611     -60.3670       0.9206      -0.8002      -0.4551     359.6925       0.0005
    8663.0    1393.6859       0.0000      50.8611     -54.6970       0.8921      -0.7267      -0.5160     359.6925       0.0005
    8664.0    1387.3003       0.0000      50.8611     -59.0299       0.9106      -0.7805      -0.4690     359.6925       0.0005
    8665.0    1388.7092       0.0000      50.8611     -59.9656       0.8166      -0.7070      -0.4072     359.6925       0.0005
    8666.0    1395.5607       0.0000      50.8611     -58.7160       0.9001      -0.7669      -0.4681     359.6925       0.0005
    8667.0    1391.3931       0.0000      50.8611     -59.3862       0.9226      -0.7934      -0.4690     359.6925       0.0005
    8668.0    1391.8590       0.0000      50.8611     -59.6477       0.8590      -0.7403      -0.4350     359.6925       0.0005
    8669.0    1390.9840       0.0000      50.8611     -63.3996       0.9624      -0.8600      -0.4281     359.6925       0.0005
    8670.0    1392.7964       0.0000      50.8611     -61.8320       0.8776      -0.7737      -0.4142     359.6925       0.0005
    8671.0    1394.1518       0.0000      50.8611     -59.3644       0.9606      -0.8267      -0.4890     359.6925       0.0005
    8672.0    1391.8590       0.0000      50.8611     -61.7497       0.8929      -0.7865      -0.4211     359.6925       0.0005
    8673.0    1388.2377       0.0000      50.8611     -58.5785       0.9378      -0.8002      -0.4890     359.6925       0.0005
    8674.0    1392.3268       0.0000      50.8611     -56.6950       0.7729      -0.6472      -0.4211     359.6925       0.0005
    8675.0    1389.5751       0.0000      50.8611     -56.2334       0.8665      -0.7199      -0.4820     359.6925       0.0005
    8676.0    1392.7964       0.0000      50.8611     -63.2000       0.8916      -0.7934      -0.4011     359.6925       0.0005
    8677.0    1391.8590       0.0000      50.8611     -59.4162       0.8534      -0.7335      -0.4350     359.6925       0.0005
    8678.0    1390.0429       0.0000      50.8611     -62.5081       0.8670      -0.7669      -0.4011     359.6925       0.0005
    8679.0    1390.9840       0.0000      50.8611     -61.4934       0.7968      -0.7002      -0.3802     359.6925       0.0005
    8680.0    1394.6196       0.0000      50.8611     -52.9272       0.8931      -0.7070      -0.5360     359.6925       0.0005
    8681.0    1393.6859       0.0000      50.8611     -60.3957       1.0048      -0.8737      -0.4959     359.6925       0.0005
    8682.0    1392.3268       0.0000      50.8611     -57.2620       0.9527      -0.8002      -0.5160     359.6925       0.0005
    8683.0    1391.4574       0.0000      50.8611     -56.6973       0.8784      -0.7335      -0.4820     359.6925       0.0005
    8684.0    1390.5125       0.0000      50.8611     -57.2346       0.9374      -0.7865      -0.5090     359.6925       0.0005
    8685.0    1394.6196       0.0000      50.8611     -56.1318       0.9251      -0.7669      -0.5160     359.6925       0.0005
    8686.0    1391.8590       0.0000      50.8611     -58.0814       0.9122      -0.7737      -0.4820     359.6925       0.0005
    8687.0    1385.9718       0.0000      50.8611     -55.9095       0.9192      -0.7600      -0.5160     359.6925       0.0005
    8688.0    1392.7964       0.0000      50.8611     -59.2440       0.8764      -0.7532      -0.4481     359.6925       0.0005
    8689.0    1395.9880       0.0000      50.8611     -59.4856       0.8823      -0.7600      -0.4481     359.6925       0.0005
    8690.0    1393.2218       0.0000      50.8611     -59.3644       0.9606      -0.8267      -0.4890     359.6925       0.0005
    8691.0    1390.5125       0.0000      50.8611     -60.8588       0.8787      -0.7669      -0.4281     359.6925       0.0005
    8692.0    1394.6196       0.0000      50.8611     -58.0271       0.8727      -0.7403      -0.4620     359.6925       0.0005
    8693.0    1396.9217       0.0000      50.8611     -61.8320       0.8776      -0.7737      -0.4142     359.6925       0.0005
    8694.0    1391.8590       0.0000      50.8611     -60.1023       0.9004      -0.7805      -0.4481     359.6925       0.0005
    8695.0    1383.7147       0.0000      50.8611     -58.4800       0.9092      -0.7737      -0.4751     359.6925       0.0005
    8696.0    1395.5607       0.0000      50.8611     -65.0469       0.9200      -0.8335      -0.3872     359.6925       0.0005
    8697.0    1392.3268       0.0000      50.8611     -61.8421       0.8333      -0.7335      -0.3941     359.6925       0.0005
    8698.0    1393.6859       0.0000      50.8611     -58.5932       0.8751      -0.7472      -0.4551     359.6925       0.0005
    8699.0    1394.1518       0.0000      50.8611     -67.6532       0.7466      -0.6865      -0.2854     359.6925       0.0005
    8700.0    1389.5751       0.0000      50.8611     -46.1687       0.9423      -0.6797      -0.6525     359.6925       0.0005
    8701.0    1390.5125       0.0000      50.8611     -51.0473       0.7456      -0.5797      -0.4690     359.6925       0.0005
    8702.0    1396.0341       0.0000      50.8611     -29.8232       1.1918      -0.4608      -0.9825     359.6925       0.0005
    8703.0    1394.6196       0.0000      50.8611     -52.8896       0.8539      -0.6797      -0.5160     359.6925       0.0005
    8704.0    1389.5751       0.0000      50.8611     -45.3613       0.9666      -0.6865      -0.6795     359.6925       0.0005
    8705.0    1387.7681       0.0000      50.8611     -48.1408       0.9821      -0.7327      -0.6525     359.6925       0.0005
    8706.0    1393.2679       0.0000      50.8611     -49.6240       0.8397      -0.6395      -0.5438     359.6925       0.0005
