~VERSION INFORMATION
VERS.           2.0   :CWLS Log ASCII Standard - VERSION 2.0
WRAP.           NO    :One Line per depth step
PROD.  Schlumberger   :LAS Producer
PROG.  DLIS to ASCII 19C2-270                          :LAS Program name and version
CREA.        2017/09/16 17:42                          :LAS Creation date {YYYY/MM/DD hh:mm}
DLIS_CREA.  2017-Sep-15 19:35                          :DLIS Creation date and time {YYYY-MMM-DD hh:mm}
SOURCE.     LPC_S5-1_2AV.DLIS                          :DLIS File Name
FILE-ID.     PERFO_Perfo_WPGRT_062LTP                  :File Identification Number
#--------------------------------------------------
~WELL INFORMATION
#MNEM.UNIT      DATA             DESCRIPTION
#---- ------ --------------   -----------------------------
STRT .S          757.0       :START TIME      
STOP .S         1169.0       :STOP TIME      
STEP .S            1.0       :STEP     
NULL .          -999.25      :NULL VALUE
COMP .        SHELL INTERNATIONAL E P                  :COMPANY
WELL .        WPP TEST 2                               :WELL
FLD  .        WILDCAT                                  :FIELD
LOC  .        NA                                       :LOCATION
CNTY .        HARRIS                                   :COUNTY
STAT .        TEXAS                                    :STATE
CTRY .                                                 :COUNTRY
API  .        NA                                       :API NUMBER
UWI  .                                                 :UNIQUE WELL ID
DATE .        15-Sep-2017                              :LOG DATE {DD-MMM-YYYY}
SRVC .        Schlumberger                             :SERVICE COMPANY
LATI .DEG                                              :LATITUDE
LONG .DEG                                              :LONGITUDE
GDAT .                                                 :GeoDetic Datum
SECT .        NA                                       :Section
RANG .        NA                                       :Range
TOWN .        NA                                       :Township
#-----------------------------------------------------------------------------
~PARAMETER INFORMATION
#MNEM.UNIT    VALUE                      DESCRIPTION
#---- -----   --------------------       ------------------------
U-PHASE_B_COMP_PER_YT.                 0 :Phase B Comparator Period Yt
U-PHASE_A_COMP_PER_XT.                 0 :Phase A Comparator Period Xt
U-MAX_EXC_CUR_LIMIT.MA       240.00000   :Requested CM Current Limit
U-REQ_EXC_FQ.HZ              50          :Requested CM Frequency
U-TILT_Y_OFFSET.           0.19916       :WPTET Tilt Y Offset
U-TILT_Y_GAIN.           1.01796         :WPTET Tilt Y Gain
U-TILT_X_OFFSET.          -1.77103       :WPTET Tilt X Offset
U-TILT_X_GAIN.           1.00000         :WPTET Tilt X Gain
U-TILT_OFFSET_TOL.           0.00100     :WPTET Tilt Offset Calibration Tolerance
U-NO_TILT_CAL_ROTATIONS.                 3 :Number of Rotations for Tilt Calibration
HAZI .DEG        0.00000                 :Hole Azimuth
U-STD_TOL_TILT.           0.01000        :Tilt Standard Deviation Tolerance
U-GUN_POS_TOL.DEG        5.00000         :Gun Position Tolerance
ROT_ANGLE_THRESHOLD.DEG        5.00000   :Rotation Stop Angle Tolerance
STOP_ROT_ANGLE.DEG        0.00000        :Rotation Stop Angle
WITN .        MR. DHRUA ARORA            :Witness's Name
ENGI .        MORRIS MOORE               :Engineer's Name
COUN .        HARRIS                     :County or Rig Name
FN   .        WILDCAT                    :Field Name
WN   .        WPP TEST 2                 :Well Name
CN   .        SHELL INTERNATIONAL E P    :Company Name
CLAB .        County                     :County/Rig Label
SLAB .        State                      :State/Province Label
RUN  .          1                        :RUN NUMBER
PDAT .        GROUND LEVEL               :Permanent Datum
EPD  .                                   :Elevation of Permanent Datum above Mean Sea Level
LMF  .          NA                       :Logging Measured From (Name of Logging Elevation Reference)
APD  .                                   :Elevation of Depth Reference (LMF) above Permanent Datum
#-----------------------------------------------------------------------------
~CURVE INFORMATION
#MNEM.UNIT   API CODE                                  DESCRIPTION
#---- -----  --------                                  -----------------------
TIME .S                                                :TIME {F10.1}
FREQ_EMF_SL.HZ                                         :Electromagnetic Field Frequency {F13.4}
PH_SH_WPPCM_SL.DEG                                     :WPPCM Phase Shift {F13.4}
FREQ_EXC_REQ_SL.HZ                                     :Requested Exciter Frequency {F13.4}
RB_SL.DEG                                              :Relative Bearing {F13.4}
SDEV_SL.DEG                                            :Sonde Deviation {F13.4}
TILX_SL.DEG                                            :X-axis Tilt {F13.4}
TILY_SL.DEG                                            :Y-axis Tilt {F13.4}
ROTA_SL.DEG                                            :Motor Rotation Angle {F13.4}
MSPE_SL.RPM                                            :Motor Speed {F13.4}
#-----------------------------------------------------------------------------
# 
#     TIME    FREQ_EMF_SL  PH_SH_WPPCM_ FREQ_EXC_REQ    RB_SL       SDEV_SL      TILX_SL      TILY_SL      ROTA_SL      MSPE_SL
#                          SL           _SL
~A  
# ...
    1072.0    1404.1392       0.0000      50.8611     -69.2211       0.8361      -0.7818      -0.2966     136.9960       1.0134
    1073.0    1411.5475       0.0000      50.8611     -72.0069       0.9488      -0.9027      -0.2915     143.4925       1.0226
    1074.0    1430.5945       0.0000      50.8611     -62.5011       0.9066      -0.7967      -0.4095     149.6079       1.0226
    1075.0    1429.8377       0.0000      50.8611     -86.4802       1.2284      -1.2240      -0.0715     155.7225       1.0226
    1076.0    1427.2976       0.0000      50.8611     -71.2294       1.0169      -0.9627      -0.3273     161.8244       1.0226
    1077.0    1436.4397       0.0000      50.8611     -71.0928       1.1034      -1.0431      -0.3581     167.9263       1.0226
    1078.0    1444.1562       0.0000      50.8611     -69.5645       1.0230      -0.9578      -0.3581     174.0308       1.0226
    1079.0    1439.3509       0.0000      50.8611     -68.7633       1.1460      -1.0683      -0.4142     180.1327       1.0226
    1080.0    1428.3915       0.0000      50.8611     -66.9187       1.0199      -0.9375      -0.3990     186.2346       1.0226
    1081.0    1446.3917       0.0000      50.8611     -65.0005       1.1620      -1.0530      -0.4909     192.3496       1.0226
    1082.0    1443.0578       0.0000      50.8611     -68.7339       1.1571      -1.0783      -0.4192     198.4515       1.0226
    1083.0    1430.2008       0.0000      50.8611     -63.8418       1.2179      -1.0932      -0.5368     204.5665       1.0226
    1084.0    1424.7678       0.0000      50.8611     -65.4646       1.1080      -1.0079      -0.4601     210.6684       1.0226
    1085.0    1434.9490       0.0000      50.8611     -69.1890       1.2079      -1.1284      -0.4293     217.1887       1.0226
    1086.0    1437.5203       0.0000      50.8611     -61.8530       1.1203      -0.9876      -0.5267     223.3045       1.0226
    1087.0    1424.0460       0.0000      50.8611     -62.0955       1.1770      -1.0381      -0.5524     229.4064       1.0226
    1088.0    1412.2491       0.0000      50.8611     -62.1949       1.3500      -1.1938      -0.6287     235.5214       1.0226
    1089.0    1406.9965       0.0000      50.8611     -55.7589       1.2372      -1.0228      -0.6953     241.6218       1.0213
    1090.0    1394.0498       0.0000      50.8611     -60.4394       1.1548      -1.0025      -0.5722     247.7114       1.0134
    1091.0    1384.4422       0.0000      50.8611     -57.7458       1.2452      -1.0530      -0.6646     253.8155       1.0226
    1092.0    1381.7762       0.0000      50.8611     -59.5379       1.2102      -1.0431      -0.6135     259.9204       1.0226
    1093.0    1352.8095       0.0000      50.8611     -52.4233       1.2658      -1.0029      -0.7720     266.0219       1.0226
    1094.0    1347.3027       0.0000      50.8611     -51.5657       1.2422      -0.9727      -0.7720     272.1368       1.0226
    1095.0    1337.7222       0.0000      50.8611     -53.7653       1.1937      -0.9627      -0.7054     278.2386       1.0226
    1096.0    1311.8003       0.0000      50.8611     -52.4613       1.2331      -0.9776      -0.7514     284.3404       1.0226
    1097.0    1296.0787       0.0000      50.8611     -49.7953       1.2672      -0.9677      -0.8180     290.8607       1.0226
    1098.0    1276.6642       0.0000      50.8611     -47.4255       1.1638      -0.8571      -0.7872     296.9625       1.0226
    1099.0    1269.5069       0.0000      50.8611     -47.9234       1.2364      -0.9176      -0.8281     303.0643       1.0226
    1100.0    1252.7913       0.0000      50.8611     -39.9915       1.0283      -0.6613      -0.7872     309.1661       1.0226
    1101.0    1238.1663       0.0000      50.8611     -45.6567       1.1919      -0.8522      -0.8332     315.2556       1.0226
    1102.0    1220.1804       0.0000      50.8611     -48.0896       1.1792      -0.8774      -0.7872     321.3601       1.0226
    1103.0    1206.8451       0.0000      50.8611     -43.7275       1.1180      -0.7718      -0.8079     327.4619       1.0226
    1104.0    1196.8246       0.0000      50.8611     -51.5657       1.2422      -0.9727      -0.7720     333.5471       1.0134
    1105.0    1190.4720       0.0000      50.8611     -33.4003       0.7312      -0.3958      -0.5980     339.6539       1.0226
    1106.0    1170.1665       0.0000      50.8611     -45.5352       1.1240      -0.8021      -0.7872     345.7558       1.0226
    1107.0    1165.8527       0.0000      50.8611     -43.8390       1.2361      -0.8575      -0.8896     351.8710       1.0226
    1108.0    1167.2650       0.0000      50.8611     -41.8927       0.9903      -0.6613      -0.7362     357.9728       1.0226
    1109.0    1158.8347       0.0000      50.8611     -43.9050       0.9889      -0.6869      -0.7054       4.4849       1.0226
    1110.0    1154.0809       0.0000      50.8611     -40.1695       0.9892      -0.6364      -0.7569      10.5814       1.0226
    1111.0    1153.8563       0.0000      50.8611     -38.8243       0.8467      -0.5308      -0.6595      16.6708       1.0226
    1112.0    1157.4224       0.0000      50.8611     -40.0624       0.9034      -0.5809      -0.6903      22.7858       1.0226
    1113.0    1153.1332       0.0000      50.8611     -40.3826       0.8659      -0.5611      -0.6595      28.8754       1.0134
    1114.0    1160.2722       0.0000      50.8611     -46.9402       1.0067      -0.7370      -0.6852      34.9799       1.0226
    1115.0    1159.0728       0.0000      50.8611     -46.1324       0.8126      -0.5863      -0.5625      41.0709       1.0320
    1116.0    1177.0351       0.0000      50.8611     -49.6911       0.7901      -0.6012      -0.5111      47.1816       1.0226
    1117.0    1181.7228       0.0000      50.8611     -49.5461       0.7102      -0.5408      -0.4601      53.2861       1.0239
    1118.0    1193.7606       0.0000      50.8611     -48.7383       0.7596      -0.5710      -0.5010      59.3887       1.0226
    1119.0    1196.0429       0.0000      50.8611     -56.9542       0.7775      -0.6513      -0.4243      65.4905       1.0239
    1120.0    1208.8932       0.0000      50.8611     -54.8258       0.7725      -0.6314      -0.4449      71.5932       1.0134
    1121.0    1225.2210       0.0000      50.8611     -52.2899       0.7607      -0.6012      -0.4652      78.1003       1.0226
    1122.0    1247.7996       0.0000      50.8611     -62.0028       0.7388      -0.6513      -0.3476      84.2021       1.0226
    1123.0    1251.9431       0.0000      50.8611     -50.6374       0.8301      -0.6414      -0.5267      90.3039       1.0226
    1124.0    1274.6386       0.0000      50.8611     -59.4971       0.7711      -0.6613      -0.3889      96.4057       1.0226
    1125.0    1289.8452       0.0000      50.8611     -67.2882       0.8860      -0.8170      -0.3425     102.4967       1.0239
    1126.0    1311.4980       0.0000      50.8611     -64.2844       0.6949      -0.6261      -0.3016     108.6099       1.0226
    1127.0    1327.8994       0.0000      50.8611     -71.5259       0.7034      -0.6666      -0.2198     114.7269       1.0320
    1128.0    1351.5139       0.0000      50.8611     -64.3206       0.7673      -0.6915      -0.3324     120.8383       1.0147
    1129.0    1368.6088       0.0000      50.8611     -65.5194       0.8148      -0.7416      -0.3374     126.9327       1.0239
    1130.0    1389.2359       0.0000      50.8611     -66.6224       0.9285      -0.8522      -0.3682     133.0478       1.0226
    1131.0    1406.2500       0.0000      50.8611     -66.8139       0.9221      -0.8472      -0.3632     139.1497       1.0226
    1132.0    1415.4458       0.0000      50.8611     -64.9314       0.9262      -0.8373      -0.3939     145.2519       1.0226
    1133.0    1427.6896       0.0000      50.8611     -75.6570       0.8851      -0.8571      -0.2198     151.7604       1.0239
    1134.0    1420.8104       0.0000      50.8611     -65.0126       0.7792      -0.7064      -0.3273     157.8792       1.0226
