~VERSION INFORMATION
VERS.           2.0   :CWLS Log ASCII Standard - VERSION 2.0
WRAP.           NO    :One Line per depth step
PROD.  Schlumberger   :LAS Producer
PROG.  DLIS to ASCII 19C2-270                          :LAS Program name and version
CREA.        2017/09/16 17:42                          :LAS Creation date {YYYY/MM/DD hh:mm}
DLIS_CREA.  2017-Sep-15 19:54                          :DLIS Creation date and time {YYYY-MMM-DD hh:mm}
SOURCE.     LPC_S5-1_2B5.DLIS                          :DLIS File Name
FILE-ID.     PERFO_Perfo_WPGRT_064LTP                  :File Identification Number
#--------------------------------------------------
~WELL INFORMATION
#MNEM.UNIT      DATA             DESCRIPTION
#---- ------ --------------   -----------------------------
STRT .S         1886.0       :START TIME      
STOP .S         2307.0       :STOP TIME      
STEP .S            1.0       :STEP     
NULL .          -999.25      :NULL VALUE
COMP .        SHELL INTERNATIONAL E P                  :COMPANY
WELL .        WPP TEST 2                               :WELL
FLD  .        WILDCAT                                  :FIELD
LOC  .        NA                                       :LOCATION
CNTY .        HARRIS                                   :COUNTY
STAT .        TEXAS                                    :STATE
CTRY .                                                 :COUNTRY
API  .        NA                                       :API NUMBER
UWI  .                                                 :UNIQUE WELL ID
DATE .        15-Sep-2017                              :LOG DATE {DD-MMM-YYYY}
SRVC .        Schlumberger                             :SERVICE COMPANY
LATI .DEG                                              :LATITUDE
LONG .DEG                                              :LONGITUDE
GDAT .                                                 :GeoDetic Datum
SECT .        NA                                       :Section
RANG .        NA                                       :Range
TOWN .        NA                                       :Township
#-----------------------------------------------------------------------------
~PARAMETER INFORMATION
#MNEM.UNIT    VALUE                      DESCRIPTION
#---- -----   --------------------       ------------------------
U-PHASE_B_COMP_PER_YT.                 0 :Phase B Comparator Period Yt
U-PHASE_A_COMP_PER_XT.                 0 :Phase A Comparator Period Xt
U-MAX_EXC_CUR_LIMIT.MA       240.00000   :Requested CM Current Limit
U-REQ_EXC_FQ.HZ              50          :Requested CM Frequency
U-TILT_Y_OFFSET.           0.19916       :WPTET Tilt Y Offset
U-TILT_Y_GAIN.           1.01796         :WPTET Tilt Y Gain
U-TILT_X_OFFSET.          -1.77103       :WPTET Tilt X Offset
U-TILT_X_GAIN.           1.00000         :WPTET Tilt X Gain
U-TILT_OFFSET_TOL.           0.00100     :WPTET Tilt Offset Calibration Tolerance
U-NO_TILT_CAL_ROTATIONS.                 3 :Number of Rotations for Tilt Calibration
HAZI .DEG        0.00000                 :Hole Azimuth
U-STD_TOL_TILT.           0.01000        :Tilt Standard Deviation Tolerance
U-GUN_POS_TOL.DEG        5.00000         :Gun Position Tolerance
ROT_ANGLE_THRESHOLD.DEG        5.00000   :Rotation Stop Angle Tolerance
STOP_ROT_ANGLE.DEG        0.00000        :Rotation Stop Angle
WITN .        MR. DHRUA ARORA            :Witness's Name
ENGI .        MORRIS MOORE               :Engineer's Name
COUN .        HARRIS                     :County or Rig Name
FN   .        WILDCAT                    :Field Name
WN   .        WPP TEST 2                 :Well Name
CN   .        SHELL INTERNATIONAL E P    :Company Name
CLAB .        County                     :County/Rig Label
SLAB .        State                      :State/Province Label
RUN  .          1                        :RUN NUMBER
PDAT .        GROUND LEVEL               :Permanent Datum
EPD  .                                   :Elevation of Permanent Datum above Mean Sea Level
LMF  .          NA                       :Logging Measured From (Name of Logging Elevation Reference)
APD  .                                   :Elevation of Depth Reference (LMF) above Permanent Datum
#-----------------------------------------------------------------------------
~CURVE INFORMATION
#MNEM.UNIT   API CODE                                  DESCRIPTION
#---- -----  --------                                  -----------------------
TIME .S                                                :TIME {F10.1}
FREQ_EMF_SL.HZ                                         :Electromagnetic Field Frequency {F13.4}
PH_SH_WPPCM_SL.DEG                                     :WPPCM Phase Shift {F13.4}
FREQ_EXC_REQ_SL.HZ                                     :Requested Exciter Frequency {F13.4}
RB_SL.DEG                                              :Relative Bearing {F13.4}
SDEV_SL.DEG                                            :Sonde Deviation {F13.4}
TILX_SL.DEG                                            :X-axis Tilt {F13.4}
TILY_SL.DEG                                            :Y-axis Tilt {F13.4}
ROTA_SL.DEG                                            :Motor Rotation Angle {F13.4}
MSPE_SL.RPM                                            :Motor Speed {F13.4}
#-----------------------------------------------------------------------------
# 
#     TIME    FREQ_EMF_SL  PH_SH_WPPCM_ FREQ_EXC_REQ    RB_SL       SDEV_SL      TILX_SL      TILY_SL      ROTA_SL      MSPE_SL
#                          SL           _SL
~A  
# ...
    2075.0    1446.7593       0.0000      50.8611    -159.2994       4.8996      -1.7306       4.5822     226.3873       0.0005
    2076.0    1453.3360       0.0000      50.8611    -159.0612       4.9512      -1.7681       4.6231     226.3873       0.0005
    2077.0    1459.3689       0.0000      50.8611    -157.9923       5.0260      -1.8808       4.6589     226.3873       0.0005
    2078.0    1447.5591       0.0000      50.8611    -159.2820       4.9585      -1.7524       4.6370     226.3873       0.0005
    2079.0    1446.1881       0.0000      50.8611    -160.0670       4.8780      -1.6613       4.5851     226.3873       0.0005
    2080.0    1451.1347       0.0000      50.8611    -158.2391       4.9701      -1.8406       4.6151     226.3873       0.0005
    2081.0    1445.9628       0.0000      50.8611    -158.9454       4.9867      -1.7897       4.6530     226.3873       0.0005
    2082.0    1441.8662       0.0000      50.8611    -158.8031       5.0356      -1.8190       4.6939     226.3873       0.0005
    2083.0    1449.1687       0.0000      50.8611    -159.9954       4.9341      -1.6857       4.6340     226.3873       0.0005
    2084.0    1449.7422       0.0000      50.8611    -158.9201       4.9064      -1.7632       4.5771     226.3873       0.0005
    2085.0    1451.1347       0.0000      50.8611    -158.3350       5.0785      -1.8729       4.7188     226.3873       0.0005
    2086.0    1452.7377       0.0000      50.8611    -158.9949       5.0288      -1.8004       4.6939     226.3873       0.0005
    2087.0    1455.9836       0.0000      50.8611    -159.3406       5.0327      -1.7739       4.7078     226.5061       0.1348
    2088.0    1457.3683       0.0000      50.8611    -155.7375       5.0860      -2.0874       4.6340     230.0249       0.7625
    2089.0    1468.7253       0.0000      50.8611    -150.0024       5.1984      -2.5959       4.5004     235.2643       0.9927
    2090.0    1467.9019       0.0000      50.8611    -143.5240       5.3490      -3.1769       4.2989     241.3459       1.0226
    2091.0    1467.0819       0.0000      50.8611    -138.2505       5.3826      -3.5814       4.0127     247.4508       1.0226
    2092.0    1467.0819       0.0000      50.8611    -132.5854       5.3588      -3.9429       3.6228     253.5526       1.0226
    2093.0    1465.4522       0.0000      50.8611    -125.2904       5.5551      -4.5318       3.2059     259.6553       1.0226
    2094.0    1453.5441       0.0000      50.8611    -121.1163       5.7093      -4.8854       2.9467     266.1620       1.0226
    2095.0    1457.9557       0.0000      50.8611    -115.8408       5.7871      -5.2067       2.5188     272.2644       1.0226
    2096.0    1448.7549       0.0000      50.8611    -109.2697       5.7835      -5.4585       1.9055     278.3817       1.0226
    2097.0    1447.5591       0.0000      50.8611    -104.4983       5.8480      -5.6593       1.4608     284.4835       1.0226
    2098.0    1426.7990       0.0000      50.8611     -98.5859       5.9194      -5.8522       0.8805     290.5845       1.0226
    2099.0    1412.6575       0.0000      50.8611     -93.2616       6.0120      -6.0021       0.3408     296.6864       1.0226
    2100.0    1401.9504       0.0000      50.8611     -86.5821       6.0402      -6.0287      -0.3595     302.7882       1.0226
    2101.0    1371.3301       0.0000      50.8611     -82.6050       6.1499      -6.0983      -0.7902     308.8908       1.0226
    2102.0    1361.2380       0.0000      50.8611     -76.9303       6.2309      -6.0689      -1.4064     314.9926       1.0226
    2103.0    1343.5642       0.0000      50.8611     -71.6757       6.1834      -5.8680      -1.9408     321.0944       1.0226
    2104.0    1328.4879       0.0000      50.8611     -66.7253       6.1072      -5.6083      -2.4096     327.1962       1.0226
    2105.0    1303.2090       0.0000      50.8611     -61.4037       6.2627      -5.4958      -2.9930     333.2980       1.0226
    2106.0    1282.3059       0.0000      50.8611     -54.6119       6.3059      -5.1371      -3.6472     339.7945       1.0226
    2107.0    1248.7470       0.0000      50.8611     -52.4432       6.3528      -5.0296      -3.8654     345.8941       1.0226
    2108.0    1230.8165       0.0000      50.8611     -46.9511       6.2482      -4.5612      -4.2605     351.9926       1.0198
    2109.0    1211.3161       0.0000      50.8611     -41.9302       6.2552      -4.1754      -4.6475     358.0876       1.0226
    2110.0    1193.0937       0.0000      50.8611     -36.5185       6.4456      -3.8303      -5.1762       4.1771       1.0226
    2111.0    1173.7044       0.0000      50.8611     -32.5033       6.3354      -3.3992      -5.3397      10.2644       1.0226
    2112.0    1161.3000       0.0000      50.8611     -24.1576       6.1319      -2.5048      -5.5931      16.3693       1.0226
    2113.0    1138.6017       0.0000      50.8611     -20.6757       6.0497      -2.1325      -5.6588      22.4587       1.0226
    2114.0    1126.6856       0.0000      50.8611     -15.5631       6.0531      -1.6211      -5.8304      28.5482       1.0226
    2115.0    1112.0694       0.0000      50.8611     -10.3742       5.9632      -1.0718      -5.8632      34.6508       1.0226
    2116.0    1095.5519       0.0000      50.8611      -6.1637       5.8190      -0.6221      -5.7843      40.7404       1.0226
    2117.0    1087.1965       0.0000      50.8611      -0.3056       5.8449      -0.0303      -5.8442      46.8422       1.0226
    2118.0    1077.9708       0.0000      50.8611       6.0296       5.7781       0.6067      -5.7458      53.3489       1.0226
    2119.0    1070.5317       0.0000      50.8611      11.1608       5.7043       1.1023      -5.5960      59.4508       1.0226
    2120.0    1064.0514       0.0000      50.8611      16.5634       5.4239       1.5441      -5.1981      65.5515       1.0149
    2121.0    1062.1223       0.0000      50.8611      21.3781       5.4375       1.9780      -5.0616      71.6460       1.0226
    2122.0    1057.1512       0.0000      50.8611      28.8958       5.3411       2.5777      -4.6746      77.7461       1.0226
    2123.0    1065.0266       0.0000      50.8611      33.4041       5.1250       2.8187      -4.2766      83.8578       1.0170
    2124.0    1067.2818       0.0000      50.8611      40.7899       4.9781       3.2498      -3.7670      89.9258       1.0226
    2125.0    1078.4126       0.0000      50.8611      46.6153       4.9207       3.5740      -3.3771      96.0374       1.0198
    2126.0    1082.6238       0.0000      50.8611      52.3170       4.8600       3.8444      -2.9682     102.1310       1.0226
    2127.0    1087.3265       0.0000      50.8611      58.3035       4.7921       4.0746      -2.5156     108.2328       1.0226
    2128.0    1098.6328       0.0000      50.8611      66.7118       4.5127       4.1442      -1.7825     114.3368       1.0226
    2129.0    1117.8457       0.0000      50.8611      74.2320       4.6072       4.4333      -1.2509     120.4364       1.0226
    2130.0    1129.2376       0.0000      50.8611      82.0779       4.5173       4.4735      -0.6215     126.9431       1.0226
    2131.0    1142.4313       0.0000      50.8611      88.7071       4.3541       4.3530      -0.0980     133.0450       1.0226
    2132.0    1161.1657       0.0000      50.8611      94.8295       4.2184       4.2031       0.3546     139.1469       1.0226
    2133.0    1182.6496       0.0000      50.8611     100.6338       4.2436       4.1680       0.7773     145.2510       1.0226
    2134.0    1194.3037       0.0000      50.8611     108.4098       4.3656       4.1414       1.3768     151.3529       1.0226
    2135.0    1211.8781       0.0000      50.8611     117.3872       4.2821       3.8014       1.9683     157.4515       1.0198
    2136.0    1235.2985       0.0000      50.8611     125.1368       4.2152       3.4450       2.4209     163.5444       1.0226
    2137.0    1246.8427       0.0000      50.8611     133.6713       4.2578       3.0784       2.9387     169.6594       1.0226
