~VERSION INFORMATION
VERS.           2.0   :CWLS Log ASCII Standard - VERSION 2.0
WRAP.           NO    :One Line per depth step
PROD.  Schlumberger   :LAS Producer
PROG.  DLIS to ASCII 19C2-270                          :LAS Program name and version
CREA.        2017/09/16 17:42                          :LAS Creation date {YYYY/MM/DD hh:mm}
DLIS_CREA.  2017-Sep-15 13:58                          :DLIS Creation date and time {YYYY-MMM-DD hh:mm}
SOURCE.     LPC_S1-1_2BV.DLIS                          :DLIS File Name
FILE-ID.     PERFO_Perfo_WPGRT_027LTP                  :File Identification Number
#--------------------------------------------------
~WELL INFORMATION
#MNEM.UNIT      DATA             DESCRIPTION
#---- ------ --------------   -----------------------------
STRT .S        11467.0       :START TIME      
STOP .S        11862.0       :STOP TIME      
STEP .S            1.0       :STEP     
NULL .          -999.25      :NULL VALUE
COMP .        SHELL INTERNATIONAL E P                  :COMPANY
WELL .        WPP TEST 2                               :WELL
FLD  .        WILDCAT                                  :FIELD
LOC  .                                                 :LOCATION
CNTY .        HARRIS                                   :COUNTY
STAT .        TEXAS                                    :STATE
CTRY .                                                 :COUNTRY
API  .                                                 :API NUMBER
UWI  .                                                 :UNIQUE WELL ID
DATE .                                                 :LOG DATE
SRVC .        Schlumberger                             :SERVICE COMPANY
LATI .DEG                                              :LATITUDE
LONG .DEG                                              :LONGITUDE
GDAT .                                                 :GeoDetic Datum
#-----------------------------------------------------------------------------
~PARAMETER INFORMATION
#MNEM.UNIT    VALUE                      DESCRIPTION
#---- -----   --------------------       ------------------------
U-PHASE_B_COMP_PER_YT.                 0 :Phase B Comparator Period Yt
U-PHASE_A_COMP_PER_XT.                 0 :Phase A Comparator Period Xt
U-MAX_EXC_CUR_LIMIT.MA       240.00000   :Requested CM Current Limit
U-REQ_EXC_FQ.HZ              50          :Requested CM Frequency
U-TILT_Y_OFFSET.           0.19916       :WPTET Tilt Y Offset
U-TILT_Y_GAIN.           1.01796         :WPTET Tilt Y Gain
U-TILT_X_OFFSET.          -1.77103       :WPTET Tilt X Offset
U-TILT_X_GAIN.           1.00000         :WPTET Tilt X Gain
U-TILT_OFFSET_TOL.           0.00100     :WPTET Tilt Offset Calibration Tolerance
U-NO_TILT_CAL_ROTATIONS.                 3 :Number of Rotations for Tilt Calibration
HAZI .DEG        0.00000                 :Hole Azimuth
U-STD_TOL_TILT.           0.01000        :Tilt Standard Deviation Tolerance
U-GUN_POS_TOL.DEG        5.00000         :Gun Position Tolerance
ROT_ANGLE_THRESHOLD.DEG        5.00000   :Rotation Stop Angle Tolerance
STOP_ROT_ANGLE.DEG       80.00000        :Rotation Stop Angle
WITN .                                   :Witness's Name
ENGI .                                   :Engineer's Name
COUN .        HARRIS                     :County or Rig Name
FN   .        WILDCAT                    :Field Name
WN   .        WPP TEST 2                 :Well Name
CN   .        SHELL INTERNATIONAL E P    :Company Name
CLAB .        County                     :County/Rig Label
SLAB .        State                      :State/Province Label
RUN  .          1                        :RUN NUMBER
PDAT .        GROUND LEVEL               :Permanent Datum
EPD  .                                   :Elevation of Permanent Datum above Mean Sea Level
LMF  .                                   :Logging Measured From (Name of Logging Elevation Reference)
APD  .                                   :Elevation of Depth Reference (LMF) above Permanent Datum
#-----------------------------------------------------------------------------
~CURVE INFORMATION
#MNEM.UNIT   API CODE                                  DESCRIPTION
#---- -----  --------                                  -----------------------
TIME .S                                                :TIME {F10.1}
FREQ_EMF_SL.HZ                                         :Electromagnetic Field Frequency {F13.4}
PH_SH_WPPCM_SL.DEG                                     :WPPCM Phase Shift {F13.4}
FREQ_EXC_REQ_SL.HZ                                     :Requested Exciter Frequency {F13.4}
RB_SL.DEG                                              :Relative Bearing {F13.4}
SDEV_SL.DEG                                            :Sonde Deviation {F13.4}
TILX_SL.DEG                                            :X-axis Tilt {F13.4}
TILY_SL.DEG                                            :Y-axis Tilt {F13.4}
ROTA_SL.DEG                                            :Motor Rotation Angle {F13.4}
MSPE_SL.RPM                                            :Motor Speed {F13.4}
#-----------------------------------------------------------------------------
# 
#     TIME    FREQ_EMF_SL  PH_SH_WPPCM_ FREQ_EXC_REQ    RB_SL       SDEV_SL      TILX_SL      TILY_SL      ROTA_SL      MSPE_SL
#                          SL           _SL
~A  
   11467.0    1446.7593       0.0000      50.8611     -56.3680       0.9693      -0.8070      -0.5368     119.4012       1.0226
   11468.0    1445.1523       0.0000      50.8611     -63.6254       0.9038      -0.8106      -0.3931     123.2482       1.0226
   11469.0    1439.3124       0.0000      50.8611     -63.9629       1.0333      -0.9275      -0.4538     129.3377       1.0226
   11470.0    1432.0265       0.0000      50.8611     -61.9341       1.0039      -0.8849      -0.4737     135.4397       1.0226
   11471.0    1429.2089       0.0000      50.8611     -62.2866       1.0246      -0.9068      -0.4761     141.5292       1.0226
   11472.0    1417.6822       0.0000      50.8611     -63.4149       0.9693      -0.8667      -0.4340     147.6310       1.0226
   11473.0    1413.2754       0.0000      50.8611     -67.8913       0.9370      -0.8679      -0.3522     153.7369       1.0226
   11474.0    1404.8887       0.0000      50.8611     -67.4581       0.9210      -0.8484      -0.3510     160.2437       1.0226
   11475.0    1395.1778       0.0000      50.8611     -58.3334       0.9922      -0.8448      -0.5170     166.3585       1.0281
   11476.0    1374.5945       0.0000      50.8611     -64.9059       1.0695      -0.9677      -0.4538     172.4867       1.0281
   11477.0    1364.0977       0.0000      50.8611     -61.1196       1.0300      -0.9020      -0.4773     178.5764       1.0175
   11478.0    1344.4073       0.0000      50.8611     -61.0686       1.1066      -0.9677      -0.5356     184.6657       1.0226
   11479.0    1321.7427       0.0000      50.8611     -63.3174       1.1048      -0.9872      -0.4959     190.7675       1.0226
   11480.0    1291.6247       0.0000      50.8611     -66.9991       1.1004      -1.0079      -0.4315     196.8698       1.0226
   11481.0    1259.2387       0.0000      50.8611     -66.0828       1.1513      -1.0297      -0.4822     202.9721       1.0226
   11482.0    1246.8239       0.0000      50.8611     -69.4094       1.1027      -1.0273      -0.3907     209.0871       1.0226
   11483.0    1218.5278       0.0000      50.8611     -54.5092       1.0667      -0.8679      -0.6198     215.1890       1.0175
   11484.0    1201.0724       0.0000      50.8611     -56.2730       0.9738      -0.8058      -0.5393     221.2787       1.0226
   11485.0    1193.9740       0.0000      50.8611     -60.4747       1.0897      -0.9482      -0.5368     227.3682       1.0226
   11486.0    1172.8238       0.0000      50.8611     -59.6892       1.0267      -0.8862      -0.5170     233.8779       1.0226
   11487.0    1168.0432       0.0000      50.8611     -55.9703       1.0878      -0.9032      -0.5988     239.9799       1.0226
   11488.0    1159.5551       0.0000      50.8611     -60.3451       1.0880      -0.9458      -0.5368     246.0819       1.0226
   11489.0    1150.9746       0.0000      50.8611     -58.6363       1.1113      -0.9482      -0.5789     252.1970       1.0226
   11490.0    1147.0228       0.0000      50.8611     -56.8599       1.0581      -0.8862      -0.5777     258.2987       1.0226
   11491.0    1146.1168       0.0000      50.8611     -61.1465       1.1488      -1.0054      -0.5554     264.4004       1.0226
   11492.0    1137.3883       0.0000      50.8611     -51.5136       1.0977      -0.8575      -0.6834     270.4898       1.0226
   11493.0    1142.3926       0.0000      50.8611     -52.8114       0.9908      -0.7875      -0.6000     276.6044       1.0226
   11494.0    1155.3824       0.0000      50.8611     -45.1562       1.1117      -0.7887      -0.7822     282.7189       1.0226
   11495.0    1158.3066       0.0000      50.8611     -51.7161       1.1305      -0.8874      -0.7004     288.8339       1.0226
   11496.0    1159.4788       0.0000      50.8611     -57.6227       1.0042      -0.8472      -0.5381     294.9357       1.0175
   11497.0    1168.9826       0.0000      50.8611     -55.9987       0.9993      -0.8289      -0.5579     301.0066       1.0175
   11498.0    1188.6323       0.0000      50.8611     -58.0451       0.9743      -0.8265      -0.5158     307.5232       1.0226
   11499.0    1198.7649       0.0000      50.8611     -53.6996       0.9741      -0.7851      -0.5765     313.6127       1.0226
   11500.0    1211.2725       0.0000      50.8611     -47.3610       1.1236      -0.8265      -0.7611     319.7172       1.0226
   11501.0    1235.6592       0.0000      50.8611     -52.5593       0.9888      -0.7851      -0.5988     325.7977       1.0224
   11502.0    1255.5171       0.0000      50.8611     -55.4444       1.0541      -0.8679      -0.5975     331.9194       1.0226
   11503.0    1280.5660       0.0000      50.8611     -55.2535       0.9809      -0.8058      -0.5579     338.0212       1.0278
   11504.0    1305.8660       0.0000      50.8611     -54.0403       1.0416      -0.8420      -0.6121     344.1360       1.0226
   11505.0    1339.0573       0.0000      50.8611     -50.5768       1.0716      -0.8277      -0.6805     350.2316       1.0175
   11506.0    1354.6955       0.0000      50.8611     -57.4287       0.9579      -0.8070      -0.5158     356.3279       1.0226
   11507.0    1366.7492       0.0000      50.8611     -51.3176       0.9560      -0.7462      -0.5975       2.4297       1.0226
   11508.0    1381.3850       0.0000      50.8611     -50.9748       0.8991      -0.7024      -0.5567       8.5222       1.0226
   11509.0    1393.5946       0.0000      50.8611     -52.7165       0.9813      -0.7717      -0.5740      14.6241       1.0226
   11510.0    1393.7494       0.0000      50.8611     -56.5197       0.8956      -0.7462      -0.4947      20.9325       1.0226
   11511.0    1403.5328       0.0000      50.8611     -56.6919       0.9438      -0.7887      -0.5158      27.2459       1.0226
   11512.0    1420.4546       0.0000      50.8611     -52.0112       1.2057      -1.0056      -0.4587      33.3476       1.0226
   11513.0    1424.6553       0.0000      50.8611     -52.5608       0.9156      -0.7267      -0.5567      39.4495       1.0226
   11514.0    1427.6230       0.0000      50.8611     -53.0070       0.9601      -0.7669      -0.5777      45.5645       1.0226
   11515.0    1429.2089       0.0000      50.8611     -57.1695       0.9153      -0.7681      -0.4947      51.6662       1.0226
   11516.0    1440.4721       0.0000      50.8611     -56.0938       1.0156      -0.8423      -0.5666      57.7679       1.0226
   11517.0    1443.7056       0.0000      50.8611     -55.1191       0.9360      -0.7669      -0.5356      63.8698       1.0226
   11518.0    1449.8382       0.0000      50.8611     -57.5285       0.9317      -0.7851      -0.4972      69.9721       1.0277
   11519.0    1463.2754       0.0000      50.8611     -57.3997       0.9605      -0.8070      -0.5182      75.6763       1.0172
   11520.0    1463.1966       0.0000      50.8611     -61.1204       0.8982      -0.7863      -0.4340      81.7749       1.0226
   11521.0    1460.3274       0.0000      50.8611     -61.2927       0.9883      -0.8667      -0.4749      87.8645       1.0226
   11522.0    1446.7593       0.0000      50.8611     -55.1537       0.8384      -0.6853      -0.4773      94.1501       1.0226
   11523.0    1455.7454       0.0000      50.8611     -56.9844       0.9856      -0.8265      -0.5368     100.4603       1.0226
   11524.0    1461.8958       0.0000      50.8611     -58.1791       0.9010      -0.7657      -0.4749     106.5622       1.0226
   11525.0    1460.2364       0.0000      50.8611     -61.2701       0.9451      -0.8277      -0.4538     112.6641       1.0226
   11526.0    1446.8547       0.0000      50.8611     -59.1548       0.9636      -0.8265      -0.4947     118.7658       1.0226
   11527.0    1448.2955       0.0000      50.8611     -62.7934       0.8183      -0.7267      -0.3745     124.8675       1.0226
   11528.0    1440.4721       0.0000      50.8611     -63.0284       0.9942      -0.8862      -0.4501     130.9694       1.0226
   11529.0    1437.9776       0.0000      50.8611     -66.0489       0.9712      -0.8874      -0.3943     137.0467       1.0226
