~VERSION INFORMATION
VERS.           2.0   :CWLS Log ASCII Standard - VERSION 2.0
WRAP.           NO    :One Line per depth step
PROD.  Schlumberger   :LAS Producer
PROG.  DLIS to ASCII 19C2-270                          :LAS Program name and version
CREA.        2017/09/16 17:42                          :LAS Creation date {YYYY/MM/DD hh:mm}
DLIS_CREA.  2017-Sep-15 13:45                          :DLIS Creation date and time {YYYY-MMM-DD hh:mm}
SOURCE.     LPC_S1-1_2B5.DLIS                          :DLIS File Name
FILE-ID.     PERFO_Perfo_WPGRT_026LTP                  :File Identification Number
#--------------------------------------------------
~WELL INFORMATION
#MNEM.UNIT      DATA             DESCRIPTION
#---- ------ --------------   -----------------------------
STRT .S        10666.0       :START TIME      
STOP .S        11234.0       :STOP TIME      
STEP .S            1.0       :STEP     
NULL .          -999.25      :NULL VALUE
COMP .        SHELL INTERNATIONAL E P                  :COMPANY
WELL .        WPP TEST 2                               :WELL
FLD  .        WILDCAT                                  :FIELD
LOC  .                                                 :LOCATION
CNTY .        HARRIS                                   :COUNTY
STAT .        TEXAS                                    :STATE
CTRY .                                                 :COUNTRY
API  .                                                 :API NUMBER
UWI  .                                                 :UNIQUE WELL ID
DATE .                                                 :LOG DATE
SRVC .        Schlumberger                             :SERVICE COMPANY
LATI .DEG                                              :LATITUDE
LONG .DEG                                              :LONGITUDE
GDAT .                                                 :GeoDetic Datum
#-----------------------------------------------------------------------------
~PARAMETER INFORMATION
#MNEM.UNIT    VALUE                      DESCRIPTION
#---- -----   --------------------       ------------------------
U-PHASE_B_COMP_PER_YT.                 0 :Phase B Comparator Period Yt
U-PHASE_A_COMP_PER_XT.                 0 :Phase A Comparator Period Xt
U-MAX_EXC_CUR_LIMIT.MA       240.00000   :Requested CM Current Limit
U-REQ_EXC_FQ.HZ              50          :Requested CM Frequency
U-TILT_Y_OFFSET.           0.19916       :WPTET Tilt Y Offset
U-TILT_Y_GAIN.           1.01796         :WPTET Tilt Y Gain
U-TILT_X_OFFSET.          -1.77103       :WPTET Tilt X Offset
U-TILT_X_GAIN.           1.00000         :WPTET Tilt X Gain
U-TILT_OFFSET_TOL.           0.00100     :WPTET Tilt Offset Calibration Tolerance
U-NO_TILT_CAL_ROTATIONS.                 3 :Number of Rotations for Tilt Calibration
HAZI .DEG        0.00000                 :Hole Azimuth
U-STD_TOL_TILT.           0.01000        :Tilt Standard Deviation Tolerance
U-GUN_POS_TOL.DEG        5.00000         :Gun Position Tolerance
ROT_ANGLE_THRESHOLD.DEG        5.00000   :Rotation Stop Angle Tolerance
STOP_ROT_ANGLE.DEG       80.00000        :Rotation Stop Angle
WITN .                                   :Witness's Name
ENGI .                                   :Engineer's Name
COUN .        HARRIS                     :County or Rig Name
FN   .        WILDCAT                    :Field Name
WN   .        WPP TEST 2                 :Well Name
CN   .        SHELL INTERNATIONAL E P    :Company Name
CLAB .        County                     :County/Rig Label
SLAB .        State                      :State/Province Label
RUN  .          1                        :RUN NUMBER
PDAT .        GROUND LEVEL               :Permanent Datum
EPD  .                                   :Elevation of Permanent Datum above Mean Sea Level
LMF  .                                   :Logging Measured From (Name of Logging Elevation Reference)
APD  .                                   :Elevation of Depth Reference (LMF) above Permanent Datum
#-----------------------------------------------------------------------------
~CURVE INFORMATION
#MNEM.UNIT   API CODE                                  DESCRIPTION
#---- -----  --------                                  -----------------------
TIME .S                                                :TIME {F10.1}
FREQ_EMF_SL.HZ                                         :Electromagnetic Field Frequency {F13.4}
PH_SH_WPPCM_SL.DEG                                     :WPPCM Phase Shift {F13.4}
FREQ_EXC_REQ_SL.HZ                                     :Requested Exciter Frequency {F13.4}
RB_SL.DEG                                              :Relative Bearing {F13.4}
SDEV_SL.DEG                                            :Sonde Deviation {F13.4}
TILX_SL.DEG                                            :X-axis Tilt {F13.4}
TILY_SL.DEG                                            :Y-axis Tilt {F13.4}
ROTA_SL.DEG                                            :Motor Rotation Angle {F13.4}
MSPE_SL.RPM                                            :Motor Speed {F13.4}
#-----------------------------------------------------------------------------
# 
#     TIME    FREQ_EMF_SL  PH_SH_WPPCM_ FREQ_EXC_REQ    RB_SL       SDEV_SL      TILX_SL      TILY_SL      ROTA_SL      MSPE_SL
#                          SL           _SL
~A  
# ...
   11107.0    1452.3932       0.0000      50.8611    -134.3266       4.1424      -2.9622       2.8931      95.6352       1.0226
   11108.0    1444.4732       0.0000      50.8611    -127.2581       4.2728      -3.3994       2.5848     101.7346       1.0226
   11109.0    1441.5117       0.0000      50.8611    -121.9347       4.2708      -3.6233       2.2577     107.8340       1.0226
   11110.0    1440.8298       0.0000      50.8611    -118.8231       4.4877      -3.9308       2.1618     113.9259       1.0226
   11111.0    1437.2099       0.0000      50.8611    -112.6020       4.5530      -4.2027       1.7482     120.0300       1.0226
   11112.0    1434.9490       0.0000      50.8611    -107.7203       4.6008      -4.3819       1.3990     126.1301       1.0226
   11113.0    1418.5828       0.0000      50.8611    -102.0244       4.6447      -4.5425       0.9666     132.2171       1.0226
   11114.0    1417.5908       0.0000      50.8611     -96.4746       4.8005      -4.7697       0.5404     138.7318       1.0226
   11115.0    1413.1179       0.0000      50.8611     -91.1024       4.7088      -4.7078       0.0906     144.8204       1.0214
   11116.0    1405.6057       0.0000      50.8611     -86.5596       4.8634      -4.8546      -0.2915     150.9210       1.0133
   11117.0    1388.1026       0.0000      50.8611     -80.9081       4.9259      -4.8639      -0.7775     157.0369       1.0226
   11118.0    1369.8055       0.0000      50.8611     -76.3498       4.9740      -4.8329      -1.1722     163.1490       1.0226
   11119.0    1359.1074       0.0000      50.8611     -72.7032       4.8520      -4.6321      -1.4411     169.2539       1.0226
   11120.0    1343.0286       0.0000      50.8611     -66.0112       4.9005      -4.4760      -1.9900     175.3535       1.0226
   11121.0    1320.3310       0.0000      50.8611     -62.0233       5.0628      -4.4700      -2.3721     181.4577       1.0226
   11122.0    1297.5543       0.0000      50.8611     -56.5776       5.0706      -4.2304      -2.7904     187.5620       1.0226
   11123.0    1268.6537       0.0000      50.8611     -52.5108       5.0517      -4.0065      -3.0719     193.6615       1.0226
   11124.0    1236.4738       0.0000      50.8611     -47.3300       4.9183      -3.6141      -3.3313     199.7610       1.0226
   11125.0    1219.5658       0.0000      50.8611     -43.1825       5.0635      -3.4626      -3.6899     205.8653       1.0226
   11126.0    1204.6960       0.0000      50.8611     -38.0267       5.0382      -3.1011      -3.9667     212.3622       1.0309
   11127.0    1185.4787       0.0000      50.8611     -32.3902       4.8278      -2.5836      -4.0753     218.4894       1.0226
   11128.0    1164.7825       0.0000      50.8611     -28.4314       4.7094      -2.2406      -4.1397     224.5937       1.0226
   11129.0    1154.9941       0.0000      50.8611     -21.6962       4.8612      -1.7941      -4.5156     230.6979       1.0226
   11130.0    1139.5867       0.0000      50.8611     -16.9778       4.8650      -1.4188      -4.6524     236.7975       1.0226
   11131.0    1139.1632       0.0000      50.8611     -13.0135       4.6591      -1.0480      -4.5391     242.9233       1.0251
   11132.0    1135.4840       0.0000      50.8611      -9.6348       4.3473      -0.7267      -4.2858     249.0282       1.0226
   11133.0    1121.4115       0.0000      50.8611      -2.7077       4.4309      -0.2091      -4.4259     255.1332       1.0226
   11134.0    1118.2558       0.0000      50.8611       5.0898       4.5361       0.4012      -4.5171     261.2325       1.0133
   11135.0    1121.0014       0.0000      50.8611       7.7490       4.3431       0.5850      -4.3032     267.3335       1.0226
   11136.0    1124.7933       0.0000      50.8611      12.8375       4.0832       0.9063      -3.9808     273.4399       1.0214
   11137.0    1137.1106       0.0000      50.8611      19.7142       4.1323       1.3929      -3.8896     279.5303       1.0226
   11138.0    1139.5867       0.0000      50.8611      26.0204       4.0619       1.7807      -3.6490     286.0485       1.0226
   11139.0    1143.9372       0.0000      50.8611      31.2201       3.9386       2.0402      -3.3675     292.1401       1.0226
   11140.0    1163.8930       0.0000      50.8611      37.0333       3.7075       2.2318      -2.9586     298.2441       1.0226
   11141.0    1174.4511       0.0000      50.8611      42.4218       3.6213       2.4419      -2.6724     304.3434       1.0226
   11142.0    1189.2594       0.0000      50.8611      48.3975       3.4583       2.5855      -2.2950     310.4427       1.0226
   11143.0    1203.9811       0.0000      50.8611      55.2256       3.4682       2.8481      -1.9773     316.5468       1.0226
   11144.0    1231.8316       0.0000      50.8611      62.5676       3.1292       2.7770      -1.4411     322.6515       1.0226
   11145.0    1250.3482       0.0000      50.8611      70.7777       3.1673       2.9903      -1.0416     328.7501       1.0321
   11146.0    1277.3477       0.0000      50.8611      75.6893       3.1467       3.0490      -0.7775     334.8625       1.0226
   11147.0    1301.8066       0.0000      50.8611      83.4980       3.2120       3.1912      -0.3639     340.9665       1.0226
   11148.0    1340.9631       0.0000      50.8611      94.3993       2.9559       2.9470       0.2259     347.0583       1.0214
   11149.0    1353.8734       0.0000      50.8611     100.4474       2.8508       2.8034       0.5169     353.1567       1.0226
   11150.0    1357.3842       0.0000      50.8611     110.9991       2.9269       2.7323       1.0484     359.6678       1.0226
   11151.0    1370.6140       0.0000      50.8611     119.0039       2.9872       2.6118       1.4479       5.7720       1.0226
   11152.0    1375.9785       0.0000      50.8611     123.8771       2.9587       2.4557       1.6490      11.8715       1.0226
   11153.0    1391.6952       0.0000      50.8611     135.8644       2.8992       2.0185       2.0800      17.9709       1.0321
   11154.0    1405.6057       0.0000      50.8611     142.3940       2.9941       1.8269       2.3709      24.0765       1.0238
   11155.0    1406.2500       0.0000      50.8611     151.1151       3.1677       1.5273       2.7737      30.1807       1.0226
   11156.0    1420.1253       0.0000      50.8611     159.2570       3.1043       1.0993       2.9025      36.2934       1.0226
   11157.0    1423.9953       0.0000      50.8611     165.4486       3.1165       0.7826       3.0157      42.3928       1.0226
   11158.0    1432.3626       0.0000      50.8611     173.6146       3.3498       0.3717       3.3287      48.4847       1.0226
   11159.0    1440.1535       0.0000      50.8611     178.4965       3.4622       0.0905       3.4608      54.6006       1.0238
   11160.0    1451.3683       0.0000      50.8611    -173.4147       3.4569      -0.3961       3.4340      60.7016       1.0226
   11161.0    1438.9041       0.0000      50.8611    -165.6645       3.5495      -0.8781       3.4387      66.8010       1.0226
   11162.0    1444.8177       0.0000      50.8611    -161.6049       3.6905      -1.1639       3.5017      73.3226       1.0321
   11163.0    1455.3995       0.0000      50.8611    -153.3352       3.8087      -1.7078       3.4025      79.4421       1.0238
   11164.0    1455.0550       0.0000      50.8611    -154.4910       3.8351      -1.6505       3.4608      79.9874       0.0005
   11165.0    1441.1701       0.0000      50.8611    -153.4405       3.7835      -1.6907       3.3837      79.9874       0.0005
   11166.0    1445.1636       0.0000      50.8611    -153.4422       3.7940      -1.6953       3.3931      79.9874       0.0005
   11167.0    1452.7377       0.0000      50.8611    -153.5343       3.8066      -1.6953       3.4072      79.9874       0.0005
   11168.0    1449.3992       0.0000      50.8611    -152.4888       3.8264      -1.7664       3.3931      79.9874       0.0005
   11169.0    1447.4468       0.0000      50.8611    -152.3906       3.7268      -1.7262       3.3019      79.9874       0.0005
