~VERSION INFORMATION
VERS.           2.0   :CWLS Log ASCII Standard - VERSION 2.0
WRAP.           NO    :One Line per depth step
PROD.  Schlumberger   :LAS Producer
PROG.  DLIS to ASCII 19C2-270                          :LAS Program name and version
CREA.        2017/09/16 17:42                          :LAS Creation date {YYYY/MM/DD hh:mm}
DLIS_CREA.  2017-Sep-15 16:01                          :DLIS Creation date and time {YYYY-MMM-DD hh:mm}
SOURCE.     LPC_S3-1_A5.DLIS                           :DLIS File Name
FILE-ID.     PERFO_Perfo_WPGRT_038LTP                  :File Identification Number
#--------------------------------------------------
~WELL INFORMATION
#MNEM.UNIT      DATA             DESCRIPTION
#---- ------ --------------   -----------------------------
STRT .S         1883.0       :START TIME      
STOP .S         2380.0       :STOP TIME      
STEP .S            1.0       :STEP     
NULL .          -999.25      :NULL VALUE
COMP .        SHELL INTERNATIONAL E P                  :COMPANY
WELL .        WPP TEST 2                               :WELL
FLD  .        WILDCAT                                  :FIELD
LOC  .                                                 :LOCATION
CNTY .        HARRIS                                   :COUNTY
STAT .        TEXAS                                    :STATE
CTRY .                                                 :COUNTRY
API  .                                                 :API NUMBER
UWI  .                                                 :UNIQUE WELL ID
DATE .                                                 :LOG DATE
SRVC .        Schlumberger                             :SERVICE COMPANY
LATI .DEG                                              :LATITUDE
LONG .DEG                                              :LONGITUDE
GDAT .                                                 :GeoDetic Datum
#-----------------------------------------------------------------------------
~PARAMETER INFORMATION
#MNEM.UNIT    VALUE                      DESCRIPTION
#---- -----   --------------------       ------------------------
U-PHASE_B_COMP_PER_YT.                 0 :Phase B Comparator Period Yt
U-PHASE_A_COMP_PER_XT.                 0 :Phase A Comparator Period Xt
U-MAX_EXC_CUR_LIMIT.MA       240.00000   :Requested CM Current Limit
U-REQ_EXC_FQ.HZ              50          :Requested CM Frequency
U-TILT_Y_OFFSET.           0.19916       :WPTET Tilt Y Offset
U-TILT_Y_GAIN.           1.01796         :WPTET Tilt Y Gain
U-TILT_X_OFFSET.          -1.77103       :WPTET Tilt X Offset
U-TILT_X_GAIN.           1.00000         :WPTET Tilt X Gain
U-TILT_OFFSET_TOL.           0.00100     :WPTET Tilt Offset Calibration Tolerance
U-NO_TILT_CAL_ROTATIONS.                 3 :Number of Rotations for Tilt Calibration
HAZI .DEG        0.00000                 :Hole Azimuth
U-STD_TOL_TILT.           0.01000        :Tilt Standard Deviation Tolerance
U-GUN_POS_TOL.DEG        5.00000         :Gun Position Tolerance
ROT_ANGLE_THRESHOLD.DEG        5.00000   :Rotation Stop Angle Tolerance
STOP_ROT_ANGLE.DEG        0.00000        :Rotation Stop Angle
WITN .                                   :Witness's Name
ENGI .                                   :Engineer's Name
COUN .        HARRIS                     :County or Rig Name
FN   .        WILDCAT                    :Field Name
WN   .        WPP TEST 2                 :Well Name
CN   .        SHELL INTERNATIONAL E P    :Company Name
CLAB .        County                     :County/Rig Label
SLAB .        State                      :State/Province Label
RUN  .          1                        :RUN NUMBER
PDAT .        GROUND LEVEL               :Permanent Datum
EPD  .                                   :Elevation of Permanent Datum above Mean Sea Level
LMF  .                                   :Logging Measured From (Name of Logging Elevation Reference)
APD  .                                   :Elevation of Depth Reference (LMF) above Permanent Datum
#-----------------------------------------------------------------------------
~CURVE INFORMATION
#MNEM.UNIT   API CODE                                  DESCRIPTION
#---- -----  --------                                  -----------------------
TIME .S                                                :TIME {F10.1}
FREQ_EMF_SL.HZ                                         :Electromagnetic Field Frequency {F13.4}
PH_SH_WPPCM_SL.DEG                                     :WPPCM Phase Shift {F13.4}
FREQ_EXC_REQ_SL.HZ                                     :Requested Exciter Frequency {F13.4}
RB_SL.DEG                                              :Relative Bearing {F13.4}
SDEV_SL.DEG                                            :Sonde Deviation {F13.4}
TILX_SL.DEG                                            :X-axis Tilt {F13.4}
TILY_SL.DEG                                            :Y-axis Tilt {F13.4}
ROTA_SL.DEG                                            :Motor Rotation Angle {F13.4}
MSPE_SL.RPM                                            :Motor Speed {F13.4}
#-----------------------------------------------------------------------------
# 
#     TIME    FREQ_EMF_SL  PH_SH_WPPCM_ FREQ_EXC_REQ    RB_SL       SDEV_SL      TILX_SL      TILY_SL      ROTA_SL      MSPE_SL
#                          SL           _SL
~A  
    1883.0    1552.0126       0.0000      50.8565     167.3448       3.4727 9999999.9999       3.3884      56.6870       1.0226
    1884.0    1538.0545       0.0000      50.8611     120.8839       3.4328       0.2258       3.4182      61.3511       1.0226
    1885.0    1535.7197       0.0000      50.8611    -176.1448       3.7442      -0.2542       3.7349      67.4529       1.0226
    1886.0    1530.8493       0.0000      50.8611    -169.1890       3.9430      -0.7389       3.8728      73.5547       1.0226
    1887.0    1535.2074       0.0000      50.8611    -164.2968       4.2853      -1.1590       4.1244      79.6591       1.0226
    1888.0    1518.6285       0.0000      50.8611    -152.9899       4.2700      -1.9378       3.8035      85.7733       1.0317
    1889.0    1511.1092       0.0000      50.8611    -150.4482       4.1315      -2.0365       3.5929      91.8862       1.0226
    1890.0    1499.2004       0.0000      50.8611    -148.4071       4.1086      -2.1509       3.4986      97.9880       1.0242
    1891.0    1486.5221       0.0000      50.8611    -137.3848       4.6626      -3.1551       3.4293     104.0906       1.0226
    1892.0    1466.9711       0.0000      50.8611    -131.8174       4.8830      -3.6371       3.2533     110.1786       1.0226
    1893.0    1463.4562       0.0000      50.8611    -125.0300       4.6852      -3.8352       2.6871     116.2827       1.0226
    1894.0    1438.3328       0.0000      50.8611    -121.0447       4.6471      -3.9802       2.3946     122.3845       1.0226
    1895.0    1423.3300       0.0000      50.8611    -118.7614       4.8375      -4.2396       2.3253     128.8950       1.0226
    1896.0    1411.4661       0.0000      50.8611    -108.4583       5.2262      -4.9564       1.6524     134.9969       1.0226
    1897.0    1391.4892       0.0000      50.8611    -103.4611       5.1733      -5.0307       1.2027     141.0988       1.0226
    1898.0    1375.9785       0.0000      50.8611    -100.6213       4.9430      -4.8577       0.9102     147.2007       1.0226
    1899.0    1354.7688       0.0000      50.8611     -95.8059       5.0848      -5.0586       0.5138     153.2799       1.0242
    1900.0    1337.7414       0.0000      50.8611     -91.1412       5.2912      -5.2900       0.1049     159.3930       1.0226
    1901.0    1318.0578       0.0000      50.8611     -81.5065       5.4745      -5.4139      -0.8071     165.4825       1.0226
    1902.0    1274.1297       0.0000      50.8611     -78.4715       5.2103      -5.1049      -1.0400     171.5844       1.0226
    1903.0    1226.1196       0.0000      50.8611     -75.6471       5.1720      -5.0089      -1.2818     177.6909       1.0317
    1904.0    1196.5916       0.0000      50.8611     -69.1325       5.4344      -5.0769      -1.9333     183.8171       1.0317
    1905.0    1165.1645       0.0000      50.8611     -64.1227       5.6414      -5.0742      -2.4586     189.9184       1.0242
    1906.0    1125.0000       0.0000      50.8611     -56.8131       5.3480      -4.4717      -2.9236     196.0216       1.0226
    1907.0    1096.3985       0.0000      50.8611     -55.9042       5.2264      -4.3260      -2.9270     202.5289       1.0226
    1908.0    1089.5142       0.0000      50.8611     -50.2545       5.5580      -4.2709      -3.5501     208.6308       1.0226
    1909.0    1068.9728       0.0000      50.8611     -44.4059       5.5736      -3.8971      -3.9777     214.7327       1.0226
    1910.0    1055.7433       0.0000      50.8611     -38.6118       5.4970      -3.4274      -4.2923     220.8223       1.0226
    1911.0    1041.9023       0.0000      50.8611     -33.0700       5.4028      -2.9454      -4.5251     226.9120       1.0153
    1912.0    1040.4986       0.0000      50.8611     -31.2247       5.2273      -2.7071      -4.4683     233.0047       1.0226
    1913.0    1037.0575       0.0000      50.8611     -25.4711       5.4039      -2.3211      -4.8772     239.1040       1.0226
    1914.0    1036.2311       0.0000      50.8611     -17.0971       5.2317      -1.5362      -4.9999     245.2059       1.0226
    1915.0    1034.2396       0.0000      50.8611     -13.8568       5.0530      -1.2087      -4.9056     251.3236       1.0226
    1916.0    1053.2021       0.0000      50.8611      -8.6827       5.0454      -0.7607      -4.9874     257.4152       1.0317
    1917.0    1067.8395       0.0000      50.8611      -7.8586       5.1018      -0.6961      -5.0532     263.5281       1.0226
    1918.0    1079.6835       0.0000      50.8611       2.9587       4.9595       0.2557      -4.9527     269.6429       1.0226
    1919.0    1110.3744       0.0000      50.8611       7.7342       4.8018       0.6451      -4.7580     276.1632       1.0226
    1920.0    1135.7625       0.0000      50.8611      13.6347       4.7344       1.1148      -4.6007     282.2527       1.0226
    1921.0    1171.7243       0.0000      50.8611      16.8725       4.6638       1.3524      -4.4621     288.3657       1.0210
    1922.0    1218.2660       0.0000      50.8611      23.1609       4.6934       1.8440      -4.3145     294.4571       1.0226
    1923.0    1255.9229       0.0000      50.8611      28.8452       4.2804       2.0632      -3.7483     300.5720       1.0226
    1924.0    1283.7916       0.0000      50.8611      36.5465       4.0640       2.4186      -3.2639     306.6636       1.0317
    1925.0    1313.6840       0.0000      50.8611      41.0616       4.1304       2.7120      -3.1128     312.7746       1.0137
    1926.0    1339.2858       0.0000      50.8611      47.5062       4.2006       3.0953      -2.8363     318.8790       1.0210
    1927.0    1357.3842       0.0000      50.8611      51.4272       3.9424       3.0796      -2.4558     324.9693       1.0210
    1928.0    1375.3564       0.0000      50.8611      63.4408       3.6718       3.2838      -1.6408     331.0728       1.0226
    1929.0    1390.8390       0.0000      50.8611      69.6226       3.6580       3.4289      -1.2728     337.1641       1.0226
    1930.0    1409.4997       0.0000      50.8611      74.3131       3.6742       3.5371      -0.9928     343.2664       1.0226
    1931.0    1428.2335       0.0000      50.8611      79.8791       3.6095       3.5528      -0.6345     349.7844       1.0137
    1932.0    1445.1533       0.0000      50.8611      88.0978       3.3043       3.3022      -0.1092     355.8757       1.0226
    1933.0    1460.6271       0.0000      50.8611     100.0384       3.3601       3.3084       0.5859       1.9919       1.0226
    1934.0    1476.2108       0.0000      50.8611     102.8806       3.5464       3.4568       0.7903       8.1200       1.0317
    1935.0    1490.1539       0.0000      50.8611     111.0941       3.4142       3.1851       1.2276      14.2345       1.0226
    1936.0    1507.8686       0.0000      50.8611     121.4593       3.2164       2.7433       1.6774      20.3476       1.0137
    1937.0    1520.9151       0.0000      50.8611     130.5652       3.3731       2.5608       2.1930      26.4302       1.0226
    1938.0    1525.2169       0.0000      50.8611     137.9149       3.5464       2.3757       2.6303      32.5557       1.0226
    1939.0    1529.5506       0.0000      50.8611     143.8959       3.4511       2.0326       2.7876      38.6609       1.0226
    1940.0    1539.0813       0.0000      50.8611     152.6606       3.4787       1.5968       3.0897      44.7627       1.0226
    1941.0    1541.9408       0.0000      50.8611     160.8659       3.4707       1.1366       3.2782      50.8522       1.0226
    1942.0    1545.3296       0.0000      50.8611     168.4069       3.7513       0.7533       3.6746      56.9645       1.0226
    1943.0    1543.4981       0.0000      50.8611     173.4266       3.9180       0.4477       3.8915      63.4743       1.0226
    1944.0    1542.4576       0.0000      50.8611     123.0393       3.6712       0.1325       3.6684      69.5755       1.0210
    1945.0    1544.8128       0.0000      50.8611    -171.4691       3.9037      -0.5783       3.8604      75.6663       1.0226
