~VERSION INFORMATION
VERS.           2.0   :CWLS Log ASCII Standard - VERSION 2.0
WRAP.           NO    :One Line per depth step
PROD.  Schlumberger   :LAS Producer
PROG.  DLIS to ASCII 19C2-270                          :LAS Program name and version
CREA.        2017/09/16 17:42                          :LAS Creation date {YYYY/MM/DD hh:mm}
DLIS_CREA.  2017-Sep-15 19:35                          :DLIS Creation date and time {YYYY-MMM-DD hh:mm}
SOURCE.     LPC_S5-1_2AV.DLIS                          :DLIS File Name
FILE-ID.     PERFO_Perfo_WPGRT_062LTP                  :File Identification Number
#--------------------------------------------------
~WELL INFORMATION
#MNEM.UNIT      DATA             DESCRIPTION
#---- ------ --------------   -----------------------------
STRT .S          757.0       :START TIME      
STOP .S         1169.0       :STOP TIME      
STEP .S            1.0       :STEP     
NULL .          -999.25      :NULL VALUE
COMP .        SHELL INTERNATIONAL E P                  :COMPANY
WELL .        WPP TEST 2                               :WELL
FLD  .        WILDCAT                                  :FIELD
LOC  .        NA                                       :LOCATION
CNTY .        HARRIS                                   :COUNTY
STAT .        TEXAS                                    :STATE
CTRY .                                                 :COUNTRY
API  .        NA                                       :API NUMBER
UWI  .                                                 :UNIQUE WELL ID
DATE .        15-Sep-2017                              :LOG DATE {DD-MMM-YYYY}
SRVC .        Schlumberger                             :SERVICE COMPANY
LATI .DEG                                              :LATITUDE
LONG .DEG                                              :LONGITUDE
GDAT .                                                 :GeoDetic Datum
SECT .        NA                                       :Section
RANG .        NA                                       :Range
TOWN .        NA                                       :Township
#-----------------------------------------------------------------------------
~PARAMETER INFORMATION
#MNEM.UNIT    VALUE                      DESCRIPTION
#---- -----   --------------------       ------------------------
U-PHASE_B_COMP_PER_YT.                 0 :Phase B Comparator Period Yt
U-PHASE_A_COMP_PER_XT.                 0 :Phase A Comparator Period Xt
U-MAX_EXC_CUR_LIMIT.MA       240.00000   :Requested CM Current Limit
U-REQ_EXC_FQ.HZ              50          :Requested CM Frequency
U-TILT_Y_OFFSET.           0.19916       :WPTET Tilt Y Offset
U-TILT_Y_GAIN.           1.01796         :WPTET Tilt Y Gain
U-TILT_X_OFFSET.          -1.77103       :WPTET Tilt X Offset
U-TILT_X_GAIN.           1.00000         :WPTET Tilt X Gain
U-TILT_OFFSET_TOL.           0.00100     :WPTET Tilt Offset Calibration Tolerance
U-NO_TILT_CAL_ROTATIONS.                 3 :Number of Rotations for Tilt Calibration
HAZI .DEG        0.00000                 :Hole Azimuth
U-STD_TOL_TILT.           0.01000        :Tilt Standard Deviation Tolerance
U-GUN_POS_TOL.DEG        5.00000         :Gun Position Tolerance
ROT_ANGLE_THRESHOLD.DEG        5.00000   :Rotation Stop Angle Tolerance
STOP_ROT_ANGLE.DEG        0.00000        :Rotation Stop Angle
WITN .        MR. DHRUA ARORA            :Witness's Name
ENGI .        MORRIS MOORE               :Engineer's Name
COUN .        HARRIS                     :County or Rig Name
FN   .        WILDCAT                    :Field Name
WN   .        WPP TEST 2                 :Well Name
CN   .        SHELL INTERNATIONAL E P    :Company Name
CLAB .        County                     :County/Rig Label
SLAB .        State                      :State/Province Label
RUN  .          1                        :RUN NUMBER
PDAT .        GROUND LEVEL               :Permanent Datum
EPD  .                                   :Elevation of Permanent Datum above Mean Sea Level
LMF  .          NA                       :Logging Measured From (Name of Logging Elevation Reference)
APD  .                                   :Elevation of Depth Reference (LMF) above Permanent Datum
#-----------------------------------------------------------------------------
~CURVE INFORMATION
#MNEM.UNIT   API CODE                                  DESCRIPTION
#---- -----  --------                                  -----------------------
TIME .S                                                :TIME {F10.1}
FREQ_EMF_SL.HZ                                         :Electromagnetic Field Frequency {F13.4}
PH_SH_WPPCM_SL.DEG                                     :WPPCM Phase Shift {F13.4}
FREQ_EXC_REQ_SL.HZ                                     :Requested Exciter Frequency {F13.4}
RB_SL.DEG                                              :Relative Bearing {F13.4}
SDEV_SL.DEG                                            :Sonde Deviation {F13.4}
TILX_SL.DEG                                            :X-axis Tilt {F13.4}
TILY_SL.DEG                                            :Y-axis Tilt {F13.4}
ROTA_SL.DEG                                            :Motor Rotation Angle {F13.4}
MSPE_SL.RPM                                            :Motor Speed {F13.4}
#-----------------------------------------------------------------------------
# 
#     TIME    FREQ_EMF_SL  PH_SH_WPPCM_ FREQ_EXC_REQ    RB_SL       SDEV_SL      TILX_SL      TILY_SL      ROTA_SL      MSPE_SL
#                          SL           _SL
~A  
     757.0    1399.6204       0.0000      50.8611     -57.7455       1.2338      -1.0381      -0.6590     240.1490       1.0226
     758.0    1374.6258       0.0000      50.8611     -56.2516       1.2426      -1.0332      -0.6903     246.3137       1.0213
     759.0    1373.2910       0.0000      50.8611     -57.0822       1.2499      -1.0480      -0.6797     252.7876       1.0226
     760.0    1356.4194       0.0000      50.8611     -52.4655       1.3599      -1.0783      -0.8281     258.8887       1.0108
     761.0    1342.4762       0.0000      50.8611     -42.5941       1.3197      -0.8923      -0.9715     264.9543       1.0200
     762.0    1329.7815       0.0000      50.8611     -49.1197       1.3131      -0.9930      -0.8589     271.0532       1.0239
     763.0    1311.4988       0.0000      50.8611     -42.1425       1.3516      -0.9072      -1.0017     277.1688       1.0307
     764.0    1297.2047       0.0000      50.8611     -42.3865       1.2939      -0.8683      -0.9538     283.2722       1.0320
     765.0    1278.4092       0.0000      50.8611     -38.2668       1.1005      -0.6816      -0.8639     289.3755       1.0134
     766.0    1260.3599       0.0000      50.8611     -42.2443       1.1367      -0.7664      -0.8382     295.4634       1.0226
     767.0    1245.8613       0.0000      50.8611     -47.8801       1.1433      -0.8472      -0.7670     301.5652       1.0226
     768.0    1238.7413       0.0000      50.8611     -51.7541       1.3720      -1.0773      -0.8336     307.6574       1.0226
     769.0    1223.3529       0.0000      50.8611     -37.1897       1.1358      -0.6865      -0.9048     313.7592       1.0226
     770.0    1208.3752       0.0000      50.8611     -44.6345       1.0848      -0.7619      -0.7721     319.9006       1.0320
     771.0    1204.7805       0.0000      50.8611     -40.3140       1.0619      -0.6860      -0.8029     326.3565       1.0226
     772.0    1202.7195       0.0000      50.8611     -49.1907       1.2129      -0.9176      -0.7922     332.4583       1.0226
     773.0    1193.7606       0.0000      50.8611     -33.7384       0.8523      -0.4753      -0.7054     338.5732       1.0226
     774.0    1174.8054       0.0000      50.8611     -41.8115       1.0906      -0.7267      -0.8129     344.6882       1.0213
     775.0    1180.9910       0.0000      50.8611     -43.8247       0.9347      -0.6464      -0.6746     350.7776       1.0226
     776.0    1188.6111       0.0000      50.8611     -41.0146       0.9164      -0.6012      -0.6915     356.8794       1.0226
     777.0    1179.7399       0.0000      50.8611     -45.0087       0.9426      -0.6667      -0.6645       2.9840       1.0226
     778.0    1181.9683       0.0000      50.8611     -31.4866       0.8818      -0.4554      -0.7519       9.0839       1.0226
     779.0    1191.7373       0.0000      50.8611     -47.8614       0.9602      -0.7118      -0.6443      15.2015       1.0226
     780.0    1192.5203       0.0000      50.8611     -53.1694       0.9698      -0.7773      -0.5777      21.3007       1.0226
     781.0    1193.2620       0.0000      50.8611     -53.8950       0.7680      -0.6216      -0.4500      27.3929       1.0226
     782.0    1206.0464       0.0000      50.8611     -46.6364       0.8340      -0.6062      -0.5727      33.4947       1.0213
     783.0    1216.7395       0.0000      50.8611     -51.0079       0.7801      -0.6062      -0.4909      39.9880       1.0213
     784.0    1225.7509       0.0000      50.8611     -52.0410       0.8645      -0.6816      -0.5318      46.0922       1.0226
     785.0    1237.6276       0.0000      50.8611     -52.7576       0.7681      -0.6111      -0.4651      52.1940       1.0226
     786.0    1251.3875       0.0000      50.8611     -59.9431       0.7708      -0.6667      -0.3834      58.2985       1.0226
     787.0    1266.6106       0.0000      50.8611     -57.3494       0.7677      -0.6464      -0.4142      64.3977       1.0226
     788.0    1283.6550       0.0000      50.8611     -56.9413       0.7322      -0.6124      -0.3990      70.4872       1.0134
     789.0    1305.7029       0.0000      50.8611     -63.7263       0.8441      -0.7569      -0.3733      76.6047       1.0226
     790.0    1335.8039       0.0000      50.8611     -62.9518       0.8325      -0.7416      -0.3783      82.7170       1.0226
     791.0    1349.5681       0.0000      50.8611      -9.8129       0.4926      -0.1276      -0.3990      88.8187       1.0226
     792.0    1364.2912       0.0000      50.8611     -70.1169       0.7791      -0.7316      -0.2658      94.9209       1.0226
     793.0    1369.2719       0.0000      50.8611     -87.2457       0.6772      -0.6711      -0.0406     101.0250       1.0226
     794.0    1386.1617       0.0000      50.8611     -67.9260       0.8710      -0.8070      -0.3273     107.1268       1.0226
     795.0    1394.7482       0.0000      50.8611     -66.0878       0.8994      -0.8219      -0.3632     113.6346       1.0226
     796.0    1399.2460       0.0000      50.8611     -65.3017       0.8614      -0.7817      -0.3581     119.7495       1.0226
     797.0    1406.2500       0.0000      50.8611     -70.1161       0.7915      -0.7416      -0.2663     125.8513       1.0226
     798.0    1411.5483       0.0000      50.8611     -75.5223       1.1108      -1.0733      -0.2758     131.9663       1.0226
     799.0    1422.2694       0.0000      50.8611     -65.2289       1.1601      -1.0530      -0.4858     138.0682       1.0226
     800.0    1426.2170       0.0000      50.8611     -68.7921       1.0059      -0.9374      -0.3632     144.1700       1.0226
     801.0    1421.1659       0.0000      50.8611     -75.2245       1.0273      -0.9930      -0.2607     150.2851       1.0226
     802.0    1428.7580       0.0000      50.8611     -69.5889       1.1027      -1.0332      -0.3834     156.4028       1.0226
     803.0    1429.4751       0.0000      50.8611     -75.2125       1.1884      -1.1487      -0.3016     162.5163       1.0134
     804.0    1426.2170       0.0000      50.8611     -64.4363       1.1760      -1.0579      -0.5065     168.6073       1.0226
     805.0    1434.2289       0.0000      50.8611     -71.3272       1.1247      -1.0629      -0.3627     174.7209       1.0213
     806.0    1426.9341       0.0000      50.8611     -73.3231       1.1994      -1.1487      -0.3425     180.8120       1.0226
     807.0    1427.2949       0.0000      50.8611     -64.8986       1.0850      -0.9826      -0.4601     187.3350       1.0226
     808.0    1433.5148       0.0000      50.8611     -70.7629       1.3187      -1.2439      -0.4344     193.4472       1.0226
     809.0    1430.9530       0.0000      50.8611     -57.1588       1.2770      -1.0728      -0.6903     199.5608       1.0213
     810.0    1432.7495       0.0000      50.8611     -66.1222       1.1067      -1.0079      -0.4495     205.6394       1.0134
     811.0    1420.8095       0.0000      50.8611     -63.4488       1.3738      -1.2290      -0.6136     211.7413       1.0226
     812.0    1417.2387       0.0000      50.8611     -61.9241       1.2277      -1.0832      -0.5777     217.8432       1.0226
     813.0    1420.1011       0.0000      50.8611     -61.7935       1.1796      -1.0381      -0.5570     223.9451       1.0226
     814.0    1400.3037       0.0000      50.8611     -55.9516       1.2347      -1.0227      -0.6903     230.0470       1.0226
     815.0    1398.2065       0.0000      50.8611     -60.2972       1.2586      -1.0931      -0.6236     236.1524       1.0226
     816.0    1379.3465       0.0000      50.8611     -58.7265       1.3102      -1.1184      -0.6797     242.2528       1.0134
     817.0    1386.4974       0.0000      50.8611     -53.3916       1.3118      -1.0530      -0.7822     248.3701       1.0147
     818.0    1361.3187       0.0000      50.8611     -58.7415       1.2614      -1.0783      -0.6544     254.4726       1.0226
     819.0    1344.4073       0.0000      50.8611     -48.9465       1.1835      -0.8923      -0.7771     260.9798       1.0226
