~VERSION INFORMATION
VERS.           2.0   :CWLS Log ASCII Standard - VERSION 2.0
WRAP.           NO    :One Line per depth step
PROD.  Schlumberger   :LAS Producer
PROG.  DLIS to ASCII 19C2-270                          :LAS Program name and version
CREA.        2017/09/16 17:42                          :LAS Creation date {YYYY/MM/DD hh:mm}
DLIS_CREA.  2017-Sep-15 15:33                          :DLIS Creation date and time {YYYY-MMM-DD hh:mm}
SOURCE.     LPC_S2-1_2BV.DLIS                          :DLIS File Name
FILE-ID.     PERFO_Perfo_WPGRT_036LTP                  :File Identification Number
#--------------------------------------------------
~WELL INFORMATION
#MNEM.UNIT      DATA             DESCRIPTION
#---- ------ --------------   -----------------------------
STRT .S          212.0       :START TIME      
STOP .S          624.0       :STOP TIME      
STEP .S            1.0       :STEP     
NULL .          -999.25      :NULL VALUE
COMP .        SHELL INTERNATIONAL E P                  :COMPANY
WELL .        WPP TEST 2                               :WELL
FLD  .        WILDCAT                                  :FIELD
LOC  .                                                 :LOCATION
CNTY .        HARRIS                                   :COUNTY
STAT .        TEXAS                                    :STATE
CTRY .                                                 :COUNTRY
API  .                                                 :API NUMBER
UWI  .                                                 :UNIQUE WELL ID
DATE .                                                 :LOG DATE
SRVC .        Schlumberger                             :SERVICE COMPANY
LATI .DEG                                              :LATITUDE
LONG .DEG                                              :LONGITUDE
GDAT .                                                 :GeoDetic Datum
#-----------------------------------------------------------------------------
~PARAMETER INFORMATION
#MNEM.UNIT    VALUE                      DESCRIPTION
#---- -----   --------------------       ------------------------
U-PHASE_B_COMP_PER_YT.                 0 :Phase B Comparator Period Yt
U-PHASE_A_COMP_PER_XT.                 0 :Phase A Comparator Period Xt
U-MAX_EXC_CUR_LIMIT.MA       240.00000   :Requested CM Current Limit
U-REQ_EXC_FQ.HZ              50          :Requested CM Frequency
U-TILT_Y_OFFSET.           0.19916       :WPTET Tilt Y Offset
U-TILT_Y_GAIN.           1.01796         :WPTET Tilt Y Gain
U-TILT_X_OFFSET.          -1.77103       :WPTET Tilt X Offset
U-TILT_X_GAIN.           1.00000         :WPTET Tilt X Gain
U-TILT_OFFSET_TOL.           0.00100     :WPTET Tilt Offset Calibration Tolerance
U-NO_TILT_CAL_ROTATIONS.                 3 :Number of Rotations for Tilt Calibration
HAZI .DEG        0.00000                 :Hole Azimuth
U-STD_TOL_TILT.           0.01000        :Tilt Standard Deviation Tolerance
U-GUN_POS_TOL.DEG        5.00000         :Gun Position Tolerance
ROT_ANGLE_THRESHOLD.DEG        5.00000   :Rotation Stop Angle Tolerance
STOP_ROT_ANGLE.DEG        0.00000        :Rotation Stop Angle
WITN .                                   :Witness's Name
ENGI .                                   :Engineer's Name
COUN .        HARRIS                     :County or Rig Name
FN   .        WILDCAT                    :Field Name
WN   .        WPP TEST 2                 :Well Name
CN   .        SHELL INTERNATIONAL E P    :Company Name
CLAB .        County                     :County/Rig Label
SLAB .        State                      :State/Province Label
RUN  .          1                        :RUN NUMBER
PDAT .        GROUND LEVEL               :Permanent Datum
EPD  .                                   :Elevation of Permanent Datum above Mean Sea Level
LMF  .                                   :Logging Measured From (Name of Logging Elevation Reference)
APD  .                                   :Elevation of Depth Reference (LMF) above Permanent Datum
#-----------------------------------------------------------------------------
~CURVE INFORMATION
#MNEM.UNIT   API CODE                                  DESCRIPTION
#---- -----  --------                                  -----------------------
TIME .S                                                :TIME {F10.1}
FREQ_EMF_SL.HZ                                         :Electromagnetic Field Frequency {F13.4}
PH_SH_WPPCM_SL.DEG                                     :WPPCM Phase Shift {F13.4}
FREQ_EXC_REQ_SL.HZ                                     :Requested Exciter Frequency {F13.4}
RB_SL.DEG                                              :Relative Bearing {F13.4}
SDEV_SL.DEG                                            :Sonde Deviation {F13.4}
TILX_SL.DEG                                            :X-axis Tilt {F13.4}
TILY_SL.DEG                                            :Y-axis Tilt {F13.4}
ROTA_SL.DEG                                            :Motor Rotation Angle {F13.4}
MSPE_SL.RPM                                            :Motor Speed {F13.4}
#-----------------------------------------------------------------------------
# 
#     TIME    FREQ_EMF_SL  PH_SH_WPPCM_ FREQ_EXC_REQ    RB_SL       SDEV_SL      TILX_SL      TILY_SL      ROTA_SL      MSPE_SL
#                          SL           _SL
~A  
# ...
     275.0    1439.9385       0.0000      50.8611     -31.7231       0.8673      -0.4418      -0.7365       4.3565       1.0334
     276.0    1443.7886       0.0000      50.8611     -50.6552       0.8309      -0.6426      -0.5245      10.4671       1.0226
     277.0    1444.4320       0.0000      50.8611     -59.7901       0.8561      -0.7388      -0.4303      16.5820       1.0258
     278.0    1454.8355       0.0000      50.8611     -52.3469       0.8852      -0.6987      -0.5406      22.6992       1.0334
     279.0    1459.9673       0.0000      50.8611     -57.8330       0.9099      -0.7706      -0.4836      28.8016       1.0226
     280.0    1457.8519       0.0000      50.8611     -57.2671       0.8258      -0.6950      -0.4427      34.9001       1.0258
     281.0    1455.7454       0.0000      50.8611     -53.5903       0.9570      -0.7669      -0.5691      41.0059       1.0226
     282.0    1455.4785       0.0000      50.8611     -56.9127       0.8862      -0.7426      -0.4836      47.5003       1.0226
     283.0    1458.7655       0.0000      50.8611     -58.1861       0.8989      -0.7631      -0.4712      53.6043       1.0226
     284.0    1454.8355       0.0000      50.8611     -62.4496       0.9288      -0.8229      -0.4303      59.7049       1.0226
     285.0    1446.4957       0.0000      50.8611     -62.5128       0.9944      -0.8752      -0.4626      65.8067       1.0226
     286.0    1445.8606       0.0000      50.8611     -60.9282       0.9981      -0.8631      -0.4911      71.9350       1.0334
     287.0    1432.0265       0.0000      50.8611     -65.1964       0.9602      -0.8715      -0.4018      78.0496       1.0226
     288.0    1434.6895       0.0000      50.8611     -64.1612       0.9868      -0.8874      -0.4303      84.1514       1.0226
     289.0    1431.1460       0.0000      50.8611     -65.4931       0.9003      -0.8192      -0.3733      90.2553       1.0226
     290.0    1418.4571       0.0000      50.8611     -63.1180       0.9968      -0.8874      -0.4513      96.3702       1.0226
     291.0    1414.7384       0.0000      50.8611     -65.7954       0.9692      -0.8836      -0.3980     102.4830       1.0258
     292.0    1412.5126       0.0000      50.8611     -63.7146       0.9905      -0.8874      -0.4389     108.5869       1.0226
     293.0    1404.5552       0.0000      50.8611     -65.5087       0.9583      -0.8715      -0.3980     114.6887       1.0226
     294.0    1389.5751       0.0000      50.8611     -67.4920       1.0835      -0.9994      -0.4104     121.1954       1.0226
     295.0    1373.0529       0.0000      50.8611     -65.3276       1.0524      -0.9555      -0.4389     127.2981       1.0226
     296.0    1371.4238       0.0000      50.8611     -64.1226       1.0327      -0.9275      -0.4513     133.4000       1.0226
     297.0    1353.9807       0.0000      50.8611     -62.1638       1.0353      -0.9154      -0.4836     139.4895       1.0226
     298.0    1343.6312       0.0000      50.8611     -63.7986       1.1233      -1.0079      -0.4959     145.5829       1.0194
     299.0    1332.0222       0.0000      50.8611     -68.8407       1.1840      -1.1041      -0.4265     151.6832       1.0226
     300.0    1328.4002       0.0000      50.8611     -63.5196       1.1397      -1.0200      -0.5083     157.7961       1.0226
     301.0    1309.5917       0.0000      50.8611     -62.1718       1.0898      -0.9640      -0.5083     163.8980       1.0226
     302.0    1296.3376       0.0000      50.8611     -52.6736       1.1872      -0.9397      -0.7203     170.0020       1.0226
     303.0    1274.9831       0.0000      50.8611     -63.4822       1.1789      -1.0433      -0.5131     176.0916       1.0226
     304.0    1254.6988       0.0000      50.8611     -59.8568       1.1629      -1.0041      -0.5815     182.1811       1.0226
     305.0    1234.2084       0.0000      50.8611     -61.3467       1.1207      -0.9836      -0.5368     188.2830       1.0226
     306.0    1220.0632       0.0000      50.8611     -61.7633       1.3629      -1.2013      -0.6433     194.6597       1.0194
     307.0    1212.5676       0.0000      50.8611     -53.5765       1.1632      -0.9322      -0.6794     200.8804       1.0226
     308.0    1201.9231       0.0000      50.8611     -54.4738       1.0721      -0.8631      -0.6234     206.9823       1.0152
     309.0    1201.9231       0.0000      50.8611     -56.4189       1.1668      -0.9714      -0.6433     213.0850       1.0301
     310.0    1199.2537       0.0000      50.8611     -58.3214       1.2031      -1.0237      -0.6310     219.2000       1.0226
     311.0    1194.3747       0.0000      50.8611     -58.2247       1.2046      -1.0237      -0.6348     225.3282       1.0226
     312.0    1198.1368       0.0000      50.8611     -56.0891       1.0278      -0.8526      -0.5739     231.4215       1.0202
     313.0    1203.1704       0.0000      50.8611     -56.2916       1.1674      -0.9714      -0.6471     237.5016       1.0163
     314.0    1207.3022       0.0000      50.8611     -56.8061       1.0795      -0.9032      -0.5901     243.5912       1.0152
     315.0    1228.8010       0.0000      50.8611     -54.7222       1.2427      -1.0116      -0.7203     249.6893       1.0226
     316.0    1233.7601       0.0000      50.8611     -54.4512       1.0977      -0.8948      -0.6348     255.7912       1.0226
     317.0    1249.5621       0.0000      50.8611     -53.1636       1.1945      -0.9555      -0.7165     261.9061       1.0152
     318.0    1266.6887       0.0000      50.8611     -53.7177       1.1358      -0.9154      -0.6719     268.2912       1.0226
     319.0    1295.8359       0.0000      50.8611     -49.3986       1.1005      -0.8350      -0.7165     274.5041       1.0194
     320.0    1307.4075       0.0000      50.8611     -46.6374       1.0384      -0.7547      -0.7127     280.6190       1.0226
     321.0    1318.4366       0.0000      50.8611     -50.0038       1.0900      -0.8350      -0.7004     286.7300       1.0185
     322.0    1329.7027       0.0000      50.8611     -49.6925       1.1272      -0.8593      -0.7289     292.8234       1.0152
     323.0    1349.8172       0.0000      50.8611     -49.3442       1.0589      -0.8033      -0.6880     298.9128       1.0226
     324.0    1355.4120       0.0000      50.8611     -46.3409       1.0393      -0.7510      -0.7165     305.0029       1.0226
     325.0    1362.4109       0.0000      50.8611     -52.3750       1.0393      -0.8229      -0.6348     311.1069       1.0152
     326.0    1377.6140       0.0000      50.8611     -45.6305       0.9780      -0.6987      -0.6842     317.2095       1.0226
     327.0    1387.9202       0.0000      50.8611     -52.3750       1.0393      -0.8229      -0.6348     323.3113       1.0226
     328.0    1392.8783       0.0000      50.8611     -53.1903       0.9452      -0.7510      -0.5702     329.4272       1.0226
     329.0    1403.4431       0.0000      50.8611     -54.3131       0.9958      -0.8070      -0.5815     335.5281       1.0152
     330.0    1415.6013       0.0000      50.8611     -49.9079       1.0065      -0.7706      -0.6471     341.9067       1.0152
     331.0    1422.7448       0.0000      50.8611     -49.5079       0.8511      -0.6464      -0.5530     348.1175       1.0152
     332.0    1433.1845       0.0000      50.8611     -50.6260       0.9561      -0.7388      -0.6062     354.2194       1.0269
     333.0    1442.8936       0.0000      50.8611     -51.6123       1.0258      -0.8033      -0.6348     109.2474       1.0226
     334.0    1440.8298       0.0000      50.8611     -39.0856       0.7070      -0.4502      -0.5368       6.4348       1.0226
     335.0    1445.8606       0.0000      50.8611     -50.0309       0.8800      -0.6744      -0.5653      12.5387       1.0226
     336.0    1451.4528       0.0000      50.8611     -53.0989       0.8740      -0.6987      -0.5245      18.6234       1.0139
     337.0    1452.4717       0.0000      50.8611     -58.9578       0.9172      -0.7864      -0.4674      24.7091       1.0194
