~VERSION INFORMATION
VERS.           2.0   :CWLS Log ASCII Standard - VERSION 2.0
WRAP.           NO    :One Line per depth step
PROD.  Schlumberger   :LAS Producer
PROG.  DLIS to ASCII 19C2-270                          :LAS Program name and version
CREA.        2017/09/16 17:42                          :LAS Creation date {YYYY/MM/DD hh:mm}
DLIS_CREA.  2017-Sep-15 14:49                          :DLIS Creation date and time {YYYY-MMM-DD hh:mm}
SOURCE.     LPC_S2-1_BV.DLIS                           :DLIS File Name
FILE-ID.     PERFO_Perfo_WPGRT_031LTP                  :File Identification Number
#--------------------------------------------------
~WELL INFORMATION
#MNEM.UNIT      DATA             DESCRIPTION
#---- ------ --------------   -----------------------------
STRT .S        14524.0       :START TIME      
STOP .S        14987.0       :STOP TIME      
STEP .S            1.0       :STEP     
NULL .          -999.25      :NULL VALUE
COMP .        SHELL INTERNATIONAL E P                  :COMPANY
WELL .        WPP TEST 2                               :WELL
FLD  .        WILDCAT                                  :FIELD
LOC  .                                                 :LOCATION
CNTY .        HARRIS                                   :COUNTY
STAT .        TEXAS                                    :STATE
CTRY .                                                 :COUNTRY
API  .                                                 :API NUMBER
UWI  .                                                 :UNIQUE WELL ID
DATE .                                                 :LOG DATE
SRVC .        Schlumberger                             :SERVICE COMPANY
LATI .DEG                                              :LATITUDE
LONG .DEG                                              :LONGITUDE
GDAT .                                                 :GeoDetic Datum
#-----------------------------------------------------------------------------
~PARAMETER INFORMATION
#MNEM.UNIT    VALUE                      DESCRIPTION
#---- -----   --------------------       ------------------------
U-PHASE_B_COMP_PER_YT.                 0 :Phase B Comparator Period Yt
U-PHASE_A_COMP_PER_XT.                 0 :Phase A Comparator Period Xt
U-MAX_EXC_CUR_LIMIT.MA       240.00000   :Requested CM Current Limit
U-REQ_EXC_FQ.HZ              50          :Requested CM Frequency
U-TILT_Y_OFFSET.           0.19916       :WPTET Tilt Y Offset
U-TILT_Y_GAIN.           1.01796         :WPTET Tilt Y Gain
U-TILT_X_OFFSET.          -1.77103       :WPTET Tilt X Offset
U-TILT_X_GAIN.           1.00000         :WPTET Tilt X Gain
U-TILT_OFFSET_TOL.           0.00100     :WPTET Tilt Offset Calibration Tolerance
U-NO_TILT_CAL_ROTATIONS.                 3 :Number of Rotations for Tilt Calibration
HAZI .DEG        0.00000                 :Hole Azimuth
U-STD_TOL_TILT.           0.01000        :Tilt Standard Deviation Tolerance
U-GUN_POS_TOL.DEG        5.00000         :Gun Position Tolerance
ROT_ANGLE_THRESHOLD.DEG        5.00000   :Rotation Stop Angle Tolerance
STOP_ROT_ANGLE.DEG       80.00000        :Rotation Stop Angle
WITN .                                   :Witness's Name
ENGI .                                   :Engineer's Name
COUN .        HARRIS                     :County or Rig Name
FN   .        WILDCAT                    :Field Name
WN   .        WPP TEST 2                 :Well Name
CN   .        SHELL INTERNATIONAL E P    :Company Name
CLAB .        County                     :County/Rig Label
SLAB .        State                      :State/Province Label
RUN  .          1                        :RUN NUMBER
PDAT .        GROUND LEVEL               :Permanent Datum
EPD  .                                   :Elevation of Permanent Datum above Mean Sea Level
LMF  .                                   :Logging Measured From (Name of Logging Elevation Reference)
APD  .                                   :Elevation of Depth Reference (LMF) above Permanent Datum
#-----------------------------------------------------------------------------
~CURVE INFORMATION
#MNEM.UNIT   API CODE                                  DESCRIPTION
#---- -----  --------                                  -----------------------
TIME .S                                                :TIME {F10.1}
FREQ_EMF_SL.HZ                                         :Electromagnetic Field Frequency {F13.4}
PH_SH_WPPCM_SL.DEG                                     :WPPCM Phase Shift {F13.4}
FREQ_EXC_REQ_SL.HZ                                     :Requested Exciter Frequency {F13.4}
RB_SL.DEG                                              :Relative Bearing {F13.4}
SDEV_SL.DEG                                            :Sonde Deviation {F13.4}
TILX_SL.DEG                                            :X-axis Tilt {F13.4}
TILY_SL.DEG                                            :Y-axis Tilt {F13.4}
ROTA_SL.DEG                                            :Motor Rotation Angle {F13.4}
MSPE_SL.RPM                                            :Motor Speed {F13.4}
#-----------------------------------------------------------------------------
# 
#     TIME    FREQ_EMF_SL  PH_SH_WPPCM_ FREQ_EXC_REQ    RB_SL       SDEV_SL      TILX_SL      TILY_SL      ROTA_SL      MSPE_SL
#                          SL           _SL
~A  
# ...
   14587.0    1531.8367       0.0000      50.8611     -52.6144       0.8899      -0.7060      -0.5372     162.8091       1.0226
   14588.0    1525.2169       0.0000      50.8611     -64.5438       0.9165      -0.8273      -0.3935     168.9080       1.0226
   14589.0    1502.3786       0.0000      50.8611     -61.8363       0.9179      -0.8070      -0.4340     175.0099       1.0226
   14590.0    1477.1174       0.0000      50.8611     -66.9860       0.8602      -0.7875      -0.3316     181.1055       1.0174
   14591.0    1466.3881       0.0000      50.8611     -67.9655       0.9380      -0.8675      -0.3534     187.1889       1.0121
   14592.0    1455.7454       0.0000      50.8611     -63.9470       0.9430      -0.8472      -0.4142     193.2783       1.0173
   14593.0    1437.8487       0.0000      50.8611     -60.6237       1.0166      -0.8866      -0.4959     199.3678       1.0173
   14594.0    1421.8779       0.0000      50.8611     -65.0953       0.9343      -0.8472      -0.3935     205.4574       1.0226
   14595.0    1402.0313       0.0000      50.8611     -62.2479       0.9347      -0.8269      -0.4348     211.9673       1.0226
   14596.0    1382.7311       0.0000      50.8611     -65.8473       0.8629      -0.7871      -0.3526     218.0630       1.0174
   14597.0    1362.6241       0.0000      50.8611     -74.4482       1.0263      -0.9888      -0.2709     224.1589       1.0226
   14598.0    1344.3865       0.0000      50.8611     -63.5370       0.9707      -0.8671      -0.4340     230.2607       1.0226
   14599.0    1314.2523       0.0000      50.8611     -66.5296       0.9913      -0.9072      -0.3943     236.3788       1.0226
   14600.0    1279.5407       0.0000      50.8611     -63.9933       0.8088      -0.7275      -0.3530     242.4651       1.0226
   14601.0    1247.7523       0.0000      50.8611     -65.5246       0.9969      -0.9068      -0.4138     248.5671       1.0173
   14602.0    1196.7858       0.0000      50.8611     -62.9995       1.0423      -0.9271      -0.4749     254.6442       1.0226
   14603.0    1147.9379       0.0000      50.8611     -59.6160       1.1007      -0.9478      -0.5579     260.7459       1.0226
   14604.0    1117.8199       0.0000      50.8611     -61.2179       0.9885      -0.8667      -0.4753     266.8476       1.0226
   14605.0    1095.1831       0.0000      50.8611     -66.9871       1.0104      -0.9279      -0.3931     272.9493       1.0173
   14606.0    1067.7602       0.0000      50.8611     -66.0724       1.1250      -1.0285      -0.4551     279.0547       1.0226
   14607.0    1035.5303       0.0000      50.8611     -56.5510       1.0864      -0.9068      -0.5980     285.5614       1.0226
   14608.0    1013.8535       0.0000      50.8611     -61.0576       1.1521      -1.0083      -0.5575     291.6761       1.0226
   14609.0    1004.4520       0.0000      50.8611     -58.6167       1.1097      -0.9474      -0.5777     297.7941       1.0226
   14610.0     993.8897       0.0000      50.8611     -59.2841       1.0591      -0.9068      -0.5376     303.8927       1.0226
   14611.0     986.8889       0.0000      50.8611     -61.4736       1.1245      -0.9880      -0.5368     309.9882       1.0174
   14612.0     982.6821       0.0000      50.8611     -59.4306       1.2179      -1.0488      -0.6190     316.0838       1.0226
   14613.0     995.2002       0.0000      50.8611     -58.9580       1.2000      -1.0281      -0.6186     322.1793       1.0173
   14614.0     991.7296       0.0000      50.8611     -55.2534       1.2758      -1.0492      -0.7206     328.2881       1.0226
   14615.0     998.7935       0.0000      50.8611     -59.2697       1.2905      -1.1085      -0.6591     334.3898       1.0226
   14616.0    1012.4958       0.0000      50.8611     -55.2307       1.0553      -0.8683      -0.5984     340.5207       1.0226
   14617.0    1038.6291       0.0000      50.8611     -51.7885       1.1030      -0.8667      -0.6801     346.6323       1.0226
   14618.0    1070.3103       0.0000      50.8611     -51.1419       1.0876      -0.8480      -0.6801     352.7221       1.0233
   14619.0    1097.8679       0.0000      50.8611     -53.2243       1.1351      -0.9076      -0.6805     359.2522       1.0279
   14620.0    1140.5455       0.0000      50.8611     -57.2494       1.0462      -0.8849      -0.5562       5.3605       1.0280
   14621.0    1182.8738       0.0000      50.8611     -53.5487       1.1128      -0.8870      -0.6607      11.4754       1.0226
   14622.0    1238.0447       0.0000      50.8611     -47.8650       1.1120      -0.8261      -0.7413      17.5650       1.0174
   14623.0    1268.0467       0.0000      50.8611     -48.6171       1.1823      -0.8870      -0.7817      23.6735       1.0279
   14624.0    1294.8895       0.0000      50.8611     -54.1301       1.0211      -0.8273      -0.5984      29.7819       1.0226
   14625.0    1320.4702       0.0000      50.8611     -55.7869       1.0185      -0.8422      -0.5727      35.8836       1.0226
   14626.0    1338.0000       0.0000      50.8611     -53.4561       1.0048      -0.8070      -0.5984      41.9740       1.0279
   14627.0    1365.2699       0.0000      50.8611     -45.9347       1.0950      -0.7867      -0.7615      48.0636       1.0226
   14628.0    1389.6080       0.0000      50.8611     -50.2889       0.9431      -0.7259      -0.5984      54.1561       1.0226
   14629.0    1413.3721       0.0000      50.8611     -60.7495       1.0637      -0.9283      -0.5162      60.2614       1.0279
   14630.0    1433.5023       0.0000      50.8611     -50.5843       0.9131      -0.7060      -0.5777      66.3697       1.0226
   14631.0    1449.7422       0.0000      50.8611     -53.4749       1.0046      -0.8070      -0.5980      72.8795       1.0226
   14632.0    1466.3575       0.0000      50.8611     -46.7913       1.0524      -0.7669      -0.7206      78.9879       1.0280
   14633.0    1491.3138       0.0000      50.8611     -49.6038       0.7963      -0.6062      -0.5162      85.0962       1.0226
   14634.0    1499.2916       0.0000      50.8611     -52.3387       0.9440      -0.7466      -0.5773      91.2110       1.0334
   14635.0    1523.5827       0.0000      50.8611     -43.4925       0.8527      -0.5863      -0.6190      97.3258       1.0226
   14636.0    1541.9408       0.0000      50.8611     -55.4944       0.8137      -0.6837      -0.4142     103.4276       1.0280
   14637.0    1550.4258       0.0000      50.8611     -53.8413       0.8583      -0.6985      -0.4968     109.5435       1.0226
   14638.0    1555.5595       0.0000      50.8611     -47.2235       0.8810      -0.6464      -0.5984     115.6397       1.0279
   14639.0    1574.7676       0.0000      50.8611     -51.8449       0.7717      -0.6066      -0.4753     121.7511       1.0226
   14640.0    1569.5182       0.0000      50.8611     -58.2225       0.9024      -0.7669      -0.4753     127.8440       1.0279
   14641.0    1565.9799       0.0000      50.8611     -57.9026       0.8580      -0.7271      -0.4551     133.9656       1.0226
   14642.0    1574.7324       0.0000      50.8611     -54.0779       0.9496      -0.7669      -0.5579     140.0902       1.0280
   14643.0    1565.9799       0.0000      50.8611     -54.5165       0.8922      -0.7263      -0.5166     146.4040       1.0226
   14644.0    1567.7451       0.0000      50.8611     -65.3001       0.8437      -0.7665      -0.3526     152.6941       1.0226
   14645.0    1547.0145       0.0000      50.8611     -59.1254       0.9644      -0.8269      -0.4955     158.7965       1.0228
   14646.0    1547.0145       0.0000      50.8611     -62.7588       0.9526      -0.8468      -0.4348     164.8931       1.0226
   14647.0    1520.2556       0.0000      50.8611     -60.5825       0.9265      -0.8070      -0.4551     171.0016       1.0226
   14648.0    1515.3556       0.0000      50.8611     -57.1697       0.8707      -0.7275      -0.4765     177.1035       1.0226
   14649.0    1501.1899       0.0000      50.8611     -65.1919       0.8560      -0.7766      -0.3582     183.2054       1.0226
