~VERSION INFORMATION
VERS.           2.0   :CWLS Log ASCII Standard - VERSION 2.0
WRAP.           NO    :One Line per depth step
PROD.  Schlumberger   :LAS Producer
PROG.  DLIS to ASCII 19C2-270                          :LAS Program name and version
CREA.        2017/09/16 17:42                          :LAS Creation date {YYYY/MM/DD hh:mm}
DLIS_CREA.  2017-Sep-15 18:10                          :DLIS Creation date and time {YYYY-MMM-DD hh:mm}
SOURCE.     LPC_S4-1_2A5.DLIS                          :DLIS File Name
FILE-ID.     PERFO_Perfo_WPGRT_053LTP                  :File Identification Number
#--------------------------------------------------
~WELL INFORMATION
#MNEM.UNIT      DATA             DESCRIPTION
#---- ------ --------------   -----------------------------
STRT .S         4226.0       :START TIME      
STOP .S         4689.0       :STOP TIME      
STEP .S            1.0       :STEP     
NULL .          -999.25      :NULL VALUE
COMP .        SHELL INTERNATIONAL E P                  :COMPANY
WELL .        WPP TEST 2                               :WELL
FLD  .        WILDCAT                                  :FIELD
LOC  .        NA                                       :LOCATION
CNTY .        HARRIS                                   :COUNTY
STAT .        TEXAS                                    :STATE
CTRY .                                                 :COUNTRY
API  .        NA                                       :API NUMBER
UWI  .                                                 :UNIQUE WELL ID
DATE .        15-Sep-2017                              :LOG DATE {DD-MMM-YYYY}
SRVC .        Schlumberger                             :SERVICE COMPANY
LATI .DEG                                              :LATITUDE
LONG .DEG                                              :LONGITUDE
GDAT .                                                 :GeoDetic Datum
SECT .        NA                                       :Section
RANG .        NA                                       :Range
TOWN .        NA                                       :Township
#-----------------------------------------------------------------------------
~PARAMETER INFORMATION
#MNEM.UNIT    VALUE                      DESCRIPTION
#---- -----   --------------------       ------------------------
U-PHASE_B_COMP_PER_YT.                 0 :Phase B Comparator Period Yt
U-PHASE_A_COMP_PER_XT.                 0 :Phase A Comparator Period Xt
U-MAX_EXC_CUR_LIMIT.MA       240.00000   :Requested CM Current Limit
U-REQ_EXC_FQ.HZ              50          :Requested CM Frequency
U-TILT_Y_OFFSET.           0.19916       :WPTET Tilt Y Offset
U-TILT_Y_GAIN.           1.01796         :WPTET Tilt Y Gain
U-TILT_X_OFFSET.          -1.77103       :WPTET Tilt X Offset
U-TILT_X_GAIN.           1.00000         :WPTET Tilt X Gain
U-TILT_OFFSET_TOL.           0.00100     :WPTET Tilt Offset Calibration Tolerance
U-NO_TILT_CAL_ROTATIONS.                 3 :Number of Rotations for Tilt Calibration
HAZI .DEG        0.00000                 :Hole Azimuth
U-STD_TOL_TILT.           0.01000        :Tilt Standard Deviation Tolerance
U-GUN_POS_TOL.DEG        5.00000         :Gun Position Tolerance
ROT_ANGLE_THRESHOLD.DEG        5.00000   :Rotation Stop Angle Tolerance
STOP_ROT_ANGLE.DEG        0.00000        :Rotation Stop Angle
WITN .        MR. DHRUA ARORA            :Witness's Name
ENGI .        MORRIS MOORE               :Engineer's Name
COUN .        HARRIS                     :County or Rig Name
FN   .        WILDCAT                    :Field Name
WN   .        WPP TEST 2                 :Well Name
CN   .        SHELL INTERNATIONAL E P    :Company Name
CLAB .        County                     :County/Rig Label
SLAB .        State                      :State/Province Label
RUN  .          1                        :RUN NUMBER
PDAT .        GROUND LEVEL               :Permanent Datum
EPD  .                                   :Elevation of Permanent Datum above Mean Sea Level
LMF  .          NA                       :Logging Measured From (Name of Logging Elevation Reference)
APD  .                                   :Elevation of Depth Reference (LMF) above Permanent Datum
#-----------------------------------------------------------------------------
~CURVE INFORMATION
#MNEM.UNIT   API CODE                                  DESCRIPTION
#---- -----  --------                                  -----------------------
TIME .S                                                :TIME {F10.1}
FREQ_EMF_SL.HZ                                         :Electromagnetic Field Frequency {F13.4}
PH_SH_WPPCM_SL.DEG                                     :WPPCM Phase Shift {F13.4}
FREQ_EXC_REQ_SL.HZ                                     :Requested Exciter Frequency {F13.4}
RB_SL.DEG                                              :Relative Bearing {F13.4}
SDEV_SL.DEG                                            :Sonde Deviation {F13.4}
TILX_SL.DEG                                            :X-axis Tilt {F13.4}
TILY_SL.DEG                                            :Y-axis Tilt {F13.4}
ROTA_SL.DEG                                            :Motor Rotation Angle {F13.4}
MSPE_SL.RPM                                            :Motor Speed {F13.4}
#-----------------------------------------------------------------------------
# 
#     TIME    FREQ_EMF_SL  PH_SH_WPPCM_ FREQ_EXC_REQ    RB_SL       SDEV_SL      TILX_SL      TILY_SL      ROTA_SL      MSPE_SL
#                          SL           _SL
~A  
# ...
    4478.0    1504.6719       0.0000      50.8611     150.8206       4.1630       2.0283       3.6337     229.9137       0.0656
    4479.0    1506.0047       0.0000      50.8611     154.7581       4.2069       1.7920       3.8047     233.2000       0.7482
    4480.0    1507.5313       0.0000      50.8611     160.1986       4.3101       1.4588       4.0547     238.3594       0.9906
    4481.0    1506.0047       0.0000      50.8611     167.1430       4.2678       0.9485       4.1606     244.4446       1.0152
    4482.0    1507.8988       0.0000      50.8611     174.2695       4.3223       0.4309       4.3000     250.5379       1.0226
    4483.0    1504.6719       0.0000      50.8611    -178.6125       4.4530      -0.1077       4.4515     256.6361       1.0183
    4484.0    1508.2924       0.0000      50.8611    -172.9342       4.5684      -0.5614       4.5333     262.7424       1.0226
    4485.0    1499.2004       0.0000      50.8611    -165.6560       4.7217      -1.1685       4.5742     269.2522       1.0226
    4486.0    1499.2004       0.0000      50.8611    -158.8680       4.7604      -1.7144       4.4394     275.3541       1.0226
    4487.0    1490.0471       0.0000      50.8611    -154.1144       4.8133      -2.0996       4.3288     281.4580       1.0226
    4488.0    1482.8448       0.0000      50.8611    -147.4095       5.0001      -2.6902       4.2109     287.5576       1.0226
    4489.0    1474.9702       0.0000      50.8611    -142.1993       5.0225      -3.0754       3.9656     293.6604       1.0226
    4490.0    1470.6310       0.0000      50.8611    -135.2931       5.1577      -3.6259       3.6626     299.7613       1.0226
    4491.0    1461.2725       0.0000      50.8611    -130.3970       5.3667      -4.0842       3.4749     305.8761       1.0226
    4492.0    1442.9157       0.0000      50.8611    -123.6704       5.3585      -4.4576       2.9675     311.9779       1.0226
    4493.0    1431.1678       0.0000      50.8611    -118.2369       5.5366      -4.8757       2.6162     318.0797       1.0226
    4494.0    1416.4247       0.0000      50.8611    -112.6088       5.6310      -5.1970       2.1618     324.1947       1.0226
    4495.0    1397.8628       0.0000      50.8611    -107.3677       5.5675      -5.3129       1.6591     330.2841       1.0226
    4496.0    1389.4516       0.0000      50.8611    -101.8294       5.6507      -5.5302       1.1563     336.3991       1.0226
    4497.0    1368.2633       0.0000      50.8611     -96.0168       5.7396      -5.7074       0.6007     342.9089       1.0226
    4498.0    1350.3337       0.0000      50.8611     -90.9128       5.8570      -5.8562       0.0933     349.0107       1.0226
    4499.0    1312.3976       0.0000      50.8611     -86.5163       5.9522      -5.9411      -0.3612     355.1125       1.0226
    4500.0    1290.4181       0.0000      50.8611     -81.0309       5.9697      -5.8963      -0.9289       1.2143       1.0195
    4501.0    1277.7247       0.0000      50.8611     -75.5584       6.0018      -5.8114      -1.4940       7.3048       1.0152
    4502.0    1249.1525       0.0000      50.8611     -69.4208       5.9086      -5.5302      -2.0738      13.4066       1.0226
    4503.0    1233.1758       0.0000      50.8611     -64.7219       6.0424      -5.4617      -2.5765      19.5084       1.0226
    4504.0    1218.5875       0.0000      50.8611     -60.3055       6.0843      -5.2820      -3.0095      25.6102       1.0226
    4505.0    1196.9948       0.0000      50.8611     -55.2119       6.0400      -4.9560      -3.4425      31.7084       1.0195
    4506.0    1181.5005       0.0000      50.8611     -50.5605       6.0955      -4.7032      -3.8682      37.8015       1.0226
    4507.0    1156.6803       0.0000      50.8611     -46.8474       6.1478      -4.4813      -4.2000      43.9033       1.0226
    4508.0    1153.1218       0.0000      50.8611     -40.7876       6.0380      -3.9400      -4.5680      50.0051       1.0226
    4509.0    1136.4469       0.0000      50.8611     -32.0380       5.8804      -3.1156      -4.9816      56.5171       1.0226
    4510.0    1125.0000       0.0000      50.8611     -30.6398       5.9920      -3.0491      -5.1525      62.6168       1.0226
    4511.0    1128.6116       0.0000      50.8611     -25.4822       5.9097      -2.5388      -5.3328      68.7062       1.0226
    4512.0    1126.8029       0.0000      50.8611     -20.8476       5.9594      -2.1181      -5.5660      74.8080       1.0258
    4513.0    1119.8362       0.0000      50.8611     -13.2889       5.8631      -1.3457      -5.7055      80.9360       1.0226
    4514.0    1129.0501       0.0000      50.8611      -8.3555       5.6477      -0.8189      -5.5875      87.0378       1.0226
    4515.0    1138.0841       0.0000      50.8611      -3.1540       5.5632      -0.3059      -5.5540      93.1396       1.0226
    4516.0    1140.1324       0.0000      50.8611       1.7110       5.5328       0.1642      -5.5299      99.2291       1.0226
    4517.0    1147.5757       0.0000      50.8611       7.5435       5.4314       0.7101      -5.3831     105.3404       1.0183
    4518.0    1165.7074       0.0000      50.8611      13.0133       5.2419       1.1776      -5.1069     111.4597       1.0226
    4519.0    1178.1301       0.0000      50.8611      18.0090       5.2524       1.6221      -4.9936     117.5615       1.0226
    4520.0    1190.4916       0.0000      50.8611      23.4872       5.1968       2.0685      -4.7651     123.6596       1.0183
    4521.0    1212.6728       0.0000      50.8611      28.8735       4.9442       2.3852      -4.3273     130.1739       1.0226
    4522.0    1236.6148       0.0000      50.8611      35.4261       4.8197       2.7915      -3.9258     136.2889       1.0226
    4523.0    1278.8417       0.0000      50.8611      40.4531       4.6695       3.0279      -3.5505     142.4040       1.0226
    4524.0    1309.5626       0.0000      50.8611      46.5020       4.6127       3.3446      -3.1704     148.5059       1.0226
    4525.0    1345.6551       0.0000      50.8611      53.3620       4.4692       3.5856      -2.6630     154.6208       1.0226
    4526.0    1373.2910       0.0000      50.8611      60.7581       4.4386       3.8714      -2.1650     160.7104       1.0152
    4527.0    1388.4546       0.0000      50.8611      67.7540       4.3636       4.0367      -1.6502     166.8123       1.0226
    4528.0    1410.2315       0.0000      50.8611      75.0019       4.1965       4.0531      -1.0851     172.9056       1.0302
    4529.0    1416.4247       0.0000      50.8611      84.8206       4.1386       4.1216      -0.3733     179.0189       1.0226
    4530.0    1434.0868       0.0000      50.8611      89.9255       4.0650       4.0650      -0.0053     185.1186       1.0226
    4531.0    1444.6649       0.0000      50.8611      98.2850       4.1034       4.0604       0.5913     191.2205       1.0226
    4532.0    1451.5131       0.0000      50.8611     105.0034       3.9789       3.8431       1.0290     197.3224       1.0226
    4533.0    1465.7459       0.0000      50.8611     113.8310       3.9976       3.6561       1.6135     203.8201       1.0258
    4534.0    1476.2398       0.0000      50.8611     120.6145       3.9499       3.3986       2.0103     209.9360       1.0226
    4535.0    1480.2632       0.0000      50.8611     128.9709       3.9593       3.0773       2.4889     216.0370       1.0226
    4536.0    1494.1406       0.0000      50.8611     135.7322       3.9843       2.7797       2.8522     222.1389       1.0226
    4537.0    1502.4038       0.0000      50.8611     145.4989       4.1794       2.3615       3.4434     228.2447       1.0258
    4538.0    1509.8092       0.0000      50.8611     149.1577       4.1143       2.1061       3.5305     234.3558       1.0226
    4539.0    1506.5741       0.0000      50.8611     158.8207       4.2001       1.5154       3.9153     240.4616       1.0258
    4540.0    1514.3942       0.0000      50.8611     165.0915       4.2685       1.0973       4.1244     246.5859       1.0226
