~VERSION INFORMATION
VERS.           2.0   :CWLS Log ASCII Standard - VERSION 2.0
WRAP.           NO    :One Line per depth step
PROD.  Schlumberger   :LAS Producer
PROG.  DLIS to ASCII 19C2-270                          :LAS Program name and version
CREA.        2017/09/16 17:42                          :LAS Creation date {YYYY/MM/DD hh:mm}
DLIS_CREA.  2017-Sep-15 14:49                          :DLIS Creation date and time {YYYY-MMM-DD hh:mm}
SOURCE.     LPC_S2-1_BV.DLIS                           :DLIS File Name
FILE-ID.     PERFO_Perfo_WPGRT_031LTP                  :File Identification Number
#--------------------------------------------------
~WELL INFORMATION
#MNEM.UNIT      DATA             DESCRIPTION
#---- ------ --------------   -----------------------------
STRT .S        14524.0       :START TIME      
STOP .S        14987.0       :STOP TIME      
STEP .S            1.0       :STEP     
NULL .          -999.25      :NULL VALUE
COMP .        SHELL INTERNATIONAL E P                  :COMPANY
WELL .        WPP TEST 2                               :WELL
FLD  .        WILDCAT                                  :FIELD
LOC  .                                                 :LOCATION
CNTY .        HARRIS                                   :COUNTY
STAT .        TEXAS                                    :STATE
CTRY .                                                 :COUNTRY
API  .                                                 :API NUMBER
UWI  .                                                 :UNIQUE WELL ID
DATE .                                                 :LOG DATE
SRVC .        Schlumberger                             :SERVICE COMPANY
LATI .DEG                                              :LATITUDE
LONG .DEG                                              :LONGITUDE
GDAT .                                                 :GeoDetic Datum
#-----------------------------------------------------------------------------
~PARAMETER INFORMATION
#MNEM.UNIT    VALUE                      DESCRIPTION
#---- -----   --------------------       ------------------------
U-PHASE_B_COMP_PER_YT.                 0 :Phase B Comparator Period Yt
U-PHASE_A_COMP_PER_XT.                 0 :Phase A Comparator Period Xt
U-MAX_EXC_CUR_LIMIT.MA       240.00000   :Requested CM Current Limit
U-REQ_EXC_FQ.HZ              50          :Requested CM Frequency
U-TILT_Y_OFFSET.           0.19916       :WPTET Tilt Y Offset
U-TILT_Y_GAIN.           1.01796         :WPTET Tilt Y Gain
U-TILT_X_OFFSET.          -1.77103       :WPTET Tilt X Offset
U-TILT_X_GAIN.           1.00000         :WPTET Tilt X Gain
U-TILT_OFFSET_TOL.           0.00100     :WPTET Tilt Offset Calibration Tolerance
U-NO_TILT_CAL_ROTATIONS.                 3 :Number of Rotations for Tilt Calibration
HAZI .DEG        0.00000                 :Hole Azimuth
U-STD_TOL_TILT.           0.01000        :Tilt Standard Deviation Tolerance
U-GUN_POS_TOL.DEG        5.00000         :Gun Position Tolerance
ROT_ANGLE_THRESHOLD.DEG        5.00000   :Rotation Stop Angle Tolerance
STOP_ROT_ANGLE.DEG       80.00000        :Rotation Stop Angle
WITN .                                   :Witness's Name
ENGI .                                   :Engineer's Name
COUN .        HARRIS                     :County or Rig Name
FN   .        WILDCAT                    :Field Name
WN   .        WPP TEST 2                 :Well Name
CN   .        SHELL INTERNATIONAL E P    :Company Name
CLAB .        County                     :County/Rig Label
SLAB .        State                      :State/Province Label
RUN  .          1                        :RUN NUMBER
PDAT .        GROUND LEVEL               :Permanent Datum
EPD  .                                   :Elevation of Permanent Datum above Mean Sea Level
LMF  .                                   :Logging Measured From (Name of Logging Elevation Reference)
APD  .                                   :Elevation of Depth Reference (LMF) above Permanent Datum
#-----------------------------------------------------------------------------
~CURVE INFORMATION
#MNEM.UNIT   API CODE                                  DESCRIPTION
#---- -----  --------                                  -----------------------
TIME .S                                                :TIME {F10.1}
FREQ_EMF_SL.HZ                                         :Electromagnetic Field Frequency {F13.4}
PH_SH_WPPCM_SL.DEG                                     :WPPCM Phase Shift {F13.4}
FREQ_EXC_REQ_SL.HZ                                     :Requested Exciter Frequency {F13.4}
RB_SL.DEG                                              :Relative Bearing {F13.4}
SDEV_SL.DEG                                            :Sonde Deviation {F13.4}
TILX_SL.DEG                                            :X-axis Tilt {F13.4}
TILY_SL.DEG                                            :Y-axis Tilt {F13.4}
ROTA_SL.DEG                                            :Motor Rotation Angle {F13.4}
MSPE_SL.RPM                                            :Motor Speed {F13.4}
#-----------------------------------------------------------------------------
# 
#     TIME    FREQ_EMF_SL  PH_SH_WPPCM_ FREQ_EXC_REQ    RB_SL       SDEV_SL      TILX_SL      TILY_SL      ROTA_SL      MSPE_SL
#                          SL           _SL
~A  
# ...
   14776.0    1230.2847       0.0000      50.8611     -64.3782       1.0064      -0.9072      -0.4348     260.2999       1.0226
   14777.0    1190.7067       0.0000      50.8611     -68.5861       0.9966      -0.9263      -0.3534     266.6021       1.0226
   14778.0    1155.4839       0.0000      50.8611     -64.4493       1.1887      -1.0679      -0.5154     272.7198       1.0226
   14779.0    1110.7672       0.0000      50.8611     -65.6998       1.1058      -1.0079      -0.4551     278.8090       1.0226
   14780.0    1089.2449       0.0000      50.8611     -61.9239       1.1456      -1.0075      -0.5376     284.8985       1.0226
   14781.0    1060.4941       0.0000      50.8611     -57.1993       1.1037      -0.9275      -0.5980     290.9938       1.0226
   14782.0    1030.2022       0.0000      50.8611     -61.5051       0.9273      -0.8082      -0.4284     297.0894       1.0226
   14783.0    1008.0578       0.0000      50.8611     -63.8321       1.0787      -0.9681      -0.4757     303.1910       1.0226
   14784.0     995.9439       0.0000      50.8611     -65.4778       1.1075      -1.0071      -0.4555     309.2865       1.0174
   14785.0     992.3970       0.0000      50.8611     -63.3255       1.0605      -0.9474      -0.4757     315.3954       1.0226
   14786.0     981.3166       0.0000      50.8611     -57.8248       1.0504      -0.8870      -0.5579     321.4848       1.0226
   14787.0     987.5509       0.0000      50.8611     -62.8643       1.1790      -1.0484      -0.5364     327.5864       1.0226
   14788.0     985.4427       0.0000      50.8611     -56.5590       1.1599      -0.9677      -0.6393     333.6922       1.0226
   14789.0     993.8237       0.0000      50.8611     -59.5456       1.0998      -0.9478      -0.5571     340.2062       1.0279
   14790.0     999.4746       0.0000      50.8611     -57.1024       1.1768      -0.9880      -0.6393     346.3143       1.0226
   14791.0    1021.2689       0.0000      50.8611     -59.0960       0.9651      -0.8273      -0.4963     352.4160       1.0226
   14792.0    1043.2523       0.0000      50.8611     -55.9874       1.2163      -1.0083      -0.6801     358.5177       1.0226
   14793.0    1083.5453       0.0000      50.8611     -55.8876       1.2446      -1.0277      -0.6996       4.6262       1.0226
   14794.0    1117.0199       0.0000      50.8611     -52.3330       1.1860      -0.9369      -0.7214      10.7349       1.0279
   14795.0    1159.3261       0.0000      50.8611     -52.3779       1.1471      -0.9076      -0.7000      16.8367       1.0226
   14796.0    1207.1977       0.0000      50.8611     -49.1500       1.1982      -0.9068      -0.7822      22.9386       1.0226
   14797.0    1250.0422       0.0000      50.8611     -49.9334       1.0843      -0.8269      -0.6996      29.0281       1.0226
   14798.0    1284.2914       0.0000      50.8611     -57.8446       1.0488      -0.8878      -0.5571      35.1299       1.0226
   14799.0    1311.8294       0.0000      50.8611     -55.9444       1.1445      -0.9482      -0.6388      41.2317       1.0226
   14800.0    1332.9522       0.0000      50.8611     -51.9140       1.1025      -0.8675      -0.6797      47.3469       1.0279
   14801.0    1352.2355       0.0000      50.8611     -50.3760       1.1007      -0.8468      -0.7008      53.8841       1.0226
   14802.0    1374.6856       0.0000      50.8611     -46.7174       1.0821      -0.7867      -0.7417      59.9714       1.0174
   14803.0    1397.8628       0.0000      50.8611     -48.5204       1.0274      -0.7673      -0.6793      66.0763       1.0226
   14804.0    1419.0370       0.0000      50.8611     -48.3822       1.0543      -0.7871      -0.7000      72.1911       1.0226
   14805.0    1440.8655       0.0000      50.8611     -49.5277       0.9544      -0.7263      -0.6186      78.2757       1.0228
   14806.0    1452.7377       0.0000      50.8611     -46.0786       1.0081      -0.7259      -0.6996      84.3840       1.0226
   14807.0    1480.3009       0.0000      50.8611     -46.9244       0.9952      -0.7267      -0.6797      90.4858       1.0226
   14808.0    1494.4384       0.0000      50.8611     -54.3444       0.9925      -0.8066      -0.5777      96.5876       1.0226
   14809.0    1515.3556       0.0000      50.8611     -50.7092       0.9127      -0.7064      -0.5777     102.6893       1.0226
   14810.0    1535.2074       0.0000      50.8611     -49.0447       0.9101      -0.6861      -0.5975     108.7919       1.0226
   14811.0    1547.0976       0.0000      50.8611     -47.7082       1.0091      -0.7462      -0.6793     114.9005       1.0279
   14812.0    1560.7504       0.0000      50.8611     -49.8110       0.9280      -0.7064      -0.5988     121.0088       1.0226
   14813.0    1566.0226       0.0000      50.8611     -46.2032       0.9236      -0.6666      -0.6393     127.5155       1.0226
   14814.0    1567.7451       0.0000      50.8611     -56.1691       0.9562      -0.7875      -0.5381     133.6275       1.0174
   14815.0    1571.2486       0.0000      50.8611     -54.4005       0.8176      -0.6654      -0.4749     139.7233       1.0226
   14816.0    1576.5568       0.0000      50.8611     -56.1896       0.8510      -0.7060      -0.4749     145.8383       1.0173
   14817.0    1567.6909       0.0000      50.8611     -59.6017       0.8189      -0.7064      -0.4142     151.9154       1.0226
   14818.0    1564.2573       0.0000      50.8611     -67.0146       0.8551      -0.7875      -0.3324     158.0304       1.0226
   14819.0    1553.8864       0.0000      50.8611     -62.8021       0.7722      -0.6865      -0.3530     164.1323       1.0173
   14820.0    1535.1813       0.0000      50.8611     -61.6918       0.9162      -0.8066      -0.4344     170.2482       1.0226
   14821.0    1536.8514       0.0000      50.8611     -66.7011       0.7919      -0.7271      -0.3117     176.3501       1.0226
   14822.0    1520.2885       0.0000      50.8611     -61.6706       0.9631      -0.8468      -0.4555     182.4589       1.0174
   14823.0    1513.7425       0.0000      50.8611     -68.8896       0.8654      -0.8070      -0.3117     188.5547       1.0173
   14824.0    1489.6716       0.0000      50.8611     -60.9160       0.8998      -0.7863      -0.4348     194.6443       1.0280
   14825.0    1480.2386       0.0000      50.8611     -59.8283       1.0293      -0.8878      -0.5158     201.1675       1.0226
   14826.0    1463.3363       0.0000      50.8611     -64.4090       1.0066      -0.9076      -0.4344     207.2694       1.0226
   14827.0    1451.2250       0.0000      50.8611     -66.6129       0.9440      -0.8667      -0.3733     213.3465       1.0226
   14828.0    1420.4546       0.0000      50.8611     -61.7688       0.9185      -0.8070      -0.4352     219.4484       1.0226
   14829.0    1403.4207       0.0000      50.8611     -64.0238       0.9894      -0.8874      -0.4340     225.5634       1.0226
   14830.0    1378.6436       0.0000      50.8611     -69.7522       1.0745      -1.0075      -0.3729     231.6530       1.0226
   14831.0    1356.0414       0.0000      50.8611     -65.8116       0.8627      -0.7867      -0.3530     237.7549       1.0226
   14832.0    1339.2858       0.0000      50.8611     -63.7639       1.0786      -0.9673      -0.4757     243.8568       1.0280
   14833.0    1316.6934       0.0000      50.8611     -63.2018       1.0596      -0.9466      -0.4753     249.9595       1.0226
   14834.0    1276.1164       0.0000      50.8611     -67.4067       1.0264      -0.9474      -0.3939     256.0491       1.0226
   14835.0    1241.1433       0.0000      50.8611     -69.1485       0.9951      -0.9279      -0.3522     262.1507       1.0226
   14836.0    1196.7991       0.0000      50.8611     -62.3630       1.0243      -0.9072      -0.4753     268.2524       1.0226
   14837.0    1156.4266       0.0000      50.8611     -65.1773       1.1330      -1.0281      -0.4753     274.7752       1.0226
   14838.0    1122.2982       0.0000      50.8611     -69.5877       1.0758      -1.0075      -0.3737     280.8768       1.0280
