~VERSION INFORMATION
VERS.           2.0   :CWLS Log ASCII Standard - VERSION 2.0
WRAP.           NO    :One Line per depth step
PROD.  Schlumberger   :LAS Producer
PROG.  DLIS to ASCII 19C2-270                          :LAS Program name and version
CREA.        2017/09/16 17:42                          :LAS Creation date {YYYY/MM/DD hh:mm}
DLIS_CREA.  2017-Sep-15 18:02                          :DLIS Creation date and time {YYYY-MMM-DD hh:mm}
SOURCE.     LPC_S4-1_2AV.DLIS                          :DLIS File Name
FILE-ID.     PERFO_Perfo_WPGRT_052LTP                  :File Identification Number
#--------------------------------------------------
~WELL INFORMATION
#MNEM.UNIT      DATA             DESCRIPTION
#---- ------ --------------   -----------------------------
STRT .S         3713.0       :START TIME      
STOP .S         4115.0       :STOP TIME      
STEP .S            1.0       :STEP     
NULL .          -999.25      :NULL VALUE
COMP .        SHELL INTERNATIONAL E P                  :COMPANY
WELL .        WPP TEST 2                               :WELL
FLD  .        WILDCAT                                  :FIELD
LOC  .        NA                                       :LOCATION
CNTY .        HARRIS                                   :COUNTY
STAT .        TEXAS                                    :STATE
CTRY .                                                 :COUNTRY
API  .        NA                                       :API NUMBER
UWI  .                                                 :UNIQUE WELL ID
DATE .        15-Sep-2017                              :LOG DATE {DD-MMM-YYYY}
SRVC .        Schlumberger                             :SERVICE COMPANY
LATI .DEG                                              :LATITUDE
LONG .DEG                                              :LONGITUDE
GDAT .                                                 :GeoDetic Datum
SECT .        NA                                       :Section
RANG .        NA                                       :Range
TOWN .        NA                                       :Township
#-----------------------------------------------------------------------------
~PARAMETER INFORMATION
#MNEM.UNIT    VALUE                      DESCRIPTION
#---- -----   --------------------       ------------------------
U-PHASE_B_COMP_PER_YT.                 0 :Phase B Comparator Period Yt
U-PHASE_A_COMP_PER_XT.                 0 :Phase A Comparator Period Xt
U-MAX_EXC_CUR_LIMIT.MA       240.00000   :Requested CM Current Limit
U-REQ_EXC_FQ.HZ              50          :Requested CM Frequency
U-TILT_Y_OFFSET.           0.19916       :WPTET Tilt Y Offset
U-TILT_Y_GAIN.           1.01796         :WPTET Tilt Y Gain
U-TILT_X_OFFSET.          -1.77103       :WPTET Tilt X Offset
U-TILT_X_GAIN.           1.00000         :WPTET Tilt X Gain
U-TILT_OFFSET_TOL.           0.00100     :WPTET Tilt Offset Calibration Tolerance
U-NO_TILT_CAL_ROTATIONS.                 3 :Number of Rotations for Tilt Calibration
HAZI .DEG        0.00000                 :Hole Azimuth
U-STD_TOL_TILT.           0.01000        :Tilt Standard Deviation Tolerance
U-GUN_POS_TOL.DEG        5.00000         :Gun Position Tolerance
ROT_ANGLE_THRESHOLD.DEG        5.00000   :Rotation Stop Angle Tolerance
STOP_ROT_ANGLE.DEG        0.00000        :Rotation Stop Angle
WITN .        MR. DHRUA ARORA            :Witness's Name
ENGI .        MORRIS MOORE               :Engineer's Name
COUN .        HARRIS                     :County or Rig Name
FN   .        WILDCAT                    :Field Name
WN   .        WPP TEST 2                 :Well Name
CN   .        SHELL INTERNATIONAL E P    :Company Name
CLAB .        County                     :County/Rig Label
SLAB .        State                      :State/Province Label
RUN  .          1                        :RUN NUMBER
PDAT .        GROUND LEVEL               :Permanent Datum
EPD  .                                   :Elevation of Permanent Datum above Mean Sea Level
LMF  .          NA                       :Logging Measured From (Name of Logging Elevation Reference)
APD  .                                   :Elevation of Depth Reference (LMF) above Permanent Datum
#-----------------------------------------------------------------------------
~CURVE INFORMATION
#MNEM.UNIT   API CODE                                  DESCRIPTION
#---- -----  --------                                  -----------------------
TIME .S                                                :TIME {F10.1}
FREQ_EMF_SL.HZ                                         :Electromagnetic Field Frequency {F13.4}
PH_SH_WPPCM_SL.DEG                                     :WPPCM Phase Shift {F13.4}
FREQ_EXC_REQ_SL.HZ                                     :Requested Exciter Frequency {F13.4}
RB_SL.DEG                                              :Relative Bearing {F13.4}
SDEV_SL.DEG                                            :Sonde Deviation {F13.4}
TILX_SL.DEG                                            :X-axis Tilt {F13.4}
TILY_SL.DEG                                            :Y-axis Tilt {F13.4}
ROTA_SL.DEG                                            :Motor Rotation Angle {F13.4}
MSPE_SL.RPM                                            :Motor Speed {F13.4}
#-----------------------------------------------------------------------------
# 
#     TIME    FREQ_EMF_SL  PH_SH_WPPCM_ FREQ_EXC_REQ    RB_SL       SDEV_SL      TILX_SL      TILY_SL      ROTA_SL      MSPE_SL
#                          SL           _SL
~A  
# ...
    3776.0    1439.8391       0.0000      50.8611     -71.2958       1.3757      -1.3025      -0.4417     263.2714       1.0226
    3777.0    1433.9606       0.0000      50.8611     -68.7452       1.2979      -1.2090      -0.4684     269.3873       1.0226
    3778.0    1438.8742       0.0000      50.8611     -68.0983       1.4760      -1.3694      -0.5506     275.4880       1.0226
    3779.0    1420.4546       0.0000      50.8611     -67.6029       1.4807      -1.3690      -0.5640     281.5697       1.0262
    3780.0    1411.8936       0.0000      50.8611     -62.1693       1.4434      -1.2759      -0.6729     287.6811       1.0226
    3781.0    1408.1206       0.0000      50.8611     -62.6487       1.3762      -1.2222      -0.6324     293.7829       1.0226
    3782.0    1402.5313       0.0000      50.8611     -59.4565       1.5126      -1.3025      -0.7684     299.8887       1.0226
    3783.0    1386.8212       0.0000      50.8611     -56.3656       1.4852      -1.2357      -0.8234     305.9865       1.0226
    3784.0    1376.8656       0.0000      50.8611     -54.2729       1.5053      -1.2225      -0.8777     312.0903       1.0226
    3785.0    1372.3909       0.0000      50.8611     -55.1918       1.4698      -1.2080      -0.8364     318.5981       1.0226
    3786.0    1356.5047       0.0000      50.8611     -55.2784       1.5187      -1.2485      -0.8639     324.6999       1.0226
    3787.0    1344.4073       0.0000      50.8611     -45.8700       1.5167      -1.0885      -1.0546     330.7976       1.0190
    3788.0    1336.7270       0.0000      50.8611     -48.0961       1.4982      -1.1152      -1.0003     336.8913       1.0226
    3789.0    1327.4942       0.0000      50.8611     -49.7479       1.3900      -1.0622      -0.8911     342.9807       1.0156
    3790.0    1319.1838       0.0000      50.8611     -44.8283       1.4108      -0.9944      -1.0003     349.0844       1.0156
    3791.0    1309.3512       0.0000      50.8611     -33.2770       1.4737      -0.8074      -1.2326     355.1983       1.0226
    3792.0    1290.9173       0.0000      50.8611     -41.4604       1.4618      -0.9677      -1.0955       1.2878       1.0156
    3793.0    1272.2310       0.0000      50.8611     -36.8477       1.3013      -0.7804      -1.0412       7.4049       1.0226
    3794.0    1265.3623       0.0000      50.8611     -38.8605       1.2675      -0.7935      -0.9870      13.5025       1.0156
    3795.0    1247.4034       0.0000      50.8611     -34.5847       1.2813      -0.7267      -1.0550      19.6094       1.0229
    3796.0    1247.4034       0.0000      50.8611     -33.0699       1.2585      -0.6865      -1.0546      25.7249       1.0226
    3797.0    1237.8961       0.0000      50.8611     -34.9539       1.1551      -0.6595      -0.9461      32.2327       1.0226
    3798.0    1226.3691       0.0000      50.8611     -34.8197       1.0857      -0.6197      -0.8914      38.3345       1.0226
    3799.0    1232.1187       0.0000      50.8611     -37.0334       1.2714      -0.7665      -1.0137      44.4373       1.0226
    3800.0    1235.0131       0.0000      50.8611     -26.3731       0.9723      -0.4310      -0.8505      50.5179       1.0192
    3801.0    1240.7995       0.0000      50.8611     -30.4326       1.0353      -0.5255      -0.8911      56.6162       1.0226
    3802.0    1240.8160       0.0000      50.8611     -25.5961       0.8225      -0.3520      -0.7409      62.7180       1.0226
    3803.0    1260.8414       0.0000      50.8611     -26.5740       0.9963      -0.4455      -0.8911      68.8218       1.0226
    3804.0    1267.7452       0.0000      50.8611     -36.0938       0.9000      -0.5383      -0.7138      74.9348       1.0226
    3805.0    1279.1921       0.0000      50.8611     -29.8521       0.7520      -0.3780      -0.6457      81.0516       1.0226
    3806.0    1299.6765       0.0000      50.8611     -26.4216       0.7559      -0.3389      -0.6732      87.1369       1.0156
    3807.0    1320.8298       0.0000      50.8611     -30.8327       0.7367      -0.3783      -0.6320      93.2306       1.0226
    3808.0    1326.6824       0.0000      50.8611     -30.6883       0.6094      -0.3119      -0.5234      99.3324       1.0226
    3809.0    1340.1839       0.0000      50.8611     -38.5119       0.5660      -0.3520      -0.4413     105.8401       1.0226
    3810.0    1350.4408       0.0000      50.8611     -35.8159       0.5783      -0.3385      -0.4688     111.9429       1.0226
    3811.0    1360.8960       0.0000      50.8611     -38.7465       0.5382      -0.3389      -0.4142     118.0527       1.0190
    3812.0    1371.5142       0.0000      50.8611     -52.5200       0.5495      -0.4324      -0.3320     124.1472       1.0226
    3813.0    1374.2358       0.0000      50.8611     -48.5337       0.5043      -0.3783      -0.3324     130.2490       1.0226
    3814.0    1388.6535       0.0000      50.8611     -54.9772       0.4140      -0.3385      -0.2369     136.3561       1.0226
    3815.0    1399.7111       0.0000      50.8611     -63.9893       0.4808      -0.4324      -0.2097     142.4818       1.0226
    3816.0    1404.3869       0.0000      50.8611     -65.6230       0.6055      -0.5394      -0.2499     148.5881       1.0297
    3817.0    1416.6605       0.0000      50.8611     -61.2160       0.5230      -0.4587      -0.2506     154.6864       1.0262
    3818.0    1428.1411       0.0000      50.8611     -78.2050       0.6221      -0.6062      -0.1276     160.7891       1.0226
    3819.0    1429.1158       0.0000      50.8611     -88.8097       0.6355      -0.6325      -0.0056     166.8930       1.0226
    3820.0    1436.8967       0.0000      50.8611     -78.3758       0.6490      -0.6332      -0.1276     172.9929       1.0226
    3821.0    1444.7875       0.0000      50.8611     -79.8220       0.7246      -0.7132      -0.1279     179.4928       1.0297
    3822.0    1453.7490       0.0000      50.8611     -84.2767       0.7714      -0.7665      -0.0737     185.6044       1.0226
    3823.0    1450.7494       0.0000      50.8611     -84.9678       0.9444      -0.9400      -0.0737     191.7053       1.0226
    3824.0    1457.7500       0.0000      50.8611     -85.9618       0.9158      -0.9133      -0.0599     197.8072       1.0226
    3825.0    1461.7983       0.0000      50.8611     -89.6937       0.9293      -0.9275      -0.0049     203.9100       1.0226
    3826.0    1466.8736       0.0000      50.8611     -84.9034       1.0003      -0.9947      -0.0867     210.0119       1.0226
    3827.0    1461.8376       0.0000      50.8611     -84.2898       1.1350      -1.1287      -0.1146     216.1158       1.0190
    3828.0    1465.8720       0.0000      50.8611     -83.7647       1.0683      -1.0619      -0.1142     222.2185       1.0297
    3829.0    1464.8298       0.0000      50.8611     -84.4194       1.1743      -1.1685      -0.1142     228.3204       1.0226
    3830.0    1460.8093       0.0000      50.8611     -77.4054       1.2113      -1.1820      -0.2644     234.4202       1.0190
    3831.0    1459.8330       0.0000      50.8611     -78.0754       1.2095      -1.1820      -0.2510     240.5118       1.0226
    3832.0    1456.7386       0.0000      50.8611     -71.3212       1.3217      -1.2485      -0.4272     246.6168       1.0226
    3833.0    1451.7304       0.0000      50.8611     -76.8953       1.4065      -1.3694      -0.3190     253.1094       1.0192
    3834.0    1450.7494       0.0000      50.8611     -76.9688       1.4196      -1.3825      -0.3190     259.1995       1.0226
    3835.0    1443.8266       0.0000      50.8611     -74.2195       1.4231      -1.3694      -0.3870     265.3013       1.0226
    3836.0    1443.7748       0.0000      50.8611     -69.8973       1.5187      -1.4230      -0.5238     271.4294       1.0297
    3837.0    1438.8524       0.0000      50.8611     -66.1181       1.4258      -1.3025      -0.5781     277.5332       1.0226
    3838.0    1433.0092       0.0000      50.8611     -67.3586       1.4996      -1.3829      -0.5781     283.6482       1.0297
