~VERSION INFORMATION
VERS.           2.0   :CWLS Log ASCII Standard - VERSION 2.0
WRAP.           NO    :One Line per depth step
PROD.  Schlumberger   :LAS Producer
PROG.  DLIS to ASCII 19C2-270                          :LAS Program name and version
CREA.        2017/09/16 17:42                          :LAS Creation date {YYYY/MM/DD hh:mm}
DLIS_CREA.  2017-Sep-15 13:45                          :DLIS Creation date and time {YYYY-MMM-DD hh:mm}
SOURCE.     LPC_S1-1_2B5.DLIS                          :DLIS File Name
FILE-ID.     PERFO_Perfo_WPGRT_026LTP                  :File Identification Number
#--------------------------------------------------
~WELL INFORMATION
#MNEM.UNIT      DATA             DESCRIPTION
#---- ------ --------------   -----------------------------
STRT .S        10666.0       :START TIME      
STOP .S        11234.0       :STOP TIME      
STEP .S            1.0       :STEP     
NULL .          -999.25      :NULL VALUE
COMP .        SHELL INTERNATIONAL E P                  :COMPANY
WELL .        WPP TEST 2                               :WELL
FLD  .        WILDCAT                                  :FIELD
LOC  .                                                 :LOCATION
CNTY .        HARRIS                                   :COUNTY
STAT .        TEXAS                                    :STATE
CTRY .                                                 :COUNTRY
API  .                                                 :API NUMBER
UWI  .                                                 :UNIQUE WELL ID
DATE .                                                 :LOG DATE
SRVC .        Schlumberger                             :SERVICE COMPANY
LATI .DEG                                              :LATITUDE
LONG .DEG                                              :LONGITUDE
GDAT .                                                 :GeoDetic Datum
#-----------------------------------------------------------------------------
~PARAMETER INFORMATION
#MNEM.UNIT    VALUE                      DESCRIPTION
#---- -----   --------------------       ------------------------
U-PHASE_B_COMP_PER_YT.                 0 :Phase B Comparator Period Yt
U-PHASE_A_COMP_PER_XT.                 0 :Phase A Comparator Period Xt
U-MAX_EXC_CUR_LIMIT.MA       240.00000   :Requested CM Current Limit
U-REQ_EXC_FQ.HZ              50          :Requested CM Frequency
U-TILT_Y_OFFSET.           0.19916       :WPTET Tilt Y Offset
U-TILT_Y_GAIN.           1.01796         :WPTET Tilt Y Gain
U-TILT_X_OFFSET.          -1.77103       :WPTET Tilt X Offset
U-TILT_X_GAIN.           1.00000         :WPTET Tilt X Gain
U-TILT_OFFSET_TOL.           0.00100     :WPTET Tilt Offset Calibration Tolerance
U-NO_TILT_CAL_ROTATIONS.                 3 :Number of Rotations for Tilt Calibration
HAZI .DEG        0.00000                 :Hole Azimuth
U-STD_TOL_TILT.           0.01000        :Tilt Standard Deviation Tolerance
U-GUN_POS_TOL.DEG        5.00000         :Gun Position Tolerance
ROT_ANGLE_THRESHOLD.DEG        5.00000   :Rotation Stop Angle Tolerance
STOP_ROT_ANGLE.DEG       80.00000        :Rotation Stop Angle
WITN .                                   :Witness's Name
ENGI .                                   :Engineer's Name
COUN .        HARRIS                     :County or Rig Name
FN   .        WILDCAT                    :Field Name
WN   .        WPP TEST 2                 :Well Name
CN   .        SHELL INTERNATIONAL E P    :Company Name
CLAB .        County                     :County/Rig Label
SLAB .        State                      :State/Province Label
RUN  .          1                        :RUN NUMBER
PDAT .        GROUND LEVEL               :Permanent Datum
EPD  .                                   :Elevation of Permanent Datum above Mean Sea Level
LMF  .                                   :Logging Measured From (Name of Logging Elevation Reference)
APD  .                                   :Elevation of Depth Reference (LMF) above Permanent Datum
#-----------------------------------------------------------------------------
~CURVE INFORMATION
#MNEM.UNIT   API CODE                                  DESCRIPTION
#---- -----  --------                                  -----------------------
TIME .S                                                :TIME {F10.1}
FREQ_EMF_SL.HZ                                         :Electromagnetic Field Frequency {F13.4}
PH_SH_WPPCM_SL.DEG                                     :WPPCM Phase Shift {F13.4}
FREQ_EXC_REQ_SL.HZ                                     :Requested Exciter Frequency {F13.4}
RB_SL.DEG                                              :Relative Bearing {F13.4}
SDEV_SL.DEG                                            :Sonde Deviation {F13.4}
TILX_SL.DEG                                            :X-axis Tilt {F13.4}
TILY_SL.DEG                                            :Y-axis Tilt {F13.4}
ROTA_SL.DEG                                            :Motor Rotation Angle {F13.4}
MSPE_SL.RPM                                            :Motor Speed {F13.4}
#-----------------------------------------------------------------------------
# 
#     TIME    FREQ_EMF_SL  PH_SH_WPPCM_ FREQ_EXC_REQ    RB_SL       SDEV_SL      TILX_SL      TILY_SL      ROTA_SL      MSPE_SL
#                          SL           _SL
~A  
# ...
   10792.0    1242.7769       0.0000      50.8611     -49.2566       5.0094      -3.7932      -3.2669     183.9194       1.0238
   10793.0    1217.1480       0.0000      50.8611     -45.2273       5.0945      -3.6141      -3.5858     190.0258       1.0235
   10794.0    1201.9231       0.0000      50.8611     -40.1483       4.9307      -3.1769      -3.7670     196.1191       1.0226
   10795.0    1187.7112       0.0000      50.8611     -34.2996       4.6837      -2.6376      -3.8676     202.2179       1.0226
   10796.0    1166.4910       0.0000      50.8611     -30.6448       4.9343      -2.5125      -4.2435     208.3052       1.0226
   10797.0    1151.6494       0.0000      50.8611     -26.1458       4.8757      -2.1464      -4.3756     214.4094       1.0226
   10798.0    1141.4368       0.0000      50.8611     -18.6884       4.6952      -1.5051      -4.4447     220.5143       1.0133
   10799.0    1129.2396       0.0000      50.8611     -15.4209       4.7188      -1.2535      -4.5486     226.9605       1.0238
   10800.0    1123.2029       0.0000      50.8611     -10.5053       4.6263      -0.8426      -4.5486     233.1120       1.0226
   10801.0    1117.2355       0.0000      50.8611      -4.6841       4.5323      -0.3698      -4.5171     239.2038       1.0226
   10802.0    1119.6259       0.0000      50.8611      -0.3070       4.3948      -0.0222      -4.3944     245.3166       1.0238
   10803.0    1114.5061       0.0000      50.8611       4.3304       4.3298       0.3269      -4.3173     251.4053       1.0214
   10804.0    1118.2558       0.0000      50.8611       9.5891       4.2957       0.7147      -4.2356     257.4956       1.0226
   10805.0    1133.5487       0.0000      50.8611      15.6336       4.1244       1.1106      -3.9714     263.5996       1.0226
   10806.0    1128.4036       0.0000      50.8611      22.4595       4.0818       1.5582      -3.7717     269.7044       1.0226
   10807.0    1131.9057       0.0000      50.8611      27.4375       3.9638       1.8255      -3.5169     275.7983       1.0226
   10808.0    1151.8004       0.0000      50.8611      33.7055       3.8958       2.1607      -3.2401     281.8913       1.0133
   10809.0    1167.0951       0.0000      50.8611      38.4472       3.6280       2.2549      -2.8407     287.9816       1.0226
   10810.0    1173.1586       0.0000      50.8611      45.3636       3.5586       2.5314      -2.4994     294.0809       1.0226
   10811.0    1183.9417       0.0000      50.8611      52.6659       3.4645       2.7540      -2.1000     300.5440       1.0226
   10812.0    1206.0464       0.0000      50.8611      60.0699       3.4105       2.9548      -1.7005     306.6970       1.0214
   10813.0    1228.0145       0.0000      50.8611      65.0547       3.2353       2.9331      -1.3640     312.7949       1.0226
   10814.0    1254.0497       0.0000      50.8611      73.8509       3.1748       3.0490      -0.8827     318.8942       1.0226
   10815.0    1271.4738       0.0000      50.8611      81.4316       3.1195       3.0845      -0.4645     325.0115       1.0226
   10816.0    1314.8194       0.0000      50.8611      88.3468       3.0193       3.0180      -0.0871     331.1045       1.0226
   10817.0    1340.6885       0.0000      50.8611      96.4756       2.9652       2.9459       0.3349     337.2038       1.0297
   10818.0    1351.8650       0.0000      50.8611     106.4625       2.9289       2.8080       0.8299     343.3558       1.0226
   10819.0    1367.6420       0.0000      50.8611     115.2449       2.9274       2.6473       1.2481     349.4714       1.0238
   10820.0    1381.3850       0.0000      50.8611     120.4474       2.8954       2.4959       1.4667     355.5900       1.0226
   10821.0    1387.1495       0.0000      50.8611     131.7850       2.9716       2.2147       1.9794       1.7156       1.0226
   10822.0    1390.8484       0.0000      50.8611     132.0502       3.0777       2.2844       2.0579       7.8151       1.0226
   10823.0    1405.9272       0.0000      50.8611     144.5434       3.0177       1.7498       2.4574      13.9201       1.0226
   10824.0    1422.6700       0.0000      50.8611     152.7679       3.0754       1.4068       2.7342      20.4299       1.0133
   10825.0    1420.1253       0.0000      50.8611     160.3818       3.2068       1.0762       3.0204      26.5171       1.0226
   10826.0    1429.7867       0.0000      50.8611     168.8293       3.3241       0.6436       3.2611      32.6213       1.0226
   10827.0    1437.8834       0.0000      50.8611     174.6803       3.3305       0.3084       3.3160      38.7254       1.0226
   10828.0    1442.7720       0.0000      50.8611    -177.4545       3.3873      -0.1505       3.3837      44.8381       1.0226
   10829.0    1444.4448       0.0000      50.8611    -170.8171       3.5197      -0.5614       3.4745      50.9376       1.0226
   10830.0    1444.1302       0.0000      50.8611    -164.3224       3.6798      -0.9940       3.5426      57.0417       1.0321
   10831.0    1455.3995       0.0000      50.8611    -156.8463       3.7798      -1.4852       3.4749      62.0732       0.0005
   10832.0    1457.7278       0.0000      50.8611    -159.5712       3.7084      -1.2936       3.4749      62.0732       0.0005
   10833.0    1449.3992       0.0000      50.8611    -158.5368       3.7191      -1.3601       3.4608      62.0732       0.0005
   10834.0    1447.1023       0.0000      50.8611    -159.0055       3.7122      -1.3292       3.4655      62.0732       0.0005
   10835.0    1450.0867       0.0000      50.8611    -158.1498       3.7396      -1.3910       3.4702      62.0732       0.0005
   10836.0    1454.7120       0.0000      50.8611    -158.0794       3.6579      -1.3647       3.3931      62.0732       0.0005
   10837.0    1446.4176       0.0000      50.8611    -158.6705       3.7545      -1.3647       3.4970      62.0732       0.0005
   10838.0    1444.8177       0.0000      50.8611    -158.7892       3.8004      -1.3740       3.5426      62.0732       0.0005
   10839.0    1449.7422       0.0000      50.8611    -157.7316       3.6278      -1.3740       3.3569      62.0732       0.0005
   10840.0    1449.3992       0.0000      50.8611    -157.8805       3.6631      -1.3786       3.3931      62.0732       0.0005
   10841.0    1449.7422       0.0000      50.8611    -157.2466       3.7142      -1.4358       3.4246      62.0732       0.0005
   10842.0    1452.7377       0.0000      50.8611    -158.3624       3.7286      -1.3740       3.4655      62.0732       0.0005
   10843.0    1449.3992       0.0000      50.8611    -158.2495       3.6976      -1.3694       3.4340      62.0732       0.0005
   10844.0    1452.3932       0.0000      50.8611    -158.3570       3.6899      -1.3601       3.4293      62.0732       0.0005
   10845.0    1449.3992       0.0000      50.8611    -158.8969       3.6812      -1.3246       3.4340      62.0732       0.0005
   10846.0    1452.7377       0.0000      50.8611    -158.4287       3.7268      -1.3694       3.4655      62.0732       0.0005
   10847.0    1447.1023       0.0000      50.8611    -158.9624       3.7909      -1.3601       3.5379      62.0732       0.0005
   10848.0    1449.7422       0.0000      50.8611    -158.2227       3.6932      -1.3694       3.4293      62.0732       0.0005
   10849.0    1447.4468       0.0000      50.8611    -158.6129       3.6343      -1.3246       3.3837      62.0732       0.0005
   10850.0    1451.7085       0.0000      50.8611    -159.9209       3.7436      -1.2844       3.5158      62.0732       0.0005
   10851.0    1449.7422       0.0000      50.8611    -157.2594       3.7290      -1.4405       3.4387      62.0732       0.0005
   10852.0    1445.1636       0.0000      50.8611    -156.5485       3.6995      -1.4714       3.3931      62.0732       0.0005
   10853.0    1453.0836       0.0000      50.8611    -157.6852       3.7022      -1.4049       3.4246      62.0732       0.0005
   10854.0    1455.0550       0.0000      50.8611    -158.1726       3.7098      -1.3786       3.4434      62.0732       0.0005
