~VERSION INFORMATION
VERS.           2.0   :CWLS Log ASCII Standard - VERSION 2.0
WRAP.           NO    :One Line per depth step
PROD.  Schlumberger   :LAS Producer
PROG.  DLIS to ASCII 19C2-270                          :LAS Program name and version
CREA.        2017/09/16 17:42                          :LAS Creation date {YYYY/MM/DD hh:mm}
DLIS_CREA.  2017-Sep-15 18:10                          :DLIS Creation date and time {YYYY-MMM-DD hh:mm}
SOURCE.     LPC_S4-1_2A5.DLIS                          :DLIS File Name
FILE-ID.     PERFO_Perfo_WPGRT_053LTP                  :File Identification Number
#--------------------------------------------------
~WELL INFORMATION
#MNEM.UNIT      DATA             DESCRIPTION
#---- ------ --------------   -----------------------------
STRT .S         4226.0       :START TIME      
STOP .S         4689.0       :STOP TIME      
STEP .S            1.0       :STEP     
NULL .          -999.25      :NULL VALUE
COMP .        SHELL INTERNATIONAL E P                  :COMPANY
WELL .        WPP TEST 2                               :WELL
FLD  .        WILDCAT                                  :FIELD
LOC  .        NA                                       :LOCATION
CNTY .        HARRIS                                   :COUNTY
STAT .        TEXAS                                    :STATE
CTRY .                                                 :COUNTRY
API  .        NA                                       :API NUMBER
UWI  .                                                 :UNIQUE WELL ID
DATE .        15-Sep-2017                              :LOG DATE {DD-MMM-YYYY}
SRVC .        Schlumberger                             :SERVICE COMPANY
LATI .DEG                                              :LATITUDE
LONG .DEG                                              :LONGITUDE
GDAT .                                                 :GeoDetic Datum
SECT .        NA                                       :Section
RANG .        NA                                       :Range
TOWN .        NA                                       :Township
#-----------------------------------------------------------------------------
~PARAMETER INFORMATION
#MNEM.UNIT    VALUE                      DESCRIPTION
#---- -----   --------------------       ------------------------
U-PHASE_B_COMP_PER_YT.                 0 :Phase B Comparator Period Yt
U-PHASE_A_COMP_PER_XT.                 0 :Phase A Comparator Period Xt
U-MAX_EXC_CUR_LIMIT.MA       240.00000   :Requested CM Current Limit
U-REQ_EXC_FQ.HZ              50          :Requested CM Frequency
U-TILT_Y_OFFSET.           0.19916       :WPTET Tilt Y Offset
U-TILT_Y_GAIN.           1.01796         :WPTET Tilt Y Gain
U-TILT_X_OFFSET.          -1.77103       :WPTET Tilt X Offset
U-TILT_X_GAIN.           1.00000         :WPTET Tilt X Gain
U-TILT_OFFSET_TOL.           0.00100     :WPTET Tilt Offset Calibration Tolerance
U-NO_TILT_CAL_ROTATIONS.                 3 :Number of Rotations for Tilt Calibration
HAZI .DEG        0.00000                 :Hole Azimuth
U-STD_TOL_TILT.           0.01000        :Tilt Standard Deviation Tolerance
U-GUN_POS_TOL.DEG        5.00000         :Gun Position Tolerance
ROT_ANGLE_THRESHOLD.DEG        5.00000   :Rotation Stop Angle Tolerance
STOP_ROT_ANGLE.DEG        0.00000        :Rotation Stop Angle
WITN .        MR. DHRUA ARORA            :Witness's Name
ENGI .        MORRIS MOORE               :Engineer's Name
COUN .        HARRIS                     :County or Rig Name
FN   .        WILDCAT                    :Field Name
WN   .        WPP TEST 2                 :Well Name
CN   .        SHELL INTERNATIONAL E P    :Company Name
CLAB .        County                     :County/Rig Label
SLAB .        State                      :State/Province Label
RUN  .          1                        :RUN NUMBER
PDAT .        GROUND LEVEL               :Permanent Datum
EPD  .                                   :Elevation of Permanent Datum above Mean Sea Level
LMF  .          NA                       :Logging Measured From (Name of Logging Elevation Reference)
APD  .                                   :Elevation of Depth Reference (LMF) above Permanent Datum
#-----------------------------------------------------------------------------
~CURVE INFORMATION
#MNEM.UNIT   API CODE                                  DESCRIPTION
#---- -----  --------                                  -----------------------
TIME .S                                                :TIME {F10.1}
FREQ_EMF_SL.HZ                                         :Electromagnetic Field Frequency {F13.4}
PH_SH_WPPCM_SL.DEG                                     :WPPCM Phase Shift {F13.4}
FREQ_EXC_REQ_SL.HZ                                     :Requested Exciter Frequency {F13.4}
RB_SL.DEG                                              :Relative Bearing {F13.4}
SDEV_SL.DEG                                            :Sonde Deviation {F13.4}
TILX_SL.DEG                                            :X-axis Tilt {F13.4}
TILY_SL.DEG                                            :Y-axis Tilt {F13.4}
ROTA_SL.DEG                                            :Motor Rotation Angle {F13.4}
MSPE_SL.RPM                                            :Motor Speed {F13.4}
#-----------------------------------------------------------------------------
# 
#     TIME    FREQ_EMF_SL  PH_SH_WPPCM_ FREQ_EXC_REQ    RB_SL       SDEV_SL      TILX_SL      TILY_SL      ROTA_SL      MSPE_SL
#                          SL           _SL
~A  
# ...
    4541.0    1518.0618       0.0000      50.8611     171.9338       4.3553       0.6107       4.3121     252.6841       1.0152
    4542.0    1516.3211       0.0000      50.8611     179.1510       4.3823       0.0648       4.3818     258.7782       1.0226
    4543.0    1509.8092       0.0000      50.8611    -174.2264       4.4332      -0.4455       4.4106     264.8705       1.0258
    4544.0    1505.6210       0.0000      50.8611    -166.9667       4.5991      -1.0362       4.4803     270.9815       1.0226
    4545.0    1508.2924       0.0000      50.8611    -162.3441       4.6563      -1.4121       4.4347     277.4914       1.0226
    4546.0    1493.7714       0.0000      50.8611    -156.4135       4.7341      -1.8941       4.3362     283.5932       1.0226
    4547.0    1485.2403       0.0000      50.8611    -149.4952       4.9316      -2.5013       4.2471     289.6950       1.0226
    4548.0    1477.5226       0.0000      50.8611    -144.2224       5.1075      -2.9833       4.1412     295.7968       1.0226
    4549.0    1475.3301       0.0000      50.8611    -139.2384       5.1473      -3.3586       3.8958     301.8986       1.0226
    4550.0    1463.0507       0.0000      50.8611    -132.0981       5.2052      -3.8597       3.4870     308.0004       1.0226
    4551.0    1445.1877       0.0000      50.8611    -126.2343       5.4327      -4.3795       3.2080     314.1153       1.0226
    4552.0    1440.8298       0.0000      50.8611    -120.2574       5.3759      -4.6419       2.7054     320.2218       1.0302
    4553.0    1432.3731       0.0000      50.8611    -114.8124       5.4619      -4.9560       2.2891     326.3329       1.0226
    4554.0    1405.1025       0.0000      50.8611    -109.3925       5.5111      -5.1970       1.8273     332.4347       1.0226
    4555.0    1406.5841       0.0000      50.8611    -103.2304       5.6497      -5.4993       1.2911     338.5242       1.0226
    4556.0    1378.6765       0.0000      50.8611     -98.3013       5.8663      -5.8042       0.8460     344.6260       1.0226
    4557.0    1362.9587       0.0000      50.8611     -93.3709       5.7623      -5.7521       0.3386     351.1358       1.0226
    4558.0    1326.9477       0.0000      50.8611     -87.8537       5.7876      -5.7831      -0.2171     357.2376       1.0226
    4559.0    1308.9338       0.0000      50.8611     -83.0492       5.8597      -5.8160      -0.7077       3.3394       1.0226
    4560.0    1270.4041       0.0000      50.8611     -77.4661       5.9876      -5.8443      -1.2969       9.4412       1.0226
    4561.0    1250.4566       0.0000      50.8611     -71.0614       5.8953      -5.5750      -1.9103      15.5431       1.0226
    4562.0    1238.1540       0.0000      50.8611     -66.5439       6.0531      -5.5513      -2.4056      21.6449       1.0226
    4563.0    1214.8710       0.0000      50.8611     -61.3122       6.0320      -5.2892      -2.8916      27.7343       1.0170
    4564.0    1190.6956       0.0000      50.8611     -57.3814       6.1174      -5.1496      -3.2931      33.8361       1.0226
    4565.0    1175.2152       0.0000      50.8611     -53.0760       6.2127      -4.9548      -3.6858      39.9379       1.0226
    4566.0    1165.9516       0.0000      50.8611     -46.9525       6.0905      -4.4477      -4.1517      46.0398       1.0195
    4567.0    1151.2338       0.0000      50.8611     -41.9651       6.0677      -4.0533      -4.5077      52.1424       1.0302
    4568.0    1139.3799       0.0000      50.8611     -37.8419       6.0767      -3.7247      -4.7939      58.2442       1.0226
    4569.0    1124.7984       0.0000      50.8611     -33.8838       6.1036      -3.3988      -5.0633      64.4685       1.0226
    4570.0    1125.9608       0.0000      50.8611     -22.6117       5.7403      -2.2036      -5.2966      70.8558       1.0226
    4571.0    1123.4146       0.0000      50.8611     -21.4791       5.8330      -2.1325      -5.4266      76.9708       1.0226
    4572.0    1118.7053       0.0000      50.8611     -16.6445       5.8705      -1.6788      -5.6237      83.0725       1.0226
    4573.0    1115.3479       0.0000      50.8611     -12.3878       5.8033      -1.2416      -5.6672      89.1743       1.0226
    4574.0    1121.8443       0.0000      50.8611      -6.3821       5.7196      -0.6345      -5.6840      95.2792       1.0226
    4575.0    1134.0206       0.0000      50.8611      -0.2126       5.5086      -0.0202      -5.5084     101.3788       1.0226
    4576.0    1140.1324       0.0000      50.8611       4.1416       5.5916       0.4006      -5.5755     107.4806       1.0195
    4577.0    1150.0083       0.0000      50.8611       9.8773       5.3717       0.9201      -5.2919     113.5832       1.0226
    4578.0    1169.3518       0.0000      50.8611      15.6953       5.2608       1.4212      -5.0633     119.6850       1.0226
    4579.0    1191.7373       0.0000      50.8611      20.5092       5.1763       1.8110      -4.8468     125.7898       1.0226
    4580.0    1200.2523       0.0000      50.8611      27.6503       4.9684       2.3023      -4.3997     131.8916       1.0226
    4581.0    1226.2199       0.0000      50.8611      34.3009       4.8442       2.7276      -4.0002     138.0979       1.0152
    4582.0    1257.3394       0.0000      50.8611      39.3239       4.8407       3.0654      -3.7429     144.4765       1.0195
    4583.0    1296.7616       0.0000      50.8611      44.7234       4.6546       3.2735      -3.3051     150.5682       1.0226
    4584.0    1340.7966       0.0000      50.8611      51.5343       4.6664       3.6515      -2.9010     156.6810       1.0226
    4585.0    1363.7332       0.0000      50.8611      58.7497       4.4272       3.7838      -2.2950     162.7961       1.0226
    4586.0    1385.2268       0.0000      50.8611      65.2474       4.3834       3.9800      -1.8332     168.9001       1.0226
    4587.0    1396.2268       0.0000      50.8611      71.9766       4.2689       4.0591      -1.3197     174.9999       1.0203
    4588.0    1418.7683       0.0000      50.8611      79.8544       4.1712       4.1052      -0.7339     181.1025       1.0226
    4589.0    1434.4418       0.0000      50.8611      87.5908       4.1257       4.1216      -0.1735     187.2053       1.0226
    4590.0    1443.4590       0.0000      50.8611      94.1929       4.1219       4.1098       0.3004     193.3063       1.0226
    4591.0    1459.6602       0.0000      50.8611     103.2351       4.0160       3.9089       0.9184     199.4214       1.0226
    4592.0    1460.5586       0.0000      50.8611     109.8649       3.9935       3.7555       1.3561     205.5254       1.0226
    4593.0    1483.7583       0.0000      50.8611     117.9717       3.9546       3.4908       1.8541     211.6369       1.0152
    4594.0    1491.9013       0.0000      50.8611     125.4273       3.9763       3.2380       2.3039     218.1491       1.0226
    4595.0    1492.4826       0.0000      50.8611     133.0630       4.0006       2.9212       2.7295     224.2605       1.0152
    4596.0    1496.0106       0.0000      50.8611     140.1676       3.9755       2.5433       3.0519     230.3456       1.0226
    4597.0    1503.3529       0.0000      50.8611     146.0305       4.0751       2.2740       3.3790     236.4308       1.0152
    4598.0    1507.8988       0.0000      50.8611     155.5270       4.2892       1.7755       3.9032     242.5590       1.0226
    4599.0    1511.2527       0.0000      50.8611     161.4172       4.2533       1.3547       4.0306     248.6631       1.0226
    4600.0    1515.3556       0.0000      50.8611     169.4199       4.2328       0.7759       4.1606     254.7759       1.0195
    4601.0    1509.8092       0.0000      50.8611     176.2186       4.4614       0.2939       4.4515     260.8806       1.0226
    4602.0    1511.1396       0.0000      50.8611    -177.4266       4.4564      -0.1999       4.4515     266.9766       1.0152
    4603.0    1517.6630       0.0000      50.8611    -170.8342       4.5387      -0.7221       4.4803     273.0849       1.0226
