~VERSION INFORMATION
VERS.           2.0   :CWLS Log ASCII Standard - VERSION 2.0
WRAP.           NO    :One Line per depth step
PROD.  Schlumberger   :LAS Producer
PROG.  DLIS to ASCII 19C2-270                          :LAS Program name and version
CREA.        2017/09/16 17:42                          :LAS Creation date {YYYY/MM/DD hh:mm}
DLIS_CREA.  2017-Sep-15 19:24                          :DLIS Creation date and time {YYYY-MMM-DD hh:mm}
SOURCE.     LPC_S5-1_BV.DLIS                           :DLIS File Name
FILE-ID.     PERFO_Perfo_WPGRT_061LTP                  :File Identification Number
#--------------------------------------------------
~WELL INFORMATION
#MNEM.UNIT      DATA             DESCRIPTION
#---- ------ --------------   -----------------------------
STRT .S          101.0       :START TIME      
STOP .S          592.0       :STOP TIME      
STEP .S            1.0       :STEP     
NULL .          -999.25      :NULL VALUE
COMP .        SHELL INTERNATIONAL E P                  :COMPANY
WELL .        WPP TEST 2                               :WELL
FLD  .        WILDCAT                                  :FIELD
LOC  .        NA                                       :LOCATION
CNTY .        HARRIS                                   :COUNTY
STAT .        TEXAS                                    :STATE
CTRY .                                                 :COUNTRY
API  .        NA                                       :API NUMBER
UWI  .                                                 :UNIQUE WELL ID
DATE .        15-Sep-2017                              :LOG DATE {DD-MMM-YYYY}
SRVC .        Schlumberger                             :SERVICE COMPANY
LATI .DEG                                              :LATITUDE
LONG .DEG                                              :LONGITUDE
GDAT .                                                 :GeoDetic Datum
SECT .        NA                                       :Section
RANG .        NA                                       :Range
TOWN .        NA                                       :Township
#-----------------------------------------------------------------------------
~PARAMETER INFORMATION
#MNEM.UNIT    VALUE                      DESCRIPTION
#---- -----   --------------------       ------------------------
U-PHASE_B_COMP_PER_YT.                 0 :Phase B Comparator Period Yt
U-PHASE_A_COMP_PER_XT.                 0 :Phase A Comparator Period Xt
U-MAX_EXC_CUR_LIMIT.MA       240.00000   :Requested CM Current Limit
U-REQ_EXC_FQ.HZ              50          :Requested CM Frequency
U-TILT_Y_OFFSET.           0.19916       :WPTET Tilt Y Offset
U-TILT_Y_GAIN.           1.01796         :WPTET Tilt Y Gain
U-TILT_X_OFFSET.          -1.77103       :WPTET Tilt X Offset
U-TILT_X_GAIN.           1.00000         :WPTET Tilt X Gain
U-TILT_OFFSET_TOL.           0.00100     :WPTET Tilt Offset Calibration Tolerance
U-NO_TILT_CAL_ROTATIONS.                 3 :Number of Rotations for Tilt Calibration
HAZI .DEG        0.00000                 :Hole Azimuth
U-STD_TOL_TILT.           0.01000        :Tilt Standard Deviation Tolerance
U-GUN_POS_TOL.DEG        5.00000         :Gun Position Tolerance
ROT_ANGLE_THRESHOLD.DEG        5.00000   :Rotation Stop Angle Tolerance
STOP_ROT_ANGLE.DEG        0.00000        :Rotation Stop Angle
WITN .        MR. DHRUA ARORA            :Witness's Name
ENGI .        MORRIS MOORE               :Engineer's Name
COUN .        HARRIS                     :County or Rig Name
FN   .        WILDCAT                    :Field Name
WN   .        WPP TEST 2                 :Well Name
CN   .        SHELL INTERNATIONAL E P    :Company Name
CLAB .        County                     :County/Rig Label
SLAB .        State                      :State/Province Label
RUN  .          1                        :RUN NUMBER
PDAT .        GROUND LEVEL               :Permanent Datum
EPD  .                                   :Elevation of Permanent Datum above Mean Sea Level
LMF  .          NA                       :Logging Measured From (Name of Logging Elevation Reference)
APD  .                                   :Elevation of Depth Reference (LMF) above Permanent Datum
#-----------------------------------------------------------------------------
~CURVE INFORMATION
#MNEM.UNIT   API CODE                                  DESCRIPTION
#---- -----  --------                                  -----------------------
TIME .S                                                :TIME {F10.1}
FREQ_EMF_SL.HZ                                         :Electromagnetic Field Frequency {F13.4}
PH_SH_WPPCM_SL.DEG                                     :WPPCM Phase Shift {F13.4}
FREQ_EXC_REQ_SL.HZ                                     :Requested Exciter Frequency {F13.4}
RB_SL.DEG                                              :Relative Bearing {F13.4}
SDEV_SL.DEG                                            :Sonde Deviation {F13.4}
TILX_SL.DEG                                            :X-axis Tilt {F13.4}
TILY_SL.DEG                                            :Y-axis Tilt {F13.4}
ROTA_SL.DEG                                            :Motor Rotation Angle {F13.4}
MSPE_SL.RPM                                            :Motor Speed {F13.4}
#-----------------------------------------------------------------------------
# 
#     TIME    FREQ_EMF_SL  PH_SH_WPPCM_ FREQ_EXC_REQ    RB_SL       SDEV_SL      TILX_SL      TILY_SL      ROTA_SL      MSPE_SL
#                          SL           _SL
~A  
# ...
     479.0    1241.2495       0.0000      50.8611     -47.7068       0.6371      -0.4631      -0.4352      34.1425       1.0226
     480.0    1239.2951       0.0000      50.8611     -46.2574       0.7476      -0.5372      -0.5190      40.2443       1.0226
     481.0    1233.7286       0.0000      50.8611     -51.6104       0.6268      -0.4939      -0.3848      46.3461       1.0226
     482.0    1237.8961       0.0000      50.8611     -55.8185       0.6187      -0.5114      -0.3471      52.4357       1.0226
     483.0    1242.6044       0.0000      50.8611     -54.7600       0.8361      -0.6834      -0.4813      58.5375       1.0226
     484.0    1241.6562       0.0000      50.8611     -58.8474       0.6695      -0.5742      -0.3439      64.6393       1.0226
     485.0    1236.5021       0.0000      50.8611     -57.8551       0.6835      -0.5773      -0.3618      70.7411       1.0226
     486.0    1254.9531       0.0000      50.8611     -56.0356       0.7341      -0.6062      -0.4110      76.8448       1.0226
     487.0    1258.9652       0.0000      50.8611     -52.8815       0.7129      -0.5691      -0.4289      83.3527       1.0226
     488.0    1267.7133       0.0000      50.8611     -65.7621       0.7050      -0.6206      -0.3010      89.4564       1.0226
     489.0    1282.9019       0.0000      50.8611     -70.5672       0.6736      -0.6350      -0.2244      95.5674       1.0265
     490.0    1302.2799       0.0000      50.8611     -66.2057       0.7160      -0.6545      -0.2800     101.6712       1.0226
     491.0    1323.2585       0.0000      50.8611     -66.7733       0.8068      -0.7411      -0.3177     107.7813       1.0265
     492.0    1322.3677       0.0000      50.8611     -58.7246       0.7742      -0.6608      -0.4027     113.8878       1.0226
     493.0    1342.9794       0.0000      50.8611     -73.0372       0.8947      -0.8554      -0.2621     119.9896       1.0226
     494.0    1349.7797       0.0000      50.8611     -78.1450       0.8393      -0.8152      -0.1605     126.1045       1.0226
     495.0    1356.4447       0.0000      50.8611     -80.3026       0.8746      -0.8585      -0.1510     132.2064       1.0226
     496.0    1366.0429       0.0000      50.8611     -59.4676       1.0126      -0.8616      -0.5158     138.3083       1.0226
     497.0    1370.8324       0.0000      50.8611     -70.1763       0.9879      -0.9275      -0.3356     144.4062       1.0295
     498.0    1384.3270       0.0000      50.8611     -85.5409       0.9816      -0.9615      -0.0557     150.5129       1.0226
     499.0    1388.5906       0.0000      50.8611     -82.1286       1.2077      -1.1880      -0.1490     157.0104       1.0226
     500.0    1391.1433       0.0000      50.8611     -69.9464       1.1397      -1.0706      -0.3880     163.1132       1.0226
     501.0    1396.0855       0.0000      50.8611     -68.0899       0.9634      -0.8905      -0.3554     169.2028       1.0226
     502.0    1409.2992       0.0000      50.8611     -72.1480       1.1315      -1.0769      -0.3471     175.3177       1.0265
     503.0    1413.7179       0.0000      50.8611     -75.3806       1.0982      -1.0625      -0.2768     181.4196       1.0226
     504.0    1420.2437       0.0000      50.8611     -71.6516       1.3158      -1.2489      -0.4142     187.5176       1.0226
     505.0    1426.2170       0.0000      50.8611     -65.2210       1.0993      -0.9934      -0.4634     193.5996       1.0226
     506.0    1427.0374       0.0000      50.8611     -69.3652       1.0100      -0.9420      -0.3554     199.7015       1.0226
     507.0    1430.1614       0.0000      50.8611     -68.0249       1.2946      -1.2005      -0.4844     205.7910       1.0226
     508.0    1435.7795       0.0000      50.8611     -64.6121       1.2816      -1.1572      -0.5483     211.8805       1.0226
     509.0    1444.8557       0.0000      50.8611     -65.1062       1.3012      -1.1798      -0.5483     217.9700       1.0226
     510.0    1444.8557       0.0000      50.8611     -57.2338       1.1395      -0.9564      -0.6154     224.0851       1.0265
     511.0    1443.7886       0.0000      50.8611     -62.3241       1.1893      -1.0511      -0.5547     230.6081       1.0265
     512.0    1447.8308       0.0000      50.8611     -67.1807       1.2799      -1.1798      -0.4959     236.7100       1.0226
     513.0    1444.8557       0.0000      50.8611     -57.1289       1.3442      -1.1284      -0.7298     242.8130       1.0226
     514.0    1450.5901       0.0000      50.8611     -58.4509       1.2163      -1.0336      -0.6365     248.9144       1.0265
     515.0    1447.6035       0.0000      50.8611     -62.3819       1.0390      -0.9100      -0.4761     255.0294       1.0265
     516.0    1445.9272       0.0000      50.8611     -52.8882       1.3836      -1.1026      -0.8346     261.1364       1.0197
     517.0    1445.1602       0.0000      50.8611     -54.7328       1.3609      -1.1103      -0.7863     267.2337       1.0226
     518.0    1442.7257       0.0000      50.8611     -52.8601       1.3042      -1.0336      -0.7885     273.3355       1.0226
     519.0    1436.2517       0.0000      50.8611     -53.9960       1.2105      -0.9790      -0.7119     279.4373       1.0226
     520.0    1437.8834       0.0000      50.8611     -59.0033       1.2077      -1.0336      -0.6218     285.5411       1.0226
     521.0    1428.0745       0.0000      50.8611     -50.2725       1.3107      -1.0079      -0.8377     291.6419       1.0226
     522.0    1417.5908       0.0000      50.8611     -47.4304       1.3183      -0.9708      -0.8901     297.7437       1.0226
     523.0    1404.6887       0.0000      50.8611     -51.7150       1.2875      -1.0110      -0.7968     304.0991       1.0158
     524.0    1401.8880       0.0000      50.8611     -53.5327       1.0897      -0.8760      -0.6480     310.3430       1.0226
     525.0    1400.6475       0.0000      50.8611     -48.4109       1.2018      -0.8987      -0.7968     316.4367       1.0158
     526.0    1394.0965       0.0000      50.8611     -36.2309       1.2590      -0.7443      -1.0128     322.5218       1.0226
     527.0    1382.3623       0.0000      50.8611     -43.5002       1.1143      -0.7669      -0.8083     328.6367       1.0226
     528.0    1369.8678       0.0000      50.8611     -46.4586       1.0590      -0.7669      -0.7298     334.7385       1.0226
     529.0    1355.4734       0.0000      50.8611     -45.8947       1.1297      -0.8111      -0.7863     340.8403       1.0226
     530.0    1352.1635       0.0000      50.8611     -42.3150       1.0419      -0.7010      -0.7707     346.9318       1.0226
     531.0    1337.4591       0.0000      50.8611     -35.4559       1.0463      -0.6062      -0.8524     353.0325       1.0226
     532.0    1323.9674       0.0000      50.8611     -44.2167       1.0367      -0.7236      -0.7413     359.1343       1.0226
     533.0    1306.9238       0.0000      50.8611     -48.7925       1.0715      -0.8039      -0.7036       5.2372       1.0226
     534.0    1290.8078       0.0000      50.8611     -46.1718       0.9475      -0.6834      -0.6563      11.3379       1.0226
     535.0    1267.7137       0.0000      50.8611     -41.8270       1.0180      -0.6784      -0.7528      17.7011       1.0158
     536.0    1256.3876       0.0000      50.8611     -39.9882       0.9005      -0.5773      -0.6889      23.9371       1.0226
     537.0    1241.6569       0.0000      50.8611     -49.6690       0.8957      -0.6834      -0.5777      30.0350       1.0295
     538.0    1235.8982       0.0000      50.8611     -52.8380       0.8286      -0.6577      -0.4991      36.1415       1.0226
     539.0    1234.9415       0.0000      50.8611     -50.3896       0.7708      -0.5918      -0.4927      42.2433       1.0158
     540.0    1242.8915       0.0000      50.8611     -44.6697       0.6565      -0.4600      -0.4666      48.3205       1.0226
     541.0    1224.7905       0.0000      50.8611     -50.8145       0.6716      -0.5179      -0.4239      54.4223       1.0175
