~VERSION INFORMATION
VERS.           2.0   :CWLS Log ASCII Standard - VERSION 2.0
WRAP.           NO    :One Line per depth step
PROD.  Schlumberger   :LAS Producer
PROG.  DLIS to ASCII 19C2-270                          :LAS Program name and version
CREA.        2017/09/16 17:42                          :LAS Creation date {YYYY/MM/DD hh:mm}
DLIS_CREA.  2017-Sep-15 18:59                          :DLIS Creation date and time {YYYY-MMM-DD hh:mm}
SOURCE.     LPC_S5-1_A5.DLIS                           :DLIS File Name
FILE-ID.     PERFO_Perfo_WPGRT_058LTP                  :File Identification Number
#--------------------------------------------------
~WELL INFORMATION
#MNEM.UNIT      DATA             DESCRIPTION
#---- ------ --------------   -----------------------------
STRT .S         7119.0       :START TIME      
STOP .S         7636.0       :STOP TIME      
STEP .S            1.0       :STEP     
NULL .          -999.25      :NULL VALUE
COMP .        SHELL INTERNATIONAL E P                  :COMPANY
WELL .        WPP TEST 2                               :WELL
FLD  .        WILDCAT                                  :FIELD
LOC  .        NA                                       :LOCATION
CNTY .        HARRIS                                   :COUNTY
STAT .        TEXAS                                    :STATE
CTRY .                                                 :COUNTRY
API  .        NA                                       :API NUMBER
UWI  .                                                 :UNIQUE WELL ID
DATE .        15-Sep-2017                              :LOG DATE {DD-MMM-YYYY}
SRVC .        Schlumberger                             :SERVICE COMPANY
LATI .DEG                                              :LATITUDE
LONG .DEG                                              :LONGITUDE
GDAT .                                                 :GeoDetic Datum
SECT .        NA                                       :Section
RANG .        NA                                       :Range
TOWN .        NA                                       :Township
#-----------------------------------------------------------------------------
~PARAMETER INFORMATION
#MNEM.UNIT    VALUE                      DESCRIPTION
#---- -----   --------------------       ------------------------
U-PHASE_B_COMP_PER_YT.                 0 :Phase B Comparator Period Yt
U-PHASE_A_COMP_PER_XT.                 0 :Phase A Comparator Period Xt
U-MAX_EXC_CUR_LIMIT.MA       240.00000   :Requested CM Current Limit
U-REQ_EXC_FQ.HZ              50          :Requested CM Frequency
U-TILT_Y_OFFSET.           0.19916       :WPTET Tilt Y Offset
U-TILT_Y_GAIN.           1.01796         :WPTET Tilt Y Gain
U-TILT_X_OFFSET.          -1.77103       :WPTET Tilt X Offset
U-TILT_X_GAIN.           1.00000         :WPTET Tilt X Gain
U-TILT_OFFSET_TOL.           0.00100     :WPTET Tilt Offset Calibration Tolerance
U-NO_TILT_CAL_ROTATIONS.                 3 :Number of Rotations for Tilt Calibration
HAZI .DEG        0.00000                 :Hole Azimuth
U-STD_TOL_TILT.           0.01000        :Tilt Standard Deviation Tolerance
U-GUN_POS_TOL.DEG        5.00000         :Gun Position Tolerance
ROT_ANGLE_THRESHOLD.DEG        5.00000   :Rotation Stop Angle Tolerance
STOP_ROT_ANGLE.DEG        0.00000        :Rotation Stop Angle
WITN .        MR. DHRUA ARORA            :Witness's Name
ENGI .        MORRIS MOORE               :Engineer's Name
COUN .        HARRIS                     :County or Rig Name
FN   .        WILDCAT                    :Field Name
WN   .        WPP TEST 2                 :Well Name
CN   .        SHELL INTERNATIONAL E P    :Company Name
CLAB .        County                     :County/Rig Label
SLAB .        State                      :State/Province Label
RUN  .          1                        :RUN NUMBER
PDAT .        GROUND LEVEL               :Permanent Datum
EPD  .                                   :Elevation of Permanent Datum above Mean Sea Level
LMF  .          NA                       :Logging Measured From (Name of Logging Elevation Reference)
APD  .                                   :Elevation of Depth Reference (LMF) above Permanent Datum
#-----------------------------------------------------------------------------
~CURVE INFORMATION
#MNEM.UNIT   API CODE                                  DESCRIPTION
#---- -----  --------                                  -----------------------
TIME .S                                                :TIME {F10.1}
FREQ_EMF_SL.HZ                                         :Electromagnetic Field Frequency {F13.4}
PH_SH_WPPCM_SL.DEG                                     :WPPCM Phase Shift {F13.4}
FREQ_EXC_REQ_SL.HZ                                     :Requested Exciter Frequency {F13.4}
RB_SL.DEG                                              :Relative Bearing {F13.4}
SDEV_SL.DEG                                            :Sonde Deviation {F13.4}
TILX_SL.DEG                                            :X-axis Tilt {F13.4}
TILY_SL.DEG                                            :Y-axis Tilt {F13.4}
ROTA_SL.DEG                                            :Motor Rotation Angle {F13.4}
MSPE_SL.RPM                                            :Motor Speed {F13.4}
#-----------------------------------------------------------------------------
# 
#     TIME    FREQ_EMF_SL  PH_SH_WPPCM_ FREQ_EXC_REQ    RB_SL       SDEV_SL      TILX_SL      TILY_SL      ROTA_SL      MSPE_SL
#                          SL           _SL
~A  
# ...
    7434.0    1118.2836       0.0000      50.8611      -3.1315       5.0660      -0.2768      -5.0574     188.0801       1.0226
    7435.0    1116.2868       0.0000      50.8611      -0.3663       4.7357      -0.0310      -4.7352     194.1828       1.0226
    7436.0    1109.5961       0.0000      50.8611       8.4620       4.7412       0.6968      -4.6894     200.2905       1.0286
    7437.0    1104.0176       0.0000      50.8611      12.3585       4.8480       1.0358      -4.7352     206.3998       1.0226
    7438.0    1116.8521       0.0000      50.8611      19.1648       4.6430       1.5226      -4.3852     212.5017       1.0226
    7439.0    1118.2836       0.0000      50.8611      21.3393       4.3880       1.5933      -4.0859     218.6045       1.0226
    7440.0    1125.5827       0.0000      50.8611      28.6558       4.3143       2.0673      -3.7850     224.7064       1.0226
    7441.0    1133.0499       0.0000      50.8611      34.7835       4.4326       2.5268      -3.6394     231.2171       1.0226
    7442.0    1158.9787       0.0000      50.8611      42.3888       4.2539       2.8658      -3.1406     237.3190       1.0226
    7443.0    1189.2513       0.0000      50.8611      46.7958       3.9652       2.8883      -2.7137     243.4087       1.0226
    7444.0    1213.8893       0.0000      50.8611      53.3457       3.8243       3.0666      -2.2819     249.5113       1.0226
    7445.0    1241.3063       0.0000      50.8611      59.6613       3.9530       3.4105      -1.9957     255.6132       1.0226
    7446.0    1274.7943       0.0000      50.8611      67.6422       3.8862       3.5936      -1.4773     261.7159       1.0226
    7447.0    1303.1463       0.0000      50.8611      75.2800       3.5971       3.4780      -0.9146     267.8177       1.0226
    7448.0    1326.6509       0.0000      50.8611      81.1648       3.4114       3.3703      -0.5237     273.9141       1.0226
    7449.0    1342.9705       0.0000      50.8611      89.7577       3.5721       3.5711      -0.0151     280.0370       1.0226
    7450.0    1354.1624       0.0000      50.8611      98.2242       3.6442       3.6065       0.5214     286.1247       1.0226
    7451.0    1367.9475       0.0000      50.8611     104.8257       3.4084       3.2948       0.8714     292.2282       1.0226
    7452.0    1379.0062       0.0000      50.8611     113.8714       3.3255       3.0409       1.3440     298.3283       1.0226
    7453.0    1399.4222       0.0000      50.8611     121.5193       3.3888       2.8883       1.7709     304.8381       1.0226
    7454.0    1412.8182       0.0000      50.8611     130.0583       3.5719       2.7325       2.2975     310.9354       1.0180
    7455.0    1422.9901       0.0000      50.8611     136.6523       3.4482       2.3661       2.5069     317.0304       1.0226
    7456.0    1438.6133       0.0000      50.8611     144.0161       3.4591       2.0320       2.7980     323.1322       1.0226
    7457.0    1455.3899       0.0000      50.8611     152.2494       3.6074       1.6785       3.1922     329.2479       1.0286
    7458.0    1465.8351       0.0000      50.8611     158.9156       3.7649       1.3539       3.5111     335.3374       1.0226
    7459.0    1475.7908       0.0000      50.8611     166.5591       3.8262       0.8896       3.7204     341.4392       1.0226
    7460.0    1487.5433       0.0000      50.8611     173.2501       3.6605       0.4301       3.6337     347.5410       1.0226
    7461.0    1495.6354       0.0000      50.8611    -177.6351       3.8548      -0.1595       3.8513     353.6441       1.0226
    7462.0    1505.6210       0.0000      50.8611    -172.0375       4.0284      -0.5564       3.9887     201.3504       1.0286
    7463.0    1520.0748       0.0000      50.8611    -165.5210       4.1757      -1.0432       4.0426       5.8595       1.0226
    7464.0    1528.1411       0.0000      50.8611    -158.9056       4.1152      -1.4802       3.8382      11.9631       1.0226
    7465.0    1528.1411       0.0000      50.8611    -153.1741       4.1763      -1.8819       3.7253      18.4712       1.0226
    7466.0    1535.2074       0.0000      50.8611    -146.8898       4.5429      -2.4796       3.8022      24.5606       1.0226
    7467.0    1537.0886       0.0000      50.8611    -142.5498       4.5216      -2.7479       3.5880      30.6701       1.0167
    7468.0    1533.7358       0.0000      50.8611    -132.4103       4.5358      -3.3472       3.0564      36.7650       1.0226
    7469.0    1530.3976       0.0000      50.8611    -129.1769       4.6284      -3.5866       2.9207      42.8614       1.0180
    7470.0    1525.2169       0.0000      50.8611    -125.0015       4.7722      -3.9079       2.7342      48.9696       1.0226
    7471.0    1523.7643       0.0000      50.8611    -118.9476       5.0351      -4.4044       2.4349      55.0660       1.0180
    7472.0    1516.4170       0.0000      50.8611    -112.8005       5.0105      -4.6180       1.9393      61.1616       1.0286
    7473.0    1507.0426       0.0000      50.8611    -107.8962       4.8534      -4.6180       1.4896      67.2634       1.0180
    7474.0    1504.6053       0.0000      50.8611    -101.3791       5.0980      -4.9972       1.0038      73.3528       1.0226
    7475.0    1490.0570       0.0000      50.8611     -97.1821       5.4242      -5.3812       0.6767      79.4546       1.0226
    7476.0    1476.7875       0.0000      50.8611     -90.6314       5.3237      -5.3234       0.0585      85.5563       1.0226
    7477.0    1461.7983       0.0000      50.8611     -87.2824       5.1960      -5.1900      -0.2457      92.0661       1.0226
    7478.0    1450.4844       0.0000      50.8611     -81.1921       5.3515      -5.2880      -0.8181      98.1828       1.0226
    7479.0    1430.7458       0.0000      50.8611     -76.3393       5.5714      -5.4133      -1.3137     104.2829       1.0226
    7480.0    1411.5631       0.0000      50.8611     -71.2514       5.5530      -5.2575      -1.7815     110.3847       1.0226
    7481.0    1395.9879       0.0000      50.8611     -66.7401       5.3006      -4.8687      -2.0906     116.4864       1.0226
    7482.0    1383.2449       0.0000      50.8611     -60.4088       5.5091      -4.7883      -2.7170     122.5882       1.0226
    7483.0    1361.4857       0.0000      50.8611     -56.2660       5.5427      -4.6052      -3.0752     128.6900       1.0226
    7484.0    1341.0335       0.0000      50.8611     -52.1714       5.4143      -4.2742      -3.3172     134.7796       1.0226
    7485.0    1317.0140       0.0000      50.8611     -46.5154       5.4140      -3.9191      -3.7195     140.8947       1.0273
    7486.0    1283.3601       0.0000      50.8611     -40.9381       5.3626      -3.5110      -4.0483     147.0096       1.0226
    7487.0    1243.7732       0.0000      50.8611     -35.7398       5.5292      -3.2267      -4.4850     153.1115       1.0226
    7488.0    1222.4236       0.0000      50.8611     -32.8985       5.3872      -2.9230      -4.5210     159.2134       1.0226
    7489.0    1191.9831       0.0000      50.8611     -27.4199       5.2185      -2.4008      -4.6305     165.7234       1.0226
    7490.0    1172.3568       0.0000      50.8611     -20.7822       5.2248      -1.8514      -4.8840     171.8253       1.0226
    7491.0    1146.6675       0.0000      50.8611     -16.4211       5.3077      -1.4995      -5.0901     177.9272       1.0226
    7492.0    1123.4211       0.0000      50.8611     -10.6158       5.2116      -0.9597      -5.1212     184.0291       1.0226
    7493.0    1108.4766       0.0000      50.8611      -6.7378       5.0933      -0.5966      -5.0574     190.1460       1.0226
    7494.0    1106.6804       0.0000      50.8611      -0.3187       4.8891      -0.0262      -4.8889     196.2466       1.0226
    7495.0    1101.5303       0.0000      50.8611       4.6165       4.9508       0.3980      -4.9347     202.3506       1.0226
    7496.0    1105.2118       0.0000      50.8611      10.6454       4.8094       0.8880      -4.7254     208.4577       1.0286
