~VERSION INFORMATION
VERS.           2.0   :CWLS Log ASCII Standard - VERSION 2.0
WRAP.           NO    :One Line per depth step
PROD.  Schlumberger   :LAS Producer
PROG.  DLIS to ASCII 19C2-270                          :LAS Program name and version
CREA.        2017/09/16 17:42                          :LAS Creation date {YYYY/MM/DD hh:mm}
DLIS_CREA.  2017-Sep-15 16:20                          :DLIS Creation date and time {YYYY-MMM-DD hh:mm}
SOURCE.     LPC_S3-1_BV.DLIS                           :DLIS File Name
FILE-ID.     PERFO_Perfo_WPGRT_040LTP                  :File Identification Number
#--------------------------------------------------
~WELL INFORMATION
#MNEM.UNIT      DATA             DESCRIPTION
#---- ------ --------------   -----------------------------
STRT .S         2992.0       :START TIME      
STOP .S         3401.0       :STOP TIME      
STEP .S            1.0       :STEP     
NULL .          -999.25      :NULL VALUE
COMP .        SHELL INTERNATIONAL E P                  :COMPANY
WELL .        WPP TEST 2                               :WELL
FLD  .        WILDCAT                                  :FIELD
LOC  .                                                 :LOCATION
CNTY .        HARRIS                                   :COUNTY
STAT .        TEXAS                                    :STATE
CTRY .                                                 :COUNTRY
API  .                                                 :API NUMBER
UWI  .                                                 :UNIQUE WELL ID
DATE .                                                 :LOG DATE
SRVC .        Schlumberger                             :SERVICE COMPANY
LATI .DEG                                              :LATITUDE
LONG .DEG                                              :LONGITUDE
GDAT .                                                 :GeoDetic Datum
#-----------------------------------------------------------------------------
~PARAMETER INFORMATION
#MNEM.UNIT    VALUE                      DESCRIPTION
#---- -----   --------------------       ------------------------
U-PHASE_B_COMP_PER_YT.                 0 :Phase B Comparator Period Yt
U-PHASE_A_COMP_PER_XT.                 0 :Phase A Comparator Period Xt
U-MAX_EXC_CUR_LIMIT.MA       240.00000   :Requested CM Current Limit
U-REQ_EXC_FQ.HZ              50          :Requested CM Frequency
U-TILT_Y_OFFSET.           0.19916       :WPTET Tilt Y Offset
U-TILT_Y_GAIN.           1.01796         :WPTET Tilt Y Gain
U-TILT_X_OFFSET.          -1.77103       :WPTET Tilt X Offset
U-TILT_X_GAIN.           1.00000         :WPTET Tilt X Gain
U-TILT_OFFSET_TOL.           0.00100     :WPTET Tilt Offset Calibration Tolerance
U-NO_TILT_CAL_ROTATIONS.                 3 :Number of Rotations for Tilt Calibration
HAZI .DEG        0.00000                 :Hole Azimuth
U-STD_TOL_TILT.           0.01000        :Tilt Standard Deviation Tolerance
U-GUN_POS_TOL.DEG        5.00000         :Gun Position Tolerance
ROT_ANGLE_THRESHOLD.DEG        5.00000   :Rotation Stop Angle Tolerance
STOP_ROT_ANGLE.DEG        0.00000        :Rotation Stop Angle
WITN .                                   :Witness's Name
ENGI .                                   :Engineer's Name
COUN .        HARRIS                     :County or Rig Name
FN   .        WILDCAT                    :Field Name
WN   .        WPP TEST 2                 :Well Name
CN   .        SHELL INTERNATIONAL E P    :Company Name
CLAB .        County                     :County/Rig Label
SLAB .        State                      :State/Province Label
RUN  .          1                        :RUN NUMBER
PDAT .        GROUND LEVEL               :Permanent Datum
EPD  .                                   :Elevation of Permanent Datum above Mean Sea Level
LMF  .                                   :Logging Measured From (Name of Logging Elevation Reference)
APD  .                                   :Elevation of Depth Reference (LMF) above Permanent Datum
#-----------------------------------------------------------------------------
~CURVE INFORMATION
#MNEM.UNIT   API CODE                                  DESCRIPTION
#---- -----  --------                                  -----------------------
TIME .S                                                :TIME {F10.1}
FREQ_EMF_SL.HZ                                         :Electromagnetic Field Frequency {F13.4}
PH_SH_WPPCM_SL.DEG                                     :WPPCM Phase Shift {F13.4}
FREQ_EXC_REQ_SL.HZ                                     :Requested Exciter Frequency {F13.4}
RB_SL.DEG                                              :Relative Bearing {F13.4}
SDEV_SL.DEG                                            :Sonde Deviation {F13.4}
TILX_SL.DEG                                            :X-axis Tilt {F13.4}
TILY_SL.DEG                                            :Y-axis Tilt {F13.4}
ROTA_SL.DEG                                            :Motor Rotation Angle {F13.4}
MSPE_SL.RPM                                            :Motor Speed {F13.4}
#-----------------------------------------------------------------------------
# 
#     TIME    FREQ_EMF_SL  PH_SH_WPPCM_ FREQ_EXC_REQ    RB_SL       SDEV_SL      TILX_SL      TILY_SL      ROTA_SL      MSPE_SL
#                          SL           _SL
~A  
# ...
    3370.0    1426.2170       0.0000      50.8611     -64.4397       1.0617      -0.9584      -0.4551      53.7244       1.0226
    3371.0    1448.2315       0.0000      50.8611     -61.7685       1.0429      -0.9170      -0.4953      59.8368       1.0307
    3372.0    1470.2167       0.0000      50.8611     -55.1227       0.9075      -0.7459      -0.5161      65.9295       1.0226
    3373.0    1490.5077       0.0000      50.8611     -61.4684       0.9530      -0.8373      -0.4551      72.0197       1.0226
    3374.0    1506.0184       0.0000      50.8611     -61.0570       0.9664      -0.8453      -0.4682      78.1328       1.0327
    3375.0    1536.9159       0.0000      50.8611     -63.9271       0.9652      -0.8670      -0.4242      84.2247       1.0226
    3376.0    1548.8069       0.0000      50.8611     -61.7453       0.9413      -0.8274      -0.4444      90.3265       1.0226
    3377.0    1559.0355       0.0000      50.8611     -62.3936       0.9578      -0.8472      -0.4444      96.4160       1.0226
    3378.0    1575.6449       0.0000      50.8611     -63.9833       1.1330      -1.0184      -0.4959     102.5177       1.0307
    3379.0    1582.7386       0.0000      50.8611     -69.5494       1.0124      -0.9479      -0.3525     108.6104       1.0226
    3380.0    1587.1896       0.0000      50.8611     -72.7133       0.7093      -0.6173      -0.1972     115.1309       1.0226
    3381.0    1598.0114       0.0000      50.8611     -62.3894       1.0242      -0.9071      -0.4752     120.3147       0.0007
    3382.0    1605.3082       0.0000      50.8611     -60.6587       1.0756      -0.9374      -0.5268     120.3147       0.0005
    3383.0    1606.2128       0.0000      50.8611     -70.4367       0.9320      -0.8775      -0.3116     120.3147       0.0005
    3384.0    1603.4566       0.0000      50.8611     -62.6328       1.0339      -0.9176      -0.4758     120.3147       0.0005
    3385.0    1602.5520       0.0000      50.8611     -58.8266       1.0371      -0.8874      -0.5368     120.3147       0.0005
    3386.0    1605.9863       0.0000      50.8611     -62.9087       0.9581      -0.8521      -0.4368     120.3147       0.0005
    3387.0    1610.8588       0.0000      50.8611     -65.4273       1.0201      -0.9275      -0.4242     120.3147       0.0005
    3388.0    1603.5114       0.0000      50.8611     -67.4145       1.0274      -0.9479      -0.3934     120.3147       0.0005
    3389.0    1607.1216       0.0000      50.8611     -64.1404       1.0199      -0.9176      -0.4450     120.3147       0.0005
    3390.0    1609.8905       0.0000      50.8611     -65.9152       0.9390      -0.8571      -0.3833     120.3147       0.0005
    3391.0    1608.0771       0.0000      50.8611     -59.3602       1.0785      -0.9281      -0.5469     120.3147       0.0005
    3392.0    1603.5114       0.0000      50.8611     -67.3144       0.9948      -0.9176      -0.3833     120.3147       0.0005
    3393.0    1601.6515       0.0000      50.8611     -64.2473       0.9078      -0.8169      -0.3940     120.3147       0.0005
    3394.0    1607.1216       0.0000      50.8611     -64.0992       0.9205      -0.8268      -0.4035     120.3147       0.0005
    3395.0    1605.3082       0.0000      50.8611     -63.4641       0.9935      -0.8874      -0.4444     120.3147       0.0005
    3396.0    1607.1766       0.0000      50.8611     -67.0404       1.0080      -0.9275      -0.3934     120.3147       0.0005
    3397.0    1605.3082       0.0000      50.8611     -68.5067       0.9650      -0.8972      -0.3531     120.3147       0.0005
    3398.0    1605.9863       0.0000      50.8611     -55.5059       1.0159      -0.8373      -0.5752     120.3147       0.0005
    3399.0    1610.8588       0.0000      50.8611     -62.7871       0.9750      -0.8670      -0.4450     120.3147       0.0005
    3400.0    1605.3082       0.0000      50.8611     -68.1908       1.1510      -1.0696      -0.4248     120.3147       0.0005
    3401.0    1606.2128       0.0000      50.8611     -73.0105       1.2218      -1.1604      -0.3745     120.3147       0.0005
