~VERSION INFORMATION
VERS.           2.0   :CWLS Log ASCII Standard - VERSION 2.0
WRAP.           NO    :One Line per depth step
PROD.  Schlumberger   :LAS Producer
PROG.  DLIS to ASCII 19C2-270                          :LAS Program name and version
CREA.        2017/09/16 17:42                          :LAS Creation date {YYYY/MM/DD hh:mm}
DLIS_CREA.  2017-Sep-15 13:07                          :DLIS Creation date and time {YYYY-MMM-DD hh:mm}
SOURCE.     LPC_S1-1_2AV.DLIS                          :DLIS File Name
FILE-ID.     PERFO_Perfo_WPGRT_022LTP                  :File Identification Number
#--------------------------------------------------
~WELL INFORMATION
#MNEM.UNIT      DATA             DESCRIPTION
#---- ------ --------------   -----------------------------
STRT .S         8392.0       :START TIME      
STOP .S         9264.0       :STOP TIME      
STEP .S            1.0       :STEP     
NULL .          -999.25      :NULL VALUE
COMP .        SHELL INTERNATIONAL E P                  :COMPANY
WELL .        WPP TEST 2                               :WELL
FLD  .        WILDCAT                                  :FIELD
LOC  .                                                 :LOCATION
CNTY .        HARRIS                                   :COUNTY
STAT .        TEXAS                                    :STATE
CTRY .                                                 :COUNTRY
API  .                                                 :API NUMBER
UWI  .                                                 :UNIQUE WELL ID
DATE .                                                 :LOG DATE
SRVC .        Schlumberger                             :SERVICE COMPANY
LATI .DEG                                              :LATITUDE
LONG .DEG                                              :LONGITUDE
GDAT .                                                 :GeoDetic Datum
#-----------------------------------------------------------------------------
~PARAMETER INFORMATION
#MNEM.UNIT    VALUE                      DESCRIPTION
#---- -----   --------------------       ------------------------
U-PHASE_B_COMP_PER_YT.                 0 :Phase B Comparator Period Yt
U-PHASE_A_COMP_PER_XT.                 0 :Phase A Comparator Period Xt
U-MAX_EXC_CUR_LIMIT.MA       240.00000   :Requested CM Current Limit
U-REQ_EXC_FQ.HZ              50          :Requested CM Frequency
U-TILT_Y_OFFSET.           0.19916       :WPTET Tilt Y Offset
U-TILT_Y_GAIN.           1.01796         :WPTET Tilt Y Gain
U-TILT_X_OFFSET.          -1.77103       :WPTET Tilt X Offset
U-TILT_X_GAIN.           1.00000         :WPTET Tilt X Gain
U-TILT_OFFSET_TOL.           0.00100     :WPTET Tilt Offset Calibration Tolerance
U-NO_TILT_CAL_ROTATIONS.                 3 :Number of Rotations for Tilt Calibration
HAZI .DEG        0.00000                 :Hole Azimuth
U-STD_TOL_TILT.           0.01000        :Tilt Standard Deviation Tolerance
U-GUN_POS_TOL.DEG        5.00000         :Gun Position Tolerance
ROT_ANGLE_THRESHOLD.DEG        5.00000   :Rotation Stop Angle Tolerance
STOP_ROT_ANGLE.DEG       80.00000        :Rotation Stop Angle
WITN .                                   :Witness's Name
ENGI .                                   :Engineer's Name
COUN .        HARRIS                     :County or Rig Name
FN   .        WILDCAT                    :Field Name
WN   .        WPP TEST 2                 :Well Name
CN   .        SHELL INTERNATIONAL E P    :Company Name
CLAB .        County                     :County/Rig Label
SLAB .        State                      :State/Province Label
RUN  .          1                        :RUN NUMBER
PDAT .        GROUND LEVEL               :Permanent Datum
EPD  .                                   :Elevation of Permanent Datum above Mean Sea Level
LMF  .                                   :Logging Measured From (Name of Logging Elevation Reference)
APD  .                                   :Elevation of Depth Reference (LMF) above Permanent Datum
#-----------------------------------------------------------------------------
~CURVE INFORMATION
#MNEM.UNIT   API CODE                                  DESCRIPTION
#---- -----  --------                                  -----------------------
TIME .S                                                :TIME {F10.1}
FREQ_EMF_SL.HZ                                         :Electromagnetic Field Frequency {F13.4}
PH_SH_WPPCM_SL.DEG                                     :WPPCM Phase Shift {F13.4}
FREQ_EXC_REQ_SL.HZ                                     :Requested Exciter Frequency {F13.4}
RB_SL.DEG                                              :Relative Bearing {F13.4}
SDEV_SL.DEG                                            :Sonde Deviation {F13.4}
TILX_SL.DEG                                            :X-axis Tilt {F13.4}
TILY_SL.DEG                                            :Y-axis Tilt {F13.4}
ROTA_SL.DEG                                            :Motor Rotation Angle {F13.4}
MSPE_SL.RPM                                            :Motor Speed {F13.4}
#-----------------------------------------------------------------------------
# 
#     TIME    FREQ_EMF_SL  PH_SH_WPPCM_ FREQ_EXC_REQ    RB_SL       SDEV_SL      TILX_SL      TILY_SL      ROTA_SL      MSPE_SL
#                          SL           _SL
~A  
# ...
    8770.0    1327.5052       0.0000      50.8611     -53.3795       1.1056      -0.8874      -0.6595     202.0346       1.0138
    8771.0    1330.5379       0.0000      50.8611     -50.8563       1.1371      -0.8820      -0.7173     208.1107       1.0208
    8772.0    1332.9698       0.0000      50.8611     -58.1047       1.1330      -0.9609      -0.5986     214.1983       1.0226
    8773.0    1341.4071       0.0000      50.8611     -47.6670       1.1009      -0.8139      -0.7413     220.3131       1.0315
    8774.0    1341.4071       0.0000      50.8611     -53.1368       1.2023      -0.9609      -0.7212     226.4333       1.0226
    8775.0    1338.4217       0.0000      50.8611     -52.2805       1.1464      -0.9070      -0.7004     232.5464       1.0226
    8776.0    1340.5943       0.0000      50.8611     -51.2765       1.0003      -0.7805      -0.6256     238.6453       1.0226
    8777.0    1346.1688       0.0000      50.8611     -54.3192       1.0847      -0.8805      -0.6325     244.7623       1.0226
    8778.0    1354.7419       0.0000      50.8611     -48.7684       1.0014      -0.7532      -0.6595     251.2830       1.0315
    8779.0    1349.1286       0.0000      50.8611     -50.5136       0.9513      -0.7335      -0.6047     257.3851       1.0226
    8780.0    1355.6598       0.0000      50.8611     -41.2740       1.0044      -0.6600      -0.7544     263.4888       1.0315
    8781.0    1355.6598       0.0000      50.8611     -56.6057       1.0380      -0.8669      -0.5708     269.6057       1.0226
    8782.0    1364.3934       0.0000      50.8611     -49.9201       0.9499      -0.7267      -0.6117     275.7054       1.0226
    8783.0    1363.5024       0.0000      50.8611     -49.5965       0.8843      -0.6737      -0.5708     281.8058       1.0315
    8784.0    1361.3592       0.0000      50.8611     -50.2899       0.9273      -0.7138      -0.5916     287.9228       1.0226
    8785.0    1365.7428       0.0000      50.8611     -45.0498       0.8094      -0.5737      -0.5638     294.0275       1.0226
    8786.0    1379.1006       0.0000      50.8611     -45.9777       0.9676      -0.6934      -0.6726     300.1272       1.0226
    8787.0    1370.6140       0.0000      50.8611     -51.5904       0.8432      -0.6600      -0.5229     306.2258       1.0226
    8788.0    1374.6670       0.0000      50.8611     -50.4581       1.0174      -0.7797      -0.6517     312.3295       1.0226
    8789.0    1376.8976       0.0000      50.8611     -52.8210       1.3358      -1.0669      -0.8022     318.4342       1.0226
    8790.0    1386.3703       0.0000      50.8611     -53.5935       1.0597      -0.8532      -0.6256     324.9388       1.0315
    8791.0    1386.3703       0.0000      50.8611     -52.6083       0.9163      -0.7267      -0.5569     331.0557       1.0226
    8792.0    1390.5125       0.0000      50.8611     -58.9653       0.8720      -0.7472      -0.4481     337.1482       1.0226
    8793.0    1385.9718       0.0000      50.8611     -59.6477       0.8590      -0.7403      -0.4350     343.2223       1.0226
    8794.0    1392.3268       0.0000      50.8611     -59.9158       0.8400      -0.7267      -0.4211     349.3219       1.0226
    8795.0    1396.4539       0.0000      50.8611     -64.7620       0.9389      -0.8472      -0.4011     355.4256       1.0226
    8796.0    1395.0892       0.0000      50.8611     -61.4495       0.8809      -0.7737      -0.4211       1.5169       1.0226
    8797.0    1389.1092       0.0000      50.8611     -54.6577       0.8582      -0.7002      -0.4959       7.6053       1.0226
    8798.0    1382.7773       0.0000      50.8611     -60.7600       0.9172      -0.8002      -0.4481      13.6918       1.0226
    8799.0    1388.2377       0.0000      50.8611     -61.3636       0.9201      -0.8070      -0.4411      19.7956       1.0226
    8800.0    1394.6196       0.0000      50.8611     -58.0778       0.8969      -0.7600      -0.4751      25.9005       1.0226
    8801.0    1393.6859       0.0000      50.8611     -64.7341       0.9374      -0.8472      -0.4003      32.0003       1.0226
    8802.0    1383.2451       0.0000      50.8611     -62.7175       1.0128      -0.9002      -0.4620      38.4968       1.0226
    8803.0    1393.2679       0.0000      50.8611     -59.5076       1.0150      -0.8737      -0.5160      44.6006       1.0226
    8804.0    1392.3268       0.0000      50.8611     -69.0164       0.9654      -0.9010      -0.3463      50.7004       1.0226
    8805.0    1386.3703       0.0000      50.8611     -69.4836       1.1184      -1.0472      -0.3872      56.8002       1.0226
    8806.0    1381.8473       0.0000      50.8611     -62.8476       0.8412      -0.7464      -0.3864      62.8968       1.0226
    8807.0    1373.3715       0.0000      50.8611     -65.9667       1.0372      -0.9472      -0.4211      68.9833       1.0226
    8808.0    1380.4659       0.0000      50.8611     -63.4745       1.0676      -0.9540      -0.4759      75.0841       1.0226
    8809.0    1375.9785       0.0000      50.8611     -58.7259       1.0448      -0.8874      -0.5446      81.1936       1.0244
    8810.0    1369.3128       0.0000      50.8611     -64.3692       1.1625      -1.0480      -0.5029      87.2997       1.0226
    8811.0    1363.5467       0.0000      50.8611     -64.5822       1.0275      -0.9275      -0.4411      93.4045       1.0226
    8812.0    1362.6454       0.0000      50.8611     -65.6930       1.2079      -1.1010      -0.4959      99.5043       1.0226
    8813.0    1367.0461       0.0000      50.8611     -59.2268       1.0888      -0.9344      -0.5569     105.6030       1.0226
    8814.0    1353.4973       0.0000      50.8611     -54.4945       1.0999      -0.8942      -0.6386     112.1156       1.0244
    8815.0    1347.8635       0.0000      50.8611     -56.7283       1.1017      -0.9207      -0.6047     118.2176       1.0226
    8816.0    1352.1635       0.0000      50.8611     -62.1137       1.1480      -1.0147      -0.5368     124.3174       1.0226
    8817.0    1343.9712       0.0000      50.8611     -60.4119       1.0890      -0.9472      -0.5368     130.4322       1.0315
    8818.0    1340.1564       0.0000      50.8611     -57.8242       1.1998      -1.0147      -0.6395     136.5384       1.0226
    8819.0    1335.0671       0.0000      50.8611     -64.1624       1.0757      -0.9677      -0.4690     142.6393       1.0226
    8820.0    1327.9347       0.0000      50.8611     -57.4623       1.2269      -1.0344      -0.6595     148.7381       1.0138
    8821.0    1330.4476       0.0000      50.8611     -55.2211       1.0969      -0.9010      -0.6256     154.8306       1.0226
    8822.0    1328.7325       0.0000      50.8611     -56.4240       1.1932      -0.9942      -0.6595     160.9346       1.0226
    8823.0    1330.8219       0.0000      50.8611     -56.0978       1.1093      -0.9207      -0.6186     167.0477       1.0226
    8824.0    1330.0163       0.0000      50.8611     -61.5385       1.0552      -0.9275      -0.5029     173.1465       1.0226
    8825.0    1325.0036       0.0000      50.8611     -53.8360       1.1644      -0.9404      -0.6865     179.2431       1.0226
    8826.0    1333.3455       0.0000      50.8611     -55.6220       1.0836      -0.8942      -0.6117     185.7479       1.0226
    8827.0    1330.8219       0.0000      50.8611     -53.6563       1.0356      -0.8343      -0.6117     191.8478       1.0226
    8828.0    1329.5868       0.0000      50.8611     -52.5356       1.1285      -0.8942      -0.6873     197.9517       1.0315
    8829.0    1325.0036       0.0000      50.8611     -51.0174       1.1575      -0.9002      -0.7274     204.0819       1.0226
    8830.0    1334.2030       0.0000      50.8611     -48.7827       1.0555      -0.7942      -0.6934     210.1829       1.0226
    8831.0    1339.6855       0.0000      50.8611     -53.0035       1.0864      -0.8677      -0.6525     216.2694       1.0226
    8832.0    1333.7734       0.0000      50.8611     -50.4164       1.0564      -0.8139      -0.6734     222.3733       1.0226
