~VERSION INFORMATION
VERS.           2.0   :CWLS Log ASCII Standard - VERSION 2.0
WRAP.           NO    :One Line per depth step
PROD.  Schlumberger   :LAS Producer
PROG.  DLIS to ASCII 19C2-270                          :LAS Program name and version
CREA.        2017/09/16 17:42                          :LAS Creation date {YYYY/MM/DD hh:mm}
DLIS_CREA.  2017-Sep-15 15:33                          :DLIS Creation date and time {YYYY-MMM-DD hh:mm}
SOURCE.     LPC_S2-1_2BV.DLIS                          :DLIS File Name
FILE-ID.     PERFO_Perfo_WPGRT_036LTP                  :File Identification Number
#--------------------------------------------------
~WELL INFORMATION
#MNEM.UNIT      DATA             DESCRIPTION
#---- ------ --------------   -----------------------------
STRT .S          212.0       :START TIME      
STOP .S          624.0       :STOP TIME      
STEP .S            1.0       :STEP     
NULL .          -999.25      :NULL VALUE
COMP .        SHELL INTERNATIONAL E P                  :COMPANY
WELL .        WPP TEST 2                               :WELL
FLD  .        WILDCAT                                  :FIELD
LOC  .                                                 :LOCATION
CNTY .        HARRIS                                   :COUNTY
STAT .        TEXAS                                    :STATE
CTRY .                                                 :COUNTRY
API  .                                                 :API NUMBER
UWI  .                                                 :UNIQUE WELL ID
DATE .                                                 :LOG DATE
SRVC .        Schlumberger                             :SERVICE COMPANY
LATI .DEG                                              :LATITUDE
LONG .DEG                                              :LONGITUDE
GDAT .                                                 :GeoDetic Datum
#-----------------------------------------------------------------------------
~PARAMETER INFORMATION
#MNEM.UNIT    VALUE                      DESCRIPTION
#---- -----   --------------------       ------------------------
U-PHASE_B_COMP_PER_YT.                 0 :Phase B Comparator Period Yt
U-PHASE_A_COMP_PER_XT.                 0 :Phase A Comparator Period Xt
U-MAX_EXC_CUR_LIMIT.MA       240.00000   :Requested CM Current Limit
U-REQ_EXC_FQ.HZ              50          :Requested CM Frequency
U-TILT_Y_OFFSET.           0.19916       :WPTET Tilt Y Offset
U-TILT_Y_GAIN.           1.01796         :WPTET Tilt Y Gain
U-TILT_X_OFFSET.          -1.77103       :WPTET Tilt X Offset
U-TILT_X_GAIN.           1.00000         :WPTET Tilt X Gain
U-TILT_OFFSET_TOL.           0.00100     :WPTET Tilt Offset Calibration Tolerance
U-NO_TILT_CAL_ROTATIONS.                 3 :Number of Rotations for Tilt Calibration
HAZI .DEG        0.00000                 :Hole Azimuth
U-STD_TOL_TILT.           0.01000        :Tilt Standard Deviation Tolerance
U-GUN_POS_TOL.DEG        5.00000         :Gun Position Tolerance
ROT_ANGLE_THRESHOLD.DEG        5.00000   :Rotation Stop Angle Tolerance
STOP_ROT_ANGLE.DEG        0.00000        :Rotation Stop Angle
WITN .                                   :Witness's Name
ENGI .                                   :Engineer's Name
COUN .        HARRIS                     :County or Rig Name
FN   .        WILDCAT                    :Field Name
WN   .        WPP TEST 2                 :Well Name
CN   .        SHELL INTERNATIONAL E P    :Company Name
CLAB .        County                     :County/Rig Label
SLAB .        State                      :State/Province Label
RUN  .          1                        :RUN NUMBER
PDAT .        GROUND LEVEL               :Permanent Datum
EPD  .                                   :Elevation of Permanent Datum above Mean Sea Level
LMF  .                                   :Logging Measured From (Name of Logging Elevation Reference)
APD  .                                   :Elevation of Depth Reference (LMF) above Permanent Datum
#-----------------------------------------------------------------------------
~CURVE INFORMATION
#MNEM.UNIT   API CODE                                  DESCRIPTION
#---- -----  --------                                  -----------------------
TIME .S                                                :TIME {F10.1}
FREQ_EMF_SL.HZ                                         :Electromagnetic Field Frequency {F13.4}
PH_SH_WPPCM_SL.DEG                                     :WPPCM Phase Shift {F13.4}
FREQ_EXC_REQ_SL.HZ                                     :Requested Exciter Frequency {F13.4}
RB_SL.DEG                                              :Relative Bearing {F13.4}
SDEV_SL.DEG                                            :Sonde Deviation {F13.4}
TILX_SL.DEG                                            :X-axis Tilt {F13.4}
TILY_SL.DEG                                            :Y-axis Tilt {F13.4}
ROTA_SL.DEG                                            :Motor Rotation Angle {F13.4}
MSPE_SL.RPM                                            :Motor Speed {F13.4}
#-----------------------------------------------------------------------------
# 
#     TIME    FREQ_EMF_SL  PH_SH_WPPCM_ FREQ_EXC_REQ    RB_SL       SDEV_SL      TILX_SL      TILY_SL      ROTA_SL      MSPE_SL
#                          SL           _SL
~A  
# ...
     590.0    1342.9505       0.0000      50.8611     -49.4039       1.1502      -0.8734      -0.7484     312.0595       1.0258
     591.0    1359.2155       0.0000      50.8611     -44.9014       1.1267      -0.7949      -0.7983     318.1490       1.0301
     592.0    1361.8481       0.0000      50.8611     -49.6701       1.0434      -0.7949      -0.6756     324.2661       1.0226
     593.0    1378.1268       0.0000      50.8611     -48.7803       1.0052      -0.7547      -0.6633     330.3658       1.0226
     594.0    1382.4624       0.0000      50.8611     -50.1505       1.0303      -0.7912      -0.6595     336.4552       1.0226
     595.0    1394.2536       0.0000      50.8611     -51.3860       1.0063      -0.7827      -0.6272     342.5456       1.0301
     596.0    1403.4431       0.0000      50.8611     -51.8004       1.0469      -0.8229      -0.6471     348.9206       1.0226
     597.0    1412.7569       0.0000      50.8611     -50.7591       0.9879      -0.7631      -0.6224     355.1449       1.0226
     598.0    1429.3958       0.0000      50.8611     -53.0070       0.9601      -0.7669      -0.5777       1.2467       1.0226
     599.0    1427.3656       0.0000      50.8611     -46.7274       0.8531      -0.6183      -0.5863       7.3577       1.0258
     600.0    1436.9958       0.0000      50.8611     -51.2554       0.8966      -0.6987      -0.5616      13.4680       1.0152
     601.0    1443.7886       0.0000      50.8611     -53.3570       0.8716      -0.6987      -0.5207      19.5661       1.0226
     602.0    1443.4107       0.0000      50.8611     -55.4871       0.9451      -0.7772      -0.5335      25.6680       1.0226
     603.0    1452.1284       0.0000      50.8611     -53.3836       1.0133      -0.8249      -0.5530      31.7698       1.0226
     604.0    1447.6616       0.0000      50.8611     -53.9426       0.8851      -0.7145      -0.5207      37.8716       1.0226
     605.0    1452.4717       0.0000      50.8611     -55.5797       0.8478      -0.6987      -0.4798      43.9734       1.0226
     606.0    1460.8809       0.0000      50.8611     -58.0640       0.8654      -0.7351      -0.4551      50.0762       1.0226
     607.0    1460.2755       0.0000      50.8611     -58.1592       0.9173      -0.7790      -0.4836      56.1780       1.0226
     608.0    1455.7454       0.0000      50.8611     -58.9071       0.8355      -0.7108      -0.4351      61.9851       0.3097
     609.0    1455.4785       0.0000      50.8611     -59.5315       0.9225      -0.7949      -0.4674      62.2310       0.0005
     610.0    1459.6829       0.0000      50.8611     -59.6983       0.9022      -0.7790      -0.4551      62.2310       0.0005
     611.0    1459.0575       0.0000      50.8611     -61.4023       0.9510      -0.8350      -0.4551      62.2310       0.0005
     612.0    1455.7454       0.0000      50.8611     -58.4518       0.8711      -0.7426      -0.4551      62.2310       0.0005
     613.0    1456.6590       0.0000      50.8611     -50.5843       0.8005      -0.6183      -0.5083      62.2310       0.0005
     614.0    1456.6590       0.0000      50.8611     -60.5825       0.9265      -0.8070      -0.4551      62.2310       0.0005
     615.0    1456.6590       0.0000      50.8611     -59.9306       0.9328      -0.8070      -0.4674      62.2310       0.0005
     616.0    1456.6590       0.0000      50.8611     -60.0362       0.9011      -0.7790      -0.4513      62.2310       0.0005
     617.0    1454.5611       0.0000      50.8611     -55.2619       0.8319      -0.6828      -0.4712      62.2310       0.0005
     618.0    1460.8809       0.0000      50.8611     -56.1903       0.8459      -0.7024      -0.4712      62.2310       0.0005
     619.0    1456.9421       0.0000      50.8611     -61.9724       0.9152      -0.8070      -0.4303      62.2310       0.0005
     620.0    1455.7454       0.0000      50.8611     -56.5165       0.9002      -0.7510      -0.4959      62.2310       0.0005
     621.0    1459.6829       0.0000      50.8611     -61.3395       0.8292      -0.7267      -0.3980      62.2310       0.0005
     622.0    1457.8519       0.0000      50.8611     -45.0413       1.0669      -0.7547      -0.7536      62.2310       0.0005
     623.0    1454.5611       0.0000      50.8611     -49.5837       1.0261      -0.7706      -0.6643      62.2310       0.0005
     624.0    1455.7454       0.0000      50.8611     -57.1035       0.9683      -0.8107      -0.5282      62.2310       0.0005
