~VERSION INFORMATION
VERS.           2.0   :CWLS Log ASCII Standard - VERSION 2.0
WRAP.           NO    :One Line per depth step
PROD.  Schlumberger   :LAS Producer
PROG.  DLIS to ASCII 19C2-270                          :LAS Program name and version
CREA.        2017/09/16 17:42                          :LAS Creation date {YYYY/MM/DD hh:mm}
DLIS_CREA.  2017-Sep-15 17:44                          :DLIS Creation date and time {YYYY-MMM-DD hh:mm}
SOURCE.     LPC_S4-1_B5.DLIS                           :DLIS File Name
FILE-ID.     PERFO_Perfo_WPGRT_050LTP                  :File Identification Number
#--------------------------------------------------
~WELL INFORMATION
#MNEM.UNIT      DATA             DESCRIPTION
#---- ------ --------------   -----------------------------
STRT .S         2640.0       :START TIME      
STOP .S         3106.0       :STOP TIME      
STEP .S            1.0       :STEP     
NULL .          -999.25      :NULL VALUE
COMP .        SHELL INTERNATIONAL E P                  :COMPANY
WELL .        WPP TEST 2                               :WELL
FLD  .        WILDCAT                                  :FIELD
LOC  .        NA                                       :LOCATION
CNTY .        HARRIS                                   :COUNTY
STAT .        TEXAS                                    :STATE
CTRY .                                                 :COUNTRY
API  .        NA                                       :API NUMBER
UWI  .                                                 :UNIQUE WELL ID
DATE .        15-Sep-2017                              :LOG DATE {DD-MMM-YYYY}
SRVC .        Schlumberger                             :SERVICE COMPANY
LATI .DEG                                              :LATITUDE
LONG .DEG                                              :LONGITUDE
GDAT .                                                 :GeoDetic Datum
SECT .        NA                                       :Section
RANG .        NA                                       :Range
TOWN .        NA                                       :Township
#-----------------------------------------------------------------------------
~PARAMETER INFORMATION
#MNEM.UNIT    VALUE                      DESCRIPTION
#---- -----   --------------------       ------------------------
U-PHASE_B_COMP_PER_YT.                 0 :Phase B Comparator Period Yt
U-PHASE_A_COMP_PER_XT.                 0 :Phase A Comparator Period Xt
U-MAX_EXC_CUR_LIMIT.MA       240.00000   :Requested CM Current Limit
U-REQ_EXC_FQ.HZ              50          :Requested CM Frequency
U-TILT_Y_OFFSET.           0.19916       :WPTET Tilt Y Offset
U-TILT_Y_GAIN.           1.01796         :WPTET Tilt Y Gain
U-TILT_X_OFFSET.          -1.77103       :WPTET Tilt X Offset
U-TILT_X_GAIN.           1.00000         :WPTET Tilt X Gain
U-TILT_OFFSET_TOL.           0.00100     :WPTET Tilt Offset Calibration Tolerance
U-NO_TILT_CAL_ROTATIONS.                 3 :Number of Rotations for Tilt Calibration
HAZI .DEG        0.00000                 :Hole Azimuth
U-STD_TOL_TILT.           0.01000        :Tilt Standard Deviation Tolerance
U-GUN_POS_TOL.DEG        5.00000         :Gun Position Tolerance
ROT_ANGLE_THRESHOLD.DEG        5.00000   :Rotation Stop Angle Tolerance
STOP_ROT_ANGLE.DEG        0.00000        :Rotation Stop Angle
WITN .        MR. DHRUA ARORA            :Witness's Name
ENGI .        MORRIS MOORE               :Engineer's Name
COUN .        HARRIS                     :County or Rig Name
FN   .        WILDCAT                    :Field Name
WN   .        WPP TEST 2                 :Well Name
CN   .        SHELL INTERNATIONAL E P    :Company Name
CLAB .        County                     :County/Rig Label
SLAB .        State                      :State/Province Label
RUN  .          1                        :RUN NUMBER
PDAT .        GROUND LEVEL               :Permanent Datum
EPD  .                                   :Elevation of Permanent Datum above Mean Sea Level
LMF  .          NA                       :Logging Measured From (Name of Logging Elevation Reference)
APD  .                                   :Elevation of Depth Reference (LMF) above Permanent Datum
#-----------------------------------------------------------------------------
~CURVE INFORMATION
#MNEM.UNIT   API CODE                                  DESCRIPTION
#---- -----  --------                                  -----------------------
TIME .S                                                :TIME {F10.1}
FREQ_EMF_SL.HZ                                         :Electromagnetic Field Frequency {F13.4}
PH_SH_WPPCM_SL.DEG                                     :WPPCM Phase Shift {F13.4}
FREQ_EXC_REQ_SL.HZ                                     :Requested Exciter Frequency {F13.4}
RB_SL.DEG                                              :Relative Bearing {F13.4}
SDEV_SL.DEG                                            :Sonde Deviation {F13.4}
TILX_SL.DEG                                            :X-axis Tilt {F13.4}
TILY_SL.DEG                                            :Y-axis Tilt {F13.4}
ROTA_SL.DEG                                            :Motor Rotation Angle {F13.4}
MSPE_SL.RPM                                            :Motor Speed {F13.4}
#-----------------------------------------------------------------------------
# 
#     TIME    FREQ_EMF_SL  PH_SH_WPPCM_ FREQ_EXC_REQ    RB_SL       SDEV_SL      TILX_SL      TILY_SL      ROTA_SL      MSPE_SL
#                          SL           _SL
~A  
# ...
    3018.0    1487.8504       0.0000      50.8611    -131.3677       4.5038      -3.3777       2.9750     265.4198       1.0226
    3019.0    1449.7422       0.0000      50.8611    -124.3060       4.5576      -3.7626       2.5662     271.5230       1.0226
    3020.0    1417.1710       0.0000      50.8611    -118.6794       4.6802      -4.1051       2.2436     277.6111       1.0226
    3021.0    1378.5331       0.0000      50.8611    -113.2542       4.7497      -4.3629       1.8733     283.7129       1.0226
    3022.0    1345.6242       0.0000      50.8611    -107.4433       4.8264      -4.6039       1.4451     289.8218       1.0277
    3023.0    1301.9551       0.0000      50.8611    -103.0891       4.9313      -4.8025       1.1158     295.9305       1.0226
    3024.0    1235.1412       0.0000      50.8611     -96.7440       4.9769      -4.9420       0.5842     302.0339       1.0226
    3025.0    1157.1650       0.0000      50.8611     -91.0749       5.0068      -5.0055       0.0936     308.1234       1.0226
    3026.0    1083.2241       0.0000      50.8611     -86.9440       5.1122      -5.1049      -0.2722     314.2253       1.0283
    3027.0    1017.9023       0.0000      50.8611     -81.6673       5.1382      -5.0837      -0.7435     320.3401       1.0226
    3028.0     982.3470       0.0000      50.8611     -77.2028       5.1117      -4.9844      -1.1308     326.4419       1.0226
    3029.0     952.6747       0.0000      50.8611     -70.7387       5.1106      -4.8237      -1.6839     332.5384       1.0277
    3030.0     930.5771       0.0000      50.8611     -67.6230       5.2600      -4.8594      -1.9985     339.0391       1.0226
    3031.0     912.3476       0.0000      50.8611     -61.3806       5.3140      -4.6630      -2.5426     345.1478       1.0283
    3032.0     896.6675       0.0000      50.8611     -57.3836       5.2494      -4.4198      -2.8266     351.2572       1.0226
    3033.0     885.0216       0.0000      50.8611     -52.9762       5.3139      -4.2402      -3.1968     357.3607       1.0226
    3034.0     875.6227       0.0000      50.8611     -48.1331       5.3173      -3.9568      -3.5455       3.4755       1.0226
    3035.0     867.9430       0.0000      50.8611     -43.0373       5.3050      -3.6165      -3.8748       9.5774       1.0226
    3036.0     865.9774       0.0000      50.8611     -38.1011       5.1563      -3.1791      -4.0554      15.6792       1.0226
    3037.0     865.4143       0.0000      50.8611     -33.2331       5.2354      -2.8679      -4.3758      21.7810       1.0226
    3038.0     863.2892       0.0000      50.8611     -27.0238       4.9828      -2.2597      -4.4360      27.8844       1.0226
    3039.0     869.1286       0.0000      50.8611     -22.6269       5.1269      -1.9696      -4.7312      33.9846       1.0226
    3040.0     880.0682       0.0000      50.8611     -17.5468       5.0036      -1.5066      -4.7699      40.0824       1.0277
    3041.0     888.5081       0.0000      50.8611      -9.1264       4.7070      -0.7457      -4.6472      46.1890       1.0226
    3042.0     904.8602       0.0000      50.8611      -7.1403       4.8491      -0.6018      -4.8107      52.6988       1.0170
    3043.0     921.0991       0.0000      50.8611      -1.4483       4.8318      -0.1220      -4.8301      58.7999       1.0277
    3044.0     940.2292       0.0000      50.8611       3.6373       4.7560       0.3009      -4.7460      64.9033       1.0226
    3045.0     971.1672       0.0000      50.8611       7.0115       4.5827       0.5586      -4.5483      70.9944       1.0226
    3046.0    1006.8324       0.0000      50.8611      13.3247       4.4376       1.0217      -4.3178      77.0946       1.0226
    3047.0    1078.2836       0.0000      50.8611      18.6133       4.4708       1.4255      -4.2361      83.1964       1.0226
    3048.0    1178.6854       0.0000      50.8611      25.7688       4.2651       1.8484      -3.8398      89.2982       1.0226
    3049.0    1266.0905       0.0000      50.8611      31.2969       4.2387       2.2011      -3.6205      95.4130       1.0226
    3050.0    1311.8003       0.0000      50.8611      36.5832       3.9735       2.3661      -3.1900     101.5033       1.0277
    3051.0    1353.5378       0.0000      50.8611      42.9788       3.9936       2.7210      -2.9209     107.6050       1.0226
    3052.0    1399.4959       0.0000      50.8611      50.1938       3.8692       2.9709      -2.4756     113.7068       1.0226
    3053.0    1438.2310       0.0000      50.8611      55.2587       3.7086       3.0468      -2.1121     119.8086       1.0226
    3054.0    1478.7938       0.0000      50.8611      62.3853       3.5781       3.1695      -1.6579     126.3298       1.0226
    3055.0    1530.4869       0.0000      50.8611      68.5021       3.4681       3.2264      -1.2706     132.4333       1.0226
    3056.0    1569.6759       0.0000      50.8611      77.9113       3.4257       3.3491      -0.7174     138.5322       1.0226
    3057.0    1612.8839       0.0000      50.8611      85.4456       3.3979       3.3871      -0.2699     144.6371       1.0226
    3058.0    1648.4892       0.0000      50.8611      92.5770       3.1163       3.1125       0.1412     150.3310       1.0226
    3059.0    1690.4376       0.0000      50.8611     101.3978       3.1952       3.1315       0.6319     156.4206       1.0226
    3060.0    1723.3456       0.0000      50.8611     107.5486       3.2449       3.0936       0.9783     162.5486       1.0226
    3061.0    1744.9758       0.0000      50.8611     117.9001       3.2231       2.8481       1.5076     168.6505       1.0226
    3062.0    1766.6456       0.0000      50.8611     124.6370       3.2670       2.6875       1.8562     174.7401       1.0226
    3063.0    1775.5682       0.0000      50.8611     127.1823       3.2757       2.6094       1.9789     176.9429       0.0005
    3064.0    1775.8261       0.0000      50.8611     128.6689       3.2342       2.5246       2.0198     176.9429       0.0005
    3065.0    1777.6921       0.0000      50.8611     127.6110       3.2438       2.5692       1.9789     176.9429       0.0005
    3066.0    1782.4465       0.0000      50.8611     129.0035       3.1761       2.4677       1.9982     176.9429       0.0005
    3067.0    1782.7179       0.0000      50.8611     127.9631       3.1790       2.5056       1.9551     176.9429       0.0005
    3068.0    1780.0632       0.0000      50.8611     128.0481       3.2120       2.5290       1.9789     176.9429       0.0005
    3069.0    1777.6921       0.0000      50.8611     129.2572       3.1904       2.4699       2.0175     176.9429       0.0005
    3070.0    1782.1980       0.0000      50.8611     126.9798       3.1905       2.5480       1.9187     176.9429       0.0005
    3071.0    1777.9393       0.0000      50.8611     126.9622       3.1922       2.5502       1.9187     176.9429       0.0005
    3072.0    1777.6921       0.0000      50.8611     128.1352       3.2404       2.5480       2.0005     176.9429       0.0005
    3073.0    1777.6921       0.0000      50.8611     126.4072       3.2664       2.6283       1.9380     176.9429       0.0005
    3074.0    1780.0632       0.0000      50.8611     128.8439       3.2177       2.5056       2.0175     176.9429       0.0005
    3075.0    1775.5682       0.0000      50.8611     127.3974       3.2637       2.5926       1.9812     176.9429       0.0005
    3076.0    1782.1980       0.0000      50.8611     127.0440       3.2931       2.6261       1.9834     176.9429       0.0005
    3077.0    1782.1980       0.0000      50.8611     126.8105       3.3387       2.6729       1.9982     176.9429       0.0005
    3078.0    1782.4465       0.0000      50.8611     131.1909       3.1265       2.3516       2.0562     176.9429       0.0005
    3079.0    1775.5682       0.0000      50.8611     124.2198       3.2102       2.6552       1.7960     176.9429       0.0005
    3080.0    1777.6921       0.0000      50.8611     125.5825       3.2102       2.6129       1.8562     176.9429       0.0005
