~VERSION INFORMATION
VERS.           2.0   :CWLS Log ASCII Standard - VERSION 2.0
WRAP.           NO    :One Line per depth step
PROD.  Schlumberger   :LAS Producer
PROG.  DLIS to ASCII 19C2-270                          :LAS Program name and version
CREA.        2017/09/16 17:42                          :LAS Creation date {YYYY/MM/DD hh:mm}
DLIS_CREA.  2017-Sep-15 17:44                          :DLIS Creation date and time {YYYY-MMM-DD hh:mm}
SOURCE.     LPC_S4-1_B5.DLIS                           :DLIS File Name
FILE-ID.     PERFO_Perfo_WPGRT_050LTP                  :File Identification Number
#--------------------------------------------------
~WELL INFORMATION
#MNEM.UNIT      DATA             DESCRIPTION
#---- ------ --------------   -----------------------------
STRT .S         2640.0       :START TIME      
STOP .S         3106.0       :STOP TIME      
STEP .S            1.0       :STEP     
NULL .          -999.25      :NULL VALUE
COMP .        SHELL INTERNATIONAL E P                  :COMPANY
WELL .        WPP TEST 2                               :WELL
FLD  .        WILDCAT                                  :FIELD
LOC  .        NA                                       :LOCATION
CNTY .        HARRIS                                   :COUNTY
STAT .        TEXAS                                    :STATE
CTRY .                                                 :COUNTRY
API  .        NA                                       :API NUMBER
UWI  .                                                 :UNIQUE WELL ID
DATE .        15-Sep-2017                              :LOG DATE {DD-MMM-YYYY}
SRVC .        Schlumberger                             :SERVICE COMPANY
LATI .DEG                                              :LATITUDE
LONG .DEG                                              :LONGITUDE
GDAT .                                                 :GeoDetic Datum
SECT .        NA                                       :Section
RANG .        NA                                       :Range
TOWN .        NA                                       :Township
#-----------------------------------------------------------------------------
~PARAMETER INFORMATION
#MNEM.UNIT    VALUE                      DESCRIPTION
#---- -----   --------------------       ------------------------
U-PHASE_B_COMP_PER_YT.                 0 :Phase B Comparator Period Yt
U-PHASE_A_COMP_PER_XT.                 0 :Phase A Comparator Period Xt
U-MAX_EXC_CUR_LIMIT.MA       240.00000   :Requested CM Current Limit
U-REQ_EXC_FQ.HZ              50          :Requested CM Frequency
U-TILT_Y_OFFSET.           0.19916       :WPTET Tilt Y Offset
U-TILT_Y_GAIN.           1.01796         :WPTET Tilt Y Gain
U-TILT_X_OFFSET.          -1.77103       :WPTET Tilt X Offset
U-TILT_X_GAIN.           1.00000         :WPTET Tilt X Gain
U-TILT_OFFSET_TOL.           0.00100     :WPTET Tilt Offset Calibration Tolerance
U-NO_TILT_CAL_ROTATIONS.                 3 :Number of Rotations for Tilt Calibration
HAZI .DEG        0.00000                 :Hole Azimuth
U-STD_TOL_TILT.           0.01000        :Tilt Standard Deviation Tolerance
U-GUN_POS_TOL.DEG        5.00000         :Gun Position Tolerance
ROT_ANGLE_THRESHOLD.DEG        5.00000   :Rotation Stop Angle Tolerance
STOP_ROT_ANGLE.DEG        0.00000        :Rotation Stop Angle
WITN .        MR. DHRUA ARORA            :Witness's Name
ENGI .        MORRIS MOORE               :Engineer's Name
COUN .        HARRIS                     :County or Rig Name
FN   .        WILDCAT                    :Field Name
WN   .        WPP TEST 2                 :Well Name
CN   .        SHELL INTERNATIONAL E P    :Company Name
CLAB .        County                     :County/Rig Label
SLAB .        State                      :State/Province Label
RUN  .          1                        :RUN NUMBER
PDAT .        GROUND LEVEL               :Permanent Datum
EPD  .                                   :Elevation of Permanent Datum above Mean Sea Level
LMF  .          NA                       :Logging Measured From (Name of Logging Elevation Reference)
APD  .                                   :Elevation of Depth Reference (LMF) above Permanent Datum
#-----------------------------------------------------------------------------
~CURVE INFORMATION
#MNEM.UNIT   API CODE                                  DESCRIPTION
#---- -----  --------                                  -----------------------
TIME .S                                                :TIME {F10.1}
FREQ_EMF_SL.HZ                                         :Electromagnetic Field Frequency {F13.4}
PH_SH_WPPCM_SL.DEG                                     :WPPCM Phase Shift {F13.4}
FREQ_EXC_REQ_SL.HZ                                     :Requested Exciter Frequency {F13.4}
RB_SL.DEG                                              :Relative Bearing {F13.4}
SDEV_SL.DEG                                            :Sonde Deviation {F13.4}
TILX_SL.DEG                                            :X-axis Tilt {F13.4}
TILY_SL.DEG                                            :Y-axis Tilt {F13.4}
ROTA_SL.DEG                                            :Motor Rotation Angle {F13.4}
MSPE_SL.RPM                                            :Motor Speed {F13.4}
#-----------------------------------------------------------------------------
# 
#     TIME    FREQ_EMF_SL  PH_SH_WPPCM_ FREQ_EXC_REQ    RB_SL       SDEV_SL      TILX_SL      TILY_SL      ROTA_SL      MSPE_SL
#                          SL           _SL
~A  
# ...
    2892.0    1725.3463       0.0000      50.8611    -175.7015       3.8299      -0.2871       3.8189     212.0669       1.0226
    2893.0    1704.4343       0.0000      50.8611    -166.9523       3.8750      -0.8728       3.7735     218.1672       1.0226
    2894.0    1675.9950       0.0000      50.8611    -161.7494       3.9358      -1.2321       3.7371     224.2691       1.0226
    2895.0    1632.9820       0.0000      50.8611    -156.4793       3.9846      -1.5892       3.6531     230.3776       1.0176
    2896.0    1603.3793       0.0000      50.8611    -148.4040       4.1944      -2.1961       3.5713     236.4686       1.0170
    2897.0    1567.2938       0.0000      50.8611    -143.1963       4.2080      -2.5196       3.3669     242.9844       1.0226
    2898.0    1526.6156       0.0000      50.8611    -137.1327       4.3491      -2.9570       3.1862     249.0863       1.0226
    2899.0    1489.8518       0.0000      50.8611    -132.3595       4.3566      -3.2170       2.9342     255.1882       1.0226
    2900.0    1457.3385       0.0000      50.8611    -126.2150       4.5657      -3.6823       2.6956     261.2966       1.0176
    2901.0    1420.0332       0.0000      50.8611    -119.4555       4.6890      -4.0817       2.3038     267.3802       1.0226
    2902.0    1386.6893       0.0000      50.8611    -115.7653       4.6908      -4.2234       2.0369     273.4820       1.0226
    2903.0    1346.9828       0.0000      50.8611    -110.0523       4.8162      -4.5235       1.6496     279.5853       1.0226
    2904.0    1305.5204       0.0000      50.8611    -103.5817       4.8583      -4.7222       1.1396     285.6857       1.0283
    2905.0    1257.2288       0.0000      50.8611     -97.7097       4.9684      -4.9230       0.6660     291.8005       1.0226
    2906.0    1169.7239       0.0000      50.8611     -92.2343       5.0453      -5.0413       0.1969     297.9038       1.0226
    2907.0    1091.4781       0.0000      50.8611     -88.7734       5.0849      -5.0837      -0.1086     304.0056       1.0226
    2908.0    1025.2684       0.0000      50.8611     -81.4951       5.1813      -5.1238      -0.7651     310.1042       1.0176
    2909.0     991.5007       0.0000      50.8611     -77.2363       5.2128      -5.0837      -1.1501     316.6049       1.0226
    2910.0     960.0098       0.0000      50.8611     -71.5661       5.2344      -4.9610      -1.6520     322.7053       1.0226
    2911.0     936.1848       0.0000      50.8611     -69.0157       5.3398      -4.9844      -1.9099     328.8271       1.0283
    2912.0     914.7215       0.0000      50.8611     -63.0696       5.3193      -4.7389      -2.4051     334.9351       1.0226
    2913.0     900.7153       0.0000      50.8611     -58.5741       5.2365      -4.4666      -2.7277     341.0501       1.0226
    2914.0     887.3196       0.0000      50.8611     -51.8677       5.2133      -4.0985      -3.2161     347.1519       1.0226
    2915.0     874.4751       0.0000      50.8611     -47.9976       5.3082      -3.9400      -3.5500     353.2552       1.0226
    2916.0     872.7644       0.0000      50.8611     -43.7006       5.3273      -3.6778      -3.8488     359.3555       1.0226
    2917.0     866.9277       0.0000      50.8611     -38.8503       5.2932      -3.3163      -4.1201       5.4573       1.0283
    2918.0     865.9175       0.0000      50.8611     -33.1532       5.1411      -2.8087      -4.3008      11.5723       1.0226
    2919.0     867.4909       0.0000      50.8611     -28.9245       5.1764      -2.5029      -4.5268      17.6702       1.0226
    2920.0     868.5061       0.0000      50.8611     -23.6329       5.1210      -2.0500      -4.6903      23.7782       1.0226
    2921.0     883.9729       0.0000      50.8611     -19.0387       5.0719      -1.6527      -4.7937      30.2743       1.0226
    2922.0     886.7932       0.0000      50.8611     -13.0586       4.8995      -1.1050      -4.7721      36.3707       1.0226
    2923.0     903.7596       0.0000      50.8611      -9.4001       4.9116      -0.8026      -4.8449      42.4787       1.0226
    2924.0     922.3834       0.0000      50.8611      -4.2684       4.6579      -0.3462      -4.6449      48.5686       1.0277
    2925.0     942.1591       0.0000      50.8611       2.1776       4.7521       0.1804      -4.7483      54.6839       1.0226
    2926.0     970.5342       0.0000      50.8611       6.8530       4.5530       0.5419      -4.5200      60.7858       1.0226
    2927.0    1003.9572       0.0000      50.8611      12.3715       4.4869       0.9603      -4.3825      66.8892       1.0226
    2928.0    1075.1116       0.0000      50.8611      18.5743       4.4058       1.4021      -4.1759      72.9908       1.0226
    2929.0    1163.9738       0.0000      50.8611      23.1425       4.3407       1.7045      -3.9907      79.0926       1.0226
    2930.0    1250.6301       0.0000      50.8611      30.6889       4.1981       2.1397      -3.6079      85.1836       1.0226
    2931.0    1308.2076       0.0000      50.8611      36.5028       4.0212       2.3895      -3.2309      91.2838       1.0226
    2932.0    1353.5378       0.0000      50.8611      42.8220       4.0159       2.7276      -2.9447      97.3856       1.0226
    2933.0    1393.9468       0.0000      50.8611      47.5405       3.8169       2.8124      -2.5745     103.8939       1.0226
    2934.0    1429.4590       0.0000      50.8611      55.3620       3.7820       3.1103      -2.1485     109.9957       1.0226
    2935.0    1474.2331       0.0000      50.8611      63.1783       3.6208       3.2286      -1.6341     116.0975       1.0226
    2936.0    1525.6096       0.0000      50.8611      69.2200       3.5827       3.3491      -1.2706     122.2148       1.0277
    2937.0    1564.7649       0.0000      50.8611      77.5317       3.4071       3.3257      -0.7368     128.3028       1.0226
    2938.0    1610.9284       0.0000      50.8611      81.9546       3.2235       3.1907      -0.4506     134.4047       1.0226
    2939.0    1641.0059       0.0000      50.8611      92.5837       3.0901       3.0869       0.1389     140.5066       1.0226
    2940.0    1676.4537       0.0000      50.8611     100.7360       3.3703       3.3112       0.6274     146.6045       1.0277
    2941.0    1710.7665       0.0000      50.8611     107.9992       3.3060       3.1439       1.0192     152.7133       1.0226
    2942.0    1734.0907       0.0000      50.8611     115.0516       3.0789       2.7890       1.3031     158.8152       1.0226
    2943.0    1755.7413       0.0000      50.8611     122.4440       3.2106       2.7042       1.7210     164.9171       1.0226
    2944.0    1771.3523       0.0000      50.8611     131.7383       3.3105       2.4699       2.2027     171.0322       1.0277
    2945.0    1778.2094       0.0000      50.8611     140.2047       3.3473       2.1419       2.5707     177.5608       1.0283
    2946.0    1793.4463       0.0000      50.8611     147.2161       3.2212       1.7425       2.7081     183.6689       1.0226
    2947.0    1791.2787       0.0000      50.8611     155.2813       3.3042       1.3810       3.0011     189.7708       1.0226
    2948.0    1780.0632       0.0000      50.8611     160.6040       3.4888       1.1567       3.2896     195.8741       1.0226
    2949.0    1766.4128       0.0000      50.8611     168.2536       3.6327       0.7383       3.5565     201.9877       1.0277
    2950.0    1757.5817       0.0000      50.8611     175.8823       3.6022       0.2585       3.5929     208.1028       1.0226
    2951.0    1739.8998       0.0000      50.8611    -174.8431       3.6920      -0.3320       3.6769     214.2047       1.0226
    2952.0    1714.9390       0.0000      50.8611    -171.3074       3.7792      -0.5704       3.7348     220.3066       1.0226
    2953.0    1688.0662       0.0000      50.8611    -162.4065       4.0857      -1.2321       3.8939     226.4099       1.0226
    2954.0    1654.2069       0.0000      50.8611    -157.3829       4.0446      -1.5534       3.7326     232.4995       1.0226
