~VERSION INFORMATION
VERS.           2.0   :CWLS Log ASCII Standard - VERSION 2.0
WRAP.           NO    :One Line per depth step
PROD.  Schlumberger   :LAS Producer
PROG.  DLIS to ASCII 19C2-270                          :LAS Program name and version
CREA.        2017/09/16 17:42                          :LAS Creation date {YYYY/MM/DD hh:mm}
DLIS_CREA.  2017-Sep-15 18:59                          :DLIS Creation date and time {YYYY-MMM-DD hh:mm}
SOURCE.     LPC_S5-1_A5.DLIS                           :DLIS File Name
FILE-ID.     PERFO_Perfo_WPGRT_058LTP                  :File Identification Number
#--------------------------------------------------
~WELL INFORMATION
#MNEM.UNIT      DATA             DESCRIPTION
#---- ------ --------------   -----------------------------
STRT .S         7119.0       :START TIME      
STOP .S         7636.0       :STOP TIME      
STEP .S            1.0       :STEP     
NULL .          -999.25      :NULL VALUE
COMP .        SHELL INTERNATIONAL E P                  :COMPANY
WELL .        WPP TEST 2                               :WELL
FLD  .        WILDCAT                                  :FIELD
LOC  .        NA                                       :LOCATION
CNTY .        HARRIS                                   :COUNTY
STAT .        TEXAS                                    :STATE
CTRY .                                                 :COUNTRY
API  .        NA                                       :API NUMBER
UWI  .                                                 :UNIQUE WELL ID
DATE .        15-Sep-2017                              :LOG DATE {DD-MMM-YYYY}
SRVC .        Schlumberger                             :SERVICE COMPANY
LATI .DEG                                              :LATITUDE
LONG .DEG                                              :LONGITUDE
GDAT .                                                 :GeoDetic Datum
SECT .        NA                                       :Section
RANG .        NA                                       :Range
TOWN .        NA                                       :Township
#-----------------------------------------------------------------------------
~PARAMETER INFORMATION
#MNEM.UNIT    VALUE                      DESCRIPTION
#---- -----   --------------------       ------------------------
U-PHASE_B_COMP_PER_YT.                 0 :Phase B Comparator Period Yt
U-PHASE_A_COMP_PER_XT.                 0 :Phase A Comparator Period Xt
U-MAX_EXC_CUR_LIMIT.MA       240.00000   :Requested CM Current Limit
U-REQ_EXC_FQ.HZ              50          :Requested CM Frequency
U-TILT_Y_OFFSET.           0.19916       :WPTET Tilt Y Offset
U-TILT_Y_GAIN.           1.01796         :WPTET Tilt Y Gain
U-TILT_X_OFFSET.          -1.77103       :WPTET Tilt X Offset
U-TILT_X_GAIN.           1.00000         :WPTET Tilt X Gain
U-TILT_OFFSET_TOL.           0.00100     :WPTET Tilt Offset Calibration Tolerance
U-NO_TILT_CAL_ROTATIONS.                 3 :Number of Rotations for Tilt Calibration
HAZI .DEG        0.00000                 :Hole Azimuth
U-STD_TOL_TILT.           0.01000        :Tilt Standard Deviation Tolerance
U-GUN_POS_TOL.DEG        5.00000         :Gun Position Tolerance
ROT_ANGLE_THRESHOLD.DEG        5.00000   :Rotation Stop Angle Tolerance
STOP_ROT_ANGLE.DEG        0.00000        :Rotation Stop Angle
WITN .        MR. DHRUA ARORA            :Witness's Name
ENGI .        MORRIS MOORE               :Engineer's Name
COUN .        HARRIS                     :County or Rig Name
FN   .        WILDCAT                    :Field Name
WN   .        WPP TEST 2                 :Well Name
CN   .        SHELL INTERNATIONAL E P    :Company Name
CLAB .        County                     :County/Rig Label
SLAB .        State                      :State/Province Label
RUN  .          1                        :RUN NUMBER
PDAT .        GROUND LEVEL               :Permanent Datum
EPD  .                                   :Elevation of Permanent Datum above Mean Sea Level
LMF  .          NA                       :Logging Measured From (Name of Logging Elevation Reference)
APD  .                                   :Elevation of Depth Reference (LMF) above Permanent Datum
#-----------------------------------------------------------------------------
~CURVE INFORMATION
#MNEM.UNIT   API CODE                                  DESCRIPTION
#---- -----  --------                                  -----------------------
TIME .S                                                :TIME {F10.1}
FREQ_EMF_SL.HZ                                         :Electromagnetic Field Frequency {F13.4}
PH_SH_WPPCM_SL.DEG                                     :WPPCM Phase Shift {F13.4}
FREQ_EXC_REQ_SL.HZ                                     :Requested Exciter Frequency {F13.4}
RB_SL.DEG                                              :Relative Bearing {F13.4}
SDEV_SL.DEG                                            :Sonde Deviation {F13.4}
TILX_SL.DEG                                            :X-axis Tilt {F13.4}
TILY_SL.DEG                                            :Y-axis Tilt {F13.4}
ROTA_SL.DEG                                            :Motor Rotation Angle {F13.4}
MSPE_SL.RPM                                            :Motor Speed {F13.4}
#-----------------------------------------------------------------------------
# 
#     TIME    FREQ_EMF_SL  PH_SH_WPPCM_ FREQ_EXC_REQ    RB_SL       SDEV_SL      TILX_SL      TILY_SL      ROTA_SL      MSPE_SL
#                          SL           _SL
~A  
# ...
    7182.0    1523.3681       0.0000      50.8611    -152.7161       4.2939      -1.9670       3.8153       1.5344       1.0167
    7183.0    1529.3590       0.0000      50.8611    -147.0350       4.4526      -2.4217       3.7335       7.6426       1.0180
    7184.0    1529.9979       0.0000      50.8611    -141.8690       4.4741      -2.7607       3.5160      13.7197       1.0226
    7185.0    1531.4696       0.0000      50.8611    -134.7175       4.6044      -3.2700       3.2380      19.8216       1.0226
    7186.0    1528.1411       0.0000      50.8611    -129.7513       4.7549      -3.6540       3.0384      25.9234       1.0226
    7187.0    1525.6212       0.0000      50.8611    -123.6979       4.8346      -4.0204       2.6802      32.4446       1.0226
    7188.0    1522.7348       0.0000      50.8611    -118.0552       4.8460      -4.2742       2.2763      38.5459       1.0167
    7189.0    1513.1536       0.0000      50.8611    -111.8921       4.8916      -4.5377       1.8216      44.6477       1.0226
    7190.0    1504.8748       0.0000      50.8611    -107.7173       5.0740      -4.8317       1.5403      50.7495       1.0226
    7191.0    1494.6131       0.0000      50.8611    -102.1449       5.1951      -5.0775       1.0905      56.8544       1.0226
    7192.0    1487.3030       0.0000      50.8611     -96.2987       5.1764      -5.1450       0.5671      62.9549       1.0226
    7193.0    1472.6998       0.0000      50.8611     -91.3575       5.1820      -5.1804       0.1223      69.0712       1.0226
    7194.0    1452.7377       0.0000      50.8611     -85.2310       5.3699      -5.3507      -0.4452      75.1716       1.0226
    7195.0    1438.2423       0.0000      50.8611     -80.6909       5.4005      -5.3282      -0.8721      81.2879       1.0226
    7196.0    1420.4546       0.0000      50.8611     -75.7278       5.3876      -5.2205      -1.3268      87.4029       1.0226
    7197.0    1409.0682       0.0000      50.8611     -71.2549       5.4238      -5.1354      -1.7406      93.5046       1.0226
    7198.0    1393.8738       0.0000      50.8611     -65.3965       5.5447      -5.0390      -2.3032      99.6010       1.0226
    7199.0    1379.3465       0.0000      50.8611     -59.8806       5.5388      -4.7883      -2.7759     106.1103       1.0214
    7200.0    1364.4549       0.0000      50.8611     -56.0784       5.5197      -4.5779      -3.0768     112.2060       1.0167
    7201.0    1339.5967       0.0000      50.8611     -51.8953       5.5169      -4.3369      -3.4023     118.3161       1.0286
    7202.0    1308.5877       0.0000      50.8611     -45.8812       5.4929      -3.9400      -3.8209     124.4235       1.0226
    7203.0    1287.7748       0.0000      50.8611     -40.5583       5.5848      -3.6283      -4.2396     130.5170       1.0214
    7204.0    1248.8899       0.0000      50.8611     -36.3994       5.3444      -3.1688      -4.2985     136.6279       1.0226
    7205.0    1230.3312       0.0000      50.8611     -31.6143       5.3174      -2.7848      -4.5259     142.7298       1.0226
    7206.0    1200.7745       0.0000      50.8611     -26.2350       5.3865      -2.3783      -4.8301     148.8331       1.0226
    7207.0    1174.0698       0.0000      50.8611     -20.3036       5.3586      -1.8562      -5.0247     154.9358       1.0226
    7208.0    1154.1968       0.0000      50.8611     -15.0775       5.2199      -1.3565      -5.0394     161.0254       1.0273
    7209.0    1142.1308       0.0000      50.8611     -11.7900       5.0280      -1.0255      -4.9217     167.1403       1.0226
    7210.0    1126.3811       0.0000      50.8611      -6.0292       5.1043      -0.5355      -5.0754     173.2422       1.0226
    7211.0    1116.2868       0.0000      50.8611      -0.6026       5.1532      -0.0535      -5.1523     179.7385       1.0226
    7212.0    1110.2269       0.0000      50.8611       6.9639       4.8766       0.5892      -4.8399     185.8387       1.0226
    7213.0    1110.6750       0.0000      50.8611      10.6038       4.7127       0.8655      -4.6305     191.9357       1.0273
    7214.0    1118.0619       0.0000      50.8611      15.2339       4.6436       1.2190      -4.4801     198.0449       1.0226
    7215.0    1115.6575       0.0000      50.8611      21.8042       4.6802       1.7363      -4.3443     204.1344       1.0167
    7216.0    1119.0095       0.0000      50.8611      29.9998       4.5773       2.2858      -3.9632     210.2372       1.0286
    7217.0    1143.2927       0.0000      50.8611      34.3758       4.2473       2.3967      -3.5037     216.3338       1.0286
    7218.0    1161.1161       0.0000      50.8611      37.8283       4.1818       2.5622      -3.3025     222.4489       1.0286
    7219.0    1184.3577       0.0000      50.8611      45.3815       4.0843       2.9060      -2.8674     228.5639       1.0273
    7220.0    1200.5353       0.0000      50.8611      52.8190       3.9733       3.1647      -2.3997     234.6736       1.0226
    7221.0    1230.1867       0.0000      50.8611      58.9249       3.7586       3.2177      -1.9368     240.7754       1.0286
    7222.0    1269.9214       0.0000      50.8611      65.7412       3.6972       3.3703      -1.5181     246.8866       1.0334
    7223.0    1298.0548       0.0000      50.8611      70.5024       3.7902       3.5711      -1.2646     253.4021       1.0226
    7224.0    1317.8004       0.0000      50.8611      82.1670       3.6051       3.5711      -0.4910     259.5013       1.0226
    7225.0    1340.1134       0.0000      50.8611      88.3918       3.4530       3.4506      -0.0969     265.6048       1.0226
    7226.0    1346.9828       0.0000      50.8611      95.0937       3.4241       3.4105       0.3038     271.7080       1.0226
    7227.0    1367.9475       0.0000      50.8611     100.3243       3.4672       3.4105       0.6211     277.8084       1.0226
    7228.0    1385.6332       0.0000      50.8611     110.6772       3.5116       3.2852       1.2393     283.9116       1.0226
    7229.0    1394.4469       0.0000      50.8611     123.0539       3.3568       2.8128       1.8298     290.0265       1.0226
    7230.0    1405.9182       0.0000      50.8611     128.9342       3.4201       2.6569       2.1471     296.1340       1.0286
    7231.0    1421.7198       0.0000      50.8611     132.9855       3.5790       2.6168       2.4398     302.2448       1.0226
    7232.0    1440.8298       0.0000      50.8611     142.7834       3.5603       2.1525       2.8340     308.3581       1.0226
    7233.0    1453.7124       0.0000      50.8611     150.3323       3.5228       1.7428       3.0564     314.4599       1.0226
    7234.0    1458.0643       0.0000      50.8611     159.1055       3.4962       1.2463       3.2658     320.5880       1.0226
    7235.0    1470.6100       0.0000      50.8611     164.2043       3.7967       1.0326       3.6517     327.0965       1.0226
    7236.0    1481.6373       0.0000      50.8611     171.2816       3.9026       0.5908       3.8562     333.1983       1.0226
    7237.0    1493.8643       0.0000      50.8611     178.1272       3.8460       0.1264       3.8431     339.3001       1.0226
    7238.0    1500.2392       0.0000      50.8611    -173.2466       4.0942      -0.4809       4.0655     345.4019       1.0226
    7239.0    1513.5307       0.0000      50.8611    -166.6989       4.0892      -0.9404       3.9788     351.5058       1.0286
    7240.0    1521.9155       0.0000      50.8611    -164.0957       4.2516      -1.1637       4.0884     357.5953       1.0226
    7241.0    1522.3180       0.0000      50.8611    -156.0757       4.3591      -1.7662       3.9837       3.7028       1.0286
    7242.0    1528.1411       0.0000      50.8611    -147.7266       4.3318      -2.3109       3.6616       9.8177       1.0286
    7243.0    1528.9386       0.0000      50.8611    -142.0892       4.5202      -2.7752       3.5651      15.9269       1.0226
    7244.0    1529.9979       0.0000      50.8611    -139.8008       4.5516      -2.9359       3.4751      22.0353       1.0286
