~VERSION INFORMATION
VERS.           2.0   :CWLS Log ASCII Standard - VERSION 2.0
WRAP.           NO    :One Line per depth step
PROD.  Schlumberger   :LAS Producer
PROG.  DLIS to ASCII 19C2-270                          :LAS Program name and version
CREA.        2017/09/16 17:42                          :LAS Creation date {YYYY/MM/DD hh:mm}
DLIS_CREA.  2017-Sep-15 19:08                          :DLIS Creation date and time {YYYY-MMM-DD hh:mm}
SOURCE.     LPC_S5-1_B5.DLIS                           :DLIS File Name
FILE-ID.     PERFO_Perfo_WPGRT_059LTP                  :File Identification Number
#--------------------------------------------------
~WELL INFORMATION
#MNEM.UNIT      DATA             DESCRIPTION
#---- ------ --------------   -----------------------------
STRT .S         7683.0       :START TIME      
STOP .S         8122.0       :STOP TIME      
STEP .S            1.0       :STEP     
NULL .          -999.25      :NULL VALUE
COMP .        SHELL INTERNATIONAL E P                  :COMPANY
WELL .        WPP TEST 2                               :WELL
FLD  .        WILDCAT                                  :FIELD
LOC  .        NA                                       :LOCATION
CNTY .        HARRIS                                   :COUNTY
STAT .        TEXAS                                    :STATE
CTRY .                                                 :COUNTRY
API  .        NA                                       :API NUMBER
UWI  .                                                 :UNIQUE WELL ID
DATE .        15-Sep-2017                              :LOG DATE {DD-MMM-YYYY}
SRVC .        Schlumberger                             :SERVICE COMPANY
LATI .DEG                                              :LATITUDE
LONG .DEG                                              :LONGITUDE
GDAT .                                                 :GeoDetic Datum
SECT .        NA                                       :Section
RANG .        NA                                       :Range
TOWN .        NA                                       :Township
#-----------------------------------------------------------------------------
~PARAMETER INFORMATION
#MNEM.UNIT    VALUE                      DESCRIPTION
#---- -----   --------------------       ------------------------
U-PHASE_B_COMP_PER_YT.                 0 :Phase B Comparator Period Yt
U-PHASE_A_COMP_PER_XT.                 0 :Phase A Comparator Period Xt
U-MAX_EXC_CUR_LIMIT.MA       240.00000   :Requested CM Current Limit
U-REQ_EXC_FQ.HZ              50          :Requested CM Frequency
U-TILT_Y_OFFSET.           0.19916       :WPTET Tilt Y Offset
U-TILT_Y_GAIN.           1.01796         :WPTET Tilt Y Gain
U-TILT_X_OFFSET.          -1.77103       :WPTET Tilt X Offset
U-TILT_X_GAIN.           1.00000         :WPTET Tilt X Gain
U-TILT_OFFSET_TOL.           0.00100     :WPTET Tilt Offset Calibration Tolerance
U-NO_TILT_CAL_ROTATIONS.                 3 :Number of Rotations for Tilt Calibration
HAZI .DEG        0.00000                 :Hole Azimuth
U-STD_TOL_TILT.           0.01000        :Tilt Standard Deviation Tolerance
U-GUN_POS_TOL.DEG        5.00000         :Gun Position Tolerance
ROT_ANGLE_THRESHOLD.DEG        5.00000   :Rotation Stop Angle Tolerance
STOP_ROT_ANGLE.DEG        0.00000        :Rotation Stop Angle
WITN .        MR. DHRUA ARORA            :Witness's Name
ENGI .        MORRIS MOORE               :Engineer's Name
COUN .        HARRIS                     :County or Rig Name
FN   .        WILDCAT                    :Field Name
WN   .        WPP TEST 2                 :Well Name
CN   .        SHELL INTERNATIONAL E P    :Company Name
CLAB .        County                     :County/Rig Label
SLAB .        State                      :State/Province Label
RUN  .          1                        :RUN NUMBER
PDAT .        GROUND LEVEL               :Permanent Datum
EPD  .                                   :Elevation of Permanent Datum above Mean Sea Level
LMF  .          NA                       :Logging Measured From (Name of Logging Elevation Reference)
APD  .                                   :Elevation of Depth Reference (LMF) above Permanent Datum
#-----------------------------------------------------------------------------
~CURVE INFORMATION
#MNEM.UNIT   API CODE                                  DESCRIPTION
#---- -----  --------                                  -----------------------
TIME .S                                                :TIME {F10.1}
FREQ_EMF_SL.HZ                                         :Electromagnetic Field Frequency {F13.4}
PH_SH_WPPCM_SL.DEG                                     :WPPCM Phase Shift {F13.4}
FREQ_EXC_REQ_SL.HZ                                     :Requested Exciter Frequency {F13.4}
RB_SL.DEG                                              :Relative Bearing {F13.4}
SDEV_SL.DEG                                            :Sonde Deviation {F13.4}
TILX_SL.DEG                                            :X-axis Tilt {F13.4}
TILY_SL.DEG                                            :Y-axis Tilt {F13.4}
ROTA_SL.DEG                                            :Motor Rotation Angle {F13.4}
MSPE_SL.RPM                                            :Motor Speed {F13.4}
#-----------------------------------------------------------------------------
# 
#     TIME    FREQ_EMF_SL  PH_SH_WPPCM_ FREQ_EXC_REQ    RB_SL       SDEV_SL      TILX_SL      TILY_SL      ROTA_SL      MSPE_SL
#                          SL           _SL
~A  
# ...
    7809.0    1439.4966       0.0000      50.8611    -108.1550       4.9159      -4.6707       1.5300      84.9902       1.0226
    7810.0    1444.8627       0.0000      50.8611    -102.5429       5.0654      -4.9442       1.0987      91.0933       1.0226
    7811.0    1434.6768       0.0000      50.8611     -97.2465       5.2641      -5.2215       0.6635      97.1829       1.0226
    7812.0    1432.3095       0.0000      50.8611     -91.8450       5.3375      -5.3344       0.1729     103.2977       1.0226
    7813.0    1421.6347       0.0000      50.8611     -87.0004       5.2563      -5.2490      -0.2747     109.4035       1.0226
    7814.0    1418.8867       0.0000      50.8611     -82.7321       5.2496      -5.2072      -0.6634     115.5039       1.0226
    7815.0    1417.5908       0.0000      50.8611     -77.6125       5.4737      -5.3459      -1.1725     121.6057       1.0226
    7816.0    1409.3421       0.0000      50.8611     -69.6344       5.4631      -5.1192      -1.8978     127.7075       1.0226
    7817.0    1406.5229       0.0000      50.8611     -66.0588       5.4509      -4.9805      -2.2093     133.8094       1.0226
    7818.0    1393.3253       0.0000      50.8611     -62.2357       5.4120      -4.7873      -2.5180     139.9130       1.0226
    7819.0    1385.3397       0.0000      50.8611     -57.8358       5.5540      -4.6994      -2.9531     146.2349       1.0226
    7820.0    1382.6155       0.0000      50.8611     -51.8005       5.5746      -4.3780      -3.4438     152.4982       1.0121
    7821.0    1369.1541       0.0000      50.8611     -46.6795       5.6327      -4.0931      -3.8604     158.5927       1.0168
    7822.0    1363.8426       0.0000      50.8611     -41.5586       5.3656      -3.5565      -4.0123     164.6824       1.0178
    7823.0    1358.5722       0.0000      50.8611     -38.1909       5.4886      -3.3882      -4.3102     170.7787       1.0226
    7824.0    1345.8174       0.0000      50.8611     -33.8266       5.5113      -3.0631      -4.5740     176.8806       1.0226
    7825.0    1332.8195       0.0000      50.8611     -26.3923       5.4344      -2.4132      -4.8654     182.9842       1.0226
    7826.0    1324.1526       0.0000      50.8611     -20.5280       5.1990      -1.8217      -4.8671     189.0861       1.0226
    7827.0    1314.2523       0.0000      50.8611     -18.2594       5.2634      -1.6467      -4.9975     195.1880       1.0226
    7828.0    1300.3350       0.0000      50.8611     -11.4376       5.3108      -1.0509      -5.2019     201.2906       1.0226
    7829.0    1285.2016       0.0000      50.8611      -6.6137       5.0017      -0.5766      -4.9673     207.3925       1.0226
    7830.0    1278.6341       0.0000      50.8611      -0.7079       5.0087      -0.0620      -5.0082     213.5008       1.0168
    7831.0    1270.6616       0.0000      50.8611       5.7268       4.7478       0.4716      -4.7220     219.5971       1.0226
    7832.0    1268.9652       0.0000      50.8611       8.1926       4.8987       0.6973      -4.8486     226.1054       1.0226
    7833.0    1265.2361       0.0000      50.8611      18.0412       4.6279       1.4318      -4.3988     232.2073       1.0226
    7834.0    1273.1976       0.0000      50.8611      21.3335       4.4201       1.6068      -4.1165     238.3091       1.0226
    7835.0    1275.5072       0.0000      50.8611      27.0433       4.5014       2.0448      -4.0084     244.4043       1.0178
    7836.0    1291.2108       0.0000      50.8611      31.8472       4.4334       2.3374      -3.7631     250.4901       1.0226
    7837.0    1290.1376       0.0000      50.8611      37.4962       4.2856       2.6071      -3.3990     256.5919       1.0226
    7838.0    1308.7459       0.0000      50.8611      44.4353       3.9604       2.7716      -2.8266     262.6938       1.0226
    7839.0    1316.7135       0.0000      50.8611      50.4043       3.8138       2.9361      -2.4284     268.7888       1.0226
    7840.0    1324.1526       0.0000      50.8611      57.6364       3.9913       3.3703      -2.1353     274.9111       1.0226
    7841.0    1328.2717       0.0000      50.8611      64.2973       3.7855       3.4105      -1.6408     281.0129       1.0226
    7842.0    1338.1336       0.0000      50.8611      70.5605       3.6362       3.4287      -1.2095     287.1164       1.0226
    7843.0    1343.4999       0.0000      50.8611      79.2415       3.4949       3.4325      -0.6517     293.2166       1.0226
    7844.0    1346.9828       0.0000      50.8611      86.7546       3.4986       3.4908      -0.1981     299.7001       1.0178
    7845.0    1351.9214       0.0000      50.8611      92.9831       3.5545       3.5492       0.1845     305.8149       1.0226
    7846.0    1365.2913       0.0000      50.8611     103.6950       3.4355       3.3378       0.8125     311.9239       1.0285
    7847.0    1367.9475       0.0000      50.8611     110.1102       3.2934       3.0891       1.1327     318.0193       1.0178
    7848.0    1377.4557       0.0000      50.8611     119.0045       3.4112       2.9830       1.6526     324.1228       1.0226
    7849.0    1384.1044       0.0000      50.8611     125.9570       3.4889       2.8223       2.0469     330.2246       1.0226
    7850.0    1392.0702       0.0000      50.8611     135.0735       3.5168       2.4828       2.4889     336.3264       1.0226
    7851.0    1394.8318       0.0000      50.8611     142.4718       3.3220       2.0228       2.6339     342.4159       1.0226
    7852.0    1410.8974       0.0000      50.8611     148.7609       3.5161       1.8220       3.0058     348.5109       1.0178
    7853.0    1410.8974       0.0000      50.8611     155.7436       3.7011       1.5188       3.3738     354.6072       1.0226
    7854.0    1410.3485       0.0000      50.8611     162.9860       3.7633       1.1019       3.5929       0.7220       1.0226
    7855.0    1416.3001       0.0000      50.8611     170.8769       3.7011       0.5874       3.6522       6.8211       1.0226
    7856.0    1428.0913       0.0000      50.8611     -18.3304       3.8825       0.0834       3.8791      13.3467       1.0226
    7857.0    1426.4977       0.0000      50.8611    -176.7770       4.0306      -0.2265       4.0241      19.4556       1.0345
    7858.0    1428.8458       0.0000      50.8611    -168.0710       4.0497      -0.8366       3.9609      25.5751       1.0226
    7859.0    1438.9489       0.0000      50.8611    -162.3354       4.0880      -1.2383       3.8937      31.6783       1.0226
    7860.0    1434.9490       0.0000      50.8611    -156.1727       4.1522      -1.6763       3.7973      37.7628       1.0168
    7861.0    1439.4966       0.0000      50.8611    -150.0276       4.4497      -2.2205       3.8528      43.8590       0.4635
    7862.0    1445.1328       0.0000      50.8611    -150.2354       4.3372      -2.1507       3.7642      44.4115       0.0005
    7863.0    1442.1687       0.0000      50.8611    -148.0807       4.2648      -2.2530       3.6191      44.4115       0.0005
    7864.0    1443.7886       0.0000      50.8611    -149.1671       4.2850      -2.1947       3.6785      44.4115       0.0005
    7865.0    1443.7886       0.0000      50.8611    -149.5787       4.3741      -2.2129       3.7710      44.4115       0.0005
    7866.0    1443.5129       0.0000      50.8611    -150.3303       4.3926      -2.1727       3.8158      44.4115       0.0005
    7867.0    1446.7593       0.0000      50.8611    -149.9540       4.2628      -2.1325       3.6893      44.4115       0.0005
    7868.0    1444.0762       0.0000      50.8611    -148.4062       4.2280      -2.2129       3.6006      44.4115       0.0005
    7869.0    1442.1687       0.0000      50.8611    -150.3600       4.3106      -2.1287       3.7457      44.4115       0.0005
    7870.0    1443.7886       0.0000      50.8611    -149.6985       4.4253      -2.2310       3.8197      44.4115       0.0005
    7871.0    1442.1687       0.0000      50.8611    -150.0644       4.3571      -2.1727       3.7749      44.4115       0.0005
