~VERSION INFORMATION
VERS.           2.0   :CWLS Log ASCII Standard - VERSION 2.0
WRAP.           NO    :One Line per depth step
PROD.  Schlumberger   :LAS Producer
PROG.  DLIS to ASCII 19C2-270                          :LAS Program name and version
CREA.        2017/09/16 17:42                          :LAS Creation date {YYYY/MM/DD hh:mm}
DLIS_CREA.  2017-Sep-15 12:22                          :DLIS Creation date and time {YYYY-MMM-DD hh:mm}
SOURCE.     LPC_S1-1_B5.DLIS                           :DLIS File Name
FILE-ID.     PERFO_Perfo_WPGRT_020LTP                  :File Identification Number
#--------------------------------------------------
~WELL INFORMATION
#MNEM.UNIT      DATA             DESCRIPTION
#---- ------ --------------   -----------------------------
STRT .S         5686.0       :START TIME      
STOP .S         6834.0       :STOP TIME      
STEP .S            1.0       :STEP     
NULL .          -999.25      :NULL VALUE
COMP .        SHELL INTERNATIONAL E P                  :COMPANY
WELL .        WPP TEST 2                               :WELL
FLD  .        WILDCAT                                  :FIELD
LOC  .                                                 :LOCATION
CNTY .        HARRIS                                   :COUNTY
STAT .        TEXAS                                    :STATE
CTRY .                                                 :COUNTRY
API  .                                                 :API NUMBER
UWI  .                                                 :UNIQUE WELL ID
DATE .                                                 :LOG DATE
SRVC .        Schlumberger                             :SERVICE COMPANY
LATI .DEG                                              :LATITUDE
LONG .DEG                                              :LONGITUDE
GDAT .                                                 :GeoDetic Datum
#-----------------------------------------------------------------------------
~PARAMETER INFORMATION
#MNEM.UNIT    VALUE                      DESCRIPTION
#---- -----   --------------------       ------------------------
U-PHASE_B_COMP_PER_YT.                 0 :Phase B Comparator Period Yt
U-PHASE_A_COMP_PER_XT.                 0 :Phase A Comparator Period Xt
U-MAX_EXC_CUR_LIMIT.MA       240.00000   :Requested CM Current Limit
U-REQ_EXC_FQ.HZ              50          :Requested CM Frequency
U-TILT_Y_OFFSET.           0.19916       :WPTET Tilt Y Offset
U-TILT_Y_GAIN.           1.01796         :WPTET Tilt Y Gain
U-TILT_X_OFFSET.          -1.77103       :WPTET Tilt X Offset
U-TILT_X_GAIN.           1.00000         :WPTET Tilt X Gain
U-TILT_OFFSET_TOL.           0.00100     :WPTET Tilt Offset Calibration Tolerance
U-NO_TILT_CAL_ROTATIONS.                 3 :Number of Rotations for Tilt Calibration
HAZI .DEG        0.00000                 :Hole Azimuth
U-STD_TOL_TILT.           0.01000        :Tilt Standard Deviation Tolerance
U-GUN_POS_TOL.DEG        5.00000         :Gun Position Tolerance
ROT_ANGLE_THRESHOLD.DEG        5.00000   :Rotation Stop Angle Tolerance
STOP_ROT_ANGLE.DEG       80.00000        :Rotation Stop Angle
WITN .                                   :Witness's Name
ENGI .                                   :Engineer's Name
COUN .        HARRIS                     :County or Rig Name
FN   .        WILDCAT                    :Field Name
WN   .        WPP TEST 2                 :Well Name
CN   .        SHELL INTERNATIONAL E P    :Company Name
CLAB .        County                     :County/Rig Label
SLAB .        State                      :State/Province Label
RUN  .          1                        :RUN NUMBER
PDAT .        GROUND LEVEL               :Permanent Datum
EPD  .                                   :Elevation of Permanent Datum above Mean Sea Level
LMF  .                                   :Logging Measured From (Name of Logging Elevation Reference)
APD  .                                   :Elevation of Depth Reference (LMF) above Permanent Datum
#-----------------------------------------------------------------------------
~CURVE INFORMATION
#MNEM.UNIT   API CODE                                  DESCRIPTION
#---- -----  --------                                  -----------------------
TIME .S                                                :TIME {F10.1}
FREQ_EMF_SL.HZ                                         :Electromagnetic Field Frequency {F13.4}
PH_SH_WPPCM_SL.DEG                                     :WPPCM Phase Shift {F13.4}
FREQ_EXC_REQ_SL.HZ                                     :Requested Exciter Frequency {F13.4}
RB_SL.DEG                                              :Relative Bearing {F13.4}
SDEV_SL.DEG                                            :Sonde Deviation {F13.4}
TILX_SL.DEG                                            :X-axis Tilt {F13.4}
TILY_SL.DEG                                            :Y-axis Tilt {F13.4}
ROTA_SL.DEG                                            :Motor Rotation Angle {F13.4}
MSPE_SL.RPM                                            :Motor Speed {F13.4}
#-----------------------------------------------------------------------------
# 
#     TIME    FREQ_EMF_SL  PH_SH_WPPCM_ FREQ_EXC_REQ    RB_SL       SDEV_SL      TILX_SL      TILY_SL      ROTA_SL      MSPE_SL
#                          SL           _SL
~A  
# ...
    6001.0    1154.7323       0.0000      50.8611     -66.0591       5.3507      -4.8892      -2.1686     355.4737       1.0226
    6002.0    1132.4153       0.0000      50.8611     -60.1088       5.3342      -4.6229      -2.6554       1.5764       1.0236
    6003.0    1104.6147       0.0000      50.8611     -56.5486       5.4907      -4.5790      -3.0234       7.6659       1.0226
    6004.0    1093.8227       0.0000      50.8611     -49.6631       5.1865      -3.9512      -3.3543      13.7678       1.0226
    6005.0    1072.6092       0.0000      50.8611     -44.3981       5.2551      -3.6737      -3.7518      19.8696       1.0324
    6006.0    1053.8689       0.0000      50.8611     -41.1766       5.3733      -3.5346      -4.0418      25.9976       1.0226
    6007.0    1056.3333       0.0000      50.8611     -37.2079       5.2459      -3.1694      -4.1759      32.0994       1.0226
    6008.0    1049.5854       0.0000      50.8611     -30.2518       5.1223      -2.5788      -4.4212      38.2012       1.0226
    6009.0    1059.7861       0.0000      50.8611     -25.4010       5.2410      -2.2456      -4.7332      44.3031       1.0226
    6010.0    1072.8706       0.0000      50.8611     -21.4522       5.1783      -1.8915      -4.8187      50.4049       1.0226
    6011.0    1085.3802       0.0000      50.8611     -16.3722       5.1626      -1.4534      -4.9527      56.8778       1.0226
    6012.0    1103.4873       0.0000      50.8611     -10.9380       4.9537      -0.9387      -4.8634      63.0179       1.0226
    6013.0    1127.2880       0.0000      50.8611      -3.1171       4.7852      -0.2596      -4.7778      69.1459       1.0140
    6014.0    1149.5716       0.0000      50.8611      -0.5302       4.7447      -0.0439      -4.7445      75.2354       1.0226
    6015.0    1185.8935       0.0000      50.8611       4.4957       4.7145       0.3690      -4.6998      81.3504       1.0236
    6016.0    1228.8433       0.0000      50.8611       9.4632       4.5806       0.7520      -4.5181      87.4558       1.0226
    6017.0    1258.3372       0.0000      50.8611      16.2525       4.4006       1.2303      -4.2243      93.5548       1.0226
    6018.0    1277.9807       0.0000      50.8611      22.7633       4.3160       1.6684      -3.9790      99.6565       1.0226
    6019.0    1304.0529       0.0000      50.8611      28.2179       4.3736       2.0664      -3.8525     105.7583       1.0226
    6020.0    1318.2749       0.0000      50.8611      32.9591       4.1099       2.2345      -3.4474     111.8601       1.0226
    6021.0    1333.9693       0.0000      50.8611      39.6763       3.9541       2.5231      -3.0423     117.9508       1.0216
    6022.0    1350.0492       0.0000      50.8611      46.8412       3.8406       2.8005      -2.6259     124.0514       1.0324
    6023.0    1373.2910       0.0000      50.8611      53.8918       3.7260       3.0088      -2.1950     130.1796       1.0226
    6024.0    1392.0722       0.0000      50.8611      60.2720       3.6936       3.2059      -1.8308     136.6772       1.0226
    6025.0    1405.9904       0.0000      50.8611      65.1672       3.4487       3.1293      -1.4477     142.7791       1.0226
    6026.0    1420.4546       0.0000      50.8611      73.6944       3.4009       3.2640      -0.9533     148.8810       1.0226
    6027.0    1438.4296       0.0000      50.8611      82.5300       3.4727       3.4432      -0.4513     154.9857       1.0226
    6028.0    1460.6831       0.0000      50.8611      88.9021       3.4079       3.4068      -0.0651     161.0600       1.0226
    6029.0    1470.5422       0.0000      50.8611      95.1672       3.2248       3.2117       0.2902     167.1647       1.0226
    6030.0    1483.9675       0.0000      50.8611     104.9663       3.1185       3.0125       0.8049     173.2770       1.0226
    6031.0    1496.0106       0.0000      50.8611     114.3016       3.4986       3.1873       1.4402     179.3789       1.0226
    6032.0    1510.6088       0.0000      50.8611     122.1488       3.4212       2.8957       1.8195     185.4808       1.0226
    6033.0    1505.9198       0.0000      50.8611     126.7885       3.2013       2.5633       1.9165     191.5827       1.0226
    6034.0    1518.9326       0.0000      50.8611     129.8405       3.2015       2.4576       2.0505     194.5426       0.0005
    6035.0    1512.7010       0.0000      50.8611     133.0248       3.3923       2.4792       2.3140     194.5426       0.0005
    6036.0    1518.3258       0.0000      50.8611     133.5188       3.3295       2.4137       2.2920     194.5426       0.0005
    6037.0    1515.6583       0.0000      50.8611     131.5849       3.3254       2.4866       2.2065     194.5426       0.0005
    6038.0    1512.7010       0.0000      50.8611     131.5064       3.0727       2.3007       2.0353     194.5426       0.0005
    6039.0    1518.6285       0.0000      50.8611     132.3128       3.2503       2.4026       2.1875     194.5426       0.0005
    6040.0    1518.6285       0.0000      50.8611     133.0773       3.4002       2.4829       2.3216     194.5426       0.0005
    6041.0    1518.3258       0.0000      50.8611     132.6622       3.4817       2.5595       2.3587     194.5426       0.0005
    6042.0    1518.6285       0.0000      50.8611     131.8873       3.2331       2.4063       2.1580     194.5426       0.0005
    6043.0    1515.3556       0.0000      50.8611     131.5619       3.1534       2.3587       2.0914     194.5426       0.0005
    6044.0    1518.6285       0.0000      50.8611     133.0005       3.2962       2.4100       2.2473     194.5426       0.0005
    6045.0    1515.6583       0.0000      50.8611     133.0773       3.4002       2.4829       2.3216     194.5426       0.0005
    6046.0    1524.3047       0.0000      50.8611     133.8737       3.1364       2.2605       2.1731     194.5426       0.0005
    6047.0    1518.3258       0.0000      50.8611     130.0158       3.1956       2.4465       2.0542     194.5426       0.0005
    6048.0    1515.9624       0.0000      50.8611     133.8996       3.3915       2.4428       2.3511     194.5426       0.0005
    6049.0    1512.7010       0.0000      50.8611     131.8487       3.4423       2.5633       2.2958     194.5426       0.0005
    6050.0    1515.6583       0.0000      50.8611     134.4291       3.3758       2.4100       2.3624     194.5426       0.0005
    6051.0    1521.3087       0.0000      50.8611     130.9101       3.1319       2.3661       2.0505     194.5426       0.0005
    6052.0    1518.0244       0.0000      50.8611     130.3197       3.2672       2.4904       2.1133     194.5426       0.0005
    6053.0    1518.6285       0.0000      50.8611     134.9499       3.3031       2.3371       2.3329     194.5426       0.0005
    6054.0    1518.6285       0.0000      50.8611     133.1680       3.4001       2.4792       2.3253     194.5426       0.0005
    6055.0    1512.3982       0.0000      50.8611     132.5240       3.2710       2.4100       2.2102     194.5426       0.0005
    6056.0    1515.6583       0.0000      50.8611     131.2831       3.1593       2.3736       2.0838     194.5426       0.0005
    6057.0    1515.6583       0.0000      50.8611     131.9983       3.3370       2.4792       2.2322     194.5426       0.0005
    6058.0    1515.3556       0.0000      50.8611     134.6304       3.2957       2.3446       2.3140     194.5426       0.0005
    6059.0    1518.3258       0.0000      50.8611     133.4116       3.2282       2.3446       2.2178     194.5426       0.0005
    6060.0    1518.3258       0.0000      50.8611     130.3835       3.1598       2.4063       2.0467     194.5426       0.0005
    6061.0    1521.9155       0.0000      50.8611     134.2813       3.2092       2.2970       2.2398     194.5426       0.0005
    6062.0    1518.9326       0.0000      50.8611     132.5376       3.3363       2.4576       2.2549     194.5426       0.0005
    6063.0    1518.0244       0.0000      50.8611     135.3994       3.2668       2.2932       2.3253     194.5426       0.0005
