~VERSION INFORMATION
VERS.           2.0   :CWLS Log ASCII Standard - VERSION 2.0
WRAP.           NO    :One Line per depth step
PROD.  Schlumberger   :LAS Producer
PROG.  DLIS to ASCII 19C2-270                          :LAS Program name and version
CREA.        2017/09/16 17:42                          :LAS Creation date {YYYY/MM/DD hh:mm}
DLIS_CREA.  2017-Sep-15 16:29                          :DLIS Creation date and time {YYYY-MMM-DD hh:mm}
SOURCE.     LPC_S3-1_2AV.DLIS                          :DLIS File Name
FILE-ID.     PERFO_Perfo_WPGRT_041LTP                  :File Identification Number
#--------------------------------------------------
~WELL INFORMATION
#MNEM.UNIT      DATA             DESCRIPTION
#---- ------ --------------   -----------------------------
STRT .S         3547.0       :START TIME      
STOP .S         3943.0       :STOP TIME      
STEP .S            1.0       :STEP     
NULL .          -999.25      :NULL VALUE
COMP .        SHELL INTERNATIONAL E P                  :COMPANY
WELL .        WPP TEST 2                               :WELL
FLD  .        WILDCAT                                  :FIELD
LOC  .                                                 :LOCATION
CNTY .        HARRIS                                   :COUNTY
STAT .        TEXAS                                    :STATE
CTRY .                                                 :COUNTRY
API  .                                                 :API NUMBER
UWI  .                                                 :UNIQUE WELL ID
DATE .                                                 :LOG DATE
SRVC .        Schlumberger                             :SERVICE COMPANY
LATI .DEG                                              :LATITUDE
LONG .DEG                                              :LONGITUDE
GDAT .                                                 :GeoDetic Datum
#-----------------------------------------------------------------------------
~PARAMETER INFORMATION
#MNEM.UNIT    VALUE                      DESCRIPTION
#---- -----   --------------------       ------------------------
U-PHASE_B_COMP_PER_YT.                 0 :Phase B Comparator Period Yt
U-PHASE_A_COMP_PER_XT.                 0 :Phase A Comparator Period Xt
U-MAX_EXC_CUR_LIMIT.MA       240.00000   :Requested CM Current Limit
U-REQ_EXC_FQ.HZ              50          :Requested CM Frequency
U-TILT_Y_OFFSET.           0.19916       :WPTET Tilt Y Offset
U-TILT_Y_GAIN.           1.01796         :WPTET Tilt Y Gain
U-TILT_X_OFFSET.          -1.77103       :WPTET Tilt X Offset
U-TILT_X_GAIN.           1.00000         :WPTET Tilt X Gain
U-TILT_OFFSET_TOL.           0.00100     :WPTET Tilt Offset Calibration Tolerance
U-NO_TILT_CAL_ROTATIONS.                 3 :Number of Rotations for Tilt Calibration
HAZI .DEG        0.00000                 :Hole Azimuth
U-STD_TOL_TILT.           0.01000        :Tilt Standard Deviation Tolerance
U-GUN_POS_TOL.DEG        5.00000         :Gun Position Tolerance
ROT_ANGLE_THRESHOLD.DEG        5.00000   :Rotation Stop Angle Tolerance
STOP_ROT_ANGLE.DEG        0.00000        :Rotation Stop Angle
WITN .                                   :Witness's Name
ENGI .                                   :Engineer's Name
COUN .        HARRIS                     :County or Rig Name
FN   .        WILDCAT                    :Field Name
WN   .        WPP TEST 2                 :Well Name
CN   .        SHELL INTERNATIONAL E P    :Company Name
CLAB .        County                     :County/Rig Label
SLAB .        State                      :State/Province Label
RUN  .          1                        :RUN NUMBER
PDAT .        GROUND LEVEL               :Permanent Datum
EPD  .                                   :Elevation of Permanent Datum above Mean Sea Level
LMF  .                                   :Logging Measured From (Name of Logging Elevation Reference)
APD  .                                   :Elevation of Depth Reference (LMF) above Permanent Datum
#-----------------------------------------------------------------------------
~CURVE INFORMATION
#MNEM.UNIT   API CODE                                  DESCRIPTION
#---- -----  --------                                  -----------------------
TIME .S                                                :TIME {F10.1}
FREQ_EMF_SL.HZ                                         :Electromagnetic Field Frequency {F13.4}
PH_SH_WPPCM_SL.DEG                                     :WPPCM Phase Shift {F13.4}
FREQ_EXC_REQ_SL.HZ                                     :Requested Exciter Frequency {F13.4}
RB_SL.DEG                                              :Relative Bearing {F13.4}
SDEV_SL.DEG                                            :Sonde Deviation {F13.4}
TILX_SL.DEG                                            :X-axis Tilt {F13.4}
TILY_SL.DEG                                            :Y-axis Tilt {F13.4}
ROTA_SL.DEG                                            :Motor Rotation Angle {F13.4}
MSPE_SL.RPM                                            :Motor Speed {F13.4}
#-----------------------------------------------------------------------------
# 
#     TIME    FREQ_EMF_SL  PH_SH_WPPCM_ FREQ_EXC_REQ    RB_SL       SDEV_SL      TILX_SL      TILY_SL      ROTA_SL      MSPE_SL
#                          SL           _SL
~A  
# ...
    3610.0    1403.9105       0.0000      50.8611     -58.4825       1.1537      -0.9833      -0.6028     179.6501       1.0226
    3611.0    1400.6475       0.0000      50.8611     -56.3590       1.1338      -0.9431      -0.6278     185.7404       1.0226
    3612.0    1398.9419       0.0000      50.8611     -55.6535       1.1272      -0.9275      -0.6370     191.8423       1.0226
    3613.0    1388.5130       0.0000      50.8611     -57.0785       1.1127      -0.9341      -0.6028     197.9442       1.0226
    3614.0    1385.1622       0.0000      50.8611     -57.2946       1.0155      -0.8537      -0.5460     204.0461       1.0226
    3615.0    1387.4552       0.0000      50.8611     -61.7275       1.1406      -1.0053      -0.5368     210.1357       1.0226
    3616.0    1375.9785       0.0000      50.8611     -62.4765       1.1481      -1.0144      -0.5343     216.2370       1.0268
    3617.0    1376.5896       0.0000      50.8611     -54.5730       1.2199      -0.9923      -0.7070     222.7407       1.0185
    3618.0    1365.2913       0.0000      50.8611     -49.5674       1.1216      -0.8537      -0.7254     228.8254       1.0226
    3619.0    1361.0311       0.0000      50.8611     -56.1415       1.1840      -0.9833      -0.6595     234.9273       1.0226
    3620.0    1357.8210       0.0000      50.8611     -53.2725       1.2317      -0.9833      -0.7387     241.0292       1.0226
    3621.0    1352.1635       0.0000      50.8611     -57.2135       1.1056      -0.9300      -0.5936     247.1311       1.0226
    3622.0    1346.9828       0.0000      50.8611     -50.5651       1.2750      -0.9823      -0.7372     253.2206       1.0226
    3623.0    1342.2684       0.0000      50.8611     -51.9732       1.1901      -0.9366      -0.7321     259.3225       1.0226
    3624.0    1336.7396       0.0000      50.8611     -53.2700       1.0768      -0.8628      -0.6436     265.4243       1.0226
    3625.0    1334.7775       0.0000      50.8611     -52.7635       1.1185      -0.8874      -0.6779     271.5261       1.0226
    3626.0    1323.1881       0.0000      50.8611     -48.2789       1.1141      -0.8316      -0.7413     277.6279       1.0226
    3627.0    1324.5680       0.0000      50.8611     -48.2814       0.8541      -0.6373      -0.5685     283.7050       1.0226
    3628.0    1320.1447       0.0000      50.8611     -50.1865       1.0303      -0.7915      -0.6595     289.8199       1.0226
    3629.0    1322.8001       0.0000      50.8611     -48.7284       1.0644      -0.8005      -0.7004     296.3298       1.0226
    3630.0    1319.7454       0.0000      50.8611     -50.5773       0.9638      -0.7423      -0.6120     302.4316       1.0226
    3631.0    1307.8669       0.0000      50.8611     -52.6548       1.0464      -0.8316      -0.6344     308.5334       1.0226
    3632.0    1314.1261       0.0000      50.8611     -47.5338       0.9633      -0.7136      -0.6436     314.6360       1.0226
    3633.0    1317.8416       0.0000      50.8611     -55.6989       1.0038      -0.8161      -0.5736     320.7378       1.0226
    3634.0    1316.3227       0.0000      50.8611     -59.0512       1.0283      -0.8808      -0.5302     326.8527       1.0226
    3635.0    1323.1881       0.0000      50.8611     -48.7859       0.8714      -0.6529      -0.5711     332.9545       1.0226
    3636.0    1319.7454       0.0000      50.8611     -53.4321       0.8878      -0.7111      -0.5302     339.0695       1.0161
    3637.0    1322.2272       0.0000      50.8611     -51.5174       0.9705      -0.7603      -0.6028     345.1590       1.0226
    3638.0    1334.6249       0.0000      50.8611     -51.9780       1.0046      -0.7915      -0.6186     351.2608       1.0226
    3639.0    1335.1859       0.0000      50.8611     -49.1914       0.9478      -0.7177      -0.6186     357.3626       1.0226
    3640.0    1340.2761       0.0000      50.8611     -56.0315       0.8972      -0.7423      -0.5026       3.4644       1.0226
    3641.0    1346.9828       0.0000      50.8611     -53.1321       0.9096      -0.7267      -0.5460       9.9761       1.0226
    3642.0    1351.1578       0.0000      50.8611     -55.5831       0.9685      -0.7980      -0.5460      16.0760       1.0226
    3643.0    1353.1730       0.0000      50.8611     -54.1115       0.9161      -0.7423      -0.5368      22.1712       1.0226
    3644.0    1358.5836       0.0000      50.8611     -53.6825       0.9225      -0.7423      -0.5460      28.2814       1.0226
    3645.0    1364.7000       0.0000      50.8611     -61.5820       1.0289      -0.9029      -0.4893      34.3709       1.0226
    3646.0    1365.2913       0.0000      50.8611     -53.3607       0.4947      -0.4069      -0.2797      40.4858       1.0226
    3647.0    1371.2204       0.0000      50.8611     -55.1652       0.7687      -0.6308      -0.4392      46.5876       1.0226
    3648.0    1376.5896       0.0000      50.8611     -59.7057       0.9082      -0.7849      -0.4551      52.6894       1.0161
    3649.0    1380.7798       0.0000      50.8611     -62.5309       0.8844      -0.7824      -0.4075      58.7974       1.0161
    3650.0    1384.5587       0.0000      50.8611     -60.1346       0.9317      -0.8070      -0.4643      64.9075       1.0226
    3651.0    1390.1985       0.0000      50.8611     -67.3149       0.9120      -0.8382      -0.3549      71.0093       1.0226
    3652.0    1386.4014       0.0000      50.8611     -62.3630       0.9120      -0.8070      -0.4234      77.0987       1.0226
    3653.0    1390.0331       0.0000      50.8611     -43.1942       0.9287      -0.7402      -0.3983      83.6085       1.0226
    3654.0    1395.5510       0.0000      50.8611     -62.9187       0.9887      -0.8783      -0.4484      89.7235       1.0226
    3655.0    1399.5684       0.0000      50.8611     -68.8201       1.2381      -1.1530      -0.4484      95.8384       1.0226
    3656.0    1403.0000       0.0000      50.8611     -62.6777       1.0267      -0.9120      -0.4709     101.9402       1.0226
    3657.0    1398.4936       0.0000      50.8611     -64.3469       0.9571      -0.8628      -0.4142     108.0550       1.0226
    3658.0    1402.2049       0.0000      50.8611     -64.5335       0.9746      -0.8783      -0.4208     114.1568       1.0226
    3659.0    1405.8965       0.0000      50.8611     -65.5752       1.0590      -0.9638      -0.4379     120.2586       1.0226
    3660.0    1411.2654       0.0000      50.8611     -63.3575       1.0577      -0.9456      -0.4709     126.3734       1.0226
    3661.0    1405.6229       0.0000      50.8611     -64.0550       1.0597      -0.9521      -0.4643     132.4885       1.0226
    3662.0    1415.8437       0.0000      50.8611     -57.3476       1.0434      -0.8783      -0.5619     138.5904       1.0226
    3663.0    1413.6376       0.0000      50.8611     -63.0913       1.0404      -0.9275      -0.4709     144.6923       1.0226
    3664.0    1413.1963       0.0000      50.8611     -65.8902       1.0978      -1.0013      -0.4459     150.7953       1.0226
    3665.0    1414.7384       0.0000      50.8611     -60.3418       1.0852      -0.9431      -0.5368     157.2689       1.0185
    3666.0    1405.6229       0.0000      50.8611     -60.5479       1.1753      -1.0234      -0.5777     163.3701       1.0226
    3667.0    1406.8885       0.0000      50.8611     -59.8700       1.1404      -0.9858      -0.5685     169.4708       1.0226
    3668.0    1404.5308       0.0000      50.8611     -61.1191       1.0595      -0.9275      -0.5118     175.5727       1.0226
    3669.0    1406.8885       0.0000      50.8611     -56.9688       1.2423      -1.0415      -0.6753     181.6623       1.0185
    3670.0    1401.7308       0.0000      50.8611     -60.7207       1.0989      -0.9587      -0.5368     187.7642       1.0292
    3671.0    1390.1077       0.0000      50.8611     -58.4811       1.0745      -0.9159      -0.5619     193.8792       1.0226
    3672.0    1395.0892       0.0000      50.8611     -57.0565       1.1540      -0.9677      -0.6278     199.9613       1.0161
