~VERSION INFORMATION
VERS.           2.0   :CWLS Log ASCII Standard - VERSION 2.0
WRAP.           NO    :One Line per depth step
PROD.  Schlumberger   :LAS Producer
PROG.  DLIS to ASCII 19C2-270                          :LAS Program name and version
CREA.        2017/09/16 17:42                          :LAS Creation date {YYYY/MM/DD hh:mm}
DLIS_CREA.  2017-Sep-15 12:00                          :DLIS Creation date and time {YYYY-MMM-DD hh:mm}
SOURCE.     LPC_S1-1_A5.DLIS                           :DLIS File Name
FILE-ID.     PERFO_Perfo_WPGRT_019LTP                  :File Identification Number
#--------------------------------------------------
~WELL INFORMATION
#MNEM.UNIT      DATA             DESCRIPTION
#---- ------ --------------   -----------------------------
STRT .S         4414.0       :START TIME      
STOP .S         5447.0       :STOP TIME      
STEP .S            1.0       :STEP     
NULL .          -999.25      :NULL VALUE
COMP .        SHELL INTERNATIONAL E P                  :COMPANY
WELL .        WPP TEST 2                               :WELL
FLD  .        WILDCAT                                  :FIELD
LOC  .                                                 :LOCATION
CNTY .        HARRIS                                   :COUNTY
STAT .        TEXAS                                    :STATE
CTRY .                                                 :COUNTRY
API  .                                                 :API NUMBER
UWI  .                                                 :UNIQUE WELL ID
DATE .                                                 :LOG DATE
SRVC .        Schlumberger                             :SERVICE COMPANY
LATI .DEG                                              :LATITUDE
LONG .DEG                                              :LONGITUDE
GDAT .                                                 :GeoDetic Datum
#-----------------------------------------------------------------------------
~PARAMETER INFORMATION
#MNEM.UNIT    VALUE                      DESCRIPTION
#---- -----   --------------------       ------------------------
U-PHASE_B_COMP_PER_YT.                 0 :Phase B Comparator Period Yt
U-PHASE_A_COMP_PER_XT.                 0 :Phase A Comparator Period Xt
U-MAX_EXC_CUR_LIMIT.MA       240.00000   :Requested CM Current Limit
U-REQ_EXC_FQ.HZ              50          :Requested CM Frequency
U-TILT_Y_OFFSET.           0.19916       :WPTET Tilt Y Offset
U-TILT_Y_GAIN.           1.01796         :WPTET Tilt Y Gain
U-TILT_X_OFFSET.          -1.77103       :WPTET Tilt X Offset
U-TILT_X_GAIN.           1.00000         :WPTET Tilt X Gain
U-TILT_OFFSET_TOL.           0.00100     :WPTET Tilt Offset Calibration Tolerance
U-NO_TILT_CAL_ROTATIONS.                 3 :Number of Rotations for Tilt Calibration
HAZI .DEG        0.00000                 :Hole Azimuth
U-STD_TOL_TILT.           0.01000        :Tilt Standard Deviation Tolerance
U-GUN_POS_TOL.DEG        5.00000         :Gun Position Tolerance
ROT_ANGLE_THRESHOLD.DEG        5.00000   :Rotation Stop Angle Tolerance
STOP_ROT_ANGLE.DEG       80.00000        :Rotation Stop Angle
WITN .                                   :Witness's Name
ENGI .                                   :Engineer's Name
COUN .        HARRIS                     :County or Rig Name
FN   .        WILDCAT                    :Field Name
WN   .        WPP TEST 2                 :Well Name
CN   .        SHELL INTERNATIONAL E P    :Company Name
CLAB .        County                     :County/Rig Label
SLAB .        State                      :State/Province Label
RUN  .          1                        :RUN NUMBER
PDAT .        GROUND LEVEL               :Permanent Datum
EPD  .                                   :Elevation of Permanent Datum above Mean Sea Level
LMF  .                                   :Logging Measured From (Name of Logging Elevation Reference)
APD  .                                   :Elevation of Depth Reference (LMF) above Permanent Datum
#-----------------------------------------------------------------------------
~CURVE INFORMATION
#MNEM.UNIT   API CODE                                  DESCRIPTION
#---- -----  --------                                  -----------------------
TIME .S                                                :TIME {F10.1}
FREQ_EMF_SL.HZ                                         :Electromagnetic Field Frequency {F13.4}
PH_SH_WPPCM_SL.DEG                                     :WPPCM Phase Shift {F13.4}
FREQ_EXC_REQ_SL.HZ                                     :Requested Exciter Frequency {F13.4}
RB_SL.DEG                                              :Relative Bearing {F13.4}
SDEV_SL.DEG                                            :Sonde Deviation {F13.4}
TILX_SL.DEG                                            :X-axis Tilt {F13.4}
TILY_SL.DEG                                            :Y-axis Tilt {F13.4}
ROTA_SL.DEG                                            :Motor Rotation Angle {F13.4}
MSPE_SL.RPM                                            :Motor Speed {F13.4}
#-----------------------------------------------------------------------------
# 
#     TIME    FREQ_EMF_SL  PH_SH_WPPCM_ FREQ_EXC_REQ    RB_SL       SDEV_SL      TILX_SL      TILY_SL      ROTA_SL      MSPE_SL
#                          SL           _SL
~A  
# ...
    5359.0     936.1442       0.0000      50.8611     -50.6458       5.2637      -4.0660      -3.3339     346.8118       1.0226
    5360.0     926.3834       0.0000      50.8611     -45.2337       5.3399      -3.7885      -3.7577     352.9136       1.0226
    5361.0     919.2898       0.0000      50.8611     -40.4852       5.3868      -3.4946      -4.0941     359.0286       1.0226
    5362.0     916.6178       0.0000      50.8611     -36.7292       5.2130      -3.1148      -4.1759       5.1459       1.0250
    5363.0     918.5724       0.0000      50.8611     -32.1867       5.2151      -2.7752      -4.4119      11.2556       1.0250
    5364.0     920.1620       0.0000      50.8611     -26.6587       5.1776      -2.3206      -4.6256      17.3627       1.0226
    5365.0     920.0470       0.0000      50.8611     -20.9055       5.2731      -1.8788      -4.9248      23.4776       1.0226
    5366.0     924.5026       0.0000      50.8611     -15.1031       5.0227      -1.3073      -4.8487      29.9728       1.0226
    5367.0     940.1245       0.0000      50.8611     -11.8533       4.8943      -1.0042      -4.7892      36.0753       1.0226
    5368.0     949.4236       0.0000      50.8611      -6.7493       4.9277      -0.5788      -4.8932      42.1772       1.0226
    5369.0     959.2429       0.0000      50.8611      -0.1674       4.9751      -0.0128      -4.9750      48.2799       1.0250
    5370.0     975.5162       0.0000      50.8611       3.6005       4.7765       0.2994      -4.7669      54.3818       1.0226
    5371.0    1002.0590       0.0000      50.8611       8.0828       4.5713       0.6426      -4.5252      60.4850       1.0226
    5372.0    1026.2635       0.0000      50.8611      14.6527       4.4859       1.1337      -4.3394      66.5875       1.0226
    5373.0    1069.2624       0.0000      50.8611      21.9270       4.4881       1.6742      -4.1629      72.7017       1.0226
    5374.0    1151.7802       0.0000      50.8611      27.4233       4.4041       2.0265      -3.9082      78.8059       1.0226
    5375.0    1235.1900       0.0000      50.8611      32.6951       4.2344       2.2858      -3.5625      84.8965       1.0144
    5376.0    1279.1542       0.0000      50.8611      37.3734       3.9813       2.4154      -3.1630      90.9988       1.0226
    5377.0    1306.3722       0.0000      50.8611      44.4341       4.0883       2.8609      -2.9176      97.1006       1.0226
    5378.0    1340.6809       0.0000      50.8611      52.6112       3.9245       3.1166      -2.3824     103.6073       1.0226
    5379.0    1366.7413       0.0000      50.8611      58.5155       3.7191       3.1695      -1.9419     109.7011       1.0144
    5380.0    1394.4608       0.0000      50.8611      62.4047       3.4267       3.0362      -1.5869     115.7898       1.0144
    5381.0    1423.3300       0.0000      50.8611      71.1282       3.4907       3.3027      -1.1279     121.8881       1.0226
    5382.0    1448.3877       0.0000      50.8611      81.6393       3.5077       3.4689      -0.5109     127.9782       1.0121
    5383.0    1476.4488       0.0000      50.8611      87.2967       3.5173       3.5127      -0.1652     134.0933       1.0226
    5384.0    1505.9305       0.0000      50.8611      94.0074       3.2375       3.2279       0.2251     140.1952       1.0226
    5385.0    1530.0512       0.0000      50.8611     101.5713       3.2991       3.2315       0.6619     146.3009       1.0202
    5386.0    1560.1459       0.0000      50.8611     111.2361       3.3478       3.1202       1.2121     152.4159       1.0144
    5387.0    1581.9993       0.0000      50.8611     121.7205       3.3601       2.8573       1.7659     158.4814       1.0202
    5388.0    1597.1870       0.0000      50.8611     127.3248       3.3697       2.6783       2.0428     164.5936       1.0144
    5389.0    1609.8213       0.0000      50.8611     133.7042       3.1754       2.2949       2.1934     170.6855       1.0226
    5390.0    1631.3805       0.0000      50.8611     142.3191       3.4730       2.1215       2.7472     177.1800       1.0226
    5391.0    1638.9860       0.0000      50.8611     149.7342       3.7059       1.8659       3.2006     183.2723       1.0202
    5392.0    1646.6628       0.0000      50.8611     154.8077       3.3799       1.4387       3.0576     185.1763       0.0005
    5393.0    1644.5700       0.0000      50.8611     152.2404       3.3570       1.5628       2.9702     185.1763       0.0005
    5394.0    1654.4117       0.0000      50.8611     151.8393       3.4834       1.6431       3.0706     185.1763       0.0005
    5395.0    1652.6489       0.0000      50.8611     152.2172       3.5951       1.6742       3.1803     185.1763       0.0005
    5396.0    1644.5700       0.0000      50.8611     154.2821       3.5208       1.5263       3.1710     185.1763       0.0005
    5397.0    1653.5282       0.0000      50.8611     151.8221       3.2265       1.5226       2.8439     185.1763       0.0005
    5398.0    1649.6488       0.0000      50.8611     149.6911       3.4001       1.7143       2.9350     185.1763       0.0005
    5399.0    1644.5700       0.0000      50.8611     153.4210       3.5647       1.5938       3.1877     185.1763       0.0005
    5400.0    1650.5282       0.0000      50.8611     154.9063       3.5618       1.5099       3.2249     185.1763       0.0005
    5401.0    1653.5282       0.0000      50.8611     153.0137       3.4254       1.5537       3.0520     185.1763       0.0005
    5402.0    1646.6628       0.0000      50.8611     152.5218       3.3634       1.5501       2.9832     185.1763       0.0005
    5403.0    1651.4117       0.0000      50.8611     152.8548       3.6036       1.6431       3.2063     185.1763       0.0005
    5404.0    1650.5282       0.0000      50.8611     153.1191       3.5953       1.6249       3.2063     185.1763       0.0005
    5405.0    1652.6489       0.0000      50.8611     154.5125       3.4378       1.4789       3.1022     185.1763       0.0005
    5406.0    1649.6488       0.0000      50.8611     154.4342       3.2932       1.4204       2.9702     185.1763       0.0005
    5407.0    1649.6488       0.0000      50.8611     152.1474       3.5768       1.6706       3.1617     185.1763       0.0005
    5408.0    1647.5422       0.0000      50.8611     151.7794       3.6860       1.7418       3.2472     185.1763       0.0005
    5409.0    1648.4257       0.0000      50.8611     156.0002       3.3459       1.3584       3.0557     185.1763       0.0005
    5410.0    1645.7875       0.0000      50.8611     153.0751       3.4596       1.5664       3.0836     185.1763       0.0005
    5411.0    1644.5700       0.0000      50.8611     153.5085       3.6249       1.6157       3.2435     185.1763       0.0005
    5412.0    1647.5422       0.0000      50.8611     150.4636       3.5982       1.7728       3.1301     185.1763       0.0005
    5413.0    1648.7735       0.0000      50.8611     152.6415       3.4222       1.5719       3.0390     185.1763       0.0005
    5414.0    1642.8153       0.0000      50.8611     156.1590       3.3030       1.3346       3.0204     185.1763       0.0005
    5415.0    1647.5422       0.0000      50.8611     153.6881       3.5068       1.5537       3.1431     185.1763       0.0005
    5416.0    1647.5422       0.0000      50.8611     152.3685       3.6511       1.6924       3.2342     185.1763       0.0005
    5417.0    1645.7875       0.0000      50.8611     151.5062       3.4266       1.6340       3.0111     185.1763       0.0005
    5418.0    1650.5282       0.0000      50.8611     153.7221       3.2817       1.4514       2.9423     185.1763       0.0005
    5419.0    1643.6906       0.0000      50.8611     154.3820       3.4305       1.4825       3.0929     185.1763       0.0005
    5420.0    1650.5282       0.0000      50.8611     152.5603       3.6551       1.6833       3.2435     185.1763       0.0005
    5421.0    1649.6488       0.0000      50.8611     151.2562       3.4562       1.6614       3.0297     185.1763       0.0005
