~VERSION INFORMATION
VERS.           2.0   :CWLS Log ASCII Standard - VERSION 2.0
WRAP.           NO    :One Line per depth step
PROD.  Schlumberger   :LAS Producer
PROG.  DLIS to ASCII 19C2-270                          :LAS Program name and version
CREA.        2017/09/16 17:42                          :LAS Creation date {YYYY/MM/DD hh:mm}
DLIS_CREA.  2017-Sep-15 18:49                          :DLIS Creation date and time {YYYY-MMM-DD hh:mm}
SOURCE.     LPC_S5-1_AV.DLIS                           :DLIS File Name
FILE-ID.     PERFO_Perfo_WPGRT_057LTP                  :File Identification Number
#--------------------------------------------------
~WELL INFORMATION
#MNEM.UNIT      DATA             DESCRIPTION
#---- ------ --------------   -----------------------------
STRT .S         6545.0       :START TIME      
STOP .S         7010.0       :STOP TIME      
STEP .S            1.0       :STEP     
NULL .          -999.25      :NULL VALUE
COMP .        SHELL INTERNATIONAL E P                  :COMPANY
WELL .        WPP TEST 2                               :WELL
FLD  .        WILDCAT                                  :FIELD
LOC  .        NA                                       :LOCATION
CNTY .        HARRIS                                   :COUNTY
STAT .        TEXAS                                    :STATE
CTRY .                                                 :COUNTRY
API  .        NA                                       :API NUMBER
UWI  .                                                 :UNIQUE WELL ID
DATE .        15-Sep-2017                              :LOG DATE {DD-MMM-YYYY}
SRVC .        Schlumberger                             :SERVICE COMPANY
LATI .DEG                                              :LATITUDE
LONG .DEG                                              :LONGITUDE
GDAT .                                                 :GeoDetic Datum
SECT .        NA                                       :Section
RANG .        NA                                       :Range
TOWN .        NA                                       :Township
#-----------------------------------------------------------------------------
~PARAMETER INFORMATION
#MNEM.UNIT    VALUE                      DESCRIPTION
#---- -----   --------------------       ------------------------
U-PHASE_B_COMP_PER_YT.                 0 :Phase B Comparator Period Yt
U-PHASE_A_COMP_PER_XT.                 0 :Phase A Comparator Period Xt
U-MAX_EXC_CUR_LIMIT.MA       240.00000   :Requested CM Current Limit
U-REQ_EXC_FQ.HZ              50          :Requested CM Frequency
U-TILT_Y_OFFSET.           0.19916       :WPTET Tilt Y Offset
U-TILT_Y_GAIN.           1.01796         :WPTET Tilt Y Gain
U-TILT_X_OFFSET.          -1.77103       :WPTET Tilt X Offset
U-TILT_X_GAIN.           1.00000         :WPTET Tilt X Gain
U-TILT_OFFSET_TOL.           0.00100     :WPTET Tilt Offset Calibration Tolerance
U-NO_TILT_CAL_ROTATIONS.                 3 :Number of Rotations for Tilt Calibration
HAZI .DEG        0.00000                 :Hole Azimuth
U-STD_TOL_TILT.           0.01000        :Tilt Standard Deviation Tolerance
U-GUN_POS_TOL.DEG        5.00000         :Gun Position Tolerance
ROT_ANGLE_THRESHOLD.DEG        5.00000   :Rotation Stop Angle Tolerance
STOP_ROT_ANGLE.DEG        0.00000        :Rotation Stop Angle
WITN .        MR. DHRUA ARORA            :Witness's Name
ENGI .        MORRIS MOORE               :Engineer's Name
COUN .        HARRIS                     :County or Rig Name
FN   .        WILDCAT                    :Field Name
WN   .        WPP TEST 2                 :Well Name
CN   .        SHELL INTERNATIONAL E P    :Company Name
CLAB .        County                     :County/Rig Label
SLAB .        State                      :State/Province Label
RUN  .          1                        :RUN NUMBER
PDAT .        GROUND LEVEL               :Permanent Datum
EPD  .                                   :Elevation of Permanent Datum above Mean Sea Level
LMF  .          NA                       :Logging Measured From (Name of Logging Elevation Reference)
APD  .                                   :Elevation of Depth Reference (LMF) above Permanent Datum
#-----------------------------------------------------------------------------
~CURVE INFORMATION
#MNEM.UNIT   API CODE                                  DESCRIPTION
#---- -----  --------                                  -----------------------
TIME .S                                                :TIME {F10.1}
FREQ_EMF_SL.HZ                                         :Electromagnetic Field Frequency {F13.4}
PH_SH_WPPCM_SL.DEG                                     :WPPCM Phase Shift {F13.4}
FREQ_EXC_REQ_SL.HZ                                     :Requested Exciter Frequency {F13.4}
RB_SL.DEG                                              :Relative Bearing {F13.4}
SDEV_SL.DEG                                            :Sonde Deviation {F13.4}
TILX_SL.DEG                                            :X-axis Tilt {F13.4}
TILY_SL.DEG                                            :Y-axis Tilt {F13.4}
ROTA_SL.DEG                                            :Motor Rotation Angle {F13.4}
MSPE_SL.RPM                                            :Motor Speed {F13.4}
#-----------------------------------------------------------------------------
# 
#     TIME    FREQ_EMF_SL  PH_SH_WPPCM_ FREQ_EXC_REQ    RB_SL       SDEV_SL      TILX_SL      TILY_SL      ROTA_SL      MSPE_SL
#                          SL           _SL
~A  
# ...
    6923.0    1343.7928       0.0000      50.8611     -54.4325       0.8441      -0.6865      -0.4910     239.0335       1.0226
    6924.0    1345.6507       0.0000      50.8611     -48.5687       0.8500      -0.6367      -0.5630     245.1354       1.0226
    6925.0    1355.3977       0.0000      50.8611     -59.1293       0.9125      -0.7829      -0.4649     251.2377       1.0226
    6926.0    1375.6560       0.0000      50.8611     -58.3869       0.8591      -0.7315      -0.4501     257.3395       1.0226
    6927.0    1379.3279       0.0000      50.8611     -65.1774       0.8892      -0.8070      -0.3733     263.4413       1.0226
    6928.0    1391.9966       0.0000      50.8611     -62.1458       0.9078      -0.8022      -0.4240     269.5432       1.0226
    6929.0    1400.9829       0.0000      50.8611     -66.6626       0.9560      -0.8777      -0.3782     275.6450       1.0226
    6930.0    1410.0909       0.0000      50.8611     -63.2208       0.8300      -0.7412      -0.3733     281.7468       1.0226
    6931.0    1423.6764       0.0000      50.8611     -72.5434       0.8664      -0.8263      -0.2604     287.8486       1.0226
    6932.0    1431.6772       0.0000      50.8611     -64.7731       0.9163      -0.8279      -0.3880     293.9381       1.0226
    6933.0    1441.5414       0.0000      50.8611     -56.9176       0.8961      -0.7508      -0.4861     300.4495       1.0321
    6934.0    1444.5030       0.0000      50.8611     -61.3747       0.9308      -0.8167      -0.4452     306.5505       1.0226
    6935.0    1453.0986       0.0000      50.8611     -67.5628       0.8836      -0.8167      -0.3373     312.6539       1.0321
    6936.0    1464.8438       0.0000      50.8611     -61.3747       0.9308      -0.8167      -0.4452     318.7673       1.0308
    6937.0    1470.2374       0.0000      50.8611     -61.9054       0.8801      -0.7765      -0.4142     324.8694       1.0226
    6938.0    1471.7146       0.0000      50.8611     -67.9275       1.0062      -0.9323      -0.3782     330.9593       1.0226
    6939.0    1469.9903       0.0000      50.8611     -67.3004       1.0733      -0.9902      -0.4142     337.0611       1.0226
    6940.0    1486.5221       0.0000      50.8611     -66.5844       1.0950      -1.0046      -0.4354     343.1629       1.0226
    6941.0    1492.4548       0.0000      50.8611     -72.9560       1.0943      -1.0432      -0.3209     349.2647       1.0226
    6942.0    1482.1529       0.0000      50.8611     -61.6120       0.9550      -0.8408      -0.4501     355.3650       1.0146
    6943.0    1492.4548       0.0000      50.8611     -65.3609       1.0375      -0.9420      -0.4338       1.4690       1.0226
    6944.0    1488.9174       0.0000      50.8611     -58.0824       1.0928      -0.9275      -0.5777       7.5584       1.0239
    6945.0    1491.7006       0.0000      50.8611     -67.2419       0.9779      -0.9018      -0.3782      13.7219       1.0226
    6946.0    1486.9000       0.0000      50.8611     -67.5902       1.1670      -1.0786      -0.4452      20.1828       1.0226
    6947.0    1477.9013       0.0000      50.8611     -60.1548       1.1172      -0.9677      -0.5565      26.2849       1.0226
    6948.0    1481.8965       0.0000      50.8611     -62.2693       1.1549      -1.0223      -0.5368      32.4002       1.0417
    6949.0    1470.6044       0.0000      50.8611     -61.6449       1.2369      -1.0882      -0.5875      38.5028       1.0226
    6950.0    1462.5308       0.0000      50.8611     -59.0250       1.0835      -0.9275      -0.5581      44.6174       1.0226
    6951.0    1454.1217       0.0000      50.8611     -60.9823       1.0966      -0.9589      -0.5319      50.7201       1.0226
    6952.0    1438.9485       0.0000      50.8611     -59.3020       1.2797      -1.1010      -0.6448      56.8219       1.0226
    6953.0    1435.3011       0.0000      50.8611     -57.9937       1.1773      -0.9982      -0.6235      62.9369       1.0226
    6954.0    1425.8706       0.0000      50.8611     -56.8165       1.1870      -0.9934      -0.6497      69.0387       1.0226
    6955.0    1419.7686       0.0000      50.8611     -61.9948       1.0181      -0.8970      -0.4796      75.1405       1.0226
    6956.0    1402.7735       0.0000      50.8611     -52.3674       1.2221      -0.9677      -0.7462      81.2426       1.0226
    6957.0    1391.0138       0.0000      50.8611     -44.6099       1.2711      -0.8874      -0.9065      87.3927       1.0226
    6958.0    1380.7362       0.0000      50.8611     -57.3012       1.1758      -0.9886      -0.6333      93.8535       1.0226
    6959.0    1369.9753       0.0000      50.8611     -53.0582       1.2430      -0.9934      -0.7462      99.9538       1.0133
    6960.0    1361.7002       0.0000      50.8611     -47.9170       1.1610      -0.8617      -0.7772     106.0568       1.0133
    6961.0    1347.2930       0.0000      50.8611     -51.3570       1.2682      -0.9886      -0.7936     112.1478       1.0226
    6962.0    1323.8539       0.0000      50.8611     -39.6560       1.0460      -0.6656      -0.8034     118.2496       1.0226
    6963.0    1313.8847       0.0000      50.8611     -52.2913       1.0785      -0.8532      -0.6595     124.3514       1.0226
    6964.0    1279.5331       0.0000      50.8611     -46.1473       1.0701      -0.7717      -0.7413     130.4664       1.0226
    6965.0    1255.3118       0.0000      50.8611     -46.4151       1.0164      -0.7363      -0.7004     136.5813       1.0226
    6966.0    1238.4210       0.0000      50.8611     -49.8481       0.9755      -0.7460      -0.6284     142.6710       1.0226
    6967.0    1230.8766       0.0000      50.8611     -56.0761       1.2161      -1.0079      -0.6791     148.7729       1.0226
    6968.0    1213.8766       0.0000      50.8611     -46.7498       1.1042      -0.8022      -0.7576     154.8878       1.0226
    6969.0    1208.1185       0.0000      50.8611     -45.2840       1.0754      -0.7620      -0.7576     160.9897       1.0226
    6970.0    1207.1290       0.0000      50.8611     -47.6403       1.0249      -0.7572      -0.6906     167.5105       1.0226
    6971.0    1201.6770       0.0000      50.8611     -51.0618       1.1800      -0.9179      -0.7413     173.6151       1.0226
    6972.0    1207.0462       0.0000      50.8611     -47.2668       1.0854      -0.7974      -0.7364     179.7159       1.0213
    6973.0    1198.0732       0.0000      50.8611     -55.0186       0.8563      -0.6962      -0.4943     185.8069       1.0226
    6974.0    1213.1306       0.0000      50.8611     -45.6366       0.9054      -0.6464      -0.6333     191.9088       1.0213
    6975.0    1223.1458       0.0000      50.8611     -48.3230       0.8670      -0.6476      -0.5765     197.9984       1.0226
    6976.0    1243.0646       0.0000      50.8611     -53.0070       0.9601      -0.7669      -0.5777     204.1015       1.0133
    6977.0    1267.1663       0.0000      50.8611     -54.3567       0.9383      -0.7620      -0.5466     210.2031       1.0226
    6978.0    1281.2996       0.0000      50.8611     -57.3957       0.8061      -0.6769      -0.4338     216.3180       1.0226
    6979.0    1305.0820       0.0000      50.8611     -50.2444       0.8471      -0.6512      -0.5417     222.4185       1.0133
    6980.0    1305.6694       0.0000      50.8611     -55.8083       0.7937      -0.6560      -0.4452     228.5211       1.0133
    6981.0    1323.8539       0.0000      50.8611     -60.1489       0.8323      -0.7219      -0.4142     234.6237       1.0133
    6982.0    1337.3519       0.0000      50.8611     -55.9585       0.8771      -0.7267      -0.4910     241.1210       1.0133
    6983.0    1347.6045       0.0000      50.8611     -59.3463       0.8635      -0.7428      -0.4403     247.2125       1.0226
    6984.0    1355.0826       0.0000      50.8611     -64.4533       0.7715      -0.6962      -0.3324     253.3280       1.0226
    6985.0    1369.9753       0.0000      50.8611     -58.5290       0.8526      -0.7267      -0.4452     259.4430       1.0321
