~VERSION INFORMATION
VERS.           2.0   :CWLS Log ASCII Standard - VERSION 2.0
WRAP.           NO    :One Line per depth step
PROD.  Schlumberger   :LAS Producer
PROG.  DLIS to ASCII 19C2-270                          :LAS Program name and version
CREA.        2017/09/16 17:42                          :LAS Creation date {YYYY/MM/DD hh:mm}
DLIS_CREA.  2017-Sep-15 16:38                          :DLIS Creation date and time {YYYY-MMM-DD hh:mm}
SOURCE.     LPC_S3-1_2A5.DLIS                          :DLIS File Name
FILE-ID.     PERFO_Perfo_WPGRT_042LTP                  :File Identification Number
#--------------------------------------------------
~WELL INFORMATION
#MNEM.UNIT      DATA             DESCRIPTION
#---- ------ --------------   -----------------------------
STRT .S         4115.0       :START TIME      
STOP .S         4682.0       :STOP TIME      
STEP .S            1.0       :STEP     
NULL .          -999.25      :NULL VALUE
COMP .        SHELL INTERNATIONAL E P                  :COMPANY
WELL .        WPP TEST 2                               :WELL
FLD  .        WILDCAT                                  :FIELD
LOC  .                                                 :LOCATION
CNTY .        HARRIS                                   :COUNTY
STAT .        TEXAS                                    :STATE
CTRY .                                                 :COUNTRY
API  .                                                 :API NUMBER
UWI  .                                                 :UNIQUE WELL ID
DATE .                                                 :LOG DATE
SRVC .        Schlumberger                             :SERVICE COMPANY
LATI .DEG                                              :LATITUDE
LONG .DEG                                              :LONGITUDE
GDAT .                                                 :GeoDetic Datum
#-----------------------------------------------------------------------------
~PARAMETER INFORMATION
#MNEM.UNIT    VALUE                      DESCRIPTION
#---- -----   --------------------       ------------------------
U-PHASE_B_COMP_PER_YT.                 0 :Phase B Comparator Period Yt
U-PHASE_A_COMP_PER_XT.                 0 :Phase A Comparator Period Xt
U-MAX_EXC_CUR_LIMIT.MA       240.00000   :Requested CM Current Limit
U-REQ_EXC_FQ.HZ              50          :Requested CM Frequency
U-TILT_Y_OFFSET.           0.19916       :WPTET Tilt Y Offset
U-TILT_Y_GAIN.           1.01796         :WPTET Tilt Y Gain
U-TILT_X_OFFSET.          -1.77103       :WPTET Tilt X Offset
U-TILT_X_GAIN.           1.00000         :WPTET Tilt X Gain
U-TILT_OFFSET_TOL.           0.00100     :WPTET Tilt Offset Calibration Tolerance
U-NO_TILT_CAL_ROTATIONS.                 3 :Number of Rotations for Tilt Calibration
HAZI .DEG        0.00000                 :Hole Azimuth
U-STD_TOL_TILT.           0.01000        :Tilt Standard Deviation Tolerance
U-GUN_POS_TOL.DEG        5.00000         :Gun Position Tolerance
ROT_ANGLE_THRESHOLD.DEG        5.00000   :Rotation Stop Angle Tolerance
STOP_ROT_ANGLE.DEG        0.00000        :Rotation Stop Angle
WITN .                                   :Witness's Name
ENGI .                                   :Engineer's Name
COUN .        HARRIS                     :County or Rig Name
FN   .        WILDCAT                    :Field Name
WN   .        WPP TEST 2                 :Well Name
CN   .        SHELL INTERNATIONAL E P    :Company Name
CLAB .        County                     :County/Rig Label
SLAB .        State                      :State/Province Label
RUN  .          1                        :RUN NUMBER
PDAT .        GROUND LEVEL               :Permanent Datum
EPD  .                                   :Elevation of Permanent Datum above Mean Sea Level
LMF  .                                   :Logging Measured From (Name of Logging Elevation Reference)
APD  .                                   :Elevation of Depth Reference (LMF) above Permanent Datum
#-----------------------------------------------------------------------------
~CURVE INFORMATION
#MNEM.UNIT   API CODE                                  DESCRIPTION
#---- -----  --------                                  -----------------------
TIME .S                                                :TIME {F10.1}
FREQ_EMF_SL.HZ                                         :Electromagnetic Field Frequency {F13.4}
PH_SH_WPPCM_SL.DEG                                     :WPPCM Phase Shift {F13.4}
FREQ_EXC_REQ_SL.HZ                                     :Requested Exciter Frequency {F13.4}
RB_SL.DEG                                              :Relative Bearing {F13.4}
SDEV_SL.DEG                                            :Sonde Deviation {F13.4}
TILX_SL.DEG                                            :X-axis Tilt {F13.4}
TILY_SL.DEG                                            :Y-axis Tilt {F13.4}
ROTA_SL.DEG                                            :Motor Rotation Angle {F13.4}
MSPE_SL.RPM                                            :Motor Speed {F13.4}
#-----------------------------------------------------------------------------
# 
#     TIME    FREQ_EMF_SL  PH_SH_WPPCM_ FREQ_EXC_REQ    RB_SL       SDEV_SL      TILX_SL      TILY_SL      ROTA_SL      MSPE_SL
#                          SL           _SL
~A  
# ...
    4178.0    1432.0265       0.0000      50.8611    -132.8111       5.5358      -4.0581       3.7589     175.5379       1.0226
    4179.0    1429.2032       0.0000      50.8611    -125.5236       5.6308      -4.5803       3.2682     181.6560       1.0226
    4180.0    1429.2470       0.0000      50.8611    -120.4454       5.7297      -4.9376       2.8996     187.7680       1.0226
    4181.0    1431.8522       0.0000      50.8611    -116.2475       5.9137      -5.3021       2.6115     193.8831       1.0226
    4182.0    1417.4200       0.0000      50.8611    -110.5896       5.9239      -5.5443       2.0800     199.9850       1.0226
    4183.0    1412.0684       0.0000      50.8611    -104.9414       5.8662      -5.6672       1.5100     206.0904       1.0229
    4184.0    1412.0684       0.0000      50.8611     -97.4635       5.9983      -5.9472       0.7777     212.1898       1.0226
    4185.0    1406.3345       0.0000      50.8611     -92.3170       6.1935      -6.1882       0.2499     218.3047       1.0226
    4186.0    1408.7321       0.0000      50.8611     -89.5690       6.1494      -6.1492      -0.0462     224.8146       1.0226
    4187.0    1395.2560       0.0000      50.8611     -82.6533       6.0801      -6.0299      -0.7760     230.9164       1.0226
    4188.0    1392.3268       0.0000      50.8611     -77.2578       6.1416      -5.9897      -1.3521     237.0183       1.0226
    4189.0    1386.9166       0.0000      50.8611     -70.6673       6.3079      -5.9508      -2.0844     243.1084       1.0330
    4190.0    1389.3294       0.0000      50.8611     -67.4855       6.3119      -5.8291      -2.4128     249.1984       1.0223
    4191.0    1370.6943       0.0000      50.8611     -62.5576       6.3023      -5.5905      -2.8997     255.3003       1.0226
    4192.0    1362.8844       0.0000      50.8611     -57.1270       6.2688      -5.2619      -3.3978     261.3809       1.0224
    4193.0    1344.4846       0.0000      50.8611     -51.5320       6.3244      -4.9478      -3.9293     267.4793       1.0226
    4194.0    1341.9185       0.0000      50.8611     -48.0341       6.4953      -4.8249      -4.3382     273.5811       1.0226
    4195.0    1329.1588       0.0000      50.8611     -42.6494       6.2948      -4.2602      -4.6256     279.6956       1.0334
    4196.0    1314.3262       0.0000      50.8611     -37.1442       6.0234      -3.6332      -4.7978     285.8110       1.0226
    4197.0    1297.4227       0.0000      50.8611     -33.5774       6.3428      -3.5030      -5.2811     291.9129       1.0226
    4198.0    1287.5637       0.0000      50.8611     -26.7234       6.2814      -2.8202      -5.6082     298.3981       1.0330
    4199.0    1280.8078       0.0000      50.8611     -20.5386       6.2370      -2.1835      -5.8388     304.5252       1.0226
    4200.0    1267.0984       0.0000      50.8611     -17.0381       6.2011      -1.8136      -5.9279     310.6270       1.0226
    4201.0    1266.8918       0.0000      50.8611     -11.0582       6.0909      -1.1661      -5.9774     316.7165       1.0226
    4202.0    1260.0131       0.0000      50.8611      -6.1393       6.0893      -0.6500      -6.0543     322.8184       1.0330
    4203.0    1255.6477       0.0000      50.8611       0.6865       5.8156       0.0694      -5.8151     328.9333       1.0226
    4204.0    1263.3752       0.0000      50.8611       5.3214       5.8380       0.5405      -5.8126     335.0229       1.0223
    4205.0    1255.7832       0.0000      50.8611      10.1567       5.6550       0.9957      -5.5660     341.1247       1.0226
    4206.0    1260.1486       0.0000      50.8611      12.0166       5.4431       1.1318      -5.3232     347.2391       1.0330
    4207.0    1275.8816       0.0000      50.8611      23.0518       5.5187       2.1581      -5.0766     353.3413       1.0226
    4208.0    1282.5210       0.0000      50.8611      26.6529       5.2727       2.3625      -4.7111     359.4431       1.0226
    4209.0    1290.2087       0.0000      50.8611      33.3969       5.1062       2.8080      -4.2613       5.5450       1.0226
    4210.0    1306.7064       0.0000      50.8611      39.1927       5.0213       3.1707      -3.8896      12.0303       1.0226
    4211.0    1329.1588       0.0000      50.8611      47.8023       5.1850       3.8391      -3.4795      18.1443       1.0226
    4212.0    1346.5994       0.0000      50.8611      52.7589       4.6900       3.7318      -2.8364      24.2591       1.0229
    4213.0    1344.3304       0.0000      50.8611      57.4871       4.6652       3.9326      -2.5056      30.3609       1.0226
    4214.0    1354.9260       0.0000      50.8611      65.5336       4.6720       4.2516      -1.9332      36.4756       1.0330
    4215.0    1370.5340       0.0000      50.8611      73.3564       4.6044       4.4110      -1.3174      42.5656       1.0226
    4216.0    1380.9819       0.0000      50.8611      79.7573       4.4444       4.3733      -0.7895      48.6674       1.0226
    4217.0    1381.4666       0.0000      50.8611      86.6961       4.4184       4.4110      -0.2543      54.7951       1.0229
    4218.0    1381.4666       0.0000      50.8611      95.2601       4.3126       4.2941       0.3950      60.8982       1.0226
    4219.0    1395.1724       0.0000      50.8611     101.7697       4.5893       4.4926       0.9351      67.0132       1.0229
    4220.0    1397.9463       0.0000      50.8611     110.2282       4.3603       4.0909       1.5063      73.1092       1.0229
    4221.0    1406.2500       0.0000      50.8611     115.9284       4.1962       3.7732       1.8334      79.2084       1.0226
    4222.0    1406.4194       0.0000      50.8611     124.2629       4.1306       3.4129       2.3241      85.3077       1.0229
    4223.0    1420.2831       0.0000      50.8611     133.1791       4.2949       3.1305       2.9374      91.8178       1.0226
    4224.0    1414.9099       0.0000      50.8611     140.7511       4.3772       2.7678       3.3884      97.9323       1.0330
    4225.0    1426.2170       0.0000      50.8611     146.2098       4.3230       2.4027       3.5916     104.0485       1.0229
    4226.0    1423.2437       0.0000      50.8611     153.0184       4.3541       1.9741       3.8791     110.1502       1.0226
    4227.0    1431.9392       0.0000      50.8611     161.3197       4.4001       1.4082       4.1677     116.2520       1.0226
    4228.0    1426.3040       0.0000      50.8611     169.8155       4.5671       0.8069       4.4948     122.3538       1.0226
    4229.0    1440.7414       0.0000      50.8611     175.5712       4.6699       0.3602       4.6559     128.4557       1.0226
    4230.0    1446.4050       0.0000      50.8611    -178.0346       4.6575      -0.1595       4.6547     134.5575       1.0226
    4231.0    1440.7414       0.0000      50.8611    -171.8293       4.7841      -0.6793       4.7353     140.6481       1.0327
    4232.0    1432.5580       0.0000      50.8611    -164.8363       5.0735      -1.3256       4.8964     146.7657       1.0226
    4233.0    1437.8834       0.0000      50.8611    -157.2271       5.0936      -1.9694       4.6956     152.8684       1.0440
    4234.0    1443.6114       0.0000      50.8611    -153.5710       5.1551      -2.2920       4.6151     158.9965       1.0226
    4235.0    1440.7414       0.0000      50.8611    -147.9382       5.1596      -2.7362       4.3710     165.5162       1.0229
    4236.0    1438.1497       0.0000      50.8611    -139.4563       5.3787      -3.4934       4.0847     171.6061       1.0226
    4237.0    1437.8834       0.0000      50.8611    -134.5553       5.5917      -3.9814       3.9200     177.7080       1.0226
    4238.0    1434.8613       0.0000      50.8611    -128.3509       5.5381      -4.3405       3.4330     183.7883       1.0223
    4239.0    1437.5334       0.0000      50.8611    -124.9709       5.6371      -4.6168       3.2273     189.8872       1.0226
    4240.0    1426.4790       0.0000      50.8611    -118.7974       5.6858      -4.9807       2.7354     195.9899       1.0226
