~VERSION INFORMATION
VERS.           2.0   :CWLS Log ASCII Standard - VERSION 2.0
WRAP.           NO    :One Line per depth step
PROD.  Schlumberger   :LAS Producer
PROG.  DLIS to ASCII 19C2-270                          :LAS Program name and version
CREA.        2017/09/16 17:42                          :LAS Creation date {YYYY/MM/DD hh:mm}
DLIS_CREA.  2017-Sep-15 19:24                          :DLIS Creation date and time {YYYY-MMM-DD hh:mm}
SOURCE.     LPC_S5-1_BV.DLIS                           :DLIS File Name
FILE-ID.     PERFO_Perfo_WPGRT_061LTP                  :File Identification Number
#--------------------------------------------------
~WELL INFORMATION
#MNEM.UNIT      DATA             DESCRIPTION
#---- ------ --------------   -----------------------------
STRT .S          101.0       :START TIME      
STOP .S          592.0       :STOP TIME      
STEP .S            1.0       :STEP     
NULL .          -999.25      :NULL VALUE
COMP .        SHELL INTERNATIONAL E P                  :COMPANY
WELL .        WPP TEST 2                               :WELL
FLD  .        WILDCAT                                  :FIELD
LOC  .        NA                                       :LOCATION
CNTY .        HARRIS                                   :COUNTY
STAT .        TEXAS                                    :STATE
CTRY .                                                 :COUNTRY
API  .        NA                                       :API NUMBER
UWI  .                                                 :UNIQUE WELL ID
DATE .        15-Sep-2017                              :LOG DATE {DD-MMM-YYYY}
SRVC .        Schlumberger                             :SERVICE COMPANY
LATI .DEG                                              :LATITUDE
LONG .DEG                                              :LONGITUDE
GDAT .                                                 :GeoDetic Datum
SECT .        NA                                       :Section
RANG .        NA                                       :Range
TOWN .        NA                                       :Township
#-----------------------------------------------------------------------------
~PARAMETER INFORMATION
#MNEM.UNIT    VALUE                      DESCRIPTION
#---- -----   --------------------       ------------------------
U-PHASE_B_COMP_PER_YT.                 0 :Phase B Comparator Period Yt
U-PHASE_A_COMP_PER_XT.                 0 :Phase A Comparator Period Xt
U-MAX_EXC_CUR_LIMIT.MA       240.00000   :Requested CM Current Limit
U-REQ_EXC_FQ.HZ              50          :Requested CM Frequency
U-TILT_Y_OFFSET.           0.19916       :WPTET Tilt Y Offset
U-TILT_Y_GAIN.           1.01796         :WPTET Tilt Y Gain
U-TILT_X_OFFSET.          -1.77103       :WPTET Tilt X Offset
U-TILT_X_GAIN.           1.00000         :WPTET Tilt X Gain
U-TILT_OFFSET_TOL.           0.00100     :WPTET Tilt Offset Calibration Tolerance
U-NO_TILT_CAL_ROTATIONS.                 3 :Number of Rotations for Tilt Calibration
HAZI .DEG        0.00000                 :Hole Azimuth
U-STD_TOL_TILT.           0.01000        :Tilt Standard Deviation Tolerance
U-GUN_POS_TOL.DEG        5.00000         :Gun Position Tolerance
ROT_ANGLE_THRESHOLD.DEG        5.00000   :Rotation Stop Angle Tolerance
STOP_ROT_ANGLE.DEG        0.00000        :Rotation Stop Angle
WITN .        MR. DHRUA ARORA            :Witness's Name
ENGI .        MORRIS MOORE               :Engineer's Name
COUN .        HARRIS                     :County or Rig Name
FN   .        WILDCAT                    :Field Name
WN   .        WPP TEST 2                 :Well Name
CN   .        SHELL INTERNATIONAL E P    :Company Name
CLAB .        County                     :County/Rig Label
SLAB .        State                      :State/Province Label
RUN  .          1                        :RUN NUMBER
PDAT .        GROUND LEVEL               :Permanent Datum
EPD  .                                   :Elevation of Permanent Datum above Mean Sea Level
LMF  .          NA                       :Logging Measured From (Name of Logging Elevation Reference)
APD  .                                   :Elevation of Depth Reference (LMF) above Permanent Datum
#-----------------------------------------------------------------------------
~CURVE INFORMATION
#MNEM.UNIT   API CODE                                  DESCRIPTION
#---- -----  --------                                  -----------------------
TIME .S                                                :TIME {F10.1}
FREQ_EMF_SL.HZ                                         :Electromagnetic Field Frequency {F13.4}
PH_SH_WPPCM_SL.DEG                                     :WPPCM Phase Shift {F13.4}
FREQ_EXC_REQ_SL.HZ                                     :Requested Exciter Frequency {F13.4}
RB_SL.DEG                                              :Relative Bearing {F13.4}
SDEV_SL.DEG                                            :Sonde Deviation {F13.4}
TILX_SL.DEG                                            :X-axis Tilt {F13.4}
TILY_SL.DEG                                            :Y-axis Tilt {F13.4}
ROTA_SL.DEG                                            :Motor Rotation Angle {F13.4}
MSPE_SL.RPM                                            :Motor Speed {F13.4}
#-----------------------------------------------------------------------------
# 
#     TIME    FREQ_EMF_SL  PH_SH_WPPCM_ FREQ_EXC_REQ    RB_SL       SDEV_SL      TILX_SL      TILY_SL      ROTA_SL      MSPE_SL
#                          SL           _SL
~A  
# ...
     290.0    1443.7886       0.0000      50.8611     -69.5614       1.2203      -1.1428      -0.4257     220.1374       1.0265
     291.0    1441.8927       0.0000      50.8611     -60.8091       1.3615      -1.1892      -0.6627     226.2571       1.0226
     292.0    1443.7886       0.0000      50.8611     -59.4668       1.3269      -1.1428      -0.6742     232.3590       1.0158
     293.0    1442.9598       0.0000      50.8611     -61.8003       1.2841      -1.1315      -0.6071     238.4636       1.0226
     294.0    1443.7886       0.0000      50.8611     -59.3776       1.2197      -1.0480      -0.6218     244.9716       1.0226
     295.0    1438.9418       0.0000      50.8611     -51.7060       1.3883      -1.0882      -0.8608     251.0735       1.0226
     296.0    1437.8834       0.0000      50.8611     -53.5947       1.3389      -1.0769      -0.7937     257.1754       1.0226
     297.0    1438.7173       0.0000      50.8611     -53.2649       1.3078      -1.0480      -0.7822     263.2772       1.0226
     298.0    1437.8834       0.0000      50.8611     -52.5432       1.2382      -0.9821      -0.7528     269.3790       1.0226
     299.0    1428.3039       0.0000      50.8611     -49.4064       1.2366      -0.9193      -0.7988     275.4808       1.0226
     300.0    1427.2583       0.0000      50.8611     -46.8583       1.3616      -0.9934      -0.9310     281.5826       1.0226
     301.0    1417.3808       0.0000      50.8611     -49.3477       1.3303      -1.0079      -0.8671     287.6765       1.0226
     302.0    1411.8976       0.0000      50.8611     -46.2701       1.1569      -0.8328      -0.8000     293.7791       1.0158
     303.0    1396.0855       0.0000      50.8611     -43.8183       1.1754      -0.8101      -0.8461     299.8764       1.0226
     304.0    1396.0855       0.0000      50.8611     -49.0767       1.2558      -0.9357      -0.8179     305.9782       1.0226
     305.0    1388.5906       0.0000      50.8611     -40.8455       1.0921      -0.7123      -0.8262     312.0800       1.0226
     306.0    1381.1854       0.0000      50.8611     -42.6784       1.0710      -0.7236      -0.7853     318.5899       1.0226
     307.0    1369.1303       0.0000      50.8611     -42.2907       1.0443      -0.7041      -0.7706     324.6838       1.0158
     308.0    1364.5500       0.0000      50.8611     -43.9063       1.0326      -0.7154      -0.7444     330.7811       1.0226
     309.0    1352.9006       0.0000      50.8611     -44.0212       1.0639      -0.7349      -0.7591     336.8829       1.0226
     310.0    1333.4950       0.0000      50.8611     -43.4248       1.0033      -0.6896      -0.7266     342.9979       1.0226
     311.0    1324.5790       0.0000      50.8611     -41.4385       1.1024      -0.7298      -0.8262     349.0997       1.0226
     312.0    1308.6755       0.0000      50.8611     -32.8728       0.7395      -0.4022      -0.6186     355.2015       1.0226
     313.0    1287.9669       0.0000      50.8611     -43.5015       0.9702      -0.6690      -0.7004       1.3033       1.0226
     314.0    1268.5378       0.0000      50.8611     -24.3872       0.8398      -0.3457      -0.7528       7.4051       1.0295
     315.0    1257.1969       0.0000      50.8611     -35.4812       0.9378      -0.5567      -0.7496      13.5200       1.0226
     316.0    1250.4893       0.0000      50.8611     -37.3470       0.9372      -0.5691      -0.7444      19.6095       1.0188
     317.0    1235.7206       0.0000      50.8611     -46.3851       0.8419      -0.6093      -0.5809      25.6990       1.0226
     318.0    1236.1855       0.0000      50.8611     -51.3618       0.8435      -0.6577      -0.5253      32.2219       1.0226
     319.0    1243.6792       0.0000      50.8611     -52.8819       0.6814      -0.5403      -0.4110      38.3244       1.0188
     320.0    1227.8649       0.0000      50.8611     -45.7594       0.7698      -0.5516      -0.5368      44.4262       1.0226
     321.0    1232.1683       0.0000      50.8611     -45.9830       0.6964      -0.5001      -0.4844      50.5280       1.0226
     322.0    1237.2863       0.0000      50.8611     -58.8981       0.8018      -0.6865      -0.4142      56.6430       1.0226
     323.0    1248.2693       0.0000      50.8611     -47.2192       0.7908      -0.5805      -0.5368      62.7246       1.0226
     324.0    1246.6755       0.0000      50.8611     -47.6998       0.6790      -0.5001      -0.4582      68.8351       1.0226
     325.0    1260.8933       0.0000      50.8611     -65.9221       0.6709      -0.6124      -0.2621      74.9368       1.0226
     326.0    1273.9651       0.0000      50.8611     -58.7140       0.7444      -0.6350      -0.3848      81.0386       1.0226
     327.0    1281.2380       0.0000      50.8611     -55.7348       0.6367      -0.5259      -0.3586      87.1404       1.0226
     328.0    1300.1921       0.0000      50.8611     -53.6288       0.5797      -0.4763      -0.3177      93.2422       1.0226
     329.0    1311.1158       0.0000      50.8611     -70.6901       0.7138      -0.6690      -0.2276      99.3440       1.0226
     330.0    1330.9708       0.0000      50.8611     -65.9769       0.6514      -0.5949      -0.2653     105.8414       1.0295
     331.0    1340.7418       0.0000      50.8611     -66.5544       0.8390      -0.7700      -0.3324     111.9647       1.0295
     332.0    1347.5375       0.0000      50.8611     -76.1855       0.9772      -0.9388      -0.2308     118.0712       1.0226
     333.0    1359.8160       0.0000      50.8611     -74.5333       0.8407      -0.8101      -0.2244     124.1730       1.0226
     334.0    1358.3273       0.0000      50.8611     -69.0168       0.8116      -0.7555      -0.2883     130.2748       1.0226
     335.0    1372.3294       0.0000      50.8611     -72.2873       0.9585      -0.9131      -0.2915     136.3644       1.0226
     336.0    1382.1546       0.0000      50.8611     -69.4708       0.9854      -0.9213      -0.3356     142.4541       1.0226
     337.0    1385.0850       0.0000      50.8611     -63.7441       0.9240      -0.8164      -0.3784     148.5559       1.0295
     338.0    1394.8857       0.0000      50.8611     -76.0884       0.9855      -0.9564      -0.2359     154.6710       1.0226
     339.0    1401.4386       0.0000      50.8611     -74.0814       1.0766      -1.0336      -0.2947     160.7729       1.0226
     340.0    1405.2417       0.0000      50.8611     -70.9340       1.0257      -0.9677      -0.3356     166.8752       1.0197
     341.0    1412.7016       0.0000      50.8611     -75.6659       1.0729      -1.0367      -0.2685     172.9774       1.0226
     342.0    1412.9181       0.0000      50.8611     -71.7633       1.2007      -1.1365      -0.3816     179.4853       1.0226
     343.0    1422.2971       0.0000      50.8611     -74.7813       0.9673      -0.9338      -0.2506     185.5892       1.0226
     344.0    1425.1799       0.0000      50.8611     -66.8189       1.0849      -0.9965      -0.4257     191.6911       1.0226
     345.0    1433.8992       0.0000      50.8611     -64.6856       1.1316      -1.0223      -0.4844     197.7930       1.0226
     346.0    1436.8293       0.0000      50.8611     -67.6126       1.2510      -1.1541      -0.4781     203.9080       1.0226
     347.0    1436.0031       0.0000      50.8611     -68.6932       1.2825      -1.1943      -0.4666     210.0099       1.0226
     348.0    1440.8298       0.0000      50.8611     -61.1923       1.1063      -0.9677      -0.5337     214.9345       0.0005
     349.0    1444.6293       0.0000      50.8611     -65.2167       1.1551      -1.0480      -0.4844     214.9345       0.0005
     350.0    1441.6673       0.0000      50.8611     -63.2202       1.3246      -1.1798      -0.5956     214.9345       0.0005
     351.0    1440.8298       0.0000      50.8611     -69.6367       1.1914      -1.1170      -0.4142     214.9345       0.0005
     352.0    1440.0047       0.0000      50.8611     -60.4458       1.2841      -1.1170      -0.6333     214.9345       0.0005
