~VERSION INFORMATION
VERS.           2.0   :CWLS Log ASCII Standard - VERSION 2.0
WRAP.           NO    :One Line per depth step
PROD.  Schlumberger   :LAS Producer
PROG.  DLIS to ASCII 19C2-270                          :LAS Program name and version
CREA.        2017/09/16 17:42                          :LAS Creation date {YYYY/MM/DD hh:mm}
DLIS_CREA.  2017-Sep-15 14:49                          :DLIS Creation date and time {YYYY-MMM-DD hh:mm}
SOURCE.     LPC_S2-1_BV.DLIS                           :DLIS File Name
FILE-ID.     PERFO_Perfo_WPGRT_031LTP                  :File Identification Number
#--------------------------------------------------
~WELL INFORMATION
#MNEM.UNIT      DATA             DESCRIPTION
#---- ------ --------------   -----------------------------
STRT .S        14524.0       :START TIME      
STOP .S        14987.0       :STOP TIME      
STEP .S            1.0       :STEP     
NULL .          -999.25      :NULL VALUE
COMP .        SHELL INTERNATIONAL E P                  :COMPANY
WELL .        WPP TEST 2                               :WELL
FLD  .        WILDCAT                                  :FIELD
LOC  .                                                 :LOCATION
CNTY .        HARRIS                                   :COUNTY
STAT .        TEXAS                                    :STATE
CTRY .                                                 :COUNTRY
API  .                                                 :API NUMBER
UWI  .                                                 :UNIQUE WELL ID
DATE .                                                 :LOG DATE
SRVC .        Schlumberger                             :SERVICE COMPANY
LATI .DEG                                              :LATITUDE
LONG .DEG                                              :LONGITUDE
GDAT .                                                 :GeoDetic Datum
#-----------------------------------------------------------------------------
~PARAMETER INFORMATION
#MNEM.UNIT    VALUE                      DESCRIPTION
#---- -----   --------------------       ------------------------
U-PHASE_B_COMP_PER_YT.                 0 :Phase B Comparator Period Yt
U-PHASE_A_COMP_PER_XT.                 0 :Phase A Comparator Period Xt
U-MAX_EXC_CUR_LIMIT.MA       240.00000   :Requested CM Current Limit
U-REQ_EXC_FQ.HZ              50          :Requested CM Frequency
U-TILT_Y_OFFSET.           0.19916       :WPTET Tilt Y Offset
U-TILT_Y_GAIN.           1.01796         :WPTET Tilt Y Gain
U-TILT_X_OFFSET.          -1.77103       :WPTET Tilt X Offset
U-TILT_X_GAIN.           1.00000         :WPTET Tilt X Gain
U-TILT_OFFSET_TOL.           0.00100     :WPTET Tilt Offset Calibration Tolerance
U-NO_TILT_CAL_ROTATIONS.                 3 :Number of Rotations for Tilt Calibration
HAZI .DEG        0.00000                 :Hole Azimuth
U-STD_TOL_TILT.           0.01000        :Tilt Standard Deviation Tolerance
U-GUN_POS_TOL.DEG        5.00000         :Gun Position Tolerance
ROT_ANGLE_THRESHOLD.DEG        5.00000   :Rotation Stop Angle Tolerance
STOP_ROT_ANGLE.DEG       80.00000        :Rotation Stop Angle
WITN .                                   :Witness's Name
ENGI .                                   :Engineer's Name
COUN .        HARRIS                     :County or Rig Name
FN   .        WILDCAT                    :Field Name
WN   .        WPP TEST 2                 :Well Name
CN   .        SHELL INTERNATIONAL E P    :Company Name
CLAB .        County                     :County/Rig Label
SLAB .        State                      :State/Province Label
RUN  .          1                        :RUN NUMBER
PDAT .        GROUND LEVEL               :Permanent Datum
EPD  .                                   :Elevation of Permanent Datum above Mean Sea Level
LMF  .                                   :Logging Measured From (Name of Logging Elevation Reference)
APD  .                                   :Elevation of Depth Reference (LMF) above Permanent Datum
#-----------------------------------------------------------------------------
~CURVE INFORMATION
#MNEM.UNIT   API CODE                                  DESCRIPTION
#---- -----  --------                                  -----------------------
TIME .S                                                :TIME {F10.1}
FREQ_EMF_SL.HZ                                         :Electromagnetic Field Frequency {F13.4}
PH_SH_WPPCM_SL.DEG                                     :WPPCM Phase Shift {F13.4}
FREQ_EXC_REQ_SL.HZ                                     :Requested Exciter Frequency {F13.4}
RB_SL.DEG                                              :Relative Bearing {F13.4}
SDEV_SL.DEG                                            :Sonde Deviation {F13.4}
TILX_SL.DEG                                            :X-axis Tilt {F13.4}
TILY_SL.DEG                                            :Y-axis Tilt {F13.4}
ROTA_SL.DEG                                            :Motor Rotation Angle {F13.4}
MSPE_SL.RPM                                            :Motor Speed {F13.4}
#-----------------------------------------------------------------------------
# 
#     TIME    FREQ_EMF_SL  PH_SH_WPPCM_ FREQ_EXC_REQ    RB_SL       SDEV_SL      TILX_SL      TILY_SL      ROTA_SL      MSPE_SL
#                          SL           _SL
~A  
   14524.0    1560.7504       0.0000      50.8611     -30.1711       0.6857      -0.5518      -0.2721     136.3076       1.0226
   14525.0    1559.0777       0.0000      50.8611     -66.4017       1.0048      -0.8739      -0.0016     142.4094       1.0226
   14526.0    1550.4600       0.0000      50.8611    -121.0414       0.8326      -0.7060       0.4251     148.5181       1.0280
   14527.0    1543.6521       0.0000      50.8611     -50.1648       0.4300      -0.1672      -0.0433     154.6266       1.0280
   14528.0    1536.4473       0.0000      50.8611     -60.7288       1.0864      -0.9369      -0.5404     160.7292       1.0226
   14529.0    1512.0968       0.0000      50.8611     -61.1824       1.2431      -1.0894      -0.5988     166.8311       1.0226
   14530.0    1494.3884       0.0000      50.8611     -63.9166       1.0372      -0.9279      -0.4542     172.9207       1.0226
   14531.0    1481.8403       0.0000      50.8611     -73.0479       1.1277      -1.0695      -0.3105     179.0104       1.0226
   14532.0    1466.3881       0.0000      50.8611     -95.9079       0.9633      -0.8667       0.0806     185.1122       1.0226
   14533.0    1446.7593       0.0000      50.8611     -89.9962       2.0181      -1.5336      -0.3046     191.2207       1.0280
   14534.0    1421.8608       0.0000      50.8611     -66.5272       1.2291      -1.1268      -0.4761     197.3291       1.0226
   14535.0    1406.2163       0.0000      50.8611     -62.5604       2.0654      -1.8080      -0.9829     203.8390       1.0226
   14536.0    1389.5751       0.0000      50.8611     -63.8923       1.2249      -1.0878      -0.5385     209.9286       1.0226
   14537.0    1366.6327       0.0000      50.8611     -71.3617       1.2339      -1.1693      -0.3939     216.0182       1.0226
   14538.0    1344.3755       0.0000      50.8611     -58.3620       1.4524      -1.2286      -0.7631     222.1278       1.0279
   14539.0    1329.1588       0.0000      50.8611     -74.8152       1.2858      -1.2278      -0.3510     228.2238       1.0226
   14540.0    1306.9238       0.0000      50.8611     -62.7966       1.1058      -0.9466      -0.5340     234.3288       1.0226
   14541.0    1280.7123       0.0000      50.8611     -72.4029       1.2307      -1.1649      -0.3919     240.4219       1.0334
   14542.0    1243.3394       0.0000      50.8611     -64.6283       1.2046      -1.0882      -0.5162     246.5464       1.0226
   14543.0    1190.6994       0.0000      50.8611     -58.4499       1.4178      -1.2083      -0.7413     252.6180       1.0226
   14544.0    1142.3364       0.0000      50.8611     -59.7012       1.0024      -0.8691      -0.4963     258.7232       1.0226
   14545.0    1109.8788       0.0000      50.8611     -68.6056       1.2564      -1.1693      -0.4546     264.8249       1.0226
   14546.0    1085.0438       0.0000      50.8611     -77.9483       1.1317      -1.1069      -0.2304     270.9266       1.0226
   14547.0    1056.5180       0.0000      50.8611     -66.9730       1.1904      -1.0874      -0.4741     277.4436       1.0280
   14548.0    1027.9606       0.0000      50.8611     -55.4540       0.9099      -0.7470      -0.5158     283.5518       1.0226
   14549.0    1009.4886       0.0000      50.8611     -58.7304       1.2736      -1.0878      -0.6599     289.6602       1.0279
   14550.0     992.4070       0.0000      50.8611     -68.8477       1.1464      -1.0687      -0.4146     295.7684       1.0226
   14551.0     988.9040       0.0000      50.8611     -69.8938       1.0302      -0.9673      -0.3530     301.8643       1.0279
   14552.0     984.1263       0.0000      50.8611     -46.9828       0.9387      -0.6861      -0.6393     307.9725       1.0226
   14553.0     984.8277       0.0000      50.8611     -52.3233       1.1462      -0.9072      -0.7004     314.0742       1.0226
   14554.0     989.0110       0.0000      50.8611     -56.2705       1.0446      -0.8679      -0.5773     320.1758       1.0226
   14555.0     986.1382       0.0000      50.8611     -64.4560       1.1414      -1.0273      -0.4951     326.2775       1.0226
   14556.0     998.0559       0.0000      50.8611     -65.1925       1.1324      -1.0277      -0.4753     332.3792       1.0226
   14557.0    1022.0010       0.0000      50.8611     -44.5039       0.9157      -0.6480      -0.6393     338.4809       1.0226
   14558.0    1040.9239       0.0000      50.8611     -56.5721       1.1346      -0.9466      -0.6190     344.5825       1.0226
   14559.0    1074.3501       0.0000      50.8611     -52.5903       1.0451      -0.8265      -0.6380     351.0922       1.0226
   14560.0    1109.0152       0.0000      50.8611     -55.1183       1.1099      -0.9068      -0.6380     357.1814       1.0226
   14561.0    1147.9693       0.0000      50.8611     -55.0382       1.0341      -0.8488      -0.5773       3.3028       1.0279
   14562.0    1195.9275       0.0000      50.8611     -61.1000       0.9450      -0.8277      -0.4551       9.4119       1.0279
   14563.0    1249.0417       0.0000      50.8611     -56.2572       1.1876      -0.9876      -0.6595      15.5137       1.0226
   14564.0    1278.4365       0.0000      50.8611     -55.6704       1.2480      -1.0273      -0.7012      21.6164       1.0279
   14565.0    1304.5278       0.0000      50.8611     -49.3065       1.1701      -0.8870      -0.7619      27.7322       1.0279
   14566.0    1325.4142       0.0000      50.8611     -49.3750       1.0220      -0.7661      -0.6607      33.8340       1.0226
   14567.0    1353.5152       0.0000      50.8611     -50.5801       1.0710      -0.8273      -0.6801      39.9368       1.0226
   14568.0    1374.6856       0.0000      50.8611     -44.4592       1.0961      -0.7669      -0.7826      46.0386       1.0226
   14569.0    1395.1225       0.0000      50.8611     -46.7158       1.0532      -0.7665      -0.7210      52.1412       1.0279
   14570.0    1417.6709       0.0000      50.8611     -41.6674       0.9706      -0.6456      -0.7210      58.2492       1.0226
   14571.0    1433.5435       0.0000      50.8611     -50.9837       0.8561      -0.6658      -0.5368      64.7659       1.0226
   14572.0    1460.2971       0.0000      50.8611     -53.6771       1.0495      -0.8464      -0.6186      70.8677       1.0226
   14573.0    1480.3009       0.0000      50.8611     -47.0273       0.9663      -0.7064      -0.6591      76.9700       1.0226
   14574.0    1488.1126       0.0000      50.8611     -52.2416       0.8436      -0.6666      -0.5162      83.0718       1.0226
   14575.0    1510.4581       0.0000      50.8611     -55.7772       0.9261      -0.7661      -0.5166      89.1737       1.0226
   14576.0    1528.5327       0.0000      50.8611     -58.2741       0.8314      -0.7072      -0.4344      95.2754       1.0226
   14577.0    1543.7010       0.0000      50.8611     -40.6439       0.8403      -0.5457      -0.6384     101.3902       1.0226
   14578.0    1543.6182       0.0000      50.8611     -52.7385       0.9889      -0.7867      -0.5984     107.4920       1.0226
   14579.0    1553.8330       0.0000      50.8611     -62.3543       0.9787      -0.8667      -0.4546     113.5947       1.0226
   14580.0    1562.5000       0.0000      50.8611     -61.7579       0.9617      -0.8472      -0.4551     119.6964       1.0226
   14581.0    1566.0226       0.0000      50.8611     -66.1905       0.6654      -0.6070      -0.2717     125.7982       1.0226
   14582.0    1571.2486       0.0000      50.8611     -59.0703       0.8478      -0.7271      -0.4344     131.9131       1.0226
   14583.0    1571.1940       0.0000      50.8611     -61.0457       0.8547      -0.7470      -0.4146     138.4231       1.0226
   14584.0    1564.2225       0.0000      50.8611     -62.8570       0.9080      -0.8070      -0.4146     144.5126       1.0226
   14585.0    1553.9360       0.0000      50.8611     -60.2704       1.0001      -0.8675      -0.4955     150.6146       1.0226
   14586.0    1545.3032       0.0000      50.8611     -58.2567       1.0193      -0.8667      -0.5364     156.7042       1.0226
