~VERSION INFORMATION
VERS.           2.0   :CWLS Log ASCII Standard - VERSION 2.0
WRAP.           NO    :One Line per depth step
PROD.  Schlumberger   :LAS Producer
PROG.  DLIS to ASCII 19C2-270                          :LAS Program name and version
CREA.        2017/09/16 17:42                          :LAS Creation date {YYYY/MM/DD hh:mm}
DLIS_CREA.  2017-Sep-15 18:24                          :DLIS Creation date and time {YYYY-MMM-DD hh:mm}
SOURCE.     LPC_S4-1_2B5.DLIS                          :DLIS File Name
FILE-ID.     PERFO_Perfo_WPGRT_055LTP                  :File Identification Number
#--------------------------------------------------
~WELL INFORMATION
#MNEM.UNIT      DATA             DESCRIPTION
#---- ------ --------------   -----------------------------
STRT .S         5021.0       :START TIME      
STOP .S         5478.0       :STOP TIME      
STEP .S            1.0       :STEP     
NULL .          -999.25      :NULL VALUE
COMP .        SHELL INTERNATIONAL E P                  :COMPANY
WELL .        WPP TEST 2                               :WELL
FLD  .        WILDCAT                                  :FIELD
LOC  .        NA                                       :LOCATION
CNTY .        HARRIS                                   :COUNTY
STAT .        TEXAS                                    :STATE
CTRY .                                                 :COUNTRY
API  .        NA                                       :API NUMBER
UWI  .                                                 :UNIQUE WELL ID
DATE .        15-Sep-2017                              :LOG DATE {DD-MMM-YYYY}
SRVC .        Schlumberger                             :SERVICE COMPANY
LATI .DEG                                              :LATITUDE
LONG .DEG                                              :LONGITUDE
GDAT .                                                 :GeoDetic Datum
SECT .        NA                                       :Section
RANG .        NA                                       :Range
TOWN .        NA                                       :Township
#-----------------------------------------------------------------------------
~PARAMETER INFORMATION
#MNEM.UNIT    VALUE                      DESCRIPTION
#---- -----   --------------------       ------------------------
U-PHASE_B_COMP_PER_YT.                 0 :Phase B Comparator Period Yt
U-PHASE_A_COMP_PER_XT.                 0 :Phase A Comparator Period Xt
U-MAX_EXC_CUR_LIMIT.MA       240.00000   :Requested CM Current Limit
U-REQ_EXC_FQ.HZ              50          :Requested CM Frequency
U-TILT_Y_OFFSET.           0.19916       :WPTET Tilt Y Offset
U-TILT_Y_GAIN.           1.01796         :WPTET Tilt Y Gain
U-TILT_X_OFFSET.          -1.77103       :WPTET Tilt X Offset
U-TILT_X_GAIN.           1.00000         :WPTET Tilt X Gain
U-TILT_OFFSET_TOL.           0.00100     :WPTET Tilt Offset Calibration Tolerance
U-NO_TILT_CAL_ROTATIONS.                 3 :Number of Rotations for Tilt Calibration
HAZI .DEG        0.00000                 :Hole Azimuth
U-STD_TOL_TILT.           0.01000        :Tilt Standard Deviation Tolerance
U-GUN_POS_TOL.DEG        5.00000         :Gun Position Tolerance
ROT_ANGLE_THRESHOLD.DEG        5.00000   :Rotation Stop Angle Tolerance
STOP_ROT_ANGLE.DEG        0.00000        :Rotation Stop Angle
WITN .        MR. DHRUA ARORA            :Witness's Name
ENGI .        MORRIS MOORE               :Engineer's Name
COUN .        HARRIS                     :County or Rig Name
FN   .        WILDCAT                    :Field Name
WN   .        WPP TEST 2                 :Well Name
CN   .        SHELL INTERNATIONAL E P    :Company Name
CLAB .        County                     :County/Rig Label
SLAB .        State                      :State/Province Label
RUN  .          1                        :RUN NUMBER
PDAT .        GROUND LEVEL               :Permanent Datum
EPD  .                                   :Elevation of Permanent Datum above Mean Sea Level
LMF  .          NA                       :Logging Measured From (Name of Logging Elevation Reference)
APD  .                                   :Elevation of Depth Reference (LMF) above Permanent Datum
#-----------------------------------------------------------------------------
~CURVE INFORMATION
#MNEM.UNIT   API CODE                                  DESCRIPTION
#---- -----  --------                                  -----------------------
TIME .S                                                :TIME {F10.1}
FREQ_EMF_SL.HZ                                         :Electromagnetic Field Frequency {F13.4}
PH_SH_WPPCM_SL.DEG                                     :WPPCM Phase Shift {F13.4}
FREQ_EXC_REQ_SL.HZ                                     :Requested Exciter Frequency {F13.4}
RB_SL.DEG                                              :Relative Bearing {F13.4}
SDEV_SL.DEG                                            :Sonde Deviation {F13.4}
TILX_SL.DEG                                            :X-axis Tilt {F13.4}
TILY_SL.DEG                                            :Y-axis Tilt {F13.4}
ROTA_SL.DEG                                            :Motor Rotation Angle {F13.4}
MSPE_SL.RPM                                            :Motor Speed {F13.4}
#-----------------------------------------------------------------------------
# 
#     TIME    FREQ_EMF_SL  PH_SH_WPPCM_ FREQ_EXC_REQ    RB_SL       SDEV_SL      TILX_SL      TILY_SL      ROTA_SL      MSPE_SL
#                          SL           _SL
~A  
    5021.0    1228.1990       0.0000      50.8611     -34.0951       5.9589      -3.3363      -4.9317      69.3667       1.0226
    5022.0    1227.1622       0.0000      50.8611     -30.9843       6.0176      -3.0941      -5.1559      75.4685       1.0226
    5023.0    1213.3000       0.0000      50.8611     -22.7128       5.9016      -2.2749      -5.4422      81.5834       1.0226
    5024.0    1209.1894       0.0000      50.8611     -18.8611       5.8634      -1.8927      -5.5474      88.0841       1.0175
    5025.0    1208.3375       0.0000      50.8611     -14.7156       5.7317      -1.4521      -5.5425      94.1795       1.0226
    5026.0    1221.8675       0.0000      50.8611      -7.6139       5.4932      -0.7267      -5.4446     100.2813       1.0226
    5027.0    1214.3190       0.0000      50.8611      -2.7898       5.5335      -0.2690      -5.5252     106.3723       1.0226
    5028.0    1221.6764       0.0000      50.8611       2.8367       5.5941       0.2763      -5.5871     112.4681       1.0172
    5029.0    1235.6592       0.0000      50.8611       8.0427       5.3103       0.7412      -5.2575     118.5636       1.0226
    5030.0    1250.9944       0.0000      50.8611      12.4871       5.2812       1.1405      -5.1559     124.6530       1.0175
    5031.0    1266.8918       0.0000      50.8611      18.8655       5.2124       1.6833      -4.9317     130.7425       1.0175
    5032.0    1281.7565       0.0000      50.8611      25.5785       5.1083       2.2031      -4.6058     136.8335       1.0175
    5033.0    1304.3216       0.0000      50.8611      30.5343       5.0167       2.5463      -4.3196     142.9361       1.0226
    5034.0    1322.8707       0.0000      50.8611      35.4104       4.7783       2.7654      -3.8921     149.0511       1.0226
    5035.0    1334.2030       0.0000      50.8611      42.9997       4.6788       3.1890      -3.4200     155.1530       1.0226
    5036.0    1337.9745       0.0000      50.8611      49.9433       4.7184       3.6089      -3.0334     161.6686       1.0172
    5037.0    1349.5681       0.0000      50.8611      56.3827       4.5559       3.7927      -2.5205     167.7626       1.0226
    5038.0    1356.0372       0.0000      50.8611      61.2352       4.3500       3.8121      -2.0918     173.8660       1.0226
    5039.0    1370.5391       0.0000      50.8611      68.1341       4.3045       3.9935      -1.6024     179.9694       1.0226
    5040.0    1378.6007       0.0000      50.8611      77.9958       4.1640       4.0726      -0.8652     186.0698       1.0226
    5041.0    1382.7039       0.0000      50.8611      85.9578       4.1464       4.1359      -0.2927     192.1911       1.0278
    5042.0    1394.9452       0.0000      50.8611      90.4735       4.0139       4.0130       0.0332     198.2998       1.0226
    5043.0    1396.5176       0.0000      50.8611      98.0577       4.0132       3.9716       0.5635     204.4017       1.0226
    5044.0    1412.0905       0.0000      50.8611     105.5116       4.1312       3.9800       1.0962     210.5189       1.0226
    5045.0    1418.9797       0.0000      50.8611     115.2034       3.9709       3.5918       1.6897     216.6338       1.0226
    5046.0    1423.1805       0.0000      50.8611     122.6919       3.8876       3.2705       2.0986     222.7373       1.0226
    5047.0    1429.1158       0.0000      50.8611     129.8984       3.9772       3.0502       2.5496     228.8316       1.0172
    5048.0    1439.4008       0.0000      50.8611     137.0892       4.0392       2.7483       2.9573     235.3089       1.0172
    5049.0    1445.3185       0.0000      50.8611     145.4874       4.1143       2.3296       3.3872     241.4224       1.0226
    5050.0    1443.6349       0.0000      50.8611     152.7074       4.2492       1.9462       3.7750     247.5259       1.0226
    5051.0    1448.1289       0.0000      50.8611     158.9517       4.1345       1.4837       3.8580     253.6278       1.0226
    5052.0    1451.3871       0.0000      50.8611     165.5211       4.3426       1.0832       4.2037     259.7296       1.0226
    5053.0    1452.7377       0.0000      50.8611     173.2671       4.4403       0.5197       4.4094     265.8386       1.0175
    5054.0    1458.6811       0.0000      50.8611    -178.6824       4.4531      -0.1023       4.4515     271.9487       1.0226
    5055.0    1452.6537       0.0000      50.8611    -174.7297       4.4109      -0.4042       4.3920     278.0505       1.0226
    5056.0    1454.1964       0.0000      50.8611    -167.4001       4.6251      -1.0079       4.5135     284.1523       1.0278
    5057.0    1452.8338       0.0000      50.8611    -159.9118       4.7403      -1.6274       4.4503     290.2677       1.0226
    5058.0    1452.8338       0.0000      50.8611    -153.6720       4.8535      -2.1508       4.3487     296.3699       1.0226
    5059.0    1445.3185       0.0000      50.8611    -149.4574       4.9100      -2.4928       4.2272     302.4717       1.0226
    5060.0    1449.7422       0.0000      50.8611    -142.1118       5.0481      -3.0977       3.9819     308.9800       1.0226
    5061.0    1443.7886       0.0000      50.8611    -136.3997       5.2229      -3.5980       3.7799     315.0818       1.0226
    5062.0    1439.5014       0.0000      50.8611    -129.1599       5.2120      -4.0386       3.2880     321.1714       1.0226
    5063.0    1432.0265       0.0000      50.8611    -125.8850       5.3404      -4.3210       3.1282     327.2803       1.0226
    5064.0    1424.8168       0.0000      50.8611    -119.6655       5.4122      -4.7008       2.6747     333.3873       1.0226
    5065.0    1414.7384       0.0000      50.8611    -113.6793       5.5970      -5.1243       2.2448     339.4783       1.0226
    5066.0    1411.9884       0.0000      50.8611    -107.4164       5.6664      -5.4055       1.6934     345.5801       1.0226
    5067.0    1406.2500       0.0000      50.8611    -102.2401       5.6762      -5.5467       1.2015     351.6711       1.0278
    5068.0    1397.7850       0.0000      50.8611     -97.4912       5.7763      -5.7268       0.7518     357.7860       1.0226
    5069.0    1375.9030       0.0000      50.8611     -92.3892       5.8355      -5.8291       0.2437       3.8878       1.0226
    5070.0    1376.2683       0.0000      50.8611     -86.7721       5.8995      -5.8899      -0.3312       9.9960       1.0281
    5071.0    1362.5713       0.0000      50.8611     -80.8564       5.9623      -5.8863      -0.9457      16.1045       1.0226
    5072.0    1361.2880       0.0000      50.8611     -76.7736       6.0106      -5.8497      -1.3720      22.6068       1.0278
    5073.0    1343.3463       0.0000      50.8611     -71.1671       6.0310      -5.7062      -1.9444      28.7169       1.0226
    5074.0    1330.6349       0.0000      50.8611     -66.0124       6.0495      -5.5248      -2.4561      34.8172       1.0226
    5075.0    1307.0876       0.0000      50.8611     -59.5681       6.0662      -5.2266      -3.0682      40.9190       1.0226
    5076.0    1294.8224       0.0000      50.8611     -55.3396       6.0890      -5.0050      -3.4585      47.0208       1.0226
    5077.0    1283.1493       0.0000      50.8611     -52.0098       6.1291      -4.8273      -3.7670      53.1166       1.0281
    5078.0    1265.8633       0.0000      50.8611     -47.6851       6.1468      -4.5413      -4.1337      59.2252       1.0226
    5079.0    1249.9677       0.0000      50.8611     -41.0904       6.0342      -3.9619      -4.5438      65.3162       1.0226
    5080.0    1239.0205       0.0000      50.8611     -35.4618       6.0052      -3.4787      -4.8883      71.4056       1.0226
    5081.0    1223.9232       0.0000      50.8611     -31.5125       5.9025      -3.0782      -5.0296      77.5074       1.0226
    5082.0    1224.8961       0.0000      50.8611     -24.9431       5.8702      -2.4721      -5.3207      83.5977       1.0281
    5083.0    1215.5306       0.0000      50.8611     -20.8536       5.9594      -2.1179      -5.5648      89.6812       1.0281
