~VERSION INFORMATION
VERS.           2.0   :CWLS Log ASCII Standard - VERSION 2.0
WRAP.           NO    :One Line per depth step
PROD.  Schlumberger   :LAS Producer
PROG.  DLIS to ASCII 19C2-270                          :LAS Program name and version
CREA.        2017/09/16 17:42                          :LAS Creation date {YYYY/MM/DD hh:mm}
DLIS_CREA.  2017-Sep-15 19:24                          :DLIS Creation date and time {YYYY-MMM-DD hh:mm}
SOURCE.     LPC_S5-1_BV.DLIS                           :DLIS File Name
FILE-ID.     PERFO_Perfo_WPGRT_061LTP                  :File Identification Number
#--------------------------------------------------
~WELL INFORMATION
#MNEM.UNIT      DATA             DESCRIPTION
#---- ------ --------------   -----------------------------
STRT .S          101.0       :START TIME      
STOP .S          592.0       :STOP TIME      
STEP .S            1.0       :STEP     
NULL .          -999.25      :NULL VALUE
COMP .        SHELL INTERNATIONAL E P                  :COMPANY
WELL .        WPP TEST 2                               :WELL
FLD  .        WILDCAT                                  :FIELD
LOC  .        NA                                       :LOCATION
CNTY .        HARRIS                                   :COUNTY
STAT .        TEXAS                                    :STATE
CTRY .                                                 :COUNTRY
API  .        NA                                       :API NUMBER
UWI  .                                                 :UNIQUE WELL ID
DATE .        15-Sep-2017                              :LOG DATE {DD-MMM-YYYY}
SRVC .        Schlumberger                             :SERVICE COMPANY
LATI .DEG                                              :LATITUDE
LONG .DEG                                              :LONGITUDE
GDAT .                                                 :GeoDetic Datum
SECT .        NA                                       :Section
RANG .        NA                                       :Range
TOWN .        NA                                       :Township
#-----------------------------------------------------------------------------
~PARAMETER INFORMATION
#MNEM.UNIT    VALUE                      DESCRIPTION
#---- -----   --------------------       ------------------------
U-PHASE_B_COMP_PER_YT.                 0 :Phase B Comparator Period Yt
U-PHASE_A_COMP_PER_XT.                 0 :Phase A Comparator Period Xt
U-MAX_EXC_CUR_LIMIT.MA       240.00000   :Requested CM Current Limit
U-REQ_EXC_FQ.HZ              50          :Requested CM Frequency
U-TILT_Y_OFFSET.           0.19916       :WPTET Tilt Y Offset
U-TILT_Y_GAIN.           1.01796         :WPTET Tilt Y Gain
U-TILT_X_OFFSET.          -1.77103       :WPTET Tilt X Offset
U-TILT_X_GAIN.           1.00000         :WPTET Tilt X Gain
U-TILT_OFFSET_TOL.           0.00100     :WPTET Tilt Offset Calibration Tolerance
U-NO_TILT_CAL_ROTATIONS.                 3 :Number of Rotations for Tilt Calibration
HAZI .DEG        0.00000                 :Hole Azimuth
U-STD_TOL_TILT.           0.01000        :Tilt Standard Deviation Tolerance
U-GUN_POS_TOL.DEG        5.00000         :Gun Position Tolerance
ROT_ANGLE_THRESHOLD.DEG        5.00000   :Rotation Stop Angle Tolerance
STOP_ROT_ANGLE.DEG        0.00000        :Rotation Stop Angle
WITN .        MR. DHRUA ARORA            :Witness's Name
ENGI .        MORRIS MOORE               :Engineer's Name
COUN .        HARRIS                     :County or Rig Name
FN   .        WILDCAT                    :Field Name
WN   .        WPP TEST 2                 :Well Name
CN   .        SHELL INTERNATIONAL E P    :Company Name
CLAB .        County                     :County/Rig Label
SLAB .        State                      :State/Province Label
RUN  .          1                        :RUN NUMBER
PDAT .        GROUND LEVEL               :Permanent Datum
EPD  .                                   :Elevation of Permanent Datum above Mean Sea Level
LMF  .          NA                       :Logging Measured From (Name of Logging Elevation Reference)
APD  .                                   :Elevation of Depth Reference (LMF) above Permanent Datum
#-----------------------------------------------------------------------------
~CURVE INFORMATION
#MNEM.UNIT   API CODE                                  DESCRIPTION
#---- -----  --------                                  -----------------------
TIME .S                                                :TIME {F10.1}
FREQ_EMF_SL.HZ                                         :Electromagnetic Field Frequency {F13.4}
PH_SH_WPPCM_SL.DEG                                     :WPPCM Phase Shift {F13.4}
FREQ_EXC_REQ_SL.HZ                                     :Requested Exciter Frequency {F13.4}
RB_SL.DEG                                              :Relative Bearing {F13.4}
SDEV_SL.DEG                                            :Sonde Deviation {F13.4}
TILX_SL.DEG                                            :X-axis Tilt {F13.4}
TILY_SL.DEG                                            :Y-axis Tilt {F13.4}
ROTA_SL.DEG                                            :Motor Rotation Angle {F13.4}
MSPE_SL.RPM                                            :Motor Speed {F13.4}
#-----------------------------------------------------------------------------
# 
#     TIME    FREQ_EMF_SL  PH_SH_WPPCM_ FREQ_EXC_REQ    RB_SL       SDEV_SL      TILX_SL      TILY_SL      ROTA_SL      MSPE_SL
#                          SL           _SL
~A  
# ...
     164.0    1409.8689       0.0000      50.8611     -74.9228       1.1237      -1.0851      -0.2915     167.1414       1.0226
     165.0    1409.0682       0.0000      50.8611     -68.1073       1.0708      -0.9934      -0.3995     173.2433       1.0226
     166.0    1421.7308       0.0000      50.8611     -65.4983       1.2858      -1.1685      -0.5337     179.3452       1.0226
     167.0    1422.0937       0.0000      50.8611     -63.3517       1.1867      -1.0593      -0.5337     185.4471       1.0226
     168.0    1426.2170       0.0000      50.8611     -67.4705       1.2273      -1.1315      -0.4729     191.5574       1.0265
     169.0    1430.9809       0.0000      50.8611     -66.0382       1.2223      -1.1170      -0.4959     197.6640       1.0226
     170.0    1430.1614       0.0000      50.8611     -61.6506       1.1362      -0.9997      -0.5400     203.7659       1.0226
     171.0    1438.7173       0.0000      50.8611     -63.4728       1.2992      -1.1572      -0.5841     209.8678       1.0226
     172.0    1436.8293       0.0000      50.8611     -59.7488       1.3512      -1.1592      -0.6909     215.9829       1.0226
     173.0    1438.1243       0.0000      50.8611     -64.9174       1.3352      -1.2087      -0.5662     222.4928       1.0226
     174.0    1441.8927       0.0000      50.8611     -51.5228       1.2835      -1.0047      -0.7968     228.5947       1.0226
     175.0    1442.7257       0.0000      50.8611     -61.3251       1.2322      -1.0820      -0.5892     234.7097       1.0265
     176.0    1443.7886       0.0000      50.8611     -57.6986       1.3797      -1.1654      -0.7381     240.8255       1.0226
     177.0    1438.9418       0.0000      50.8611     -55.4150       1.2147      -0.9965      -0.6920     246.9078       1.0158
     178.0    1436.6219       0.0000      50.8611     -51.3765       1.3805      -1.0769      -0.8608     253.0185       1.0226
     179.0    1432.0265       0.0000      50.8611     -56.3725       1.2113      -1.0079      -0.6710     259.1080       1.0226
     180.0    1419.6524       0.0000      50.8611     -47.5615       1.2611      -0.9306      -0.8492     265.2098       1.0158
     181.0    1427.2583       0.0000      50.8611     -45.9022       1.2985      -0.9306      -0.9016     271.2994       1.0226
     182.0    1413.7179       0.0000      50.8611     -46.9446       1.2805      -0.9306      -0.8723     277.4012       1.0226
     183.0    1406.2500       0.0000      50.8611     -51.0410       1.2153      -0.9420      -0.7643     283.5030       1.0226
     184.0    1399.8673       0.0000      50.8611     -47.2320       1.2182      -0.8955      -0.8230     289.6059       1.0226
     185.0    1394.3154       0.0000      50.8611     -43.3134       1.2677      -0.8698      -0.9195     296.1067       1.0188
     186.0    1391.3383       0.0000      50.8611     -40.9768       1.1737      -0.7669      -0.8870     302.2041       1.0226
     187.0    1380.4121       0.0000      50.8611     -41.2376       1.0646      -0.6978      -0.8000     308.2936       1.0226
     188.0    1366.4695       0.0000      50.8611     -41.0656       1.0810      -0.7091      -0.8115     314.3875       1.0188
     189.0    1364.5500       0.0000      50.8611     -46.7439       1.1460      -0.8328      -0.7853     320.4849       1.0226
     190.0    1361.5114       0.0000      50.8611     -42.4253       1.1153      -0.7524      -0.8230     326.5867       1.0226
     191.0    1335.8284       0.0000      50.8611     -39.7774       0.8463      -0.5434      -0.6480     332.6896       1.0226
     192.0    1325.0500       0.0000      50.8611     -39.9266       0.9669      -0.6206      -0.7413     338.7903       1.0226
     193.0    1311.9999       0.0000      50.8611     -39.2686       1.0445      -0.6608      -0.8084     344.8798       1.0226
     194.0    1292.5093       0.0000      50.8611     -38.3313       0.8688      -0.5372      -0.6825     350.9692       1.0226
     195.0    1279.2456       0.0000      50.8611     -41.0587       0.8452      -0.5598      -0.6301     357.0710       1.0226
     196.0    1260.8933       0.0000      50.8611     -39.7939       1.0720      -0.6382      -0.8219       3.1737       1.0226
     197.0    1249.8743       0.0000      50.8611     -42.4527       0.8785      -0.5918      -0.6480       9.6816       1.0226
     198.0    1252.5412       0.0000      50.8611     -41.3917       0.8742      -0.5773      -0.6563      15.7993       1.0226
     199.0    1238.6804       0.0000      50.8611     -41.8190       0.7902      -0.5259      -0.5892      21.9031       1.0226
     200.0    1238.6804       0.0000      50.8611     -42.9507       0.7132      -0.4857      -0.5221      28.0029       1.0226
     201.0    1233.5526       0.0000      50.8611     -48.6669       0.7731      -0.5805      -0.5106      34.1048       1.0226
     202.0    1232.0033       0.0000      50.8611     -48.0896       0.7213      -0.5372      -0.4813      40.2066       1.0226
     203.0    1238.5136       0.0000      50.8611     -47.4308       0.6950      -0.5114      -0.4697      46.3084       1.0158
     204.0    1248.5780       0.0000      50.8611     -47.7700       0.7991      -0.5918      -0.5368      52.3979       1.0158
     205.0    1249.6882       0.0000      50.8611     -57.3998       0.7199      -0.6062      -0.3880      58.4875       1.0226
     206.0    1253.5241       0.0000      50.8611     -58.7729       0.7218      -0.6175      -0.3733      64.6025       1.0226
     207.0    1268.3572       0.0000      50.8611     -63.8413       0.7204      -0.6464      -0.3177      70.7043       1.0226
     208.0    1283.7384       0.0000      50.8611     -64.7141       0.7181      -0.6495      -0.3062      76.8244       1.0188
     209.0    1297.1019       0.0000      50.8611     -46.5249       0.7278      -0.5095      -0.4602      83.3298       1.0226
     210.0    1314.2523       0.0000      50.8611     -68.4730       0.7286      -0.6783      -0.2653      89.4316       1.0226
     211.0    1324.1526       0.0000      50.8611     -73.3928       0.8807      -0.8441      -0.2506      95.5353       1.0226
     212.0    1334.2030       0.0000      50.8611     -69.8280       0.8018      -0.7524      -0.2768     101.6352       1.0226
     213.0    1341.6530       0.0000      50.8611     -73.2214       0.9388      -0.9006      -0.2391     107.7369       1.0226
     214.0    1348.8438       0.0000      50.8611     -74.0023       0.8790      -0.8441      -0.2391     113.8387       1.0226
     215.0    1359.0666       0.0000      50.8611     -71.3319       0.8639      -0.8183      -0.2768     119.9517       1.0226
     216.0    1367.9475       0.0000      50.8611     -74.3544       0.8273      -0.7957      -0.2212     126.0816       1.0226
     217.0    1372.3294       0.0000      50.8611     -72.4477       1.0152      -0.9677      -0.3062     132.1977       1.0226
     218.0    1375.4600       0.0000      50.8611     -74.1199       1.0144      -0.9759      -0.2768     138.2985       1.0226
     219.0    1391.5559       0.0000      50.8611     -86.0231       0.9110      -0.8874      -0.0628     144.4004       1.0226
     220.0    1391.3383       0.0000      50.8611     -73.8680       1.0492      -1.0079      -0.2915     150.5023       1.0226
     221.0    1394.0969       0.0000      50.8611     -70.8190       0.9702      -0.9162      -0.3177     157.0102       1.0226
     222.0    1403.2372       0.0000      50.8611     -74.8066       1.1126      -1.0738      -0.2915     163.1141       1.0226
     223.0    1411.8976       0.0000      50.8611     -69.5652       1.1000      -1.0305      -0.3848     169.2263       1.0295
     224.0    1421.2684       0.0000      50.8611     -70.8565       1.1825      -1.1170      -0.3880     175.3186       1.0226
     225.0    1422.2971       0.0000      50.8611     -66.4366       1.1749      -1.0769      -0.4697     181.4336       1.0226
     226.0    1428.0745       0.0000      50.8611     -66.6396       1.3168      -1.2087      -0.5221     187.5355       1.0226
