~VERSION INFORMATION
VERS.           2.0   :CWLS Log ASCII Standard - VERSION 2.0
WRAP.           NO    :One Line per depth step
PROD.  Schlumberger   :LAS Producer
PROG.  DLIS to ASCII 19C2-270                          :LAS Program name and version
CREA.        2017/09/16 17:42                          :LAS Creation date {YYYY/MM/DD hh:mm}
DLIS_CREA.  2017-Sep-15 14:39                          :DLIS Creation date and time {YYYY-MMM-DD hh:mm}
SOURCE.     LPC_S2-1_B5.DLIS                           :DLIS File Name
FILE-ID.     PERFO_Perfo_WPGRT_030LTP                  :File Identification Number
#--------------------------------------------------
~WELL INFORMATION
#MNEM.UNIT      DATA             DESCRIPTION
#---- ------ --------------   -----------------------------
STRT .S        13946.0       :START TIME      
STOP .S        14402.0       :STOP TIME      
STEP .S            1.0       :STEP     
NULL .          -999.25      :NULL VALUE
COMP .        SHELL INTERNATIONAL E P                  :COMPANY
WELL .        WPP TEST 2                               :WELL
FLD  .        WILDCAT                                  :FIELD
LOC  .                                                 :LOCATION
CNTY .        HARRIS                                   :COUNTY
STAT .        TEXAS                                    :STATE
CTRY .                                                 :COUNTRY
API  .                                                 :API NUMBER
UWI  .                                                 :UNIQUE WELL ID
DATE .                                                 :LOG DATE
SRVC .        Schlumberger                             :SERVICE COMPANY
LATI .DEG                                              :LATITUDE
LONG .DEG                                              :LONGITUDE
GDAT .                                                 :GeoDetic Datum
#-----------------------------------------------------------------------------
~PARAMETER INFORMATION
#MNEM.UNIT    VALUE                      DESCRIPTION
#---- -----   --------------------       ------------------------
U-PHASE_B_COMP_PER_YT.                 0 :Phase B Comparator Period Yt
U-PHASE_A_COMP_PER_XT.                 0 :Phase A Comparator Period Xt
U-MAX_EXC_CUR_LIMIT.MA       240.00000   :Requested CM Current Limit
U-REQ_EXC_FQ.HZ              50          :Requested CM Frequency
U-TILT_Y_OFFSET.           0.19916       :WPTET Tilt Y Offset
U-TILT_Y_GAIN.           1.01796         :WPTET Tilt Y Gain
U-TILT_X_OFFSET.          -1.77103       :WPTET Tilt X Offset
U-TILT_X_GAIN.           1.00000         :WPTET Tilt X Gain
U-TILT_OFFSET_TOL.           0.00100     :WPTET Tilt Offset Calibration Tolerance
U-NO_TILT_CAL_ROTATIONS.                 3 :Number of Rotations for Tilt Calibration
HAZI .DEG        0.00000                 :Hole Azimuth
U-STD_TOL_TILT.           0.01000        :Tilt Standard Deviation Tolerance
U-GUN_POS_TOL.DEG        5.00000         :Gun Position Tolerance
ROT_ANGLE_THRESHOLD.DEG        5.00000   :Rotation Stop Angle Tolerance
STOP_ROT_ANGLE.DEG       80.00000        :Rotation Stop Angle
WITN .                                   :Witness's Name
ENGI .                                   :Engineer's Name
COUN .        HARRIS                     :County or Rig Name
FN   .        WILDCAT                    :Field Name
WN   .        WPP TEST 2                 :Well Name
CN   .        SHELL INTERNATIONAL E P    :Company Name
CLAB .        County                     :County/Rig Label
SLAB .        State                      :State/Province Label
RUN  .          1                        :RUN NUMBER
PDAT .        GROUND LEVEL               :Permanent Datum
EPD  .                                   :Elevation of Permanent Datum above Mean Sea Level
LMF  .                                   :Logging Measured From (Name of Logging Elevation Reference)
APD  .                                   :Elevation of Depth Reference (LMF) above Permanent Datum
#-----------------------------------------------------------------------------
~CURVE INFORMATION
#MNEM.UNIT   API CODE                                  DESCRIPTION
#---- -----  --------                                  -----------------------
TIME .S                                                :TIME {F10.1}
FREQ_EMF_SL.HZ                                         :Electromagnetic Field Frequency {F13.4}
PH_SH_WPPCM_SL.DEG                                     :WPPCM Phase Shift {F13.4}
FREQ_EXC_REQ_SL.HZ                                     :Requested Exciter Frequency {F13.4}
RB_SL.DEG                                              :Relative Bearing {F13.4}
SDEV_SL.DEG                                            :Sonde Deviation {F13.4}
TILX_SL.DEG                                            :X-axis Tilt {F13.4}
TILY_SL.DEG                                            :Y-axis Tilt {F13.4}
ROTA_SL.DEG                                            :Motor Rotation Angle {F13.4}
MSPE_SL.RPM                                            :Motor Speed {F13.4}
#-----------------------------------------------------------------------------
# 
#     TIME    FREQ_EMF_SL  PH_SH_WPPCM_ FREQ_EXC_REQ    RB_SL       SDEV_SL      TILX_SL      TILY_SL      ROTA_SL      MSPE_SL
#                          SL           _SL
~A  
# ...
   14135.0    1586.1196       0.0000      50.8611     140.8457       3.2107       2.0267       2.4889      89.4931       0.0005
   14136.0    1584.1511       0.0000      50.8611     141.7850       3.0565       1.8902       2.4010      89.4931       0.0005
   14137.0    1584.1511       0.0000      50.8611     140.5503       3.0199       1.9183       2.3315      89.4931       0.0005
   14138.0    1583.6149       0.0000      50.8611     141.4378       3.1080       1.9364       2.4296      89.4931       0.0005
   14139.0    1586.1196       0.0000      50.8611     140.7596       3.2144       2.0328       2.4889      89.4931       0.0005
   14140.0    1580.5901       0.0000      50.8611     139.9842       3.0130       1.9364       2.3069      89.4931       0.0005
   14141.0    1587.1896       0.0000      50.8611     144.0639       2.9585       1.7355       2.3948      89.4931       0.0005
   14142.0    1583.0811       0.0000      50.8611     139.2254       3.2176       2.1010       2.4357      89.4931       0.0005
   14143.0    1583.6149       0.0000      50.8611     140.7022       2.9762       1.8841       2.3028      89.4931       0.0005
   14144.0    1590.2420       0.0000      50.8611     140.9825       2.9488       1.8560       2.2906      89.4931       0.0005
   14145.0    1586.1196       0.0000      50.8611     140.6042       2.9943       1.9002       2.3131      89.4931       0.0005
   14146.0    1584.6897       0.0000      50.8611     142.4181       3.0537       1.8620       2.4194      89.4931       0.0005
   14147.0    1586.6534       0.0000      50.8611     140.7366       3.0180       1.9082       2.3356      89.4931       0.0005
   14148.0    1584.6897       0.0000      50.8611     141.9974       2.8555       1.7576       2.2497      89.4931       0.0005
   14149.0    1584.1511       0.0000      50.8611     140.3011       3.0228       1.9303       2.3253      89.4931       0.0005
   14150.0    1586.6534       0.0000      50.8611     143.0376       2.8671       1.7235       2.2906      89.4931       0.0005
   14151.0    1584.1511       0.0000      50.8611     141.9782       3.0794       1.8962       2.4255      89.4931       0.0005
   14152.0    1583.0811       0.0000      50.8611     140.1296       3.1001       1.9866       2.3785      89.4931       0.0005
   14153.0    1586.6534       0.0000      50.8611     141.5195       2.9189       1.8159       2.2844      89.4931       0.0005
   14154.0    1583.6149       0.0000      50.8611     142.5469       3.1562       1.9183       2.5052      89.4931       0.0005
   14155.0    1583.6149       0.0000      50.8611     140.2975       3.0761       1.9645       2.3662      89.4931       0.0005
   14156.0    1589.7058       0.0000      50.8611     144.3948       3.0892       1.7978       2.5114      89.4931       0.0005
   14157.0    1589.7058       0.0000      50.8611     142.0754       3.1323       1.9243       2.4705      89.4931       0.0005
   14158.0    1577.5786       0.0000      50.8611     140.4231       2.9737       1.8942       2.2906      89.4931       0.0005
   14159.0    1584.6897       0.0000      50.8611     141.7298       3.1630       1.9584       2.4828      89.4931       0.0005
   14160.0    1590.7806       0.0000      50.8611     139.4672       3.0144       1.9584       2.2906      89.4931       0.0005
   14161.0    1583.0811       0.0000      50.8611     143.9732       3.0780       1.8098       2.4889      89.4931       0.0005
   14162.0    1580.5901       0.0000      50.8611     137.0340       3.0444       2.0739       2.2241      89.4931       0.0005
   14163.0    1579.1946       0.0000      50.8611     141.4038       2.9760       1.8560       2.3253      89.4931       0.0005
   14164.0    1586.1196       0.0000      50.8611     142.4988       3.1818       1.9364       2.5236      89.4931       0.0005
   14165.0    1586.1196       0.0000      50.8611     139.5602       2.9962       1.9424       2.2804      89.4931       0.0005
   14166.0    1583.6149       0.0000      50.8611     143.8806       2.9145       1.7174       2.3540      89.4931       0.0005
   14167.0    1590.2420       0.0000      50.8611     141.6252       3.0916       1.9183       2.4235      89.4931       0.0005
   14168.0    1587.1896       0.0000      50.8611     137.7965       3.0540       2.0508       2.2620      89.4931       0.0005
   14169.0    1583.6149       0.0000      50.8611     141.8573       3.0328       1.8721       2.3846      89.4931       0.0005
   14170.0    1581.6649       0.0000      50.8611     138.9044       3.0321       1.9926       2.2844      89.4931       0.0005
   14171.0    1586.6534       0.0000      50.8611     141.6268       2.9065       1.8038       2.2783      89.4931       0.0005
   14172.0    1587.1896       0.0000      50.8611     140.4627       3.1061       1.9765       2.3948      89.4931       0.0005
   14173.0    1581.6649       0.0000      50.8611     143.7072       3.1137       1.8420       2.5073      89.4931       0.0005
   14174.0    1584.1511       0.0000      50.8611     141.8857       2.9530       1.8239       2.3192      89.4931       0.0005
   14175.0    1590.2420       0.0000      50.8611     140.7811       3.0184       1.9082       2.3376      89.4931       0.0005
   14176.0    1580.5901       0.0000      50.8611     141.7472       2.9695       1.8379       2.3315      89.4931       0.0005
   14177.0    1584.1511       0.0000      50.8611     140.6974       2.8866       1.8279       2.2333      89.4931       0.0005
   14178.0    1586.6534       0.0000      50.8611     142.2628       3.0601       1.8721       2.4194      89.4931       0.0005
   14179.0    1589.1720       0.0000      50.8611     141.5202       2.9489       1.8339       2.3069      89.4931       0.0005
   14180.0    1581.1263       0.0000      50.8611     139.4640       2.8670       1.8620       2.1781      89.4931       0.0005
   14181.0    1581.1263       0.0000      50.8611     141.7466       2.9417       1.8199       2.3090      89.4931       0.0005
   14182.0    1587.1896       0.0000      50.8611     140.9103       3.1316       1.9745       2.4296      89.4931       0.0005
   14183.0    1589.7058       0.0000      50.8611     140.6211       3.1068       1.9705       2.4010      89.4931       0.0005
   14184.0    1586.6534       0.0000      50.8611     140.0859       2.9436       1.8882       2.2558      89.4931       0.0005
   14185.0    1581.1263       0.0000      50.8611     138.6766       2.9583       1.9524       2.2211      89.4931       0.0005
   14186.0    1589.7058       0.0000      50.8611     141.9979       2.9596       1.8219       2.3315      89.4931       0.0005
   14187.0    1589.1720       0.0000      50.8611     141.5451       3.1055       1.9303       2.4316      89.4931       0.0005
   14188.0    1580.5901       0.0000      50.8611     142.1882       3.0188       1.8500       2.3846      89.4931       0.0005
   14189.0    1581.1263       0.0000      50.8611     142.2879       3.0716       1.8781       2.4296      89.4931       0.0005
   14190.0    1587.0553       0.0000      50.8611     140.1759       3.0083       1.9258       2.3100      89.4931       0.0005
   14191.0    1581.1263       0.0000      50.8611     140.4618       3.0237       1.9243       2.3315      89.4931       0.0005
   14192.0    1577.5786       0.0000      50.8611     140.5446       3.0733       1.9524       2.3724      89.4931       0.0005
   14193.0    1572.9866       0.0000      50.8611     145.1620       3.0611       1.7476       2.5114      92.6039       0.6330
   14194.0    1582.5497       0.0000      50.8611     150.4417       3.0430       1.5005       2.6463      97.2181       0.8959
   14195.0    1586.6534       0.0000      50.8611     157.5588       3.1798       1.2134       2.9387     103.1096       1.0226
   14196.0    1590.7806       0.0000      50.8611     165.4363       3.1449       0.7896       3.0429     109.6185       1.0136
   14197.0    1594.9312       0.0000      50.8611     171.8601       3.3060       0.4683       3.2719     115.6942       1.0210
