~VERSION INFORMATION
VERS.           2.0   :CWLS Log ASCII Standard - VERSION 2.0
WRAP.           NO    :One Line per depth step
PROD.  Schlumberger   :LAS Producer
PROG.  DLIS to ASCII 19C2-270                          :LAS Program name and version
CREA.        2017/09/16 17:42                          :LAS Creation date {YYYY/MM/DD hh:mm}
DLIS_CREA.  2017-Sep-15 15:51                          :DLIS Creation date and time {YYYY-MMM-DD hh:mm}
SOURCE.     LPC_S3-1_AV.DLIS                           :DLIS File Name
FILE-ID.     PERFO_Perfo_WPGRT_037LTP                  :File Identification Number
#--------------------------------------------------
~WELL INFORMATION
#MNEM.UNIT      DATA             DESCRIPTION
#---- ------ --------------   -----------------------------
STRT .S         1283.0       :START TIME      
STOP .S         1755.0       :STOP TIME      
STEP .S            1.0       :STEP     
NULL .          -999.25      :NULL VALUE
COMP .        SHELL INTERNATIONAL E P                  :COMPANY
WELL .        WPP TEST 2                               :WELL
FLD  .        WILDCAT                                  :FIELD
LOC  .                                                 :LOCATION
CNTY .        HARRIS                                   :COUNTY
STAT .        TEXAS                                    :STATE
CTRY .                                                 :COUNTRY
API  .                                                 :API NUMBER
UWI  .                                                 :UNIQUE WELL ID
DATE .                                                 :LOG DATE
SRVC .        Schlumberger                             :SERVICE COMPANY
LATI .DEG                                              :LATITUDE
LONG .DEG                                              :LONGITUDE
GDAT .                                                 :GeoDetic Datum
#-----------------------------------------------------------------------------
~PARAMETER INFORMATION
#MNEM.UNIT    VALUE                      DESCRIPTION
#---- -----   --------------------       ------------------------
U-PHASE_B_COMP_PER_YT.                 0 :Phase B Comparator Period Yt
U-PHASE_A_COMP_PER_XT.                 0 :Phase A Comparator Period Xt
U-MAX_EXC_CUR_LIMIT.MA       240.00000   :Requested CM Current Limit
U-REQ_EXC_FQ.HZ              50          :Requested CM Frequency
U-TILT_Y_OFFSET.           0.19916       :WPTET Tilt Y Offset
U-TILT_Y_GAIN.           1.01796         :WPTET Tilt Y Gain
U-TILT_X_OFFSET.          -1.77103       :WPTET Tilt X Offset
U-TILT_X_GAIN.           1.00000         :WPTET Tilt X Gain
U-TILT_OFFSET_TOL.           0.00100     :WPTET Tilt Offset Calibration Tolerance
U-NO_TILT_CAL_ROTATIONS.                 3 :Number of Rotations for Tilt Calibration
HAZI .DEG        0.00000                 :Hole Azimuth
U-STD_TOL_TILT.           0.01000        :Tilt Standard Deviation Tolerance
U-GUN_POS_TOL.DEG        5.00000         :Gun Position Tolerance
ROT_ANGLE_THRESHOLD.DEG        5.00000   :Rotation Stop Angle Tolerance
STOP_ROT_ANGLE.DEG        0.00000        :Rotation Stop Angle
WITN .                                   :Witness's Name
ENGI .                                   :Engineer's Name
COUN .        HARRIS                     :County or Rig Name
FN   .        WILDCAT                    :Field Name
WN   .        WPP TEST 2                 :Well Name
CN   .        SHELL INTERNATIONAL E P    :Company Name
CLAB .        County                     :County/Rig Label
SLAB .        State                      :State/Province Label
RUN  .          1                        :RUN NUMBER
PDAT .        GROUND LEVEL               :Permanent Datum
EPD  .                                   :Elevation of Permanent Datum above Mean Sea Level
LMF  .                                   :Logging Measured From (Name of Logging Elevation Reference)
APD  .                                   :Elevation of Depth Reference (LMF) above Permanent Datum
#-----------------------------------------------------------------------------
~CURVE INFORMATION
#MNEM.UNIT   API CODE                                  DESCRIPTION
#---- -----  --------                                  -----------------------
TIME .S                                                :TIME {F10.1}
FREQ_EMF_SL.HZ                                         :Electromagnetic Field Frequency {F13.4}
PH_SH_WPPCM_SL.DEG                                     :WPPCM Phase Shift {F13.4}
FREQ_EXC_REQ_SL.HZ                                     :Requested Exciter Frequency {F13.4}
RB_SL.DEG                                              :Relative Bearing {F13.4}
SDEV_SL.DEG                                            :Sonde Deviation {F13.4}
TILX_SL.DEG                                            :X-axis Tilt {F13.4}
TILY_SL.DEG                                            :Y-axis Tilt {F13.4}
ROTA_SL.DEG                                            :Motor Rotation Angle {F13.4}
MSPE_SL.RPM                                            :Motor Speed {F13.4}
#-----------------------------------------------------------------------------
# 
#     TIME    FREQ_EMF_SL  PH_SH_WPPCM_ FREQ_EXC_REQ    RB_SL       SDEV_SL      TILX_SL      TILY_SL      ROTA_SL      MSPE_SL
#                          SL           _SL
~A  
# ...
    1472.0    1523.0043       0.0000      50.8611     -52.0553       1.0353      -0.8160      -0.6370      20.4142       0.0005
    1473.0    1521.9155       0.0000      50.8611     -57.9931       0.9654      -0.7939      -0.5085      20.4142       0.0005
    1474.0    1521.9155       0.0000      50.8611     -43.8216       0.9987      -0.6963      -0.7145      20.4142       0.0005
    1475.0    1519.3661       0.0000      50.8611     -41.0571       0.8658      -0.5701      -0.6503      20.4142       0.0005
    1476.0    1517.5682       0.0000      50.8611     -48.3014       0.7986      -0.5980      -0.5185      20.4142       0.0005
    1477.0    1519.3661       0.0000      50.8611     -51.2401       0.9086      -0.7087      -0.5685      20.4142       0.0005
    1478.0    1518.6285       0.0000      50.8611     -56.9030       0.8514      -0.7136      -0.4642      20.4142       0.0005
    1479.0    1521.1780       0.0000      50.8611     -57.8995       0.9071      -0.7669      -0.4826      20.4142       0.0005
    1480.0    1521.1780       0.0000      50.8611     -51.1311       0.8705      -0.6775      -0.5460      20.4142       0.0005
    1481.0    1517.5682       0.0000      50.8611     -54.6600       0.9035      -0.7357      -0.5235      20.4142       0.0005
    1482.0    1523.7387       0.0000      50.8611     -53.2051       0.8582      -0.6865      -0.5143      20.4142       0.0005
    1483.0    1521.1780       0.0000      50.8611     -53.3964       0.9711      -0.7800      -0.5777      20.4142       0.0005
    1484.0    1518.6285       0.0000      50.8611     -53.5633       0.8652      -0.6955      -0.5143      20.4142       0.0005
    1485.0    1520.1068       0.0000      50.8611     -48.7725       0.9251      -0.6955      -0.6094      20.4142       0.0005
    1486.0    1527.7887       0.0000      50.8611     -51.6927       0.8517      -0.6685      -0.5277      20.4142       0.0005
    1487.0    1520.4436       0.0000      50.8611     -51.2401       0.9086      -0.7087      -0.5685      22.1095       0.6125
    1488.0    1514.2999       0.0000      50.8611     -50.3699       0.9047      -0.6974      -0.5754      26.7051       0.9061
    1489.0    1522.6563       0.0000      50.8611     -55.2656       0.8398      -0.6906      -0.4776      32.6074       1.0226
    1490.0    1524.4762       0.0000      50.8611     -54.5490       0.8275      -0.6734      -0.4776      38.7223       1.0250
    1491.0    1526.3105       0.0000      50.8611     -54.5490       0.8275      -0.6734      -0.4776      44.8242       1.0226
    1492.0    1522.6563       0.0000      50.8611     -57.3659       0.6794      -0.5660      -0.3683      50.9260       1.0226
    1493.0    1517.5682       0.0000      50.8611     -58.2569       1.0248      -0.8693      -0.5410      57.0278       1.0226
    1494.0    1515.3556       0.0000      50.8611     -59.4546       0.7889      -0.6775      -0.4008      63.4461       1.0226
    1495.0    1499.9192       0.0000      50.8611     -58.4778       0.8527      -0.7267      -0.4459      69.6370       1.0226
    1496.0    1491.8097       0.0000      50.8611     -62.1695       0.8674      -0.7669      -0.4050      75.7412       1.0226
    1497.0    1486.5221       0.0000      50.8611     -60.3017       0.8174      -0.7004      -0.4150      81.8437       1.0226
    1498.0    1474.0566       0.0000      50.8611     -60.2980       0.9187      -0.7980      -0.4551      87.9431       1.0226
    1499.0    1461.1178       0.0000      50.8611     -63.7727       0.8651      -0.7759      -0.3824      94.0504       1.0226
    1500.0    1442.1603       0.0000      50.8611     -62.0869       0.8856      -0.7826      -0.4142     100.1498       1.0226
    1501.0    1429.7689       0.0000      50.8611     -62.3411       0.9814      -0.8693      -0.4551     106.2516       1.0226
    1502.0    1408.7946       0.0000      50.8611     -62.5915       0.9194      -0.8160      -0.4233     112.3534       1.0226
    1503.0    1397.2405       0.0000      50.8611     -65.9672       0.9625      -0.8783      -0.3916     118.4552       1.0226
    1504.0    1382.6077       0.0000      50.8611     -64.0899       0.9564      -0.8611      -0.4142     124.5700       1.0226
    1505.0    1363.8350       0.0000      50.8611     -64.3310       1.0293      -0.9275      -0.4459     130.6349       1.0226
    1506.0    1346.9828       0.0000      50.8611     -77.4321       1.1821      -1.1505      -0.2556     137.0313       1.0144
    1507.0    1325.0463       0.0000      50.8611     -65.8637       1.0654      -0.9718      -0.4325     143.2219       1.0226
    1508.0    1320.2987       0.0000      50.8611     -65.0333       1.0491      -0.9497      -0.4417     149.2992       1.0202
    1509.0    1294.3555       0.0000      50.8611     -63.9598       1.0501      -0.9448      -0.4551     155.3887       1.0226
    1510.0    1257.6071       0.0000      50.8611     -64.5864       1.0815      -0.9767      -0.4642     161.4906       1.0226
    1511.0    1217.9033       0.0000      50.8611     -57.6783       1.0954      -0.9234      -0.5819     167.5925       1.0226
    1512.0    1180.5082       0.0000      50.8611     -60.9394       1.1339      -0.9869      -0.5477     173.6944       1.0226
    1513.0    1145.3954       0.0000      50.8611     -66.6180       1.0348      -0.9504      -0.4050     179.7999       1.0226
    1514.0    1117.5133       0.0000      50.8611     -61.8087       1.2284      -1.0833      -0.5777     185.8991       1.0226
    1515.0    1101.1273       0.0000      50.8611     -61.6123       1.1104      -0.9767      -0.5277     191.9914       1.0144
    1516.0    1080.2462       0.0000      50.8611     -60.0379       1.1856      -1.0259      -0.5911     198.0912       1.0226
    1517.0    1069.8405       0.0000      50.8611     -61.3360       1.2047      -1.0570      -0.5777     204.1924       1.0226
    1518.0    1066.2838       0.0000      50.8611     -56.0721       1.1908      -0.9857      -0.6637     210.2943       1.0226
    1519.0    1065.3409       0.0000      50.8611     -62.2582       1.1088      -0.9808      -0.5143     216.8173       1.0226
    1520.0    1061.4045       0.0000      50.8611     -57.5046       1.1747      -0.9898      -0.6320     222.8945       1.0226
    1521.0    1065.3409       0.0000      50.8611     -54.8445       1.1710      -0.9595      -0.6687     229.0095       1.0226
    1522.0    1068.7878       0.0000      50.8611     -53.9931       1.3426      -1.0841      -0.7863     235.1114       1.0226
    1523.0    1081.9448       0.0000      50.8611     -53.4309       1.1442      -0.9185      -0.6820     241.2264       1.0226
    1524.0    1090.1163       0.0000      50.8611     -54.5777       1.0708      -0.8718      -0.6211     247.3188       1.0164
    1525.0    1113.9071       0.0000      50.8611     -53.2770       1.1732      -0.9407      -0.7004     253.4092       1.0202
    1526.0    1148.9036       0.0000      50.8611     -57.0882       1.1794      -0.9898      -0.6411     259.5213       1.0144
    1527.0    1172.5188       0.0000      50.8611     -55.4690       1.1637      -0.9587      -0.6595     265.6013       1.0226
    1528.0    1212.5088       0.0000      50.8611     -56.0053       1.2589      -1.0431      -0.7046     271.7135       1.0226
    1529.0    1244.7057       0.0000      50.8611     -49.7851       1.0856      -0.8292      -0.7004     277.8153       1.0144
    1530.0    1283.3267       0.0000      50.8611     -54.3688       1.2407      -1.0079      -0.7229     283.9187       1.0226
    1531.0    1303.6896       0.0000      50.8611     -54.2028       1.1858      -0.9628      -0.6912     290.4417       1.0226
    1532.0    1330.5486       0.0000      50.8611     -55.3851       1.0110      -0.8292      -0.5735     296.5677       1.0309
    1533.0    1337.3109       0.0000      50.8611     -47.1244       1.0483      -0.7669      -0.7137     302.6602       1.0226
    1534.0    1351.5811       0.0000      50.8611     -45.1045       1.0510      -0.7447      -0.7413     308.7656       1.0144
