~VERSION INFORMATION
VERS.           2.0   :CWLS Log ASCII Standard - VERSION 2.0
WRAP.           NO    :One Line per depth step
PROD.  Schlumberger   :LAS Producer
PROG.  DLIS to ASCII 19C2-270                          :LAS Program name and version
CREA.        2017/09/16 17:42                          :LAS Creation date {YYYY/MM/DD hh:mm}
DLIS_CREA.  2017-Sep-15 13:29                          :DLIS Creation date and time {YYYY-MMM-DD hh:mm}
SOURCE.     LPC_S1-1_2A5.DLIS                          :DLIS File Name
FILE-ID.     PERFO_Perfo_WPGRT_025LTP                  :File Identification Number
#--------------------------------------------------
~WELL INFORMATION
#MNEM.UNIT      DATA             DESCRIPTION
#---- ------ --------------   -----------------------------
STRT .S         9747.0       :START TIME      
STOP .S        10374.0       :STOP TIME      
STEP .S            1.0       :STEP     
NULL .          -999.25      :NULL VALUE
COMP .        SHELL INTERNATIONAL E P                  :COMPANY
WELL .        WPP TEST 2                               :WELL
FLD  .        WILDCAT                                  :FIELD
LOC  .                                                 :LOCATION
CNTY .        HARRIS                                   :COUNTY
STAT .        TEXAS                                    :STATE
CTRY .                                                 :COUNTRY
API  .                                                 :API NUMBER
UWI  .                                                 :UNIQUE WELL ID
DATE .                                                 :LOG DATE
SRVC .        Schlumberger                             :SERVICE COMPANY
LATI .DEG                                              :LATITUDE
LONG .DEG                                              :LONGITUDE
GDAT .                                                 :GeoDetic Datum
#-----------------------------------------------------------------------------
~PARAMETER INFORMATION
#MNEM.UNIT    VALUE                      DESCRIPTION
#---- -----   --------------------       ------------------------
U-PHASE_B_COMP_PER_YT.                 0 :Phase B Comparator Period Yt
U-PHASE_A_COMP_PER_XT.                 0 :Phase A Comparator Period Xt
U-MAX_EXC_CUR_LIMIT.MA       240.00000   :Requested CM Current Limit
U-REQ_EXC_FQ.HZ              40          :Requested CM Frequency
U-TILT_Y_OFFSET.           0.19916       :WPTET Tilt Y Offset
U-TILT_Y_GAIN.           1.01796         :WPTET Tilt Y Gain
U-TILT_X_OFFSET.          -1.77103       :WPTET Tilt X Offset
U-TILT_X_GAIN.           1.00000         :WPTET Tilt X Gain
U-TILT_OFFSET_TOL.           0.00100     :WPTET Tilt Offset Calibration Tolerance
U-NO_TILT_CAL_ROTATIONS.                 3 :Number of Rotations for Tilt Calibration
HAZI .DEG        0.00000                 :Hole Azimuth
U-STD_TOL_TILT.           0.01000        :Tilt Standard Deviation Tolerance
U-GUN_POS_TOL.DEG        5.00000         :Gun Position Tolerance
ROT_ANGLE_THRESHOLD.DEG        5.00000   :Rotation Stop Angle Tolerance
STOP_ROT_ANGLE.DEG       80.00000        :Rotation Stop Angle
WITN .                                   :Witness's Name
ENGI .                                   :Engineer's Name
COUN .        HARRIS                     :County or Rig Name
FN   .        WILDCAT                    :Field Name
WN   .        WPP TEST 2                 :Well Name
CN   .        SHELL INTERNATIONAL E P    :Company Name
CLAB .        County                     :County/Rig Label
SLAB .        State                      :State/Province Label
RUN  .          1                        :RUN NUMBER
PDAT .        GROUND LEVEL               :Permanent Datum
EPD  .                                   :Elevation of Permanent Datum above Mean Sea Level
LMF  .                                   :Logging Measured From (Name of Logging Elevation Reference)
APD  .                                   :Elevation of Depth Reference (LMF) above Permanent Datum
#-----------------------------------------------------------------------------
~CURVE INFORMATION
#MNEM.UNIT   API CODE                                  DESCRIPTION
#---- -----  --------                                  -----------------------
TIME .S                                                :TIME {F10.1}
FREQ_EMF_SL.HZ                                         :Electromagnetic Field Frequency {F13.4}
PH_SH_WPPCM_SL.DEG                                     :WPPCM Phase Shift {F13.4}
FREQ_EXC_REQ_SL.HZ                                     :Requested Exciter Frequency {F13.4}
RB_SL.DEG                                              :Relative Bearing {F13.4}
SDEV_SL.DEG                                            :Sonde Deviation {F13.4}
TILX_SL.DEG                                            :X-axis Tilt {F13.4}
TILY_SL.DEG                                            :Y-axis Tilt {F13.4}
ROTA_SL.DEG                                            :Motor Rotation Angle {F13.4}
MSPE_SL.RPM                                            :Motor Speed {F13.4}
#-----------------------------------------------------------------------------
# 
#     TIME    FREQ_EMF_SL  PH_SH_WPPCM_ FREQ_EXC_REQ    RB_SL       SDEV_SL      TILX_SL      TILY_SL      ROTA_SL      MSPE_SL
#                          SL           _SL
~A  
# ...
    9936.0    1464.4229       0.0000      40.6889     -47.4745       5.1700      -3.8087      -3.4865     163.5856       1.0226
    9937.0    1463.5342       0.0000      40.6889     -42.2414       5.0363      -3.3833      -3.7261     169.6879       1.0226
    9938.0    1459.6577       0.0000      40.6889     -37.5252       5.0698      -3.0853      -4.0180     175.7902       1.0166
    9939.0    1448.0419       0.0000      40.6889     -33.1338       5.0853      -2.7752      -4.2572     181.8794       1.0166
    9940.0    1447.6367       0.0000      40.6889     -27.6197       4.9444      -2.2876      -4.3799     187.9893       1.0319
    9941.0    1442.1021       0.0000      40.6889     -22.9657       4.8978      -1.9088      -4.5087     194.5022       1.0226
    9942.0    1445.9099       0.0000      40.6889     -18.9436       4.8927      -1.5871      -4.6256     200.6121       1.0272
    9943.0    1443.7886       0.0000      40.6889     -14.0412       4.7809      -1.1573      -4.6371     206.7352       1.0272
    9944.0    1436.2108       0.0000      40.6889      -6.9108       4.6655      -0.5604      -4.6313     212.8147       1.0166
    9945.0    1437.4777       0.0000      40.6889      -2.8391       4.6023      -0.2274      -4.5966     218.9081       1.0166
    9946.0    1436.6216       0.0000      40.6889       2.3455       4.5305       0.1855      -4.5263     225.0043       1.0226
    9947.0    1437.1605       0.0000      40.6889       8.6892       4.3669       0.6589      -4.3161     231.1065       1.0226
    9948.0    1433.2832       0.0000      40.6889      14.8722       4.4353       1.1326      -4.2863     237.2053       1.0226
    9949.0    1437.8834       0.0000      40.6889      19.3758       4.1986       1.3905      -3.9600     243.3077       1.0226
    9950.0    1437.8834       0.0000      40.6889      25.2632       4.0951       1.7464      -3.7028     249.4136       1.0226
    9951.0    1434.9490       0.0000      40.6889      30.6359       3.9376       2.0046      -3.3875     255.5151       1.0226
    9952.0    1439.5629       0.0000      40.6889      37.2512       3.8825       2.3489      -3.0895     261.6172       1.0226
    9953.0    1440.8298       0.0000      40.6889      44.0768       3.7904       2.6357      -2.7215     268.1302       1.0212
    9954.0    1442.5163       0.0000      40.6889      48.7484       3.6061       2.7104      -2.3768     274.2261       1.0226
    9955.0    1442.5163       0.0000      40.6889      56.8063       3.5891       3.0028      -1.9622     280.3220       1.0226
    9956.0    1450.1670       0.0000      40.6889      63.1733       3.4172       3.0490      -1.5414     286.4206       1.0226
    9957.0    1449.3300       0.0000      40.6889      68.5826       3.3443       3.1120      -1.2205     292.5219       1.0166
    9958.0    1451.4496       0.0000      40.6889      78.2171       3.2570       3.1867      -0.6656     298.6241       1.0226
    9959.0    1454.0310       0.0000      40.6889      85.2644       3.1219       3.1107      -0.2581     304.7227       1.0226
    9960.0    1462.2301       0.0000      40.6889      93.3807       3.2045       3.1984       0.1873     310.8248       1.0226
    9961.0    1465.2773       0.0000      40.6889     101.7535       3.0210       2.9574       0.6138     316.9426       1.0226
    9962.0    1464.4229       0.0000      40.6889     111.1906       3.0427       2.8369       1.0987     323.0439       1.0166
    9963.0    1474.4957       0.0000      40.6889     118.2522       3.0256       2.6646       1.4315     329.1467       1.0226
    9964.0    1474.9677       0.0000      40.6889     127.9638       3.1447       2.4597       1.8453     335.2488       1.0226
    9965.0    1475.8217       0.0000      40.6889     133.5599       3.1387       2.2742       2.1618     341.5809       1.0226
    9966.0    1482.0433       0.0000      40.6889     141.4829       3.1081       1.9356       2.4304     347.8563       1.0226
    9967.0    1482.9545       0.0000      40.6889     148.8624       3.2023       1.6548       2.7399     353.9714       1.0226
    9968.0    1487.4287       0.0000      40.6889     156.1927       3.2762       1.3218       2.9971     154.8762       1.0226
    9969.0    1494.2001       0.0000      40.6889     165.6661       3.3711       0.8342       3.2658       6.1775       1.0166
    9970.0    1491.4744       0.0000      40.6889     169.9098       3.4954       0.6105       3.4408      12.2715       1.0287
    9971.0    1505.1574       0.0000      40.6889     179.3970       3.5113       0.0366       3.5110      18.3924       1.0226
    9972.0    1501.0264       0.0000      40.6889    -173.8027       3.5964      -0.3881       3.5753      24.4973       1.0287
    9973.0    1505.6210       0.0000      40.6889    -166.8100       3.7384      -0.8528       3.6395      30.6047       1.0226
    9974.0    1508.4056       0.0000      40.6889    -160.2218       3.8123      -1.2890       3.5871      36.7150       1.0226
    9975.0    1513.9543       0.0000      40.6889    -155.0007       3.7848      -1.5987       3.4293      42.8172       1.0226
    9976.0    1508.8519       0.0000      40.6889    -149.7280       4.0394      -2.0349       3.4878      48.9186       1.0226
    9977.0    1515.8199       0.0000      40.6889    -142.8620       4.1714      -2.5169       3.3242      55.2508       1.0226
    9978.0    1518.6285       0.0000      40.6889    -136.8801       4.1883      -2.8611       3.0556      61.5024       1.0226
    9979.0    1513.0559       0.0000      40.6889    -130.3285       4.2820      -3.2628       2.7694      67.6072       1.0226
    9980.0    1517.2212       0.0000      40.6889    -129.0906       4.3759      -3.3950       2.7575      70.5875       0.0005
    9981.0    1515.8199       0.0000      40.6889    -128.7647       4.3041      -3.3548       2.6933      70.5875       0.0005
    9982.0    1512.5590       0.0000      40.6889    -127.9231       4.3563      -3.4351       2.6757      70.5875       0.0005
    9983.0    1512.0968       0.0000      40.6889    -128.8864       4.3115      -3.3547       2.7051      70.5875       0.0005
    9984.0    1513.9543       0.0000      40.6889    -128.4404       4.3068      -3.3721       2.6757      70.5875       0.0005
    9985.0    1513.4981       0.0000      40.6889    -128.6260       4.3545      -3.4006       2.7166      70.5875       0.0005
    9986.0    1512.0968       0.0000      40.6889    -128.5676       4.3510      -3.4006       2.7109      70.5875       0.0005
    9987.0    1513.9543       0.0000      40.6889    -128.1591       4.3996      -3.4580       2.7166      70.5875       0.0005
    9988.0    1513.4981       0.0000      40.6889    -128.3313       4.3075      -3.3777       2.6700      70.5875       0.0005
    9989.0    1511.1697       0.0000      40.6889    -128.8627       4.3691      -3.4006       2.7399      70.5875       0.0005
    9990.0    1516.7630       0.0000      40.6889    -128.3910       4.3111      -3.3777       2.6757      70.5875       0.0005
    9991.0    1510.7015       0.0000      40.6889    -128.3452       4.3445      -3.4062       2.6933      70.5875       0.0005
    9992.0    1519.0948       0.0000      40.6889    -128.4403       4.3724      -3.4235       2.7166      70.5875       0.0005
    9993.0    1509.8069       0.0000      40.6889    -128.0642       4.2852      -3.3721       2.6410      70.5875       0.0005
    9994.0    1512.5590       0.0000      40.6889    -128.9459       4.3152      -3.3548       2.7109      70.5875       0.0005
    9995.0    1515.3556       0.0000      40.6889    -128.1628       4.3626      -3.4291       2.6933      70.5875       0.0005
    9996.0    1512.0968       0.0000      40.6889    -128.4326       4.3355      -3.3950       2.6933      70.5875       0.0005
    9997.0    1513.9543       0.0000      40.6889    -129.1307       4.3633      -3.3833       2.7518      70.5875       0.0005
    9998.0    1513.4981       0.0000      40.6889    -128.6795       4.2840      -3.3431       2.6757      70.5875       0.0005
