~VERSION INFORMATION
VERS.           2.0   :CWLS Log ASCII Standard - VERSION 2.0
WRAP.           NO    :One Line per depth step
PROD.  Schlumberger   :LAS Producer
PROG.  DLIS to ASCII 19C2-270                          :LAS Program name and version
CREA.        2017/09/16 17:42                          :LAS Creation date {YYYY/MM/DD hh:mm}
DLIS_CREA.  2017-Sep-15 13:58                          :DLIS Creation date and time {YYYY-MMM-DD hh:mm}
SOURCE.     LPC_S1-1_2BV.DLIS                          :DLIS File Name
FILE-ID.     PERFO_Perfo_WPGRT_027LTP                  :File Identification Number
#--------------------------------------------------
~WELL INFORMATION
#MNEM.UNIT      DATA             DESCRIPTION
#---- ------ --------------   -----------------------------
STRT .S        11467.0       :START TIME      
STOP .S        11862.0       :STOP TIME      
STEP .S            1.0       :STEP     
NULL .          -999.25      :NULL VALUE
COMP .        SHELL INTERNATIONAL E P                  :COMPANY
WELL .        WPP TEST 2                               :WELL
FLD  .        WILDCAT                                  :FIELD
LOC  .                                                 :LOCATION
CNTY .        HARRIS                                   :COUNTY
STAT .        TEXAS                                    :STATE
CTRY .                                                 :COUNTRY
API  .                                                 :API NUMBER
UWI  .                                                 :UNIQUE WELL ID
DATE .                                                 :LOG DATE
SRVC .        Schlumberger                             :SERVICE COMPANY
LATI .DEG                                              :LATITUDE
LONG .DEG                                              :LONGITUDE
GDAT .                                                 :GeoDetic Datum
#-----------------------------------------------------------------------------
~PARAMETER INFORMATION
#MNEM.UNIT    VALUE                      DESCRIPTION
#---- -----   --------------------       ------------------------
U-PHASE_B_COMP_PER_YT.                 0 :Phase B Comparator Period Yt
U-PHASE_A_COMP_PER_XT.                 0 :Phase A Comparator Period Xt
U-MAX_EXC_CUR_LIMIT.MA       240.00000   :Requested CM Current Limit
U-REQ_EXC_FQ.HZ              50          :Requested CM Frequency
U-TILT_Y_OFFSET.           0.19916       :WPTET Tilt Y Offset
U-TILT_Y_GAIN.           1.01796         :WPTET Tilt Y Gain
U-TILT_X_OFFSET.          -1.77103       :WPTET Tilt X Offset
U-TILT_X_GAIN.           1.00000         :WPTET Tilt X Gain
U-TILT_OFFSET_TOL.           0.00100     :WPTET Tilt Offset Calibration Tolerance
U-NO_TILT_CAL_ROTATIONS.                 3 :Number of Rotations for Tilt Calibration
HAZI .DEG        0.00000                 :Hole Azimuth
U-STD_TOL_TILT.           0.01000        :Tilt Standard Deviation Tolerance
U-GUN_POS_TOL.DEG        5.00000         :Gun Position Tolerance
ROT_ANGLE_THRESHOLD.DEG        5.00000   :Rotation Stop Angle Tolerance
STOP_ROT_ANGLE.DEG       80.00000        :Rotation Stop Angle
WITN .                                   :Witness's Name
ENGI .                                   :Engineer's Name
COUN .        HARRIS                     :County or Rig Name
FN   .        WILDCAT                    :Field Name
WN   .        WPP TEST 2                 :Well Name
CN   .        SHELL INTERNATIONAL E P    :Company Name
CLAB .        County                     :County/Rig Label
SLAB .        State                      :State/Province Label
RUN  .          1                        :RUN NUMBER
PDAT .        GROUND LEVEL               :Permanent Datum
EPD  .                                   :Elevation of Permanent Datum above Mean Sea Level
LMF  .                                   :Logging Measured From (Name of Logging Elevation Reference)
APD  .                                   :Elevation of Depth Reference (LMF) above Permanent Datum
#-----------------------------------------------------------------------------
~CURVE INFORMATION
#MNEM.UNIT   API CODE                                  DESCRIPTION
#---- -----  --------                                  -----------------------
TIME .S                                                :TIME {F10.1}
FREQ_EMF_SL.HZ                                         :Electromagnetic Field Frequency {F13.4}
PH_SH_WPPCM_SL.DEG                                     :WPPCM Phase Shift {F13.4}
FREQ_EXC_REQ_SL.HZ                                     :Requested Exciter Frequency {F13.4}
RB_SL.DEG                                              :Relative Bearing {F13.4}
SDEV_SL.DEG                                            :Sonde Deviation {F13.4}
TILX_SL.DEG                                            :X-axis Tilt {F13.4}
TILY_SL.DEG                                            :Y-axis Tilt {F13.4}
ROTA_SL.DEG                                            :Motor Rotation Angle {F13.4}
MSPE_SL.RPM                                            :Motor Speed {F13.4}
#-----------------------------------------------------------------------------
# 
#     TIME    FREQ_EMF_SL  PH_SH_WPPCM_ FREQ_EXC_REQ    RB_SL       SDEV_SL      TILX_SL      TILY_SL      ROTA_SL      MSPE_SL
#                          SL           _SL
~A  
# ...
   11719.0    1344.3351       0.0000      50.8611     -51.5549       0.9267      -0.7255      -0.5765       7.0869       1.0226
   11720.0    1360.0937       0.0000      50.8611     -51.6287       0.9282      -0.7267      -0.5765      13.1952       1.0278
   11721.0    1366.5102       0.0000      50.8611     -42.5888       0.8958      -0.6062      -0.6595      19.3036       1.0226
   11722.0    1379.9901       0.0000      50.8611     -48.7091       1.0243      -0.7594      -0.5518      25.4053       1.0226
   11723.0    1388.2458       0.0000      50.8611     -58.7539       0.9976      -0.8472      -0.5194      31.5073       1.0226
   11724.0    1400.7367       0.0000      50.8611     -39.9585       0.7849      -0.5040      -0.5988      37.5967       1.0226
   11725.0    1402.0034       0.0000      50.8611     -53.9111       0.9337      -0.7510      -0.5344      43.7047       1.0281
   11726.0    1417.4423       0.0000      50.8611     -53.7614       1.1531      -0.9299      -0.6818      49.8132       1.0226
   11727.0    1424.9151       0.0000      50.8611     -52.5491       0.9182      -0.7267      -0.5591      55.9151       1.0226
   11728.0    1436.4602       0.0000      50.8611     -57.6580       1.0047      -0.8484      -0.5381      62.4249       1.0226
   11729.0    1445.2294       0.0000      50.8611     -53.8628       0.8514      -0.6901      -0.4972      68.5266       1.0226
   11730.0    1443.7056       0.0000      50.8611     -55.3904       0.8376      -0.6877      -0.4773      74.6285       1.0226
   11731.0    1446.7593       0.0000      50.8611     -54.1423       0.8482      -0.6877      -0.4959      80.7565       1.0226
   11732.0    1452.8338       0.0000      50.8611     -56.8938       0.8710      -0.7279      -0.4773      86.8582       1.0226
   11733.0    1455.6612       0.0000      50.8611     -60.0428       0.9542      -0.8265      -0.4761      92.9729       1.0226
   11734.0    1458.7655       0.0000      50.8611     -59.5401       0.9055      -0.7827      -0.4538      99.0748       1.0226
   11735.0    1458.7655       0.0000      50.8611     -56.7228       0.8991      -0.7474      -0.4935     105.1767       1.0226
   11736.0    1461.6413       0.0000      50.8611     -58.8138       0.9220      -0.7887      -0.4749     111.2914       1.0226
   11737.0    1458.6811       0.0000      50.8611     -56.4164       0.8943      -0.7450      -0.4947     117.3931       1.0226
   11738.0    1461.7983       0.0000      50.8611     -59.4798       0.9354      -0.8058      -0.4749     123.4950       1.0226
   11739.0    1464.7585       0.0000      50.8611     -59.7150       0.8623      -0.7450      -0.4340     129.6040       1.0230
   11740.0    1451.3871       0.0000      50.8611     -63.8071       0.9006      -0.8058      -0.3956     136.1019       1.0175
   11741.0    1442.3536       0.0000      50.8611     -62.8963       1.0422      -0.9275      -0.4749     142.1975       1.0226
   11742.0    1440.7474       0.0000      50.8611     -63.3650       0.9720      -0.8691      -0.4352     148.2995       1.0226
   11743.0    1434.8671       0.0000      50.8611     -66.2609       0.9231      -0.8448      -0.3720     154.4013       1.0226
   11744.0    1434.9490       0.0000      50.8611     -61.1525       0.9436      -0.8265      -0.4551     160.4906       1.0226
   11745.0    1414.7384       0.0000      50.8611     -49.9038       1.0910      -0.8265      -0.7041     166.5926       1.0226
   11746.0    1410.6215       0.0000      50.8611     -64.0089       1.0832      -0.9689      -0.4786     172.6946       1.0226
   11747.0    1404.8887       0.0000      50.8611     -66.2419       1.0811      -0.9896      -0.4352     178.7964       1.0226
   11748.0    1393.5946       0.0000      50.8611     -67.4294       1.0281      -0.9494      -0.3943     184.9113       1.0175
   11749.0    1378.7629       0.0000      50.8611     -59.3034       0.9832      -0.8448      -0.4972     191.0010       1.0226
   11750.0    1369.4111       0.0000      50.8611     -66.4201       1.0364      -0.9494      -0.4154     197.1060       1.0226
   11751.0    1337.9077       0.0000      50.8611     -62.4493       1.0705      -0.9482      -0.4947     203.1925       1.0226
   11752.0    1305.6751       0.0000      50.8611     -61.3100       0.9915      -0.8679      -0.4773     209.4907       1.0226
   11753.0    1286.7121       0.0000      50.8611     -60.8581       1.1105      -0.9665      -0.5393     215.8050       1.0226
   11754.0    1263.7654       0.0000      50.8611     -64.3186       1.1244      -1.0067      -0.4923     221.9068       1.0226
   11755.0    1243.4764       0.0000      50.8611     -57.0793       1.1037      -0.9263      -0.5988     228.0086       1.0226
   11756.0    1223.7537       0.0000      50.8611     -59.9176       1.0729      -0.9275      -0.5381     234.1106       1.0226
   11757.0    1201.9882       0.0000      50.8611     -56.8454       0.9762      -0.8082      -0.5331     240.2126       1.0226
   11758.0    1189.5247       0.0000      50.8611     -57.4033       1.0548      -0.8886      -0.5684     246.3152       1.0226
   11759.0    1171.8750       0.0000      50.8611     -59.3437       1.1718      -1.0079      -0.5975     252.4170       1.0226
   11760.0    1167.9817       0.0000      50.8611     -57.9796       1.0968      -0.9263      -0.5802     258.5320       1.0226
   11761.0    1159.4088       0.0000      50.8611     -59.7559       1.1895      -1.0273      -0.5988     264.6337       1.0226
   11762.0    1147.9881       0.0000      50.8611     -57.9849       1.0505      -0.8886      -0.5554     270.7353       1.0226
   11763.0    1146.1790       0.0000      50.8611     -58.0101       1.0956      -0.9299      -0.5777     276.8369       1.0226
   11764.0    1141.4368       0.0000      50.8611     -50.0335       1.0860      -0.8325      -0.6781     283.1351       1.0226
   11765.0    1138.6923       0.0000      50.8611     -53.9872       1.2272      -0.9884      -0.7239     289.4359       1.0226
   11766.0    1140.5395       0.0000      50.8611     -53.9767       0.9485      -0.7669      -0.5579     295.5375       1.0226
   11767.0    1146.0607       0.0000      50.8611     -53.1760       1.0325      -0.8265      -0.6186     301.6392       1.0175
   11768.0    1154.5566       0.0000      50.8611     -59.4077       1.1744      -1.0091      -0.5963     307.7550       1.0226
   11769.0    1158.3608       0.0000      50.8611     -54.3157       1.0984      -0.8910      -0.6421     313.8697       1.0226
   11770.0    1174.9077       0.0000      50.8611     -52.4341       1.0389      -0.8253      -0.6297     319.9713       1.0187
   11771.0    1185.7083       0.0000      50.8611     -51.3020       0.9985      -0.7827      -0.6174     326.0608       1.0226
   11772.0    1200.9283       0.0000      50.8611     -58.9989       1.0843      -0.9275      -0.5591     332.1501       1.0226
   11773.0    1218.5278       0.0000      50.8611     -48.3601       1.1096      -0.8265      -0.7388     338.2524       1.0226
   11774.0    1234.5467       0.0000      50.8611     -56.2918       0.9667      -0.8046      -0.5356     344.3540       1.0226
   11775.0    1254.5701       0.0000      50.8611     -54.3570       1.0644      -0.8655      -0.6186     350.4558       1.0226
   11776.0    1283.0748       0.0000      50.8611     -52.9393       0.9876      -0.7863      -0.5963     356.7446       1.0172
   11777.0    1316.6441       0.0000      50.8611     -55.2097       1.0815      -0.8874      -0.6174       3.0681       1.0226
   11778.0    1332.7788       0.0000      50.8611     -50.7529       1.0440      -0.8082      -0.6607       9.1831       1.0175
   11779.0    1348.2367       0.0000      50.8611     -54.5092       1.0667      -0.8679      -0.6198      15.2727       1.0175
   11780.0    1364.0080       0.0000      50.8611     -50.4697       0.9704      -0.7474      -0.6174      21.3754       1.0278
   11781.0    1376.0645       0.0000      50.8611     -57.6949       1.1251      -0.9542      -0.5765      27.4780       1.0172
