~VERSION INFORMATION
VERS.           2.0   :CWLS Log ASCII Standard - VERSION 2.0
WRAP.           NO    :One Line per depth step
PROD.  Schlumberger   :LAS Producer
PROG.  DLIS to ASCII 19C2-270                          :LAS Program name and version
CREA.        2017/09/16 17:42                          :LAS Creation date {YYYY/MM/DD hh:mm}
DLIS_CREA.  2017-Sep-15 12:00                          :DLIS Creation date and time {YYYY-MMM-DD hh:mm}
SOURCE.     LPC_S1-1_A5.DLIS                           :DLIS File Name
FILE-ID.     PERFO_Perfo_WPGRT_019LTP                  :File Identification Number
#--------------------------------------------------
~WELL INFORMATION
#MNEM.UNIT      DATA             DESCRIPTION
#---- ------ --------------   -----------------------------
STRT .S         4414.0       :START TIME      
STOP .S         5447.0       :STOP TIME      
STEP .S            1.0       :STEP     
NULL .          -999.25      :NULL VALUE
COMP .        SHELL INTERNATIONAL E P                  :COMPANY
WELL .        WPP TEST 2                               :WELL
FLD  .        WILDCAT                                  :FIELD
LOC  .                                                 :LOCATION
CNTY .        HARRIS                                   :COUNTY
STAT .        TEXAS                                    :STATE
CTRY .                                                 :COUNTRY
API  .                                                 :API NUMBER
UWI  .                                                 :UNIQUE WELL ID
DATE .                                                 :LOG DATE
SRVC .        Schlumberger                             :SERVICE COMPANY
LATI .DEG                                              :LATITUDE
LONG .DEG                                              :LONGITUDE
GDAT .                                                 :GeoDetic Datum
#-----------------------------------------------------------------------------
~PARAMETER INFORMATION
#MNEM.UNIT    VALUE                      DESCRIPTION
#---- -----   --------------------       ------------------------
U-PHASE_B_COMP_PER_YT.                 0 :Phase B Comparator Period Yt
U-PHASE_A_COMP_PER_XT.                 0 :Phase A Comparator Period Xt
U-MAX_EXC_CUR_LIMIT.MA       240.00000   :Requested CM Current Limit
U-REQ_EXC_FQ.HZ              50          :Requested CM Frequency
U-TILT_Y_OFFSET.           0.19916       :WPTET Tilt Y Offset
U-TILT_Y_GAIN.           1.01796         :WPTET Tilt Y Gain
U-TILT_X_OFFSET.          -1.77103       :WPTET Tilt X Offset
U-TILT_X_GAIN.           1.00000         :WPTET Tilt X Gain
U-TILT_OFFSET_TOL.           0.00100     :WPTET Tilt Offset Calibration Tolerance
U-NO_TILT_CAL_ROTATIONS.                 3 :Number of Rotations for Tilt Calibration
HAZI .DEG        0.00000                 :Hole Azimuth
U-STD_TOL_TILT.           0.01000        :Tilt Standard Deviation Tolerance
U-GUN_POS_TOL.DEG        5.00000         :Gun Position Tolerance
ROT_ANGLE_THRESHOLD.DEG        5.00000   :Rotation Stop Angle Tolerance
STOP_ROT_ANGLE.DEG       80.00000        :Rotation Stop Angle
WITN .                                   :Witness's Name
ENGI .                                   :Engineer's Name
COUN .        HARRIS                     :County or Rig Name
FN   .        WILDCAT                    :Field Name
WN   .        WPP TEST 2                 :Well Name
CN   .        SHELL INTERNATIONAL E P    :Company Name
CLAB .        County                     :County/Rig Label
SLAB .        State                      :State/Province Label
RUN  .          1                        :RUN NUMBER
PDAT .        GROUND LEVEL               :Permanent Datum
EPD  .                                   :Elevation of Permanent Datum above Mean Sea Level
LMF  .                                   :Logging Measured From (Name of Logging Elevation Reference)
APD  .                                   :Elevation of Depth Reference (LMF) above Permanent Datum
#-----------------------------------------------------------------------------
~CURVE INFORMATION
#MNEM.UNIT   API CODE                                  DESCRIPTION
#---- -----  --------                                  -----------------------
TIME .S                                                :TIME {F10.1}
FREQ_EMF_SL.HZ                                         :Electromagnetic Field Frequency {F13.4}
PH_SH_WPPCM_SL.DEG                                     :WPPCM Phase Shift {F13.4}
FREQ_EXC_REQ_SL.HZ                                     :Requested Exciter Frequency {F13.4}
RB_SL.DEG                                              :Relative Bearing {F13.4}
SDEV_SL.DEG                                            :Sonde Deviation {F13.4}
TILX_SL.DEG                                            :X-axis Tilt {F13.4}
TILY_SL.DEG                                            :Y-axis Tilt {F13.4}
ROTA_SL.DEG                                            :Motor Rotation Angle {F13.4}
MSPE_SL.RPM                                            :Motor Speed {F13.4}
#-----------------------------------------------------------------------------
# 
#     TIME    FREQ_EMF_SL  PH_SH_WPPCM_ FREQ_EXC_REQ    RB_SL       SDEV_SL      TILX_SL      TILY_SL      ROTA_SL      MSPE_SL
#                          SL           _SL
~A  
# ...
    4729.0    1019.4660       0.0000      50.8611     -73.1192       5.1580      -4.9351      -1.4959     284.9552       1.0202
    4730.0     990.9533       0.0000      50.8611     -66.8522       5.1757      -4.7580      -2.0311     291.0541       1.0309
    4731.0     967.7666       0.0000      50.8611     -62.6997       5.2845      -4.6941      -2.4214     297.1589       1.0226
    4732.0     950.6489       0.0000      50.8611     -58.2692       5.2487      -4.4622      -2.7578     303.2498       1.0309
    4733.0     938.9314       0.0000      50.8611     -52.6489       5.2393      -4.1627      -3.1759     309.3404       1.0226
    4734.0     927.6055       0.0000      50.8611     -47.8199       5.3163      -3.9364      -3.5662     315.4323       1.0226
    4735.0     920.0470       0.0000      50.8611     -42.7589       5.2885      -3.5877      -3.8803     321.5319       1.0250
    4736.0     916.0712       0.0000      50.8611     -38.2217       5.2543      -3.2481      -4.1257     327.6367       1.0226
    4737.0     919.2302       0.0000      50.8611     -32.9278       5.2110      -2.8300      -4.3710     334.1310       1.0226
    4738.0     916.7209       0.0000      50.8611     -28.8902       5.2063      -2.5123      -4.5568     340.2213       1.0144
    4739.0     923.2436       0.0000      50.8611     -23.4793       5.0787      -2.0212      -4.6572     346.3100       1.0226
    4740.0     925.0594       0.0000      50.8611     -18.6855       5.0898      -1.6286      -4.8208     352.4258       1.0226
    4741.0     935.9685       0.0000      50.8611     -11.9620       4.8809      -1.0115      -4.7743     358.5285       1.0226
    4742.0     948.0162       0.0000      50.8611      -6.5715       4.7999      -0.5497      -4.7669       4.6304       1.0226
    4743.0     961.4526       0.0000      50.8611      -3.0118       4.8368      -0.2538      -4.8301      10.7329       1.0226
    4744.0     984.8984       0.0000      50.8611       2.0005       4.7054       0.1625      -4.7018      16.8478       1.0226
    4745.0    1005.0670       0.0000      50.8611       8.5676       4.7100       0.7010      -4.6572      22.9520       1.0226
    4746.0    1018.6862       0.0000      50.8611      13.4972       4.4629       1.0406      -4.3394      29.0538       1.0226
    4747.0    1061.0322       0.0000      50.8611      19.2388       4.4471       1.4642      -4.1981      35.1533       1.0226
    4748.0    1146.9770       0.0000      50.8611      24.4893       4.2809       1.7728      -3.8953      41.2575       1.0226
    4749.0    1230.1481       0.0000      50.8611      30.0181       4.2577       2.1288      -3.6852      47.7774       1.0226
    4750.0    1273.9965       0.0000      50.8611      35.5413       4.0786       2.3698      -3.3172      53.8792       1.0226
    4751.0    1299.6765       0.0000      50.8611      42.3767       3.9761       2.6783      -2.9362      59.9810       1.0226
    4752.0    1331.6761       0.0000      50.8611      48.4132       4.0289       3.0124      -2.6723      66.0960       1.0226
    4753.0    1368.2015       0.0000      50.8611      55.2245       3.7177       3.0526      -2.1185      72.2080       1.0250
    4754.0    1394.7328       0.0000      50.8611      64.7690       3.6769       3.3246      -1.5646      78.3134       1.0226
    4755.0    1419.8031       0.0000      50.8611      69.5259       3.4985       3.2772      -1.2226      84.4309       1.0226
    4756.0    1449.3583       0.0000      50.8611      77.8307       3.4990       3.4196      -0.7376      90.5411       1.0250
    4757.0    1475.0486       0.0000      50.8611      84.8513       3.3529       3.3393      -0.3008      96.6335       1.0226
    4758.0    1496.0106       0.0000      50.8611      92.9609       3.2414       3.2371       0.1676     102.7353       1.0226
    4759.0    1528.5327       0.0000      50.8611     100.7610       3.3081       3.2498       0.6173     108.8472       1.0250
    4760.0    1556.6918       0.0000      50.8611     108.2350       3.1219       2.9650       0.9760     114.9520       1.0226
    4761.0    1577.6491       0.0000      50.8611     116.4812       3.2277       2.8883       1.4388     121.4647       1.0144
    4762.0    1598.0114       0.0000      50.8611     126.4375       3.1369       2.5232       1.8626     127.5419       1.0144
    4763.0    1608.1460       0.0000      50.8611     132.6854       3.1898       2.3443       2.1618     133.6541       1.0226
    4764.0    1623.8453       0.0000      50.8611     136.5348       3.3052       2.2731       2.3978     137.1869       0.0005
    4765.0    1630.5214       0.0000      50.8611     135.9937       3.2648       2.2675       2.3476     137.1869       0.0005
    4766.0    1630.5214       0.0000      50.8611     136.6462       3.2858       2.2548       2.3885     137.1869       0.0005
    4767.0    1626.7490       0.0000      50.8611     138.8849       3.3091       2.1744       2.4926     137.1869       0.0005
    4768.0    1630.5214       0.0000      50.8611     137.7299       3.2664       2.1963       2.4164     137.1869       0.0005
    4769.0    1631.3805       0.0000      50.8611     135.7197       3.2619       2.2767       2.3346     137.1869       0.0005
    4770.0    1629.3264       0.0000      50.8611     136.8914       3.2548       2.2238       2.3755     137.1869       0.0005
    4771.0    1629.3264       0.0000      50.8611     139.6548       3.3739       2.1836       2.5707     137.1869       0.0005
    4772.0    1633.4522       0.0000      50.8611     137.3904       3.2587       2.2055       2.3978     137.1869       0.0005
    4773.0    1625.5596       0.0000      50.8611     137.7613       3.2821       2.2055       2.4294     137.1869       0.0005
    4774.0    1632.2436       0.0000      50.8611     137.5214       3.2343       2.1836       2.3848     137.1869       0.0005
    4775.0    1632.2436       0.0000      50.8611     138.2415       3.2525       2.1653       2.4257     137.1869       0.0005
    4776.0    1633.4522       0.0000      50.8611     136.7076       3.3392       2.2894       2.4294     137.1869       0.0005
    4777.0    1633.4522       0.0000      50.8611     137.5017       3.2656       2.2055       2.4071     137.1869       0.0005
    4778.0    1631.3805       0.0000      50.8611     138.2415       3.2525       2.1653       2.4257     137.1869       0.0005
    4779.0    1634.7424       0.0000      50.8611     136.7255       3.2636       2.2365       2.3755     137.1869       0.0005
    4780.0    1630.5214       0.0000      50.8611     138.1253       3.3057       2.2055       2.4610     137.1869       0.0005
    4781.0    1632.2436       0.0000      50.8611     135.1418       3.1735       2.2365       2.2492     137.1869       0.0005
    4782.0    1634.3113       0.0000      50.8611     137.4180       3.2145       2.1744       2.3662     137.1869       0.0005
    4783.0    1630.5214       0.0000      50.8611     135.7628       3.2906       2.2949       2.3569     137.1869       0.0005
    4784.0    1630.5214       0.0000      50.8611     136.2549       3.3331       2.3041       2.4071     137.1869       0.0005
    4785.0    1629.3264       0.0000      50.8611     138.0562       3.3471       2.2365       2.4889     137.1869       0.0005
    4786.0    1631.3805       0.0000      50.8611     139.0341       3.3511       2.1963       2.5298     137.1869       0.0005
    4787.0    1632.2436       0.0000      50.8611     137.6288       3.2412       2.1836       2.3941     137.1869       0.0005
    4788.0    1631.3805       0.0000      50.8611     138.4530       3.3264       2.2055       2.4889     137.1869       0.0005
    4789.0    1628.4632       0.0000      50.8611     137.1311       3.3156       2.2548       2.4294     137.1869       0.0005
    4790.0    1632.2436       0.0000      50.8611     137.6084       3.3972       2.2894       2.5075     137.1869       0.0005
    4791.0    1634.7424       0.0000      50.8611     138.4593       3.3528       2.2228       2.5088     137.1869       0.0005
