~VERSION INFORMATION
VERS.           2.0   :CWLS Log ASCII Standard - VERSION 2.0
WRAP.           NO    :One Line per depth step
PROD.  Schlumberger   :LAS Producer
PROG.  DLIS to ASCII 19C2-270                          :LAS Program name and version
CREA.        2017/09/16 17:42                          :LAS Creation date {YYYY/MM/DD hh:mm}
DLIS_CREA.  2017-Sep-15 12:00                          :DLIS Creation date and time {YYYY-MMM-DD hh:mm}
SOURCE.     LPC_S1-1_A5.DLIS                           :DLIS File Name
FILE-ID.     PERFO_Perfo_WPGRT_019LTP                  :File Identification Number
#--------------------------------------------------
~WELL INFORMATION
#MNEM.UNIT      DATA             DESCRIPTION
#---- ------ --------------   -----------------------------
STRT .S         4414.0       :START TIME      
STOP .S         5447.0       :STOP TIME      
STEP .S            1.0       :STEP     
NULL .          -999.25      :NULL VALUE
COMP .        SHELL INTERNATIONAL E P                  :COMPANY
WELL .        WPP TEST 2                               :WELL
FLD  .        WILDCAT                                  :FIELD
LOC  .                                                 :LOCATION
CNTY .        HARRIS                                   :COUNTY
STAT .        TEXAS                                    :STATE
CTRY .                                                 :COUNTRY
API  .                                                 :API NUMBER
UWI  .                                                 :UNIQUE WELL ID
DATE .                                                 :LOG DATE
SRVC .        Schlumberger                             :SERVICE COMPANY
LATI .DEG                                              :LATITUDE
LONG .DEG                                              :LONGITUDE
GDAT .                                                 :GeoDetic Datum
#-----------------------------------------------------------------------------
~PARAMETER INFORMATION
#MNEM.UNIT    VALUE                      DESCRIPTION
#---- -----   --------------------       ------------------------
U-PHASE_B_COMP_PER_YT.                 0 :Phase B Comparator Period Yt
U-PHASE_A_COMP_PER_XT.                 0 :Phase A Comparator Period Xt
U-MAX_EXC_CUR_LIMIT.MA       240.00000   :Requested CM Current Limit
U-REQ_EXC_FQ.HZ              50          :Requested CM Frequency
U-TILT_Y_OFFSET.           0.19916       :WPTET Tilt Y Offset
U-TILT_Y_GAIN.           1.01796         :WPTET Tilt Y Gain
U-TILT_X_OFFSET.          -1.77103       :WPTET Tilt X Offset
U-TILT_X_GAIN.           1.00000         :WPTET Tilt X Gain
U-TILT_OFFSET_TOL.           0.00100     :WPTET Tilt Offset Calibration Tolerance
U-NO_TILT_CAL_ROTATIONS.                 3 :Number of Rotations for Tilt Calibration
HAZI .DEG        0.00000                 :Hole Azimuth
U-STD_TOL_TILT.           0.01000        :Tilt Standard Deviation Tolerance
U-GUN_POS_TOL.DEG        5.00000         :Gun Position Tolerance
ROT_ANGLE_THRESHOLD.DEG        5.00000   :Rotation Stop Angle Tolerance
STOP_ROT_ANGLE.DEG       80.00000        :Rotation Stop Angle
WITN .                                   :Witness's Name
ENGI .                                   :Engineer's Name
COUN .        HARRIS                     :County or Rig Name
FN   .        WILDCAT                    :Field Name
WN   .        WPP TEST 2                 :Well Name
CN   .        SHELL INTERNATIONAL E P    :Company Name
CLAB .        County                     :County/Rig Label
SLAB .        State                      :State/Province Label
RUN  .          1                        :RUN NUMBER
PDAT .        GROUND LEVEL               :Permanent Datum
EPD  .                                   :Elevation of Permanent Datum above Mean Sea Level
LMF  .                                   :Logging Measured From (Name of Logging Elevation Reference)
APD  .                                   :Elevation of Depth Reference (LMF) above Permanent Datum
#-----------------------------------------------------------------------------
~CURVE INFORMATION
#MNEM.UNIT   API CODE                                  DESCRIPTION
#---- -----  --------                                  -----------------------
TIME .S                                                :TIME {F10.1}
FREQ_EMF_SL.HZ                                         :Electromagnetic Field Frequency {F13.4}
PH_SH_WPPCM_SL.DEG                                     :WPPCM Phase Shift {F13.4}
FREQ_EXC_REQ_SL.HZ                                     :Requested Exciter Frequency {F13.4}
RB_SL.DEG                                              :Relative Bearing {F13.4}
SDEV_SL.DEG                                            :Sonde Deviation {F13.4}
TILX_SL.DEG                                            :X-axis Tilt {F13.4}
TILY_SL.DEG                                            :Y-axis Tilt {F13.4}
ROTA_SL.DEG                                            :Motor Rotation Angle {F13.4}
MSPE_SL.RPM                                            :Motor Speed {F13.4}
#-----------------------------------------------------------------------------
# 
#     TIME    FREQ_EMF_SL  PH_SH_WPPCM_ FREQ_EXC_REQ    RB_SL       SDEV_SL      TILX_SL      TILY_SL      ROTA_SL      MSPE_SL
#                          SL           _SL
~A  
# ...
    5233.0    1588.3408       0.0000      50.8611     120.3226       3.2684       2.8207       1.6488     152.2586       1.0226
    5234.0    1603.6482       0.0000      50.8611     129.5562       3.2381       2.4958       2.0614     158.3605       1.0226
    5235.0    1619.2563       0.0000      50.8611     136.6078       3.3874       2.3260       2.4610     164.4501       1.0202
    5236.0    1631.3805       0.0000      50.8611     140.7375       3.3450       2.1160       2.5893     167.1698       0.0005
    5237.0    1632.2436       0.0000      50.8611     139.1829       3.3140       2.1653       2.5075     167.1698       0.0005
    5238.0    1637.2557       0.0000      50.8611     141.0515       3.3471       2.1033       2.6022     167.1698       0.0005
    5239.0    1629.3264       0.0000      50.8611     141.6974       3.4098       2.1124       2.6747     167.1698       0.0005
    5240.0    1633.1107       0.0000      50.8611     140.5176       3.3435       2.1251       2.5800     167.1698       0.0005
    5241.0    1638.1188       0.0000      50.8611     139.1489       3.2917       2.1526       2.4889     167.1698       0.0005
    5242.0    1638.9860       0.0000      50.8611     139.2094       3.2599       2.1288       2.4666     167.1698       0.0005
    5243.0    1629.3264       0.0000      50.8611     139.8904       3.3153       2.1343       2.5354     167.1698       0.0005
    5244.0    1636.0416       0.0000      50.8611     138.5686       3.4852       2.3094       2.6022     167.1698       0.0005
    5245.0    1641.0770       0.0000      50.8611     143.6013       3.1760       1.8860       2.5540     167.1698       0.0005
    5246.0    1637.2557       0.0000      50.8611     137.5770       3.1947       2.1526       2.3589     167.1698       0.0005
    5247.0    1636.0416       0.0000      50.8611     141.1196       3.2993       2.0686       2.5650     167.1698       0.0005
    5248.0    1634.8572       0.0000      50.8611     139.5026       3.3226       2.1562       2.5261     167.1698       0.0005
    5249.0    1638.1188       0.0000      50.8611     139.8344       3.2821       2.1160       2.5075     167.1698       0.0005
    5250.0    1637.2557       0.0000      50.8611     139.8637       3.2153       2.0722       2.4573     167.1698       0.0005
    5251.0    1634.3113       0.0000      50.8611     139.4880       3.3821       2.1963       2.5707     167.1698       0.0005
    5252.0    1635.1744       0.0000      50.8611     140.1539       3.4728       2.2238       2.6654     167.1698       0.0005
    5253.0    1636.0416       0.0000      50.8611     141.8636       3.3432       2.0612       2.6265     167.1698       0.0005
    5254.0    1632.2436       0.0000      50.8611     136.8769       3.3071       2.2584       2.4127     167.1698       0.0005
    5255.0    1632.2436       0.0000      50.8611     140.2421       3.3942       2.1689       2.6079     167.1698       0.0005
    5256.0    1641.0770       0.0000      50.8611     141.7782       3.2851       2.0321       2.5800     167.1698       0.0005
    5257.0    1635.1744       0.0000      50.8611     139.4109       3.2249       2.0977       2.4480     167.1698       0.0005
    5258.0    1632.2436       0.0000      50.8611     139.7567       3.2083       2.0722       2.4480     167.1698       0.0005
    5259.0    1635.1744       0.0000      50.8611     140.4433       3.2674       2.0777       2.5148     167.1698       0.0005
    5260.0    1638.1188       0.0000      50.8611     136.6983       3.1918       2.1925       2.3030     167.1698       0.0005
    5261.0    1634.3113       0.0000      50.8611     138.8926       3.2442       2.1307       2.4424     167.1698       0.0005
    5262.0    1635.1744       0.0000      50.8611     140.1169       3.4217       2.1927       2.6245     167.1698       0.0005
    5263.0    1638.1188       0.0000      50.8611     140.7448       3.4432       2.1781       2.6654     167.1698       0.0005
    5264.0    1636.3966       0.0000      50.8611     137.8102       3.3177       2.2274       2.4573     167.1698       0.0005
    5265.0    1632.2436       0.0000      50.8611     141.3405       3.3738       2.1069       2.6338     167.1698       0.0005
    5266.0    1635.1744       0.0000      50.8611     141.4923       3.3499       2.0850       2.6208     167.1698       0.0005
    5267.0    1638.9860       0.0000      50.8611     139.1829       3.3140       2.1653       2.5075     167.1698       0.0005
    5268.0    1637.2557       0.0000      50.8611     140.8300       3.3459       2.1124       2.5929     167.1698       0.0005
    5269.0    1630.1935       0.0000      50.8611     139.8327       3.4354       2.2146       2.6245     167.1698       0.0005
    5270.0    1632.2436       0.0000      50.8611     140.3722       3.3674       2.1470       2.5929     167.1698       0.0005
    5271.0    1633.4522       0.0000      50.8611     142.2326       3.3914       2.0758       2.6803     169.2174       0.6137
    5272.0    1637.2557       0.0000      50.8611     148.3679       3.3568       1.7600       2.8569     173.8043       0.8836
    5273.0    1638.1188       0.0000      50.8611     153.7105       3.3693       1.4916       3.0204     179.6478       1.0144
    5274.0    1642.8153       0.0000      50.8611     163.2022       3.4639       1.0005       3.3159     185.7600       1.0226
    5275.0    1644.9164       0.0000      50.8611     169.7715       3.5780       0.6354       3.5204     191.8742       1.0226
    5276.0    1638.9860       0.0000      50.8611     178.0207       3.7563       0.1315       3.7527     197.9768       1.0226
    5277.0    1633.9819       0.0000      50.8611    -175.6877       3.8310      -0.2885       3.8196     204.0685       1.0202
    5278.0    1630.5214       0.0000      50.8611    -167.7218       3.7570      -0.7979       3.6710     210.1714       1.0202
    5279.0    1613.5155       0.0000      50.8611    -163.2783       4.1072      -1.1813       3.9329     216.2709       1.0226
    5280.0    1596.8721       0.0000      50.8611    -156.3471       4.1025      -1.6450       3.7564     222.3632       1.0202
    5281.0    1580.0563       0.0000      50.8611    -150.6654       4.2996      -2.1051       3.7471     228.8697       1.0226
    5282.0    1561.7118       0.0000      50.8611    -144.6516       4.2285      -2.4447       3.4479     234.9847       1.0144
    5283.0    1535.9717       0.0000      50.8611    -138.1514       4.4547      -2.9705       3.3159     241.0742       1.0226
    5284.0    1503.6203       0.0000      50.8611    -132.2799       4.4589      -3.2974       2.9981     247.1761       1.0226
    5285.0    1487.9581       0.0000      50.8611    -127.0354       4.5903      -3.6625       2.7621     253.2942       1.0144
    5286.0    1463.1869       0.0000      50.8611    -121.4303       4.7173      -4.0240       2.4573     259.3807       1.0226
    5287.0    1426.6409       0.0000      50.8611    -112.5069       4.9851      -4.5972       1.8924     265.4832       1.0226
    5288.0    1401.9220       0.0000      50.8611    -110.1539       4.8695      -4.5699       1.6767     271.5851       1.0226
    5289.0    1375.9785       0.0000      50.8611    -106.3358       4.9625      -4.7616       1.3942     277.7000       1.0226
    5290.0    1341.2601       0.0000      50.8611    -100.4514       4.9870      -4.9040       0.9036     283.8018       1.0144
    5291.0    1307.8398       0.0000      50.8611     -96.0010       5.1708      -5.1414       0.5412     289.8920       1.0226
    5292.0    1243.0967       0.0000      50.8611     -88.7950       5.1809      -5.1797      -0.1093     295.9955       1.0226
    5293.0    1162.4683       0.0000      50.8611     -85.2483       5.2747      -5.2564      -0.4364     302.5022       1.0226
    5294.0    1097.8370       0.0000      50.8611     -79.6069       5.3223      -5.2345      -0.9587     308.6171       1.0226
    5295.0    1038.2331       0.0000      50.8611     -74.6797       5.1685      -4.9844      -1.3639     314.7065       1.0226
