~VERSION INFORMATION
VERS.           2.0   :CWLS Log ASCII Standard - VERSION 2.0
WRAP.           NO    :One Line per depth step
PROD.  Schlumberger   :LAS Producer
PROG.  DLIS to ASCII 19C2-270                          :LAS Program name and version
CREA.        2017/09/16 17:42                          :LAS Creation date {YYYY/MM/DD hh:mm}
DLIS_CREA.  2017-Sep-15 17:53                          :DLIS Creation date and time {YYYY-MMM-DD hh:mm}
SOURCE.     LPC_S4-1_BV.DLIS                           :DLIS File Name
FILE-ID.     PERFO_Perfo_WPGRT_051LTP                  :File Identification Number
#--------------------------------------------------
~WELL INFORMATION
#MNEM.UNIT      DATA             DESCRIPTION
#---- ------ --------------   -----------------------------
STRT .S         3166.0       :START TIME      
STOP .S         3598.0       :STOP TIME      
STEP .S            1.0       :STEP     
NULL .          -999.25      :NULL VALUE
COMP .        SHELL INTERNATIONAL E P                  :COMPANY
WELL .        WPP TEST 2                               :WELL
FLD  .        WILDCAT                                  :FIELD
LOC  .        NA                                       :LOCATION
CNTY .        HARRIS                                   :COUNTY
STAT .        TEXAS                                    :STATE
CTRY .                                                 :COUNTRY
API  .        NA                                       :API NUMBER
UWI  .                                                 :UNIQUE WELL ID
DATE .        15-Sep-2017                              :LOG DATE {DD-MMM-YYYY}
SRVC .        Schlumberger                             :SERVICE COMPANY
LATI .DEG                                              :LATITUDE
LONG .DEG                                              :LONGITUDE
GDAT .                                                 :GeoDetic Datum
SECT .        NA                                       :Section
RANG .        NA                                       :Range
TOWN .        NA                                       :Township
#-----------------------------------------------------------------------------
~PARAMETER INFORMATION
#MNEM.UNIT    VALUE                      DESCRIPTION
#---- -----   --------------------       ------------------------
U-PHASE_B_COMP_PER_YT.                 0 :Phase B Comparator Period Yt
U-PHASE_A_COMP_PER_XT.                 0 :Phase A Comparator Period Xt
U-MAX_EXC_CUR_LIMIT.MA       240.00000   :Requested CM Current Limit
U-REQ_EXC_FQ.HZ              50          :Requested CM Frequency
U-TILT_Y_OFFSET.           0.19916       :WPTET Tilt Y Offset
U-TILT_Y_GAIN.           1.01796         :WPTET Tilt Y Gain
U-TILT_X_OFFSET.          -1.77103       :WPTET Tilt X Offset
U-TILT_X_GAIN.           1.00000         :WPTET Tilt X Gain
U-TILT_OFFSET_TOL.           0.00100     :WPTET Tilt Offset Calibration Tolerance
U-NO_TILT_CAL_ROTATIONS.                 3 :Number of Rotations for Tilt Calibration
HAZI .DEG        0.00000                 :Hole Azimuth
U-STD_TOL_TILT.           0.01000        :Tilt Standard Deviation Tolerance
U-GUN_POS_TOL.DEG        5.00000         :Gun Position Tolerance
ROT_ANGLE_THRESHOLD.DEG        5.00000   :Rotation Stop Angle Tolerance
STOP_ROT_ANGLE.DEG        0.00000        :Rotation Stop Angle
WITN .        MR. DHRUA ARORA            :Witness's Name
ENGI .        MORRIS MOORE               :Engineer's Name
COUN .        HARRIS                     :County or Rig Name
FN   .        WILDCAT                    :Field Name
WN   .        WPP TEST 2                 :Well Name
CN   .        SHELL INTERNATIONAL E P    :Company Name
CLAB .        County                     :County/Rig Label
SLAB .        State                      :State/Province Label
RUN  .          1                        :RUN NUMBER
PDAT .        GROUND LEVEL               :Permanent Datum
EPD  .                                   :Elevation of Permanent Datum above Mean Sea Level
LMF  .          NA                       :Logging Measured From (Name of Logging Elevation Reference)
APD  .                                   :Elevation of Depth Reference (LMF) above Permanent Datum
#-----------------------------------------------------------------------------
~CURVE INFORMATION
#MNEM.UNIT   API CODE                                  DESCRIPTION
#---- -----  --------                                  -----------------------
TIME .S                                                :TIME {F10.1}
FREQ_EMF_SL.HZ                                         :Electromagnetic Field Frequency {F13.4}
PH_SH_WPPCM_SL.DEG                                     :WPPCM Phase Shift {F13.4}
FREQ_EXC_REQ_SL.HZ                                     :Requested Exciter Frequency {F13.4}
RB_SL.DEG                                              :Relative Bearing {F13.4}
SDEV_SL.DEG                                            :Sonde Deviation {F13.4}
TILX_SL.DEG                                            :X-axis Tilt {F13.4}
TILY_SL.DEG                                            :Y-axis Tilt {F13.4}
ROTA_SL.DEG                                            :Motor Rotation Angle {F13.4}
MSPE_SL.RPM                                            :Motor Speed {F13.4}
#-----------------------------------------------------------------------------
# 
#     TIME    FREQ_EMF_SL  PH_SH_WPPCM_ FREQ_EXC_REQ    RB_SL       SDEV_SL      TILX_SL      TILY_SL      ROTA_SL      MSPE_SL
#                          SL           _SL
~A  
# ...
    3544.0    1382.5229       0.0000      50.8611     -48.3543       0.6257      -0.4681      -0.4142     139.0495       1.0226
    3545.0    1419.6186       0.0000      50.8611     -59.0528       0.5855      -0.5024      -0.2975     145.1499       1.0226
    3546.0    1463.0732       0.0000      50.8611     -58.3342       0.5566      -0.4739      -0.2915     151.2542       1.0226
    3547.0    1504.6820       0.0000      50.8611     -64.5567       0.5117      -0.4622      -0.2157     157.3849       1.0226
    3548.0    1557.5289       0.0000      50.8611     -62.1152       0.4725      -0.4171      -0.2217     163.4842       1.0226
    3549.0    1600.0616       0.0000      50.8611     -75.5372       0.5137      -0.4974      -0.1279     169.5861       1.0226
    3550.0    1634.6196       0.0000      50.8611     -71.9264       0.8498      -0.8061      -0.2676     176.0956       1.0226
    3551.0    1682.1173       0.0000      50.8611     -88.9769       0.5555      -0.5552      -0.0113     182.1975       1.0318
    3552.0    1713.1171       0.0000      50.8611     -83.7612       0.6853      -0.6807      -0.0751     188.3237       1.0318
    3553.0    1739.7799       0.0000      50.8611     -84.5383       0.6096      -0.6062      -0.0581     194.4152       1.0226
    3554.0    1754.0700       0.0000      50.8611     -89.6053       0.7669      -0.7669      -0.0053     200.5047       1.0211
    3555.0    1779.4058       0.0000      50.8611     -81.0933       0.7942      -0.7845      -0.1220     206.2644       0.1502
    3556.0    1791.6938       0.0000      50.8611     -90.0325       0.7729      -0.7727       0.0007     206.3833       0.0005
    3557.0    1784.5813       0.0000      50.8611     -89.6108       0.7786      -0.7786      -0.0053     206.3833       0.0005
    3558.0    1784.5813       0.0000      50.8611     -85.8868       0.8096      -0.8070      -0.0581     206.3833       0.0005
    3559.0    1793.6862       0.0000      50.8611     -87.1521       0.8140      -0.8129      -0.0402     206.3833       0.0005
    3560.0    1789.7897       0.0000      50.8611     -86.8804       0.8484      -0.8472      -0.0462     206.3833       0.0005
    3561.0    1793.0187       0.0000      50.8611     -90.0493       0.8072      -0.8070       0.0007     206.3833       0.0005
    3562.0    1789.1222       0.0000      50.8611     -84.0902       0.8458      -0.8413      -0.0871     206.3833       0.0005
    3563.0    1785.2454       0.0000      50.8611     -86.2571       0.8030      -0.8012      -0.0522     206.3833       0.0005
    3564.0    1789.7897       0.0000      50.8611     -88.8217       0.8136      -0.8129      -0.0172     206.3833       0.0005
    3565.0    1788.4581       0.0000      50.8611     -89.2442       0.8190      -0.8188      -0.0113     206.3833       0.0005
    3566.0    1789.7897       0.0000      50.8611     -89.1655       0.7387      -0.7384      -0.0113     206.3833       0.0005
    3567.0    1792.3546       0.0000      50.8611     -81.9167       0.6999      -0.6924      -0.0990     206.3833       0.0005
    3568.0    1793.0187       0.0000      50.8611     -94.8969       0.8513      -0.8481       0.0705     206.3833       0.0005
    3569.0    1785.9129       0.0000      50.8611     -85.6986       0.9492      -0.9383      -0.0801     206.3833       0.0005
    3570.0    1797.6028       0.0000      50.8611     -93.8033       0.8225      -0.8188       0.0526     206.3833       0.0005
    3571.0    1793.0187       0.0000      50.8611     -72.7976       0.8874      -0.8472      -0.2626     206.3833       0.0005
    3572.0    1793.0187       0.0000      50.8611     -91.5984       0.8480      -0.8472       0.0236     206.3833       0.0005
    3573.0    1785.2454       0.0000      50.8611     -89.1405       0.7328      -0.7326      -0.0113     206.3833       0.0005
    3574.0    1789.7897       0.0000      50.8611     -86.7482       0.8142      -0.8129      -0.0462     206.3833       0.0005
    3575.0    1797.6028       0.0000      50.8611     -84.0140       0.7830      -0.7786      -0.0811     206.3833       0.0005
    3576.0    1792.3546       0.0000      50.8611     -87.4580       0.8396      -0.8354      -0.0352     206.3833       0.0005
    3577.0    1785.9129       0.0000      50.8611     -78.9124       0.8110      -0.7953      -0.1569     206.3833       0.0005
    3578.0    1793.0187       0.0000      50.8611     -94.4348       0.8427      -0.8364       0.0715     206.3833       0.0005
    3579.0    1793.0187       0.0000      50.8611     -89.9991       0.7846      -0.7845       0.0007     206.3833       0.0005
    3580.0    1789.7897       0.0000      50.8611     -84.5562       0.7371      -0.7326      -0.0691     206.3833       0.0005
    3581.0    1793.6862       0.0000      50.8611     -90.0325       0.7729      -0.7727       0.0007     206.3833       0.0005
    3582.0    1789.1222       0.0000      50.8611     -94.2930       0.9293      -0.9266       0.0705     206.3833       0.0005
    3583.0    1793.0187       0.0000      50.8611     -84.5118       0.8453      -0.8413      -0.0811     206.3833       0.0005
    3584.0    1789.1222       0.0000      50.8611     -92.8466       0.8425      -0.8413       0.0416     206.3833       0.0005
    3585.0    1789.1222       0.0000      50.8611     -78.1679       0.8967      -0.8756      -0.1858     206.3833       0.0005
    3586.0    1789.1222       0.0000      50.8611     -87.4047       0.8825      -0.8815      -0.0402     206.3833       0.0005
    3587.0    1792.3546       0.0000      50.8611     -78.2639       0.9364      -0.9158      -0.1918     206.3833       0.0005
    3588.0    1789.1222       0.0000      50.8611     -88.7793       0.8077      -0.8070      -0.0172     206.3833       0.0005
    3589.0    1790.4606       0.0000      50.8611     -86.6227       0.7858      -0.7845      -0.0462     206.3833       0.0005
    3590.0    1792.3546       0.0000      50.8611     -91.7657       0.7678      -0.7669       0.0236     206.3833       0.0005
    3591.0    1789.1222       0.0000      50.8611     -80.5741       0.7487      -0.7384      -0.1220     206.3833       0.0005
    3592.0    1797.6028       0.0000      50.8611     -82.8218       0.7853      -0.7786      -0.0990     206.3833       0.0005
    3593.0    1787.7973       0.0000      50.8611     -87.0008       0.8827      -0.8815      -0.0462     206.3833       0.0005
    3594.0    1789.1222       0.0000      50.8611     -86.6727       0.7966      -0.7953      -0.0462     206.3833       0.0005
    3595.0    1789.1222       0.0000      50.8611     -86.8578       0.8426      -0.8413      -0.0462     206.3833       0.0005
    3596.0    1785.9129       0.0000      50.8611     -87.9963       0.8087      -0.8070      -0.0282     206.3833       0.0005
    3597.0    1793.6862       0.0000      50.8611     -87.5739       0.8083      -0.8070      -0.0342     206.3833       0.0005
    3598.0    1788.4581       0.0000      50.8611     -84.9358       0.8451      -0.8413      -0.0751     206.3833       0.0005
