~VERSION INFORMATION
VERS.           2.0   :CWLS Log ASCII Standard - VERSION 2.0
WRAP.           NO    :One Line per depth step
PROD.  Schlumberger   :LAS Producer
PROG.  DLIS to ASCII 19C2-270                          :LAS Program name and version
CREA.        2017/09/16 17:42                          :LAS Creation date {YYYY/MM/DD hh:mm}
DLIS_CREA.  2017-Sep-15 18:33                          :DLIS Creation date and time {YYYY-MMM-DD hh:mm}
SOURCE.     LPC_S4-1_2BV.DLIS                          :DLIS File Name
FILE-ID.     PERFO_Perfo_WPGRT_056LTP                  :File Identification Number
#--------------------------------------------------
~WELL INFORMATION
#MNEM.UNIT      DATA             DESCRIPTION
#---- ------ --------------   -----------------------------
STRT .S         5560.0       :START TIME      
STOP .S         6042.0       :STOP TIME      
STEP .S            1.0       :STEP     
NULL .          -999.25      :NULL VALUE
COMP .        SHELL INTERNATIONAL E P                  :COMPANY
WELL .        WPP TEST 2                               :WELL
FLD  .        WILDCAT                                  :FIELD
LOC  .        NA                                       :LOCATION
CNTY .        HARRIS                                   :COUNTY
STAT .        TEXAS                                    :STATE
CTRY .                                                 :COUNTRY
API  .        NA                                       :API NUMBER
UWI  .                                                 :UNIQUE WELL ID
DATE .        15-Sep-2017                              :LOG DATE {DD-MMM-YYYY}
SRVC .        Schlumberger                             :SERVICE COMPANY
LATI .DEG                                              :LATITUDE
LONG .DEG                                              :LONGITUDE
GDAT .                                                 :GeoDetic Datum
SECT .        NA                                       :Section
RANG .        NA                                       :Range
TOWN .        NA                                       :Township
#-----------------------------------------------------------------------------
~PARAMETER INFORMATION
#MNEM.UNIT    VALUE                      DESCRIPTION
#---- -----   --------------------       ------------------------
U-PHASE_B_COMP_PER_YT.                 0 :Phase B Comparator Period Yt
U-PHASE_A_COMP_PER_XT.                 0 :Phase A Comparator Period Xt
U-MAX_EXC_CUR_LIMIT.MA       240.00000   :Requested CM Current Limit
U-REQ_EXC_FQ.HZ              50          :Requested CM Frequency
U-TILT_Y_OFFSET.           0.19916       :WPTET Tilt Y Offset
U-TILT_Y_GAIN.           1.01796         :WPTET Tilt Y Gain
U-TILT_X_OFFSET.          -1.77103       :WPTET Tilt X Offset
U-TILT_X_GAIN.           1.00000         :WPTET Tilt X Gain
U-TILT_OFFSET_TOL.           0.00100     :WPTET Tilt Offset Calibration Tolerance
U-NO_TILT_CAL_ROTATIONS.                 3 :Number of Rotations for Tilt Calibration
HAZI .DEG        0.00000                 :Hole Azimuth
U-STD_TOL_TILT.           0.01000        :Tilt Standard Deviation Tolerance
U-GUN_POS_TOL.DEG        5.00000         :Gun Position Tolerance
ROT_ANGLE_THRESHOLD.DEG        5.00000   :Rotation Stop Angle Tolerance
STOP_ROT_ANGLE.DEG        0.00000        :Rotation Stop Angle
WITN .        MR. DHRUA ARORA            :Witness's Name
ENGI .        MORRIS MOORE               :Engineer's Name
COUN .        HARRIS                     :County or Rig Name
FN   .        WILDCAT                    :Field Name
WN   .        WPP TEST 2                 :Well Name
CN   .        SHELL INTERNATIONAL E P    :Company Name
CLAB .        County                     :County/Rig Label
SLAB .        State                      :State/Province Label
RUN  .          1                        :RUN NUMBER
PDAT .        GROUND LEVEL               :Permanent Datum
EPD  .                                   :Elevation of Permanent Datum above Mean Sea Level
LMF  .          NA                       :Logging Measured From (Name of Logging Elevation Reference)
APD  .                                   :Elevation of Depth Reference (LMF) above Permanent Datum
#-----------------------------------------------------------------------------
~CURVE INFORMATION
#MNEM.UNIT   API CODE                                  DESCRIPTION
#---- -----  --------                                  -----------------------
TIME .S                                                :TIME {F10.1}
FREQ_EMF_SL.HZ                                         :Electromagnetic Field Frequency {F13.4}
PH_SH_WPPCM_SL.DEG                                     :WPPCM Phase Shift {F13.4}
FREQ_EXC_REQ_SL.HZ                                     :Requested Exciter Frequency {F13.4}
RB_SL.DEG                                              :Relative Bearing {F13.4}
SDEV_SL.DEG                                            :Sonde Deviation {F13.4}
TILX_SL.DEG                                            :X-axis Tilt {F13.4}
TILY_SL.DEG                                            :Y-axis Tilt {F13.4}
ROTA_SL.DEG                                            :Motor Rotation Angle {F13.4}
MSPE_SL.RPM                                            :Motor Speed {F13.4}
#-----------------------------------------------------------------------------
# 
#     TIME    FREQ_EMF_SL  PH_SH_WPPCM_ FREQ_EXC_REQ    RB_SL       SDEV_SL      TILX_SL      TILY_SL      ROTA_SL      MSPE_SL
#                          SL           _SL
~A  
# ...
    6001.0    1302.0834       0.0000      50.8611     -52.9204       0.9882      -0.7894      -0.5937     201.5360       1.0226
    6002.0    1321.1217       0.0000      50.8611     -46.5476       0.9648      -0.7070      -0.6505     207.6510       1.0226
    6003.0    1338.8625       0.0000      50.8611     -47.4358       0.9879      -0.7267      -0.6685     213.7529       1.0226
    6004.0    1352.7405       0.0000      50.8611     -54.8667       0.9641      -0.7894      -0.5528     219.8604       1.0162
    6005.0    1353.7527       0.0000      50.8611     -51.6950       0.9062      -0.7110      -0.5618     225.9575       1.0226
    6006.0    1362.6454       0.0000      50.8611     -53.0222       0.9210      -0.7355      -0.5528     232.0605       1.0226
    6007.0    1374.9304       0.0000      50.8611     -55.0572       0.9657      -0.7914      -0.5528     238.1612       1.0226
    6008.0    1385.7697       0.0000      50.8611     -51.7044       0.9472      -0.7424      -0.5867     244.6693       1.0226
    6009.0    1390.1847       0.0000      50.8611     -54.6065       0.9419      -0.7669      -0.5458     250.7843       1.0226
    6010.0    1388.9764       0.0000      50.8611     -58.0116       0.9526      -0.8070      -0.5049     256.8757       1.0185
    6011.0    1398.3472       0.0000      50.8611     -55.6876       0.8798      -0.7267      -0.4959     262.9894       1.0226
    6012.0    1406.8744       0.0000      50.8611     -50.2003       0.9238      -0.7090      -0.5867     269.0924       1.0226
    6013.0    1414.9148       0.0000      50.8611     -58.4078       0.9302      -0.7914      -0.4869     275.2074       1.0226
    6014.0    1411.4279       0.0000      50.8611     -65.3722       0.8974      -0.8159      -0.3733     281.3223       1.0226
    6015.0    1426.3966       0.0000      50.8611     -51.6646       0.7641      -0.5994      -0.4710     287.4241       1.0226
    6016.0    1424.4559       0.0000      50.8611     -59.0112       0.9828      -0.8404      -0.5029     293.5316       1.0185
    6017.0    1434.3107       0.0000      50.8611     -45.3744       0.7534      -0.5347      -0.5278     299.6286       1.0226
    6018.0    1436.7390       0.0000      50.8611     -57.3300       0.9010      -0.7580      -0.4869     305.7435       1.0226
    6019.0    1440.8298       0.0000      50.8611     -54.8127       0.8664      -0.7090      -0.4959     311.8378       1.0185
    6020.0    1437.8834       0.0000      50.8611     -66.5846       0.9975      -0.9119      -0.3962     318.3410       1.0226
    6021.0    1439.0325       0.0000      50.8611     -58.6735       0.9083      -0.7757      -0.4710     319.6320       0.0005
    6022.0    1438.3964       0.0000      50.8611     -62.0057       0.8656      -0.7649      -0.4052     319.6320       0.0005
    6023.0    1438.5363       0.0000      50.8611     -60.6183       0.9104      -0.7914      -0.4481     319.6320       0.0005
    6024.0    1436.0934       0.0000      50.8611     -58.4276       0.9472      -0.8070      -0.4959     319.6320       0.0005
    6025.0    1440.1864       0.0000      50.8611     -56.2899       0.9125      -0.7580      -0.5049     319.6320       0.0005
    6026.0    1439.6807       0.0000      50.8611     -65.7367       0.9466      -0.8629      -0.3892     319.6320       0.0005
    6027.0    1438.5363       0.0000      50.8611     -66.0319       0.9637      -0.8805      -0.3892     319.6320       0.0005
    6028.0    1437.8834       0.0000      50.8611     -54.1846       0.9228      -0.7492      -0.5368     319.6320       0.0005
    6029.0    1439.0325       0.0000      50.8611     -57.9002       0.8871      -0.7512      -0.4710     319.6320       0.0005
    6030.0    1436.7390       0.0000      50.8611     -55.4039       0.8129      -0.6689      -0.4620     319.6320       0.0005
    6031.0    1435.5992       0.0000      50.8611     -56.3680       0.9693      -0.8070      -0.5368     319.6320       0.0005
    6032.0    1436.7390       0.0000      50.8611     -56.6866       0.9188      -0.7669      -0.5049     319.6320       0.0005
    6033.0    1436.0934       0.0000      50.8611     -58.1332       0.8925      -0.7580      -0.4710     319.6320       0.0005
    6034.0    1440.3411       0.0000      50.8611     -56.1026       0.9344      -0.7757      -0.5209     319.6320       0.0005
    6035.0    1441.4856       0.0000      50.8611     -57.0647       0.8963      -0.7512      -0.4869     319.6320       0.0005
    6036.0    1436.0934       0.0000      50.8611     -58.7806       0.8783      -0.7512      -0.4551     319.6320       0.0005
    6037.0    1440.1864       0.0000      50.8611     -57.8687       0.9813      -0.8227      -0.5229     319.6320       0.0005
    6038.0    1437.8834       0.0000      50.8611     -57.0784       0.8972      -0.7512      -0.4890     319.6320       0.0005
    6039.0    1436.0934       0.0000      50.8611     -58.6119       0.9059      -0.7737      -0.4710     319.6320       0.0005
    6040.0    1439.6807       0.0000      50.8611     -60.2166       1.0977      -0.9520      -0.5458     319.6320       0.0005
    6041.0    1445.6007       0.0000      50.8611     -52.4054       0.8852      -0.7070      -0.5278     319.6320       0.0005
    6042.0    3211.8056       0.0000      50.8611     -55.6434       1.0093      -0.8315      -0.5708     319.6320       0.0005
