~VERSION INFORMATION
VERS.           2.0   :CWLS Log ASCII Standard - VERSION 2.0
WRAP.           NO    :One Line per depth step
PROD.  Schlumberger   :LAS Producer
PROG.  DLIS to ASCII 19C2-270                          :LAS Program name and version
CREA.        2017/09/16 17:42                          :LAS Creation date {YYYY/MM/DD hh:mm}
DLIS_CREA.  2017-Sep-15 13:29                          :DLIS Creation date and time {YYYY-MMM-DD hh:mm}
SOURCE.     LPC_S1-1_2A5.DLIS                          :DLIS File Name
FILE-ID.     PERFO_Perfo_WPGRT_025LTP                  :File Identification Number
#--------------------------------------------------
~WELL INFORMATION
#MNEM.UNIT      DATA             DESCRIPTION
#---- ------ --------------   -----------------------------
STRT .S         9747.0       :START TIME      
STOP .S        10374.0       :STOP TIME      
STEP .S            1.0       :STEP     
NULL .          -999.25      :NULL VALUE
COMP .        SHELL INTERNATIONAL E P                  :COMPANY
WELL .        WPP TEST 2                               :WELL
FLD  .        WILDCAT                                  :FIELD
LOC  .                                                 :LOCATION
CNTY .        HARRIS                                   :COUNTY
STAT .        TEXAS                                    :STATE
CTRY .                                                 :COUNTRY
API  .                                                 :API NUMBER
UWI  .                                                 :UNIQUE WELL ID
DATE .                                                 :LOG DATE
SRVC .        Schlumberger                             :SERVICE COMPANY
LATI .DEG                                              :LATITUDE
LONG .DEG                                              :LONGITUDE
GDAT .                                                 :GeoDetic Datum
#-----------------------------------------------------------------------------
~PARAMETER INFORMATION
#MNEM.UNIT    VALUE                      DESCRIPTION
#---- -----   --------------------       ------------------------
U-PHASE_B_COMP_PER_YT.                 0 :Phase B Comparator Period Yt
U-PHASE_A_COMP_PER_XT.                 0 :Phase A Comparator Period Xt
U-MAX_EXC_CUR_LIMIT.MA       240.00000   :Requested CM Current Limit
U-REQ_EXC_FQ.HZ              40          :Requested CM Frequency
U-TILT_Y_OFFSET.           0.19916       :WPTET Tilt Y Offset
U-TILT_Y_GAIN.           1.01796         :WPTET Tilt Y Gain
U-TILT_X_OFFSET.          -1.77103       :WPTET Tilt X Offset
U-TILT_X_GAIN.           1.00000         :WPTET Tilt X Gain
U-TILT_OFFSET_TOL.           0.00100     :WPTET Tilt Offset Calibration Tolerance
U-NO_TILT_CAL_ROTATIONS.                 3 :Number of Rotations for Tilt Calibration
HAZI .DEG        0.00000                 :Hole Azimuth
U-STD_TOL_TILT.           0.01000        :Tilt Standard Deviation Tolerance
U-GUN_POS_TOL.DEG        5.00000         :Gun Position Tolerance
ROT_ANGLE_THRESHOLD.DEG        5.00000   :Rotation Stop Angle Tolerance
STOP_ROT_ANGLE.DEG       80.00000        :Rotation Stop Angle
WITN .                                   :Witness's Name
ENGI .                                   :Engineer's Name
COUN .        HARRIS                     :County or Rig Name
FN   .        WILDCAT                    :Field Name
WN   .        WPP TEST 2                 :Well Name
CN   .        SHELL INTERNATIONAL E P    :Company Name
CLAB .        County                     :County/Rig Label
SLAB .        State                      :State/Province Label
RUN  .          1                        :RUN NUMBER
PDAT .        GROUND LEVEL               :Permanent Datum
EPD  .                                   :Elevation of Permanent Datum above Mean Sea Level
LMF  .                                   :Logging Measured From (Name of Logging Elevation Reference)
APD  .                                   :Elevation of Depth Reference (LMF) above Permanent Datum
#-----------------------------------------------------------------------------
~CURVE INFORMATION
#MNEM.UNIT   API CODE                                  DESCRIPTION
#---- -----  --------                                  -----------------------
TIME .S                                                :TIME {F10.1}
FREQ_EMF_SL.HZ                                         :Electromagnetic Field Frequency {F13.4}
PH_SH_WPPCM_SL.DEG                                     :WPPCM Phase Shift {F13.4}
FREQ_EXC_REQ_SL.HZ                                     :Requested Exciter Frequency {F13.4}
RB_SL.DEG                                              :Relative Bearing {F13.4}
SDEV_SL.DEG                                            :Sonde Deviation {F13.4}
TILX_SL.DEG                                            :X-axis Tilt {F13.4}
TILY_SL.DEG                                            :Y-axis Tilt {F13.4}
ROTA_SL.DEG                                            :Motor Rotation Angle {F13.4}
MSPE_SL.RPM                                            :Motor Speed {F13.4}
#-----------------------------------------------------------------------------
# 
#     TIME    FREQ_EMF_SL  PH_SH_WPPCM_ FREQ_EXC_REQ    RB_SL       SDEV_SL      TILX_SL      TILY_SL      ROTA_SL      MSPE_SL
#                          SL           _SL
~A  
# ...
    9999.0    1515.3556       0.0000      40.6889    -128.7647       4.3041      -3.3548       2.6933      70.5875       0.0005
   10000.0    1511.2142       0.0000      40.6889    -127.7387       4.3457      -3.4351       2.6582      70.5875       0.0005
   10001.0    1513.9543       0.0000      40.6889    -128.5268       4.3556      -3.4062       2.7109      70.5875       0.0005
   10002.0    1515.8199       0.0000      40.6889    -128.9118       4.3567      -3.3889       2.7342      70.5875       0.0005
   10003.0    1512.0968       0.0000      40.6889    -128.8191       4.2336      -3.2974       2.6524      70.5875       0.0005
   10004.0    1512.5590       0.0000      40.6889    -129.1396       4.3342      -3.3604       2.7342      70.5875       0.0005
   10005.0    1515.3556       0.0000      40.6889    -128.1897       4.3211      -3.3950       2.6700      70.5875       0.0005
   10006.0    1513.0353       0.0000      40.6889    -128.5124       4.3185      -3.3777       2.6876      70.5875       0.0005
   10007.0    1517.2212       0.0000      40.6889    -130.0981       4.3197      -3.3030       2.7808      70.5875       0.0005
   10008.0    1512.0968       0.0000      40.6889    -128.0621       4.3427      -3.4179       2.6757      70.5875       0.0005
   10009.0    1513.4981       0.0000      40.6889    -128.4191       4.3936      -3.4408       2.7285      70.5875       0.0005
   10010.0    1515.3556       0.0000      40.6889    -128.8107       4.2626      -3.3203       2.6700      70.5875       0.0005
   10011.0    1517.2212       0.0000      40.6889    -128.3910       4.3111      -3.3777       2.6757      70.5875       0.0005
   10012.0    1515.3556       0.0000      40.6889    -129.2562       4.3421      -3.3604       2.7461      70.5875       0.0005
   10013.0    1515.3556       0.0000      40.6889    -128.0191       4.3761      -3.4464       2.6933      70.5875       0.0005
   10014.0    1515.3556       0.0000      40.6889    -128.8360       4.3163      -3.3604       2.7052      70.5875       0.0005
   10015.0    1510.2472       0.0000      40.6889    -128.8812       4.3117      -3.3548       2.7052      70.5875       0.0005
   10016.0    1513.9543       0.0000      40.6889    -128.3795       4.3031      -3.3721       2.6700      70.5875       0.0005
   10017.0    1515.3556       0.0000      40.6889    -128.6855       4.3950      -3.4291       2.7457      70.5875       0.0005
   10018.0    1513.9543       0.0000      40.6889    -128.9133       4.3730      -3.4006       2.7457      70.5875       0.0005
   10019.0    1516.7630       0.0000      40.6889    -128.5676       4.3510      -3.4006       2.7109      70.5875       0.0005
   10020.0    1513.9543       0.0000      40.6889    -128.3826       4.3690      -3.4235       2.7109      70.5875       0.0005
   10021.0    1514.9054       0.0000      40.6889    -128.0501       4.3347      -3.4122       2.6700      70.5875       0.0005
   10022.0    1512.0968       0.0000      40.6889    -128.9118       4.3567      -3.3889       2.7342      70.5875       0.0005
   10023.0    1517.2212       0.0000      40.6889    -128.7697       4.3410      -3.3833       2.7166      70.5875       0.0005
   10024.0    1513.9543       0.0000      40.6889    -128.2499       4.3247      -3.3950       2.6757      70.5875       0.0005
   10025.0    1514.4246       0.0000      40.6889    -128.4793       4.3969      -3.4408       2.7342      70.5875       0.0005
   10026.0    1518.1764       0.0000      40.6889    -128.4404       4.3068      -3.3721       2.6757      70.5875       0.0005
   10027.0    1512.0968       0.0000      40.6889    -128.8995       4.3196      -3.3604       2.7109      70.5875       0.0005
   10028.0    1517.2212       0.0000      40.6889    -128.5815       4.2932      -3.3548       2.6757      70.5875       0.0005
   10029.0    1509.8069       0.0000      40.6889    -128.3016       4.3572      -3.4179       2.6990      70.5875       0.0005
   10030.0    1516.2982       0.0000      40.6889    -129.3851       4.3576      -3.3664       2.7637      70.5875       0.0005
   10031.0    1513.9543       0.0000      40.6889    -128.9196       4.2986      -3.3431       2.6990      70.5875       0.0005
   10032.0    1513.9543       0.0000      40.6889    -128.8306       4.2794      -3.3319       2.6815      70.5875       0.0005
   10033.0    1513.9543       0.0000      40.6889    -128.7180       4.3085      -3.3604       2.6933      70.5875       0.0005
   10034.0    1510.2472       0.0000      40.6889    -128.3795       4.3031      -3.3721       2.6700      70.5875       0.0005
   10035.0    1513.9543       0.0000      40.6889    -128.7210       4.3827      -3.4179       2.7399      70.5875       0.0005
   10036.0    1514.9054       0.0000      40.6889    -129.2949       4.2919      -3.3203       2.7166      70.5875       0.0005
   10037.0    1512.0968       0.0000      40.6889    -128.5722       4.2852      -3.3492       2.6700      70.5875       0.0005
   10038.0    1513.9543       0.0000      40.6889    -128.9152       4.3362      -3.3721       2.7228      70.5875       0.0005
   10039.0    1513.4981       0.0000      40.6889    -129.1248       4.3263      -3.3548       2.7285      70.5875       0.0005
   10040.0    1515.3556       0.0000      40.6889    -129.6588       4.2775      -3.2917       2.7285      70.5875       0.0005
   10041.0    1516.7630       0.0000      40.6889    -129.6588       4.2775      -3.2917       2.7285      70.5875       0.0005
   10042.0    1512.5590       0.0000      40.6889    -128.0182       4.3471      -3.4235       2.6757      70.5875       0.0005
   10043.0    1511.6485       0.0000      40.6889    -129.3655       4.3410      -3.3548       2.7518      70.5875       0.0005
   10044.0    1515.8199       0.0000      40.6889    -128.6231       4.3177      -3.3721       2.6933      70.5875       0.0005
   10045.0    1513.4981       0.0000      40.6889    -127.7156       4.3296      -3.4235       2.6467      70.5875       0.0005
   10046.0    1512.5590       0.0000      40.6889    -128.8418       4.3531      -3.3893       2.7285      70.5875       0.0005
   10047.0    1517.2212       0.0000      40.6889    -128.9100       4.3649      -3.3950       2.7399      70.5875       0.0005
   10048.0    1512.0968       0.0000      40.6889    -128.6264       4.2515      -3.3203       2.6524      70.5875       0.0005
   10049.0    1519.0948       0.0000      40.6889    -128.0069       4.3102      -3.3950       2.6524      70.5875       0.0005
   10050.0    1511.6485       0.0000      40.6889    -128.5616       4.3802      -3.4235       2.7285      70.5875       0.0005
   10051.0    1512.5590       0.0000      40.6889    -128.4361       4.3447      -3.4006       2.6995      70.5875       0.0005
   10052.0    1513.4981       0.0000      40.6889    -128.1614       4.3335      -3.4062       2.6757      70.5875       0.0005
   10053.0    1508.4056       0.0000      40.6889    -128.3534       4.3611      -3.4179       2.7048      70.5875       0.0005
   10054.0    1517.2212       0.0000      40.6889    -128.5952       4.3380      -3.3889       2.7048      70.5875       0.0005
   10055.0    1517.2212       0.0000      40.6889    -128.2499       4.3247      -3.3950       2.6757      70.5875       0.0005
   10056.0    1514.4246       0.0000      40.6889    -127.8220       4.2995      -3.3950       2.6349      70.5875       0.0005
   10057.0    1516.7630       0.0000      40.6889    -129.2694       4.3130      -3.3375       2.7285      70.5875       0.0005
   10058.0    1516.7630       0.0000      40.6889    -129.0469       4.4179      -3.4295       2.7808      70.5875       0.0005
   10059.0    1517.2212       0.0000      40.6889    -129.0200       4.4012      -3.4179       2.7694      70.5875       0.0005
   10060.0    1514.9054       0.0000      40.6889    -128.1736       4.3131      -3.3893       2.6643      70.5875       0.0005
   10061.0    1515.8199       0.0000      40.6889    -128.3465       4.3155      -3.3833       2.6757      70.5875       0.0005
