~VERSION INFORMATION
VERS.           2.0   :CWLS Log ASCII Standard - VERSION 2.0
WRAP.           NO    :One Line per depth step
PROD.  Schlumberger   :LAS Producer
PROG.  DLIS to ASCII 19C2-270                          :LAS Program name and version
CREA.        2017/09/16 17:42                          :LAS Creation date {YYYY/MM/DD hh:mm}
DLIS_CREA.  2017-Sep-15 13:07                          :DLIS Creation date and time {YYYY-MMM-DD hh:mm}
SOURCE.     LPC_S1-1_2AV.DLIS                          :DLIS File Name
FILE-ID.     PERFO_Perfo_WPGRT_022LTP                  :File Identification Number
#--------------------------------------------------
~WELL INFORMATION
#MNEM.UNIT      DATA             DESCRIPTION
#---- ------ --------------   -----------------------------
STRT .S         8392.0       :START TIME      
STOP .S         9264.0       :STOP TIME      
STEP .S            1.0       :STEP     
NULL .          -999.25      :NULL VALUE
COMP .        SHELL INTERNATIONAL E P                  :COMPANY
WELL .        WPP TEST 2                               :WELL
FLD  .        WILDCAT                                  :FIELD
LOC  .                                                 :LOCATION
CNTY .        HARRIS                                   :COUNTY
STAT .        TEXAS                                    :STATE
CTRY .                                                 :COUNTRY
API  .                                                 :API NUMBER
UWI  .                                                 :UNIQUE WELL ID
DATE .                                                 :LOG DATE
SRVC .        Schlumberger                             :SERVICE COMPANY
LATI .DEG                                              :LATITUDE
LONG .DEG                                              :LONGITUDE
GDAT .                                                 :GeoDetic Datum
#-----------------------------------------------------------------------------
~PARAMETER INFORMATION
#MNEM.UNIT    VALUE                      DESCRIPTION
#---- -----   --------------------       ------------------------
U-PHASE_B_COMP_PER_YT.                 0 :Phase B Comparator Period Yt
U-PHASE_A_COMP_PER_XT.                 0 :Phase A Comparator Period Xt
U-MAX_EXC_CUR_LIMIT.MA       240.00000   :Requested CM Current Limit
U-REQ_EXC_FQ.HZ              50          :Requested CM Frequency
U-TILT_Y_OFFSET.           0.19916       :WPTET Tilt Y Offset
U-TILT_Y_GAIN.           1.01796         :WPTET Tilt Y Gain
U-TILT_X_OFFSET.          -1.77103       :WPTET Tilt X Offset
U-TILT_X_GAIN.           1.00000         :WPTET Tilt X Gain
U-TILT_OFFSET_TOL.           0.00100     :WPTET Tilt Offset Calibration Tolerance
U-NO_TILT_CAL_ROTATIONS.                 3 :Number of Rotations for Tilt Calibration
HAZI .DEG        0.00000                 :Hole Azimuth
U-STD_TOL_TILT.           0.01000        :Tilt Standard Deviation Tolerance
U-GUN_POS_TOL.DEG        5.00000         :Gun Position Tolerance
ROT_ANGLE_THRESHOLD.DEG        5.00000   :Rotation Stop Angle Tolerance
STOP_ROT_ANGLE.DEG       80.00000        :Rotation Stop Angle
WITN .                                   :Witness's Name
ENGI .                                   :Engineer's Name
COUN .        HARRIS                     :County or Rig Name
FN   .        WILDCAT                    :Field Name
WN   .        WPP TEST 2                 :Well Name
CN   .        SHELL INTERNATIONAL E P    :Company Name
CLAB .        County                     :County/Rig Label
SLAB .        State                      :State/Province Label
RUN  .          1                        :RUN NUMBER
PDAT .        GROUND LEVEL               :Permanent Datum
EPD  .                                   :Elevation of Permanent Datum above Mean Sea Level
LMF  .                                   :Logging Measured From (Name of Logging Elevation Reference)
APD  .                                   :Elevation of Depth Reference (LMF) above Permanent Datum
#-----------------------------------------------------------------------------
~CURVE INFORMATION
#MNEM.UNIT   API CODE                                  DESCRIPTION
#---- -----  --------                                  -----------------------
TIME .S                                                :TIME {F10.1}
FREQ_EMF_SL.HZ                                         :Electromagnetic Field Frequency {F13.4}
PH_SH_WPPCM_SL.DEG                                     :WPPCM Phase Shift {F13.4}
FREQ_EXC_REQ_SL.HZ                                     :Requested Exciter Frequency {F13.4}
RB_SL.DEG                                              :Relative Bearing {F13.4}
SDEV_SL.DEG                                            :Sonde Deviation {F13.4}
TILX_SL.DEG                                            :X-axis Tilt {F13.4}
TILY_SL.DEG                                            :Y-axis Tilt {F13.4}
ROTA_SL.DEG                                            :Motor Rotation Angle {F13.4}
MSPE_SL.RPM                                            :Motor Speed {F13.4}
#-----------------------------------------------------------------------------
# 
#     TIME    FREQ_EMF_SL  PH_SH_WPPCM_ FREQ_EXC_REQ    RB_SL       SDEV_SL      TILX_SL      TILY_SL      ROTA_SL      MSPE_SL
#                          SL           _SL
~A  
# ...
    9148.0       0.0000       0.0000      50.8611     -94.6696       2.0543      -2.0462       0.1644      46.6650       0.0005
    9149.0       0.0000       0.0000      50.8611    -102.0995       2.2657      -2.1984       0.4899      46.6650       0.0005
    9150.0       0.0000       0.0000      50.8611    -114.2283       2.4127      -2.2000       0.9899      46.6650       0.0005
    9151.0       0.0000       0.0000      50.8611    -101.9582       2.9343      -2.8692       0.6089      46.6650       0.0005
    9152.0       0.0000       0.0000      50.8611    -104.0685       2.1797      -2.1153       0.5193      46.6650       0.0005
    9153.0       0.0000       0.0000      50.8611     -97.0509       3.5731      -3.5460       0.4375      46.6650       0.0005
    9154.0       0.0000       0.0000      50.8611    -100.7897       1.7991      -1.7690       0.3149      46.6650       0.0005
    9155.0       0.0000       0.0000      50.8611     -97.5335       3.0844      -3.0564       0.4044      46.6650       0.0005
    9156.0       0.0000       0.0000      50.8611    -102.1998       3.0223      -2.9479       0.6473      46.6650       0.0005
    9157.0       0.0000       0.0000      50.8611    -111.3765       3.3789      -3.1170       1.2312      46.6650       0.0005
    9158.0       0.0000       0.0000      50.8611    -103.2962       2.7947      -2.7145       0.6458      46.6650       0.0005
    9159.0       0.0000       0.0000      50.8611    -114.9236       3.3713      -3.0572       1.4188      46.6650       0.0005
    9160.0       0.0000       0.0000      50.8611    -110.2329       3.2713      -3.0363       0.9981      46.6650       0.0005
    9161.0       0.0000       0.0000      50.8611    -114.1219       4.2197      -3.8513       1.7190      46.6650       0.0005
    9162.0       0.0000       0.0000      50.8611    -110.5785       3.5111      -3.2853       1.2361      46.6650       0.0005
    9163.0       0.0000       0.0000      50.8611    -117.4440       3.8053      -3.3761       1.7468      46.6650       0.0005
    9164.0       0.0000       0.0000      50.8611    -108.5482       4.3657      -4.1256       1.4025      46.6650       0.0005
    9165.0       0.0000       0.0000      50.8611    -102.9245       4.3051      -4.1955       0.9629      46.6650       0.0005
    9166.0       0.0000       0.0000      50.8611    -105.5589       3.1826      -3.0656       0.8542      46.6650       0.0005
    9167.0       0.0000       0.0000      50.8611    -116.4046       2.6554      -2.3727       1.1858      46.6650       0.0005
    9168.0       0.0000       0.0000      50.8611    -109.8576       3.3261      -3.1246       1.1343      46.6650       0.0005
    9169.0       0.0000       0.0000      50.8611     -97.5116       3.2399      -3.2118       0.4244      46.6650       0.0005
    9170.0       0.0000       0.0000      50.8611    -116.7344       3.9743      -3.5452       1.7885      46.6650       0.0005
    9171.0       0.0000       0.0000      50.8611     -94.5029       3.3637      -3.3504       0.2617      46.6650       0.0005
    9172.0       0.0000       0.0000      50.8611    -106.3183       3.5148      -3.3725       0.9822      46.6650       0.0005
    9173.0       0.0000       0.0000      50.8611     -99.8906       3.8326      -3.7649       0.6514      46.6650       0.0005
    9174.0       0.0000       0.0000      50.8611     -97.9929       3.4607      -3.4255       0.4776      46.6650       0.0005
    9175.0       0.0000       0.0000      50.8611     -96.6509       3.6279      -3.5709       0.4146      46.6650       0.0005
    9176.0       0.0000       0.0000      50.8611     -95.9737       3.2171      -3.1973       0.3365      46.6650       0.0005
    9177.0       0.0000       0.0000      50.8611    -111.6789       3.9767      -3.6914       1.4720      46.6650       0.0005
    9178.0       0.0000       0.0000      50.8611     -99.3860       3.7546      -3.6785       0.6179      46.6650       0.0005
    9179.0       0.0000       0.0000      50.8611    -110.9683       3.9064      -3.6392       1.3964      46.6650       0.0005
    9180.0       0.0000       0.0000      50.8611    -110.5254       3.8074      -3.5641       1.3363      46.6650       0.0005
    9181.0       0.0000       0.0000      50.8611    -104.6090       3.8447      -3.7195       0.9699      46.6650       0.0005
    9182.0       0.0000       0.0000      50.8611    -101.2188       3.5820      -3.5118       0.6976      46.6650       0.0005
    9183.0       0.0000       0.0000      50.8611    -107.6895       3.8203      -3.6392       1.1604      46.6650       0.0005
    9184.0       0.0000       0.0000      50.8611    -113.5295       3.8567      -3.5339       1.5268      46.6650       0.0005
    9185.0       0.0000       0.0000      50.8611    -109.3369       4.2165      -3.9786       1.3919      46.6650       0.0005
    9186.0       0.0000       0.0000      50.8611    -113.0677       4.2390      -3.8991       1.6580      46.6650       0.0005
    9187.0       0.0000       0.0000      50.8611     -95.5697       3.2025      -3.1656       0.3390      46.6650       0.0005
    9188.0       0.0000       0.0000      50.8611    -115.0360       3.9754      -3.5982       1.6834      46.6650       0.0005
    9189.0       0.0000       0.0000      50.8611     -97.5527       4.7388      -4.6972       0.6211      46.6650       0.0005
    9190.0       0.0000       0.0000      50.8611    -101.5374       3.0731      -3.0041       0.6236      46.6650       0.0005
    9191.0       0.0000       0.0000      50.8611     -94.4320       3.9769      -3.9649       0.3079      46.6650       0.0005
    9192.0       0.0000       0.0000      50.8611    -119.6168       2.5741      -2.2442       1.2569      46.6650       0.0005
    9193.0       0.0000       0.0000      50.8611    -100.1388       5.2314      -5.1442       0.9167      46.6650       0.0005
    9194.0       0.0000       0.0000      50.8611    -105.2187       5.0465      -4.8691       1.3232      46.6650       0.0005
    9195.0       0.0000       0.0000      50.8611     -95.0430       4.1692      -4.1485       0.3713      46.6650       0.0005
    9196.0       0.0000       0.0000      50.8611    -110.8816       4.5980      -4.2955       1.6372      46.6650       0.0005
    9197.0       0.0000       0.0000      50.8611    -106.1233       5.1764      -4.9824       1.3710      46.6650       0.0005
    9198.0       0.0000       0.0000      50.8611    -108.9171       4.0858      -3.8649       1.3232      46.6650       0.0005
    9199.0       0.0000       0.0000      50.8611     -99.9141       4.7140      -4.6425       0.8117      46.6650       0.0005
    9200.0       0.0000       0.0000      50.8611     -97.5215       4.2597      -4.2152       0.5627      46.6650       0.0005
    9201.0       0.0000       0.0000      50.8611    -107.2925       4.6619      -4.4501       1.3857      46.6650       0.0005
    9202.0       0.0000       0.0000      50.8611    -113.0835       4.1970      -3.8605       1.6441      46.6650       0.0005
    9203.0       0.0000       0.0000      50.8611    -104.0172       4.5110      -4.3758       1.0926      46.6650       0.0005
    9204.0       0.0000       0.0000      50.8611    -106.3844       4.7718      -4.5767       1.3432      46.6650       0.0005
    9205.0       0.0000       0.0000      50.8611    -105.0056       4.3520      -4.2015       1.1249      46.6650       0.0005
    9206.0       0.0000       0.0000      50.8611    -111.3990       4.4190      -4.1135       1.6102      46.6650       0.0005
    9207.0       0.0000       0.0000      50.8611    -112.6873       4.0884      -3.7717       1.5754      46.6650       0.0005
    9208.0       0.0000       0.0000      50.8611    -103.2725       4.5081      -4.3863       1.0247      46.6650       0.0005
    9209.0       0.0000       0.0000      50.8611    -104.1984       4.5468      -4.4076       1.1126      46.6650       0.0005
    9210.0       0.0000       0.0000      50.8611    -102.7098       4.6237      -4.5092       1.0161      46.6650       0.0005
