~VERSION INFORMATION
VERS.           2.0   :CWLS Log ASCII Standard - VERSION 2.0
WRAP.           NO    :One Line per depth step
PROD.  Schlumberger   :LAS Producer
PROG.  DLIS to ASCII 19C2-270                          :LAS Program name and version
CREA.        2017/09/16 17:42                          :LAS Creation date {YYYY/MM/DD hh:mm}
DLIS_CREA.  2017-Sep-15 18:59                          :DLIS Creation date and time {YYYY-MMM-DD hh:mm}
SOURCE.     LPC_S5-1_A5.DLIS                           :DLIS File Name
FILE-ID.     PERFO_Perfo_WPGRT_058LTP                  :File Identification Number
#--------------------------------------------------
~WELL INFORMATION
#MNEM.UNIT      DATA             DESCRIPTION
#---- ------ --------------   -----------------------------
STRT .S         7119.0       :START TIME      
STOP .S         7636.0       :STOP TIME      
STEP .S            1.0       :STEP     
NULL .          -999.25      :NULL VALUE
COMP .        SHELL INTERNATIONAL E P                  :COMPANY
WELL .        WPP TEST 2                               :WELL
FLD  .        WILDCAT                                  :FIELD
LOC  .        NA                                       :LOCATION
CNTY .        HARRIS                                   :COUNTY
STAT .        TEXAS                                    :STATE
CTRY .                                                 :COUNTRY
API  .        NA                                       :API NUMBER
UWI  .                                                 :UNIQUE WELL ID
DATE .        15-Sep-2017                              :LOG DATE {DD-MMM-YYYY}
SRVC .        Schlumberger                             :SERVICE COMPANY
LATI .DEG                                              :LATITUDE
LONG .DEG                                              :LONGITUDE
GDAT .                                                 :GeoDetic Datum
SECT .        NA                                       :Section
RANG .        NA                                       :Range
TOWN .        NA                                       :Township
#-----------------------------------------------------------------------------
~PARAMETER INFORMATION
#MNEM.UNIT    VALUE                      DESCRIPTION
#---- -----   --------------------       ------------------------
U-PHASE_B_COMP_PER_YT.                 0 :Phase B Comparator Period Yt
U-PHASE_A_COMP_PER_XT.                 0 :Phase A Comparator Period Xt
U-MAX_EXC_CUR_LIMIT.MA       240.00000   :Requested CM Current Limit
U-REQ_EXC_FQ.HZ              50          :Requested CM Frequency
U-TILT_Y_OFFSET.           0.19916       :WPTET Tilt Y Offset
U-TILT_Y_GAIN.           1.01796         :WPTET Tilt Y Gain
U-TILT_X_OFFSET.          -1.77103       :WPTET Tilt X Offset
U-TILT_X_GAIN.           1.00000         :WPTET Tilt X Gain
U-TILT_OFFSET_TOL.           0.00100     :WPTET Tilt Offset Calibration Tolerance
U-NO_TILT_CAL_ROTATIONS.                 3 :Number of Rotations for Tilt Calibration
HAZI .DEG        0.00000                 :Hole Azimuth
U-STD_TOL_TILT.           0.01000        :Tilt Standard Deviation Tolerance
U-GUN_POS_TOL.DEG        5.00000         :Gun Position Tolerance
ROT_ANGLE_THRESHOLD.DEG        5.00000   :Rotation Stop Angle Tolerance
STOP_ROT_ANGLE.DEG        0.00000        :Rotation Stop Angle
WITN .        MR. DHRUA ARORA            :Witness's Name
ENGI .        MORRIS MOORE               :Engineer's Name
COUN .        HARRIS                     :County or Rig Name
FN   .        WILDCAT                    :Field Name
WN   .        WPP TEST 2                 :Well Name
CN   .        SHELL INTERNATIONAL E P    :Company Name
CLAB .        County                     :County/Rig Label
SLAB .        State                      :State/Province Label
RUN  .          1                        :RUN NUMBER
PDAT .        GROUND LEVEL               :Permanent Datum
EPD  .                                   :Elevation of Permanent Datum above Mean Sea Level
LMF  .          NA                       :Logging Measured From (Name of Logging Elevation Reference)
APD  .                                   :Elevation of Depth Reference (LMF) above Permanent Datum
#-----------------------------------------------------------------------------
~CURVE INFORMATION
#MNEM.UNIT   API CODE                                  DESCRIPTION
#---- -----  --------                                  -----------------------
TIME .S                                                :TIME {F10.1}
FREQ_EMF_SL.HZ                                         :Electromagnetic Field Frequency {F13.4}
PH_SH_WPPCM_SL.DEG                                     :WPPCM Phase Shift {F13.4}
FREQ_EXC_REQ_SL.HZ                                     :Requested Exciter Frequency {F13.4}
RB_SL.DEG                                              :Relative Bearing {F13.4}
SDEV_SL.DEG                                            :Sonde Deviation {F13.4}
TILX_SL.DEG                                            :X-axis Tilt {F13.4}
TILY_SL.DEG                                            :Y-axis Tilt {F13.4}
ROTA_SL.DEG                                            :Motor Rotation Angle {F13.4}
MSPE_SL.RPM                                            :Motor Speed {F13.4}
#-----------------------------------------------------------------------------
# 
#     TIME    FREQ_EMF_SL  PH_SH_WPPCM_ FREQ_EXC_REQ    RB_SL       SDEV_SL      TILX_SL      TILY_SL      ROTA_SL      MSPE_SL
#                          SL           _SL
~A  
# ...
    7308.0    1518.2420       0.0000      50.8611    -110.1971       5.0310      -4.7209       1.7349      55.0415       1.0226
    7309.0    1508.8519       0.0000      50.8611    -105.1869       4.9989      -4.8237       1.3080      61.1433       1.0226
    7310.0    1490.0570       0.0000      50.8611    -100.2768       5.1475      -5.0647       0.9172      67.2341       1.0226
    7311.0    1482.3998       0.0000      50.8611     -97.0133       5.3638      -5.3234       0.6538      73.3235       1.0226
    7312.0    1469.2531       0.0000      50.8611     -90.3027       5.3421      -5.3410       0.0274      79.4199       1.0226
    7313.0    1452.0420       0.0000      50.8611     -83.1437       5.2277      -5.1900      -0.6235      85.5278       1.0226
    7314.0    1441.1903       0.0000      50.8611     -78.1756       5.4211      -5.3057      -1.1093      91.6296       1.0226
    7315.0    1424.9467       0.0000      50.8611     -75.4012       5.5249      -5.3459      -1.3906      97.7314       1.0226
    7316.0    1405.0150       0.0000      50.8611     -69.7641       5.5136      -5.1723      -1.9041     103.8209       1.0226
    7317.0    1393.0103       0.0000      50.8611     -63.7436       5.3558      -4.8012      -2.3670     109.9104       1.0226
    7318.0    1375.3533       0.0000      50.8611     -58.9766       5.4905      -4.7032      -2.8266     116.0122       1.0226
    7319.0    1356.5574       0.0000      50.8611     -54.1773       5.7047      -4.6229      -3.3352     122.1017       1.0226
    7320.0    1334.2030       0.0000      50.8611     -50.7935       5.6710      -4.3915      -3.5805     128.5978       1.0226
    7321.0    1309.9609       0.0000      50.8611     -41.0817       5.2507      -3.4564      -3.9044     134.6874       1.0226
    7322.0    1274.3478       0.0000      50.8611     -38.6696       5.3746      -3.3552      -4.1938     140.8095       1.0273
    7323.0    1235.9850       0.0000      50.8611     -35.9705       5.5814      -3.2765      -4.5128     146.9188       1.0226
    7324.0    1216.2304       0.0000      50.8611     -29.9911       5.4962      -2.7447      -4.7581     153.0284       1.0240
    7325.0    1199.4841       0.0000      50.8611     -23.9616       5.0331      -2.0426      -4.5978     159.1251       1.0226
    7326.0    1166.4514       0.0000      50.8611     -18.7651       5.0404      -1.6200      -4.7712     165.2252       1.0226
    7327.0    1142.4761       0.0000      50.8611     -14.7446       5.2680      -1.3388      -5.0934     171.3149       1.0226
    7328.0    1130.0806       0.0000      50.8611     -10.2628       5.2652      -0.9372      -5.1801     177.4168       1.0226
    7329.0    1124.6579       0.0000      50.8611      -5.9105       5.0552      -0.5226      -5.0263     183.5187       1.0180
    7330.0    1111.1502       0.0000      50.8611       1.5898       4.8500       0.1345      -4.8481     189.6082       1.0226
    7331.0    1113.5269       0.0000      50.8611       7.9875       4.8595       0.6743      -4.8121     195.7101       1.0226
    7332.0    1115.9637       0.0000      50.8611      12.1719       4.9414       1.0406      -4.8301     202.2318       1.0226
    7333.0    1118.8426       0.0000      50.8611      16.9983       4.6915       1.3700      -4.4850     208.3350       1.0226
    7334.0    1119.4147       0.0000      50.8611      25.0975       4.3328       1.8343      -3.9224     214.4369       1.0226
    7335.0    1111.9308       0.0000      50.8611      30.2311       4.4089       2.2183      -3.8079     220.5334       1.0121
    7336.0    1136.9340       0.0000      50.8611      34.3961       4.3964       2.4818      -3.6263     226.6162       1.0226
    7337.0    1159.4312       0.0000      50.8611      39.7329       4.2981       2.7453      -3.3041     232.7181       1.0226
    7338.0    1193.5208       0.0000      50.8611      46.7122       4.0195       2.9237      -2.7546     238.8012       1.0286
    7339.0    1213.2058       0.0000      50.8611      53.6848       3.7856       3.0490      -2.2410     244.8982       1.0226
    7340.0    1245.1829       0.0000      50.8611      61.0500       3.9092       3.4201      -1.8910     251.0001       1.0226
    7341.0    1285.1428       0.0000      50.8611      67.9034       3.7248       3.4506      -1.4004     257.1020       1.0226
    7342.0    1306.9238       0.0000      50.8611      74.7310       3.6105       3.4828      -0.9506     263.2038       1.0226
    7343.0    1324.4565       0.0000      50.8611      81.2240       3.5224       3.4812      -0.5368     269.3056       1.0226
    7344.0    1336.4394       0.0000      50.8611      89.9156       3.5888       3.5888      -0.0053     275.8279       1.0226
    7345.0    1352.5824       0.0000      50.8611      98.8191       3.6061       3.5631       0.5508     281.5362       1.0317
    7346.0    1367.9475       0.0000      50.8611     104.9378       3.4569       3.3398       0.8893     287.6512       1.0226
    7347.0    1381.3850       0.0000      50.8611     115.1970       3.3267       3.0088       1.4160     293.7675       1.0286
    7348.0    1397.2180       0.0000      50.8611     120.0556       3.4102       2.9510       1.7071     299.8687       1.0226
    7349.0    1411.5631       0.0000      50.8611     128.7741       3.4830       2.7148       2.1798     305.9837       1.0226
    7350.0    1424.9467       0.0000      50.8611     137.7211       3.4931       2.3485       2.5837     312.0855       1.0226
    7351.0    1439.5334       0.0000      50.8611     145.6351       3.4293       1.9339       2.8291     318.1880       1.0226
    7352.0    1452.3836       0.0000      50.8611     152.5571       3.6546       1.6833       3.2429     324.2898       1.0180
    7353.0    1466.1893       0.0000      50.8611     159.0084       3.7558       1.3443       3.5062     330.3793       1.0226
    7354.0    1478.8948       0.0000      50.8611     167.9055       3.8420       0.8045       3.7564     336.4811       1.0180
    7355.0    1485.1423       0.0000      50.8611     174.8047       3.7030       0.3353       3.6877     342.5839       1.0226
    7356.0    1504.2054       0.0000      50.8611      21.3505       3.9592       0.0156       3.9559     349.0937       1.0226
    7357.0    1507.0426       0.0000      50.8611    -176.0934       4.0197      -0.2720       4.0099     351.4034       0.0005
    7358.0    1504.8748       0.0000      50.8611    -175.0297       4.0633      -0.3523       4.0475     351.4034       0.0005
    7359.0    1511.0724       0.0000      50.8611    -177.3935       4.0059      -0.1820       4.0017     351.4034       0.0005
    7360.0    1507.4303       0.0000      50.8611    -175.7155       3.9498      -0.2945       3.9380     351.4034       0.0005
    7361.0    1511.3443       0.0000      50.8611    -173.9356       4.0112      -0.4230       3.9887     351.4034       0.0005
    7362.0    1508.8519       0.0000      50.8611    -178.9886       4.1026      -0.0712       4.1015     351.4034       0.0005
    7363.0    1512.0968       0.0000      50.8611    -173.4583       4.0383      -0.4584       4.0116     351.4034       0.0005
    7364.0    1508.4703       0.0000      50.8611    -177.6678       3.7735      -0.1547       3.7695     351.4034       0.0005
    7365.0    1507.4303       0.0000      50.8611    -177.0550       3.9841      -0.2045       3.9788     351.4034       0.0005
    7366.0    1512.4940       0.0000      50.8611    -177.1386       4.4522      -0.2222       4.4466     351.4034       0.0005
    7367.0    1511.7135       0.0000      50.8611    -176.0705       3.9145      -0.2672       3.9052     351.4034       0.0005
    7368.0    1510.2797       0.0000      50.8611      21.3582       4.2472       0.0188       4.2471     351.4034       0.0005
    7369.0    1508.8519       0.0000      50.8611    -177.9962       3.9785      -0.1370       3.9756     351.4034       0.0005
    7370.0    1508.8519       0.0000      50.8611    -177.0174       4.1465      -0.2190       4.1391     351.4034       0.0005
