~VERSION INFORMATION
VERS.           2.0   :CWLS Log ASCII Standard - VERSION 2.0
WRAP.           NO    :One Line per depth step
PROD.  Schlumberger   :LAS Producer
PROG.  DLIS to ASCII 19C2-270                          :LAS Program name and version
CREA.        2017/09/16 17:42                          :LAS Creation date {YYYY/MM/DD hh:mm}
DLIS_CREA.  2017-Sep-15 13:45                          :DLIS Creation date and time {YYYY-MMM-DD hh:mm}
SOURCE.     LPC_S1-1_2B5.DLIS                          :DLIS File Name
FILE-ID.     PERFO_Perfo_WPGRT_026LTP                  :File Identification Number
#--------------------------------------------------
~WELL INFORMATION
#MNEM.UNIT      DATA             DESCRIPTION
#---- ------ --------------   -----------------------------
STRT .S        10666.0       :START TIME      
STOP .S        11234.0       :STOP TIME      
STEP .S            1.0       :STEP     
NULL .          -999.25      :NULL VALUE
COMP .        SHELL INTERNATIONAL E P                  :COMPANY
WELL .        WPP TEST 2                               :WELL
FLD  .        WILDCAT                                  :FIELD
LOC  .                                                 :LOCATION
CNTY .        HARRIS                                   :COUNTY
STAT .        TEXAS                                    :STATE
CTRY .                                                 :COUNTRY
API  .                                                 :API NUMBER
UWI  .                                                 :UNIQUE WELL ID
DATE .                                                 :LOG DATE
SRVC .        Schlumberger                             :SERVICE COMPANY
LATI .DEG                                              :LATITUDE
LONG .DEG                                              :LONGITUDE
GDAT .                                                 :GeoDetic Datum
#-----------------------------------------------------------------------------
~PARAMETER INFORMATION
#MNEM.UNIT    VALUE                      DESCRIPTION
#---- -----   --------------------       ------------------------
U-PHASE_B_COMP_PER_YT.                 0 :Phase B Comparator Period Yt
U-PHASE_A_COMP_PER_XT.                 0 :Phase A Comparator Period Xt
U-MAX_EXC_CUR_LIMIT.MA       240.00000   :Requested CM Current Limit
U-REQ_EXC_FQ.HZ              50          :Requested CM Frequency
U-TILT_Y_OFFSET.           0.19916       :WPTET Tilt Y Offset
U-TILT_Y_GAIN.           1.01796         :WPTET Tilt Y Gain
U-TILT_X_OFFSET.          -1.77103       :WPTET Tilt X Offset
U-TILT_X_GAIN.           1.00000         :WPTET Tilt X Gain
U-TILT_OFFSET_TOL.           0.00100     :WPTET Tilt Offset Calibration Tolerance
U-NO_TILT_CAL_ROTATIONS.                 3 :Number of Rotations for Tilt Calibration
HAZI .DEG        0.00000                 :Hole Azimuth
U-STD_TOL_TILT.           0.01000        :Tilt Standard Deviation Tolerance
U-GUN_POS_TOL.DEG        5.00000         :Gun Position Tolerance
ROT_ANGLE_THRESHOLD.DEG        5.00000   :Rotation Stop Angle Tolerance
STOP_ROT_ANGLE.DEG       80.00000        :Rotation Stop Angle
WITN .                                   :Witness's Name
ENGI .                                   :Engineer's Name
COUN .        HARRIS                     :County or Rig Name
FN   .        WILDCAT                    :Field Name
WN   .        WPP TEST 2                 :Well Name
CN   .        SHELL INTERNATIONAL E P    :Company Name
CLAB .        County                     :County/Rig Label
SLAB .        State                      :State/Province Label
RUN  .          1                        :RUN NUMBER
PDAT .        GROUND LEVEL               :Permanent Datum
EPD  .                                   :Elevation of Permanent Datum above Mean Sea Level
LMF  .                                   :Logging Measured From (Name of Logging Elevation Reference)
APD  .                                   :Elevation of Depth Reference (LMF) above Permanent Datum
#-----------------------------------------------------------------------------
~CURVE INFORMATION
#MNEM.UNIT   API CODE                                  DESCRIPTION
#---- -----  --------                                  -----------------------
TIME .S                                                :TIME {F10.1}
FREQ_EMF_SL.HZ                                         :Electromagnetic Field Frequency {F13.4}
PH_SH_WPPCM_SL.DEG                                     :WPPCM Phase Shift {F13.4}
FREQ_EXC_REQ_SL.HZ                                     :Requested Exciter Frequency {F13.4}
RB_SL.DEG                                              :Relative Bearing {F13.4}
SDEV_SL.DEG                                            :Sonde Deviation {F13.4}
TILX_SL.DEG                                            :X-axis Tilt {F13.4}
TILY_SL.DEG                                            :Y-axis Tilt {F13.4}
ROTA_SL.DEG                                            :Motor Rotation Angle {F13.4}
MSPE_SL.RPM                                            :Motor Speed {F13.4}
#-----------------------------------------------------------------------------
# 
#     TIME    FREQ_EMF_SL  PH_SH_WPPCM_ FREQ_EXC_REQ    RB_SL       SDEV_SL      TILX_SL      TILY_SL      ROTA_SL      MSPE_SL
#                          SL           _SL
~A  
   10666.0    1403.4431       0.0000      50.8611     -82.1414       4.8290      -4.7835      -0.6595     131.4230       1.0226
   10667.0    1387.1495       0.0000      50.8611     -81.1262       4.8730      -4.8145      -0.7507     136.9907       1.0321
   10668.0    1386.2077       0.0000      50.8611     -75.7347       4.8580      -4.7078      -1.1957     143.1019       1.0226
   10669.0    1343.5256       0.0000      50.8611     -70.3146       4.8497      -4.5656      -1.6314     149.1889       1.0226
   10670.0    1332.2584       0.0000      50.8611     -65.8335       5.0119      -4.5702      -2.0483     155.2885       1.0226
   10671.0    1300.7898       0.0000      50.8611     -61.3607       5.0295      -4.4128      -2.4083     161.3881       1.0238
   10672.0    1260.6674       0.0000      50.8611     -56.2036       4.9782      -4.1351      -2.7669     167.4814       1.0235
   10673.0    1240.5842       0.0000      50.8611     -52.2198       5.0775      -4.0111      -3.1081     173.5987       1.0418
   10674.0    1221.6848       0.0000      50.8611     -45.3134       5.0562      -3.5924      -3.5531     179.6996       1.0226
   10675.0    1206.5238       0.0000      50.8611     -40.9824       4.8547      -3.1815      -3.6631     185.7784       1.0238
   10676.0    1181.9516       0.0000      50.8611     -35.7117       4.8428      -2.8246      -3.9305     191.8832       1.0238
   10677.0    1171.6508       0.0000      50.8611     -31.5058       4.9309      -2.5744      -4.2026     197.9718       1.0226
   10678.0    1158.1417       0.0000      50.8611     -27.9008       4.8955      -2.2886      -4.3253     204.4536       1.0251
   10679.0    1142.8665       0.0000      50.8611     -22.2348       4.7091      -1.7803      -4.3582     210.6259       1.0226
   10680.0    1130.4260       0.0000      50.8611     -17.2607       4.6351      -1.3740      -4.4259     216.7255       1.0226
   10681.0    1128.6116       0.0000      50.8611     -12.0775       4.6518      -0.9723      -4.5486     222.8250       1.0226
   10682.0    1119.2171       0.0000      50.8611      -4.5412       4.3866      -0.3481      -4.3723     228.9293       1.0226
   10683.0    1112.7423       0.0000      50.8611      -1.2444       4.2822      -0.0933      -4.2811     235.0335       1.0226
   10684.0    1118.4288       0.0000      50.8611       3.4631       4.2980       0.2590      -4.2898     241.1453       1.0238
   10685.0    1122.5868       0.0000      50.8611       9.6582       4.2361       0.7101      -4.1759     247.2457       1.0226
   10686.0    1121.0014       0.0000      50.8611      14.2583       4.2099       1.0360      -4.0800     253.3499       1.0226
   10687.0    1126.5955       0.0000      50.8611      20.7712       3.9568       1.4021      -3.6993     259.4541       1.0226
   10688.0    1129.8737       0.0000      50.8611      26.4417       3.8633       1.7189      -3.4587     265.5534       1.0226
   10689.0    1145.1547       0.0000      50.8611      32.0754       3.8358       2.0356      -3.2495     271.6402       1.0214
   10690.0    1155.5863       0.0000      50.8611      38.0114       3.7565       2.3121      -2.9586     278.1142       1.0238
   10691.0    1166.6562       0.0000      50.8611      43.4508       3.5068       2.4109      -2.5450     284.2670       1.0226
   10692.0    1180.4262       0.0000      50.8611      50.6021       3.4386       2.6565      -2.1817     290.3663       1.0226
   10693.0    1199.4027       0.0000      50.8611      57.8520       3.4795       2.9455      -1.8499     296.4649       1.0226
   10694.0    1221.6138       0.0000      50.8611      64.8571       3.3192       3.0042      -1.4096     302.5745       1.0334
   10695.0    1239.5781       0.0000      50.8611      70.7409       3.1169       2.9423      -1.0275     308.6753       1.0226
   10696.0    1265.3787       0.0000      50.8611      81.3873       3.0950       3.0572      -0.4612     314.7756       1.0238
   10697.0    1308.2442       0.0000      50.8611      86.4813       2.9791       2.9733      -0.1829     320.8547       1.0226
   10698.0    1335.8678       0.0000      50.8611      95.3788       2.8966       2.8837       0.2715     326.9588       1.0226
   10699.0    1356.1880       0.0000      50.8611     101.4695       3.0104       2.9502       0.5986     333.0589       1.0226
   10700.0    1360.0098       0.0000      50.8611     113.7037       2.8771       2.6335       1.1570     339.1590       1.0238
   10701.0    1368.5620       0.0000      50.8611     113.6784       3.2707       2.9950       1.3125     345.2761       1.0238
   10702.0    1383.4802       0.0000      50.8611     127.7852       2.9437       2.3260       1.8032     351.3801       1.0226
   10703.0    1392.6445       0.0000      50.8611     134.3425       3.0284       2.1653       2.1162     357.9036       1.0226
   10704.0    1405.6057       0.0000      50.8611     144.0319       3.0195       1.7729       2.4433       4.0155       1.0238
   10705.0    1408.4213       0.0000      50.8611     152.0554       3.0794       1.4423       2.7201      10.1072       1.0226
   10706.0    1414.7384       0.0000      50.8611     158.0342       3.1300       1.1704       2.9025      16.2075       1.0226
   10707.0    1426.8851       0.0000      50.8611     166.6421       3.1938       0.7378       3.1069      22.3070       1.0226
   10708.0    1434.2782       0.0000      50.8611     175.5064       3.2035       0.2512       3.1934      28.4111       1.0226
   10709.0    1442.1012       0.0000      50.8611    -178.1302       3.3951      -0.1103       3.3931      34.5284       1.0145
   10710.0    1441.1701       0.0000      50.8611    -172.0951       3.4671      -0.4765       3.4340      40.6286       1.0321
   10711.0    1444.8177       0.0000      50.8611    -166.0638       3.5010      -0.8426       3.3978      46.7411       1.0226
   10712.0    1449.7422       0.0000      50.8611    -159.7160       3.6178      -1.2535       3.3931      52.8568       1.0238
   10713.0    1452.0502       0.0000      50.8611    -152.1665       3.7095      -1.7309       3.2799      58.9625       1.0226
   10714.0    1452.0502       0.0000      50.8611    -147.0492       3.9151      -2.1279       3.2846      65.0619       1.0226
   10715.0    1453.7796       0.0000      50.8611    -141.6562       4.0148      -2.4894       3.1478      71.5663       1.0226
   10716.0    1452.7377       0.0000      50.8611    -135.1196       4.1360      -2.9174       2.9292      77.6629       1.0226
   10717.0    1455.0550       0.0000      50.8611    -130.9416       4.1603      -3.1413       2.7248      83.7638       1.0226
   10718.0    1443.7886       0.0000      50.8611    -124.1299       4.3020      -3.5600       2.4118      89.8763       1.0226
   10719.0    1438.9041       0.0000      50.8611    -117.6301       4.3526      -3.8551       2.0170      95.9805       1.0226
   10720.0    1432.7000       0.0000      50.8611    -112.8653       4.3644      -4.0204       1.6946     102.0736       1.0133
   10721.0    1434.9490       0.0000      50.8611    -106.7295       4.4732      -4.2830       1.2858     108.1723       1.0226
   10722.0    1427.2212       0.0000      50.8611    -103.3757       4.5774      -4.4530       1.0578     114.2710       1.0226
   10723.0    1415.3958       0.0000      50.8611     -97.4463       4.7340      -4.6940       0.6127     120.3752       1.0226
   10724.0    1412.2243       0.0000      50.8611     -92.4312       4.8142      -4.8098       0.2039     126.4683       1.0133
   10725.0    1398.8273       0.0000      50.8611     -87.5203       4.7432      -4.7387      -0.2050     132.5664       1.0226
   10726.0    1392.3268       0.0000      50.8611     -81.9005       4.8772      -4.8283      -0.6863     138.6790       1.0133
   10727.0    1370.9219       0.0000      50.8611     -76.7229       4.9519      -4.8191      -1.1360     145.1950       1.0226
   10728.0    1350.7689       0.0000      50.8611     -72.8559       4.9695      -4.7480      -1.4631     151.2945       1.0226
