~VERSION INFORMATION
VERS.           2.0   :CWLS Log ASCII Standard - VERSION 2.0
WRAP.           NO    :One Line per depth step
PROD.  Schlumberger   :LAS Producer
PROG.  DLIS to ASCII 19C2-270                          :LAS Program name and version
CREA.        2017/09/16 17:42                          :LAS Creation date {YYYY/MM/DD hh:mm}
DLIS_CREA.  2017-Sep-15 15:10                          :DLIS Creation date and time {YYYY-MMM-DD hh:mm}
SOURCE.     LPC_S2-1_2A5.DLIS                          :DLIS File Name
FILE-ID.     PERFO_Perfo_WPGRT_033LTP                  :File Identification Number
#--------------------------------------------------
~WELL INFORMATION
#MNEM.UNIT      DATA             DESCRIPTION
#---- ------ --------------   -----------------------------
STRT .S        15770.0       :START TIME      
STOP .S        16224.0       :STOP TIME      
STEP .S            1.0       :STEP     
NULL .          -999.25      :NULL VALUE
COMP .        SHELL INTERNATIONAL E P                  :COMPANY
WELL .        WPP TEST 2                               :WELL
FLD  .        WILDCAT                                  :FIELD
LOC  .                                                 :LOCATION
CNTY .        HARRIS                                   :COUNTY
STAT .        TEXAS                                    :STATE
CTRY .                                                 :COUNTRY
API  .                                                 :API NUMBER
UWI  .                                                 :UNIQUE WELL ID
DATE .                                                 :LOG DATE
SRVC .        Schlumberger                             :SERVICE COMPANY
LATI .DEG                                              :LATITUDE
LONG .DEG                                              :LONGITUDE
GDAT .                                                 :GeoDetic Datum
#-----------------------------------------------------------------------------
~PARAMETER INFORMATION
#MNEM.UNIT    VALUE                      DESCRIPTION
#---- -----   --------------------       ------------------------
U-PHASE_B_COMP_PER_YT.                 0 :Phase B Comparator Period Yt
U-PHASE_A_COMP_PER_XT.                 0 :Phase A Comparator Period Xt
U-MAX_EXC_CUR_LIMIT.MA       240.00000   :Requested CM Current Limit
U-REQ_EXC_FQ.HZ              50          :Requested CM Frequency
U-TILT_Y_OFFSET.           0.19916       :WPTET Tilt Y Offset
U-TILT_Y_GAIN.           1.01796         :WPTET Tilt Y Gain
U-TILT_X_OFFSET.          -1.77103       :WPTET Tilt X Offset
U-TILT_X_GAIN.           1.00000         :WPTET Tilt X Gain
U-TILT_OFFSET_TOL.           0.00100     :WPTET Tilt Offset Calibration Tolerance
U-NO_TILT_CAL_ROTATIONS.                 3 :Number of Rotations for Tilt Calibration
HAZI .DEG        0.00000                 :Hole Azimuth
U-STD_TOL_TILT.           0.01000        :Tilt Standard Deviation Tolerance
U-GUN_POS_TOL.DEG        5.00000         :Gun Position Tolerance
ROT_ANGLE_THRESHOLD.DEG        5.00000   :Rotation Stop Angle Tolerance
STOP_ROT_ANGLE.DEG       80.00000        :Rotation Stop Angle
WITN .                                   :Witness's Name
ENGI .                                   :Engineer's Name
COUN .        HARRIS                     :County or Rig Name
FN   .        WILDCAT                    :Field Name
WN   .        WPP TEST 2                 :Well Name
CN   .        SHELL INTERNATIONAL E P    :Company Name
CLAB .        County                     :County/Rig Label
SLAB .        State                      :State/Province Label
RUN  .          1                        :RUN NUMBER
PDAT .        GROUND LEVEL               :Permanent Datum
EPD  .                                   :Elevation of Permanent Datum above Mean Sea Level
LMF  .                                   :Logging Measured From (Name of Logging Elevation Reference)
APD  .                                   :Elevation of Depth Reference (LMF) above Permanent Datum
#-----------------------------------------------------------------------------
~CURVE INFORMATION
#MNEM.UNIT   API CODE                                  DESCRIPTION
#---- -----  --------                                  -----------------------
TIME .S                                                :TIME {F10.1}
FREQ_EMF_SL.HZ                                         :Electromagnetic Field Frequency {F13.4}
PH_SH_WPPCM_SL.DEG                                     :WPPCM Phase Shift {F13.4}
FREQ_EXC_REQ_SL.HZ                                     :Requested Exciter Frequency {F13.4}
RB_SL.DEG                                              :Relative Bearing {F13.4}
SDEV_SL.DEG                                            :Sonde Deviation {F13.4}
TILX_SL.DEG                                            :X-axis Tilt {F13.4}
TILY_SL.DEG                                            :Y-axis Tilt {F13.4}
ROTA_SL.DEG                                            :Motor Rotation Angle {F13.4}
MSPE_SL.RPM                                            :Motor Speed {F13.4}
#-----------------------------------------------------------------------------
# 
#     TIME    FREQ_EMF_SL  PH_SH_WPPCM_ FREQ_EXC_REQ    RB_SL       SDEV_SL      TILX_SL      TILY_SL      ROTA_SL      MSPE_SL
#                          SL           _SL
~A  
# ...
   16148.0    1518.6285       0.0000      50.8611     146.4080       3.6267       2.0056       3.0204     148.9780       0.0005
   16149.0    1512.2601       0.0000      50.8611     146.4387       3.6279       2.0046       3.0225     148.9780       0.0005
   16150.0    1518.7107       0.0000      50.8611     146.0872       3.5947       2.0046       2.9826     148.9780       0.0005
   16151.0    1518.6285       0.0000      50.8611     146.9706       3.6058       1.9645       3.0225     148.9780       0.0005
   16152.0    1518.5467       0.0000      50.8611     146.4555       3.6296       2.0046       3.0245     148.9780       0.0005
   16153.0    1515.5196       0.0000      50.8611     145.7834       3.7042       2.0820       3.0623     148.9780       0.0005
   16154.0    1521.8334       0.0000      50.8611     147.2951       3.6412       1.9665       3.0634     148.9780       0.0005
   16155.0    1515.3556       0.0000      50.8611     147.6134       3.6732       1.9665       3.1012     148.9780       0.0005
   16156.0    1512.1783       0.0000      50.8611     147.1045       3.6929       2.0046       3.1002     148.9780       0.0005
   16157.0    1524.8889       0.0000      50.8611     146.4432       3.6265       2.0036       3.0214     148.9780       0.0005
   16158.0    1518.6285       0.0000      50.8611     147.8348       3.6183       1.9253       3.0623     148.9780       0.0005
   16159.0    1512.2601       0.0000      50.8611     146.2651       3.6820       2.0438       3.0613     148.9780       0.0005
   16160.0    1515.5196       0.0000      50.8611     147.1281       3.5507       1.9263       2.9816     148.9780       0.0005
   16161.0    1518.4652       0.0000      50.8611     147.2688       3.6387       1.9665       3.0603     148.9780       0.0005
   16162.0    1521.6701       0.0000      50.8611     146.4432       3.6265       2.0036       3.0214     148.9780       0.0005
   16163.0    1515.6021       0.0000      50.8611     146.0965       3.5919       2.0026       2.9806     148.9780       0.0005
   16164.0    1515.4374       0.0000      50.8611     147.4783       3.5828       1.9253       3.0204     148.9780       0.0005
   16165.0    1518.4652       0.0000      50.8611     146.4169       3.6276       2.0056       3.0214     148.9780       0.0005
   16166.0    1521.7515       0.0000      50.8611     147.6397       3.6721       1.9645       3.1012     148.9780       0.0005
   16167.0    1518.7107       0.0000      50.8611     146.7489       3.6614       2.0066       3.0613     148.9780       0.0005
   16168.0    1512.2601       0.0000      50.8611     146.7793       3.6589       2.0036       3.0603     148.9780       0.0005
   16169.0    1518.5467       0.0000      50.8611     146.0872       3.5947       2.0046       2.9826     148.9780       0.0005
   16170.0    1518.7107       0.0000      50.8611     146.0872       3.5947       2.0046       2.9826     148.9780       0.0005
   16171.0    1506.0283       0.0000      50.8611     147.3080       3.6407       1.9655       3.0634     148.9780       0.0005
   16172.0    1515.4374       0.0000      50.8611     147.6222       3.6740       1.9665       3.1022     148.9780       0.0005
   16173.0    1512.0968       0.0000      50.8611     146.9487       3.6055       1.9655       3.0214     148.9780       0.0005
   16174.0    1518.4652       0.0000      50.8611     147.6177       3.6718       1.9655       3.1002     148.9780       0.0005
   16175.0    1512.3423       0.0000      50.8611     145.9131       3.6466       2.0428       3.0194     148.9780       0.0005
   16176.0    1518.6285       0.0000      50.8611     147.5620       3.8145       2.0448       3.2187     148.9780       0.0005
   16177.0    1521.9155       0.0000      50.8611     147.4589       3.7268       2.0036       3.1410     148.9780       0.0005
   16178.0    1518.6285       0.0000      50.8611     145.9220       3.6474       2.0428       3.0204     148.9780       0.0005
   16179.0    1518.6285       0.0000      50.8611     145.8916       3.6500       2.0458       3.0214     148.9780       0.0005
   16180.0    1521.8334       0.0000      50.8611     146.2870       3.6823       2.0428       3.0623     148.9780       0.0005
   16181.0    1515.5196       0.0000      50.8611     147.0955       3.6920       2.0046       3.0991     148.9780       0.0005
   16182.0    1512.3423       0.0000      50.8611     147.9604       3.7050       1.9645       3.1400     148.9780       0.0005
   16183.0    1515.3556       0.0000      50.8611     145.6037       3.6143       2.0408       2.9816     148.9780       0.0005
   16184.0    1521.7515       0.0000      50.8611     145.7702       3.7047       2.0830       3.0623     148.9780       0.0005
   16185.0    1521.7515       0.0000      50.8611     147.1178       3.6923       2.0036       3.1002     148.9780       0.0005
   16186.0    1512.1783       0.0000      50.8611     145.9442       3.6478       2.0418       3.0214     148.9780       0.0005
   16187.0    1512.1783       0.0000      50.8611     147.4326       3.7279       2.0056       3.1410     148.9780       0.0005
   16188.0    1518.6285       0.0000      50.8611     147.9742       3.5622       1.8882       3.0194     148.9780       0.0005
   16189.0    1518.6285       0.0000      50.8611     147.7498       3.7607       2.0056       3.1799     148.9780       0.0005
   16190.0    1515.5196       0.0000      50.8611     148.1237       3.6515       1.9273       3.1002     148.9780       0.0005
   16191.0    1518.4652       0.0000      50.8611     145.2481       3.5801       2.0398       2.9407     148.9780       0.0005
   16192.0    1518.4652       0.0000      50.8611     146.5932       3.7157       2.0448       3.1012     148.9780       0.0005
   16193.0    1518.6285       0.0000      50.8611     146.7928       3.6584       2.0026       3.0603     148.9780       0.0005
   16194.0    1515.5196       0.0000      50.8611     145.5768       3.6153       2.0428       2.9816     148.9780       0.0005
   16195.0    1518.4652       0.0000      50.8611     146.0655       3.5944       2.0056       2.9816     148.9780       0.0005
   16196.0    1521.6701       0.0000      50.8611     145.5590       3.6136       2.0428       2.9795     148.9780       0.0005
   16197.0    1518.7107       0.0000      50.8611     147.3260       3.6388       1.9635       3.0623     148.9780       0.0005
   16198.0    1515.4374       0.0000      50.8611     145.7660       3.7025       2.0820       3.0603     148.9780       0.0005
   16199.0    1518.6285       0.0000      50.8611     147.6265       3.6726       1.9655       3.1012     148.9780       0.0005
   16200.0    1518.4652       0.0000      50.8611     146.4603       3.6282       2.0036       3.0235     148.9780       0.0005
   16201.0    1515.5196       0.0000      50.8611     148.4765       3.6843       1.9253       3.1400     148.9780       0.0005
   16202.0    1521.7515       0.0000      50.8611     147.2820       3.6381       1.9655       3.0603     148.9780       0.0005
   16203.0    1518.5467       0.0000      50.8611     145.5768       3.6153       2.0428       2.9816     148.9780       0.0005
   16204.0    1515.6021       0.0000      50.8611     147.6892       3.5285       1.8851       2.9816     148.9780       0.0005
   16205.0    1518.5467       0.0000      50.8611     148.9987       3.6640       1.8861       3.1400     148.9780       0.0005
   16206.0    1521.7515       0.0000      50.8611     147.5824       3.6720       1.9675       3.0991     148.9780       0.0005
   16207.0    1515.4374       0.0000      50.8611     147.6222       3.6740       1.9665       3.1022     148.9780       0.0005
   16208.0    1512.2601       0.0000      50.8611     146.6281       3.7155       2.0428       3.1022     148.9780       0.0005
   16209.0    1518.5467       0.0000      50.8611     146.4344       3.6256       2.0036       3.0204     148.9780       0.0005
   16210.0    1518.3841       0.0000      50.8611     147.1756       3.6925       2.0006       3.1022     148.9780       0.0005
