~VERSION INFORMATION
VERS.           2.0   :CWLS Log ASCII Standard - VERSION 2.0
WRAP.           NO    :One Line per depth step
PROD.  Schlumberger   :LAS Producer
PROG.  DLIS to ASCII 19C2-270                          :LAS Program name and version
CREA.        2017/09/16 17:42                          :LAS Creation date {YYYY/MM/DD hh:mm}
DLIS_CREA.  2017-Sep-15 11:44                          :DLIS Creation date and time {YYYY-MMM-DD hh:mm}
SOURCE.     LPC_S1-1_AV_4TH-LOG.DLIS                   :DLIS File Name
FILE-ID.     PERFO_Perfo_WPGRT_017LTP                  :File Identification Number
#--------------------------------------------------
~WELL INFORMATION
#MNEM.UNIT      DATA             DESCRIPTION
#---- ------ --------------   -----------------------------
STRT .S         3425.0       :START TIME      
STOP .S         3810.0       :STOP TIME      
STEP .S            1.0       :STEP     
NULL .          -999.25      :NULL VALUE
COMP .        SHELL INTERNATIONAL E P                  :COMPANY
WELL .        WPP TEST 2                               :WELL
FLD  .        WILDCAT                                  :FIELD
LOC  .                                                 :LOCATION
CNTY .        HARRIS                                   :COUNTY
STAT .        TEXAS                                    :STATE
CTRY .                                                 :COUNTRY
API  .                                                 :API NUMBER
UWI  .                                                 :UNIQUE WELL ID
DATE .                                                 :LOG DATE
SRVC .        Schlumberger                             :SERVICE COMPANY
LATI .DEG                                              :LATITUDE
LONG .DEG                                              :LONGITUDE
GDAT .                                                 :GeoDetic Datum
#-----------------------------------------------------------------------------
~PARAMETER INFORMATION
#MNEM.UNIT    VALUE                      DESCRIPTION
#---- -----   --------------------       ------------------------
U-PHASE_B_COMP_PER_YT.                 0 :Phase B Comparator Period Yt
U-PHASE_A_COMP_PER_XT.                 0 :Phase A Comparator Period Xt
U-MAX_EXC_CUR_LIMIT.MA       240.00000   :Requested CM Current Limit
U-REQ_EXC_FQ.HZ              50          :Requested CM Frequency
U-TILT_Y_OFFSET.           0.19916       :WPTET Tilt Y Offset
U-TILT_Y_GAIN.           1.01796         :WPTET Tilt Y Gain
U-TILT_X_OFFSET.          -1.77103       :WPTET Tilt X Offset
U-TILT_X_GAIN.           1.00000         :WPTET Tilt X Gain
U-TILT_OFFSET_TOL.           0.00100     :WPTET Tilt Offset Calibration Tolerance
U-NO_TILT_CAL_ROTATIONS.                 3 :Number of Rotations for Tilt Calibration
HAZI .DEG        0.00000                 :Hole Azimuth
U-STD_TOL_TILT.           0.01000        :Tilt Standard Deviation Tolerance
U-GUN_POS_TOL.DEG        5.00000         :Gun Position Tolerance
ROT_ANGLE_THRESHOLD.DEG        5.00000   :Rotation Stop Angle Tolerance
STOP_ROT_ANGLE.DEG       80.00000        :Rotation Stop Angle
WITN .                                   :Witness's Name
ENGI .                                   :Engineer's Name
COUN .        HARRIS                     :County or Rig Name
FN   .        WILDCAT                    :Field Name
WN   .        WPP TEST 2                 :Well Name
CN   .        SHELL INTERNATIONAL E P    :Company Name
CLAB .        County                     :County/Rig Label
SLAB .        State                      :State/Province Label
RUN  .          1                        :RUN NUMBER
PDAT .        GROUND LEVEL               :Permanent Datum
EPD  .                                   :Elevation of Permanent Datum above Mean Sea Level
LMF  .                                   :Logging Measured From (Name of Logging Elevation Reference)
APD  .                                   :Elevation of Depth Reference (LMF) above Permanent Datum
#-----------------------------------------------------------------------------
~CURVE INFORMATION
#MNEM.UNIT   API CODE                                  DESCRIPTION
#---- -----  --------                                  -----------------------
TIME .S                                                :TIME {F10.1}
FREQ_EMF_SL.HZ                                         :Electromagnetic Field Frequency {F13.4}
PH_SH_WPPCM_SL.DEG                                     :WPPCM Phase Shift {F13.4}
FREQ_EXC_REQ_SL.HZ                                     :Requested Exciter Frequency {F13.4}
RB_SL.DEG                                              :Relative Bearing {F13.4}
SDEV_SL.DEG                                            :Sonde Deviation {F13.4}
TILX_SL.DEG                                            :X-axis Tilt {F13.4}
TILY_SL.DEG                                            :Y-axis Tilt {F13.4}
ROTA_SL.DEG                                            :Motor Rotation Angle {F13.4}
MSPE_SL.RPM                                            :Motor Speed {F13.4}
#-----------------------------------------------------------------------------
# 
#     TIME    FREQ_EMF_SL  PH_SH_WPPCM_ FREQ_EXC_REQ    RB_SL       SDEV_SL      TILX_SL      TILY_SL      ROTA_SL      MSPE_SL
#                          SL           _SL
~A  
# ...
    3551.0    1531.3860       0.0000      50.8611     -59.6728       1.2536      -1.0822      -0.6304     158.8162       1.0226
    3552.0    1500.1214       0.0000      50.8611     -63.7986       1.1233      -1.0079      -0.4959     164.9067       1.0226
    3553.0    1469.6604       0.0000      50.8611     -61.0574       1.1118      -0.9732      -0.5368     171.0209       1.0226
    3554.0    1451.4571       0.0000      50.8611     -56.1335       1.1311      -0.9391      -0.6304     177.1104       1.0226
    3555.0    1417.5908       0.0000      50.8611     -54.8130       1.1780      -0.9622      -0.6769     183.2123       1.0226
    3556.0    1383.7397       0.0000      50.8611     -57.5418       1.2373      -1.0425      -0.6656     189.3142       1.0226
    3557.0    1364.1586       0.0000      50.8611     -50.7919       1.1082      -0.8587      -0.7004     195.4038       1.0226
    3558.0    1334.5601       0.0000      50.8611     -61.8689       1.0647      -0.9330      -0.5072     201.5057       1.0226
    3559.0    1291.8274       0.0000      50.8611     -60.6502       1.1438      -0.9963      -0.5603     208.0147       1.0226
    3560.0    1225.2989       0.0000      50.8611     -62.4508       1.1564      -1.0189      -0.5256     214.1262       1.0272
    3561.0    1154.0288       0.0000      50.8611     -52.5705       1.0280      -0.8181      -0.6186     220.2194       1.0226
    3562.0    1091.1235       0.0000      50.8611     -46.6384       1.0892      -0.7900      -0.7469     226.3222       1.0226
    3563.0    1030.3348       0.0000      50.8611     -58.2230       1.1456      -0.9732      -0.6012     232.4232       1.0226
    3564.0     998.3498       0.0000      50.8611     -48.7324       0.8853      -0.6760      -0.5603     238.5268       1.0226
    3565.0     975.3975       0.0000      50.8611     -48.4893       1.1388      -0.8527      -0.7530     244.6287       1.0226
    3566.0     957.7461       0.0000      50.8611     -49.5593       1.1881      -0.9044      -0.7704     250.7306       1.0226
    3567.0     941.9916       0.0000      50.8611     -52.1009       1.0737      -0.8472      -0.6595     256.8201       1.0226
    3568.0     930.4100       0.0000      50.8611     -51.9650       0.9489      -0.7438      -0.5838     262.9351       1.0303
    3569.0     921.3509       0.0000      50.8611     -46.8919       1.2399      -0.9044      -0.8466     269.0631       1.0303
    3570.0     914.6791       0.0000      50.8611     -47.1250       0.9491      -0.6926      -0.6482     275.1649       1.0226
    3571.0     911.6253       0.0000      50.8611     -45.5291       1.0584      -0.7553      -0.7413     281.6738       1.0226
    3572.0     911.2866       0.0000      50.8611     -51.1482       0.9964      -0.7779      -0.6186     287.7765       1.0226
    3573.0     913.9954       0.0000      50.8611     -47.5941       1.0386      -0.7669      -0.7004     293.8652       1.0196
    3574.0     920.1580       0.0000      50.8611     -49.9216       0.9681      -0.7382      -0.6247     299.9423       1.0226
    3575.0     925.8663       0.0000      50.8611     -48.6805       0.9745      -0.7327      -0.6421     306.0450       1.0226
    3576.0     934.8388       0.0000      50.8611     -47.8339       0.9649      -0.7151      -0.6477     312.1590       1.0226
    3577.0     952.2408       0.0000      50.8611     -48.9260       0.9916      -0.7493      -0.6477     318.2617       1.0226
    3578.0     966.8074       0.0000      50.8611     -51.6278       0.9333      -0.7322      -0.5777     324.3635       1.0226
    3579.0     990.9117       0.0000      50.8611     -48.6074       0.8921      -0.6695      -0.5895     330.4785       1.0226
    3580.0    1008.1746       0.0000      50.8611     -53.1233       0.9240      -0.7382      -0.5542     336.5810       1.0226
    3581.0    1030.8318       0.0000      50.8611     -54.7618       0.9105      -0.7438      -0.5251     342.6771       1.0226
    3582.0    1080.2139       0.0000      50.8611     -54.8533       0.7905      -0.6464      -0.4551     348.7724       1.0226
    3583.0    1166.6675       0.0000      50.8611     -50.1960       0.8122      -0.6238      -0.5133     355.2813       1.0226
    3584.0    1247.6636       0.0000      50.8611     -51.6011       0.8259      -0.6464      -0.5133       1.3971       1.0226
    3585.0    1285.1054       0.0000      50.8611     -58.6420       0.8321      -0.7096      -0.4315       7.5120       1.0226
    3586.0    1311.8771       0.0000      50.8611     -51.8410       0.8516      -0.6695      -0.5251      13.6130       1.0226
    3587.0    1346.6372       0.0000      50.8611     -59.3530       0.7404      -0.6348      -0.3789      19.7157       1.0226
    3588.0    1377.5329       0.0000      50.8611     -65.8384       0.8910      -0.8131      -0.3615      25.8183       1.0151
    3589.0    1405.0603       0.0000      50.8611     -56.5627       0.8555      -0.7156      -0.4668      31.9332       1.0226
    3590.0    1431.6365       0.0000      50.8611     -65.9209       0.9153      -0.8356      -0.3733      38.0351       1.0226
    3591.0    1457.4856       0.0000      50.8611     -61.3443       0.9257      -0.8125      -0.4433      44.1391       1.0226
    3592.0    1493.7475       0.0000      50.8611     -64.1737       0.7688      -0.6926      -0.3324      50.2387       1.0226
    3593.0    1514.9197       0.0000      50.8611     -61.9737       0.8818      -0.7784      -0.4142      56.3405       1.0226
    3594.0    1548.7335       0.0000      50.8611     -62.0669       0.9460      -0.8356      -0.4433      62.4423       1.0226
    3595.0    1570.4849       0.0000      50.8611     -66.8984       0.9213      -0.8472      -0.3615      68.9643       1.0226
    3596.0    1590.3008       0.0000      50.8611     -67.4909       0.8986      -0.8301      -0.3441      75.0647       1.0226
    3597.0    1601.6515       0.0000      50.8611     -69.2094       0.9368      -0.8758      -0.3324      81.1687       1.0226
    3598.0    1616.3793       0.0000      50.8611     -57.1712       1.0146      -0.8532      -0.5486      87.2727       1.0226
    3599.0    1626.5235       0.0000      50.8611     -65.0770       1.0236      -0.9275      -0.4315      93.3731       1.0226
    3600.0    1636.2703       0.0000      50.8611     -69.6348       0.9045      -0.8472      -0.3150      99.4714       1.0151
    3601.0    1636.2703       0.0000      50.8611     -62.4051       1.0805      -0.9561      -0.5016     105.5644       1.0196
    3602.0    1642.8153       0.0000      50.8611     -62.0718       0.9719      -0.8587      -0.4551     111.6539       1.0226
    3603.0    1637.8901       0.0000      50.8611     -67.3476       0.9063      -0.8356      -0.3498     117.7522       1.0151
    3604.0    1624.4365       0.0000      50.8611     -69.8316       1.1167      -1.0480      -0.3850     123.8452       1.0226
    3605.0    1619.0329       0.0000      50.8611     -65.6323       1.0752      -0.9792      -0.4433     129.9557       1.0151
    3606.0    1615.3135       0.0000      50.8611     -61.6807       1.0213      -0.8989      -0.4842     136.0628       1.0226
    3607.0    1593.3507       0.0000      50.8611     -61.0983       1.0328      -0.9049      -0.4959     142.5718       1.0226
    3608.0    1579.0377       0.0000      50.8611     -59.5751       1.1419      -0.9848      -0.5777     148.6746       1.0226
    3609.0    1555.1273       0.0000      50.8611     -63.8527       1.1934      -1.0711      -0.5251     154.7888       1.0303
    3610.0    1539.5472       0.0000      50.8611     -65.1882       1.1165      -1.0134      -0.4668     160.8885       1.0226
    3611.0    1510.2350       0.0000      50.8611     -64.3143       1.1123      -1.0018      -0.4786     166.9802       1.0151
    3612.0    1486.5221       0.0000      50.8611     -60.4925       1.0660      -0.9275      -0.5251     173.0830       1.0226
    3613.0    1454.0194       0.0000      50.8611     -59.6846       1.1212      -0.9677      -0.5660     179.1849       1.0226
