~VERSION INFORMATION
VERS.           2.0   :CWLS Log ASCII Standard - VERSION 2.0
WRAP.           NO    :One Line per depth step
PROD.  Schlumberger   :LAS Producer
PROG.  DLIS to ASCII 19C2-270                          :LAS Program name and version
CREA.        2017/09/16 17:42                          :LAS Creation date {YYYY/MM/DD hh:mm}
DLIS_CREA.  2017-Sep-15 18:59                          :DLIS Creation date and time {YYYY-MMM-DD hh:mm}
SOURCE.     LPC_S5-1_A5.DLIS                           :DLIS File Name
FILE-ID.     PERFO_Perfo_WPGRT_058LTP                  :File Identification Number
#--------------------------------------------------
~WELL INFORMATION
#MNEM.UNIT      DATA             DESCRIPTION
#---- ------ --------------   -----------------------------
STRT .S         7119.0       :START TIME      
STOP .S         7636.0       :STOP TIME      
STEP .S            1.0       :STEP     
NULL .          -999.25      :NULL VALUE
COMP .        SHELL INTERNATIONAL E P                  :COMPANY
WELL .        WPP TEST 2                               :WELL
FLD  .        WILDCAT                                  :FIELD
LOC  .        NA                                       :LOCATION
CNTY .        HARRIS                                   :COUNTY
STAT .        TEXAS                                    :STATE
CTRY .                                                 :COUNTRY
API  .        NA                                       :API NUMBER
UWI  .                                                 :UNIQUE WELL ID
DATE .        15-Sep-2017                              :LOG DATE {DD-MMM-YYYY}
SRVC .        Schlumberger                             :SERVICE COMPANY
LATI .DEG                                              :LATITUDE
LONG .DEG                                              :LONGITUDE
GDAT .                                                 :GeoDetic Datum
SECT .        NA                                       :Section
RANG .        NA                                       :Range
TOWN .        NA                                       :Township
#-----------------------------------------------------------------------------
~PARAMETER INFORMATION
#MNEM.UNIT    VALUE                      DESCRIPTION
#---- -----   --------------------       ------------------------
U-PHASE_B_COMP_PER_YT.                 0 :Phase B Comparator Period Yt
U-PHASE_A_COMP_PER_XT.                 0 :Phase A Comparator Period Xt
U-MAX_EXC_CUR_LIMIT.MA       240.00000   :Requested CM Current Limit
U-REQ_EXC_FQ.HZ              50          :Requested CM Frequency
U-TILT_Y_OFFSET.           0.19916       :WPTET Tilt Y Offset
U-TILT_Y_GAIN.           1.01796         :WPTET Tilt Y Gain
U-TILT_X_OFFSET.          -1.77103       :WPTET Tilt X Offset
U-TILT_X_GAIN.           1.00000         :WPTET Tilt X Gain
U-TILT_OFFSET_TOL.           0.00100     :WPTET Tilt Offset Calibration Tolerance
U-NO_TILT_CAL_ROTATIONS.                 3 :Number of Rotations for Tilt Calibration
HAZI .DEG        0.00000                 :Hole Azimuth
U-STD_TOL_TILT.           0.01000        :Tilt Standard Deviation Tolerance
U-GUN_POS_TOL.DEG        5.00000         :Gun Position Tolerance
ROT_ANGLE_THRESHOLD.DEG        5.00000   :Rotation Stop Angle Tolerance
STOP_ROT_ANGLE.DEG        0.00000        :Rotation Stop Angle
WITN .        MR. DHRUA ARORA            :Witness's Name
ENGI .        MORRIS MOORE               :Engineer's Name
COUN .        HARRIS                     :County or Rig Name
FN   .        WILDCAT                    :Field Name
WN   .        WPP TEST 2                 :Well Name
CN   .        SHELL INTERNATIONAL E P    :Company Name
CLAB .        County                     :County/Rig Label
SLAB .        State                      :State/Province Label
RUN  .          1                        :RUN NUMBER
PDAT .        GROUND LEVEL               :Permanent Datum
EPD  .                                   :Elevation of Permanent Datum above Mean Sea Level
LMF  .          NA                       :Logging Measured From (Name of Logging Elevation Reference)
APD  .                                   :Elevation of Depth Reference (LMF) above Permanent Datum
#-----------------------------------------------------------------------------
~CURVE INFORMATION
#MNEM.UNIT   API CODE                                  DESCRIPTION
#---- -----  --------                                  -----------------------
TIME .S                                                :TIME {F10.1}
FREQ_EMF_SL.HZ                                         :Electromagnetic Field Frequency {F13.4}
PH_SH_WPPCM_SL.DEG                                     :WPPCM Phase Shift {F13.4}
FREQ_EXC_REQ_SL.HZ                                     :Requested Exciter Frequency {F13.4}
RB_SL.DEG                                              :Relative Bearing {F13.4}
SDEV_SL.DEG                                            :Sonde Deviation {F13.4}
TILX_SL.DEG                                            :X-axis Tilt {F13.4}
TILY_SL.DEG                                            :Y-axis Tilt {F13.4}
ROTA_SL.DEG                                            :Motor Rotation Angle {F13.4}
MSPE_SL.RPM                                            :Motor Speed {F13.4}
#-----------------------------------------------------------------------------
# 
#     TIME    FREQ_EMF_SL  PH_SH_WPPCM_ FREQ_EXC_REQ    RB_SL       SDEV_SL      TILX_SL      TILY_SL      ROTA_SL      MSPE_SL
#                          SL           _SL
~A  
# ...
    7497.0    1110.5742       0.0000      50.8611      15.5161       4.7567       1.2672      -4.5815     214.5615       1.0167
    7498.0    1117.2314       0.0000      50.8611      20.1102       4.6567       1.5982      -4.3721     220.6564       1.0226
    7499.0    1111.9827       0.0000      50.8611      26.9307       4.4297       2.0046      -3.9485     226.7583       1.0226
    7500.0    1134.5233       0.0000      50.8611      33.1368       4.3769       2.3918      -3.6623     232.8514       1.0226
    7501.0    1146.5860       0.0000      50.8611      39.4689       4.2227       2.6827      -3.2583     239.3579       1.0226
    7502.0    1163.4491       0.0000      50.8611      46.6808       4.0768       2.9638      -2.7955     245.4598       1.0226
    7503.0    1195.3166       0.0000      50.8611      49.6038       3.9290       2.9911      -2.5452     251.5617       1.0226
    7504.0    1220.7031       0.0000      50.8611      57.3363       3.9090       3.2900      -2.1086     257.6512       1.0226
    7505.0    1257.5605       0.0000      50.8611      65.5773       3.8291       3.4860      -1.5819     263.7530       1.0226
    7506.0    1299.1177       0.0000      50.8611      70.3891       3.5791       3.3703      -1.2008     269.8548       1.0226
    7507.0    1314.6481       0.0000      50.8611      78.9848       3.5433       3.4780      -0.6767     275.9574       1.0273
    7508.0    1335.0244       0.0000      50.8611      87.8512       3.5514       3.5486      -0.1329     282.0736       1.0226
    7509.0    1349.2623       0.0000      50.8611      95.1163       3.5106       3.4956       0.3120     288.1741       1.0180
    7510.0    1362.9674       0.0000      50.8611     101.5122       3.3708       3.3028       0.6718     294.2767       1.0273
    7511.0    1377.4894       0.0000      50.8611     109.7511       3.3064       3.1116       1.1167     300.3792       1.0226
    7512.0    1390.4665       0.0000      50.8611     117.5472       3.3801       2.9960       1.5615     306.4745       1.0226
    7513.0    1408.4130       0.0000      50.8611     127.1336       3.5300       2.8128       2.1307     312.9670       1.0226
    7514.0    1426.2170       0.0000      50.8611     133.6523       3.4623       2.5043       2.3891     319.0818       1.0286
    7515.0    1436.2401       0.0000      50.8611     140.8545       3.4674       2.1878       2.6884     325.1837       1.0226
    7516.0    1448.0718       0.0000      50.8611     149.1212       3.5295       1.8086       3.0286     331.2854       1.0226
    7517.0    1460.1000       0.0000      50.8611     155.8078       3.6200       1.4825       3.3017     337.4003       1.0286
    7518.0    1474.0566       0.0000      50.8611     164.6725       3.7019       0.9780       3.5700     343.5021       1.0226
    7519.0    1486.0824       0.0000      50.8611     171.5482       3.6385       0.5345       3.5986     349.6039       1.0226
    7520.0    1498.8236       0.0000      50.8611     177.3661       3.9062       0.1795       3.9020     355.7057       1.0226
    7521.0    1506.6687       0.0000      50.8611    -175.5130       4.0963      -0.3202       4.0835       1.8092       1.0273
    7522.0    1517.1884       0.0000      50.8611    -168.2524       3.9672      -0.8070       3.8840       7.9357       1.0226
    7523.0    1527.0738       0.0000      50.8611    -161.4567       4.1833      -1.3292       3.9658      14.0375       1.0226
    7524.0    1529.9979       0.0000      50.8611    -155.1916       4.1992      -1.7614       3.8104      20.1393       1.0226
    7525.0    1531.8628       0.0000      50.8611    -151.1309       4.4377      -2.1406       3.8840      26.4206       1.0226
    7526.0    1537.0886       0.0000      50.8611    -144.9675       4.4398      -2.5470       3.6337      32.7509       1.0226
    7527.0    1538.5668       0.0000      50.8611    -134.0742       4.4825      -3.2170       3.1169      38.8658       1.0226
    7528.0    1542.3540       0.0000      50.8611    -130.9273       4.6492      -3.5110       3.0433      44.9676       1.0226
    7529.0    1533.3344       0.0000      50.8611    -128.0806       4.7686      -3.7520       2.9387      51.0571       1.0226
    7530.0    1523.7643       0.0000      50.8611    -122.0574       4.8136      -4.0782       2.5527      57.1664       1.0286
    7531.0    1523.3014       0.0000      50.8611    -114.7782       4.9116      -4.4582       2.0555      63.2685       1.0180
    7532.0    1513.5307       0.0000      50.8611    -109.2525       5.0200      -4.7385       1.6531      69.3633       1.0226
    7533.0    1499.2004       0.0000      50.8611    -104.7276       5.2057      -5.0342       1.3211      75.4651       1.0226
    7534.0    1492.8344       0.0000      50.8611    -100.1353       5.1540      -5.0727       0.9041      81.5669       1.0226
    7535.0    1479.8957       0.0000      50.8611     -94.1195       5.1312      -5.1177       0.3676      87.6704       1.0226
    7536.0    1464.8438       0.0000      50.8611     -87.1434       5.2853      -5.2784      -0.2637      93.7894       1.0286
    7537.0    1447.4982       0.0000      50.8611     -83.8434       5.3947      -5.3635      -0.5777     100.0781       1.0226
    7538.0    1438.2423       0.0000      50.8611     -80.0110       5.4334      -5.3507      -0.9408     106.3961       1.0226
    7539.0    1415.0858       0.0000      50.8611     -72.5988       5.4639      -5.2125      -1.6310     112.4856       1.0226
    7540.0    1402.2130       0.0000      50.8611     -68.6769       5.4190      -5.0470      -1.9679     118.5887       1.0226
    7541.0    1380.1933       0.0000      50.8611     -61.3362       5.5965      -4.9088      -2.6810     124.6900       1.0226
    7542.0    1368.6069       0.0000      50.8611     -59.9272       5.5560      -4.8060      -2.7808     130.7918       1.0226
    7543.0    1344.9565       0.0000      50.8611     -55.2818       5.6873      -4.6723      -3.2354     136.8691       1.0226
    7544.0    1313.1734       0.0000      50.8611     -49.0680       5.5250      -4.1714      -3.6165     142.9841       1.0226
    7545.0    1289.6911       0.0000      50.8611     -43.9843       5.4285      -3.7665      -3.9027     149.0874       1.0226
    7546.0    1254.5956       0.0000      50.8611     -39.2041       5.5042      -3.4757      -4.2625     155.1896       1.0226
    7547.0    1223.7634       0.0000      50.8611     -34.6913       5.4239      -3.0837      -4.4572     161.3030       1.0226
    7548.0    1198.8631       0.0000      50.8611     -30.4641       5.3210      -2.6949      -4.5847     167.3926       1.0226
    7549.0    1180.2283       0.0000      50.8611     -20.2853       5.0631      -1.7534      -4.7483     173.4945       1.0226
    7550.0    1156.6870       0.0000      50.8611     -18.7522       5.2503      -1.6859      -4.9707     180.0044       1.0226
    7551.0    1132.8366       0.0000      50.8611     -15.0455       5.2137      -1.3517      -5.0345     186.1194       1.0180
    7552.0    1121.6290       0.0000      50.8611      -7.5134       4.9495      -0.6464      -4.9069     192.2220       1.0226
    7553.0    1115.1952       0.0000      50.8611      -1.4397       4.9494      -0.1242      -4.9478     198.3239       1.0226
    7554.0    1111.7662       0.0000      50.8611       3.5640       4.9168       0.3048      -4.9069     204.4258       1.0226
    7555.0    1102.8230       0.0000      50.8611       6.6081       4.8217       0.5542      -4.7896     210.5308       1.0226
    7556.0    1107.8479       0.0000      50.8611      12.1483       4.6532       0.9780      -4.5488     216.6186       1.0226
    7557.0    1109.2426       0.0000      50.8611      20.1914       4.5394       1.5660      -4.2576     222.7205       1.0180
    7558.0    1108.0519       0.0000      50.8611      26.4989       4.5759       2.0400      -4.0941     228.8088       1.0226
    7559.0    1128.6116       0.0000      50.8611      30.3817       4.3999       2.2231      -3.7948     234.8984       1.0167
