~VERSION INFORMATION
VERS.           2.0   :CWLS Log ASCII Standard - VERSION 2.0
WRAP.           NO    :One Line per depth step
PROD.  Schlumberger   :LAS Producer
PROG.  DLIS to ASCII 19C2-270                          :LAS Program name and version
CREA.        2017/09/16 17:42                          :LAS Creation date {YYYY/MM/DD hh:mm}
DLIS_CREA.  2017-Sep-15 16:38                          :DLIS Creation date and time {YYYY-MMM-DD hh:mm}
SOURCE.     LPC_S3-1_2A5.DLIS                          :DLIS File Name
FILE-ID.     PERFO_Perfo_WPGRT_042LTP                  :File Identification Number
#--------------------------------------------------
~WELL INFORMATION
#MNEM.UNIT      DATA             DESCRIPTION
#---- ------ --------------   -----------------------------
STRT .S         4115.0       :START TIME      
STOP .S         4682.0       :STOP TIME      
STEP .S            1.0       :STEP     
NULL .          -999.25      :NULL VALUE
COMP .        SHELL INTERNATIONAL E P                  :COMPANY
WELL .        WPP TEST 2                               :WELL
FLD  .        WILDCAT                                  :FIELD
LOC  .                                                 :LOCATION
CNTY .        HARRIS                                   :COUNTY
STAT .        TEXAS                                    :STATE
CTRY .                                                 :COUNTRY
API  .                                                 :API NUMBER
UWI  .                                                 :UNIQUE WELL ID
DATE .                                                 :LOG DATE
SRVC .        Schlumberger                             :SERVICE COMPANY
LATI .DEG                                              :LATITUDE
LONG .DEG                                              :LONGITUDE
GDAT .                                                 :GeoDetic Datum
#-----------------------------------------------------------------------------
~PARAMETER INFORMATION
#MNEM.UNIT    VALUE                      DESCRIPTION
#---- -----   --------------------       ------------------------
U-PHASE_B_COMP_PER_YT.                 0 :Phase B Comparator Period Yt
U-PHASE_A_COMP_PER_XT.                 0 :Phase A Comparator Period Xt
U-MAX_EXC_CUR_LIMIT.MA       240.00000   :Requested CM Current Limit
U-REQ_EXC_FQ.HZ              50          :Requested CM Frequency
U-TILT_Y_OFFSET.           0.19916       :WPTET Tilt Y Offset
U-TILT_Y_GAIN.           1.01796         :WPTET Tilt Y Gain
U-TILT_X_OFFSET.          -1.77103       :WPTET Tilt X Offset
U-TILT_X_GAIN.           1.00000         :WPTET Tilt X Gain
U-TILT_OFFSET_TOL.           0.00100     :WPTET Tilt Offset Calibration Tolerance
U-NO_TILT_CAL_ROTATIONS.                 3 :Number of Rotations for Tilt Calibration
HAZI .DEG        0.00000                 :Hole Azimuth
U-STD_TOL_TILT.           0.01000        :Tilt Standard Deviation Tolerance
U-GUN_POS_TOL.DEG        5.00000         :Gun Position Tolerance
ROT_ANGLE_THRESHOLD.DEG        5.00000   :Rotation Stop Angle Tolerance
STOP_ROT_ANGLE.DEG        0.00000        :Rotation Stop Angle
WITN .                                   :Witness's Name
ENGI .                                   :Engineer's Name
COUN .        HARRIS                     :County or Rig Name
FN   .        WILDCAT                    :Field Name
WN   .        WPP TEST 2                 :Well Name
CN   .        SHELL INTERNATIONAL E P    :Company Name
CLAB .        County                     :County/Rig Label
SLAB .        State                      :State/Province Label
RUN  .          1                        :RUN NUMBER
PDAT .        GROUND LEVEL               :Permanent Datum
EPD  .                                   :Elevation of Permanent Datum above Mean Sea Level
LMF  .                                   :Logging Measured From (Name of Logging Elevation Reference)
APD  .                                   :Elevation of Depth Reference (LMF) above Permanent Datum
#-----------------------------------------------------------------------------
~CURVE INFORMATION
#MNEM.UNIT   API CODE                                  DESCRIPTION
#---- -----  --------                                  -----------------------
TIME .S                                                :TIME {F10.1}
FREQ_EMF_SL.HZ                                         :Electromagnetic Field Frequency {F13.4}
PH_SH_WPPCM_SL.DEG                                     :WPPCM Phase Shift {F13.4}
FREQ_EXC_REQ_SL.HZ                                     :Requested Exciter Frequency {F13.4}
RB_SL.DEG                                              :Relative Bearing {F13.4}
SDEV_SL.DEG                                            :Sonde Deviation {F13.4}
TILX_SL.DEG                                            :X-axis Tilt {F13.4}
TILY_SL.DEG                                            :Y-axis Tilt {F13.4}
ROTA_SL.DEG                                            :Motor Rotation Angle {F13.4}
MSPE_SL.RPM                                            :Motor Speed {F13.4}
#-----------------------------------------------------------------------------
# 
#     TIME    FREQ_EMF_SL  PH_SH_WPPCM_ FREQ_EXC_REQ    RB_SL       SDEV_SL      TILX_SL      TILY_SL      ROTA_SL      MSPE_SL
#                          SL           _SL
~A  
# ...
    4430.0    1271.5429       0.0000      50.8611     -32.5490       6.2143      -3.3387      -5.2353     301.9282       1.0330
    4431.0    1262.6168       0.0000      50.8611     -27.7469       6.0663      -2.8202      -5.3665     308.0059       1.0223
    4432.0    1259.9457       0.0000      50.8611     -24.2088       6.2855      -2.5732      -5.7308     314.1209       1.0226
    4433.0    1253.3423       0.0000      50.8611     -17.8661       6.0679      -1.8586      -5.7742     320.2227       1.0226
    4434.0    1246.7753       0.0000      50.8611     -11.2064       6.0470      -1.1730      -5.9313     326.3245       1.0226
    4435.0    1244.2719       0.0000      50.8611      -6.6179       5.9678      -0.6865      -5.9279     332.4263       1.0226
    4436.0    1244.6017       0.0000      50.8611      -0.8308       5.8901      -0.0852      -5.8895     338.5166       1.0226
    4437.0    1251.1122       0.0000      50.8611       5.4020       5.8810       0.5526      -5.8547     344.6062       1.0226
    4438.0    1251.0455       0.0000      50.8611       9.6609       5.4842       0.9189      -5.4062     350.7080       1.0226
    4439.0    1253.2754       0.0000      50.8611      17.8748       5.3057       1.6251      -5.0480     356.7975       1.0226
    4440.0    1262.2750       0.0000      50.8611      14.8321       6.1564       1.5712      -5.9504       3.3078       1.0330
    4441.0    1269.2476       0.0000      50.8611      27.3828       5.1607       2.3710      -4.5811       9.4231       1.0226
    4442.0    1292.2966       0.0000      50.8611      36.1818       5.0225       2.9626      -4.0520      15.5249       1.0226
    4443.0    1299.5329       0.0000      50.8611      45.6931       4.6537       3.3277      -3.2489      21.6267       1.0226
    4444.0    1321.5892       0.0000      50.8611      45.9751       5.0207       3.6077      -3.4869      27.7286       1.0226
    4445.0    1329.2343       0.0000      50.8611      51.3128       4.9877       3.8913      -3.1152      33.8305       1.0226
    4446.0    1352.4080       0.0000      50.8611      60.3930       4.5132       3.9229      -2.2281      39.9451       1.0304
    4447.0    1362.4875       0.0000      50.8611      63.4982       4.8320       4.3223      -2.1552      46.0472       1.0226
    4448.0    1360.2479       0.0000      50.8611      69.0797       4.8080       4.4902      -1.7152      52.1490       1.0330
    4449.0    1378.6765       0.0000      50.8611      77.3518       4.4228       4.3134      -0.9702      58.2640       1.0226
    4450.0    1392.1620       0.0000      50.8611      81.7863       4.3905       4.3452      -0.6272      64.3785       1.0229
    4451.0    1389.4929       0.0000      50.8611      90.8860       4.5126       4.5086       0.0638      70.4684       1.0226
    4452.0    1400.6475       0.0000      50.8611     101.6264       4.8232       4.7239       0.9711      76.9662       1.0229
    4453.0    1400.8155       0.0000      50.8611     112.0146       4.3257       4.0094       1.6204      83.0684       1.0226
    4454.0    1411.8127       0.0000      50.8611     119.6528       4.0918       3.5539       2.0195      89.1832       1.0229
    4455.0    1420.2831       0.0000      50.8611     135.5914       3.9826       2.7847       2.8422      95.2727       1.0226
    4456.0    1414.8240       0.0000      50.8611     136.1867       4.2549       2.9445       3.0662     101.3875       1.0226
    4457.0    1417.8496       0.0000      50.8611     139.4924       4.6825       3.0393       3.5581     107.5024       1.0226
    4458.0    1427.0059       0.0000      50.8611     151.6667       4.1375       1.9621       3.6411     113.5920       1.0226
    4459.0    1426.4790       0.0000      50.8611     149.1428       4.3347       2.2223       3.7192     119.7200       1.0226
    4460.0    1432.1142       0.0000      50.8611     165.7721       4.4215       1.0856       4.2855     125.8349       1.0226
    4461.0    1434.7740       0.0000      50.8611     160.8971       5.2959       1.7347       5.0006     131.9498       1.0229
    4462.0    1437.8834       0.0000      50.8611     178.8159       4.8211       0.0995       4.8183     138.0517       1.0226
    4463.0    1435.3033       0.0000      50.8611     170.1054       5.3329       0.9153       5.2533     144.1669       1.0124
    4464.0    1443.8777       0.0000      50.8611    -161.8915       5.5157      -0.7014       5.4688     150.6785       1.0229
    4465.0    1449.5636       0.0000      50.8611    -168.1368       6.0817      -1.2517       5.9472     156.7925       1.0226
    4466.0    1441.0077       0.0000      50.8611    -159.9517       5.5355      -1.8730       5.1981     162.9073       1.0330
    4467.0    1440.9186       0.0000      50.8611    -163.9353       5.3874      -1.4887       5.1765     169.0224       1.0226
    4468.0    1446.9386       0.0000      50.8611    -142.2387       5.2823      -3.2319       4.1714     175.1243       1.0226
    4469.0    1446.6702       0.0000      50.8611    -150.5030       6.6654      -3.2769       5.7971     181.2270       1.0226
    4470.0    1437.7954       0.0000      50.8611    -135.0417       5.9685      -4.2142       4.2173     187.3421       1.0226
    4471.0    1441.0077       0.0000      50.8611    -133.1290       6.0057      -4.3782       4.1019     193.4317       1.0226
    4472.0    1440.7414       0.0000      50.8611    -125.2403       6.2846      -5.1294       3.6215     199.5335       1.0226
    4473.0    1437.7954       0.0000      50.8611    -124.5513       5.6667      -4.6650       3.2097     205.6238       1.0226
    4474.0    1429.1158       0.0000      50.8611    -118.1046       6.9536      -6.1275       3.2723     211.7266       1.0229
    4475.0    1431.7656       0.0000      50.8611    -111.0703       6.0736      -5.6648       2.1806     217.8343       1.0124
    4476.0    1423.0722       0.0000      50.8611    -109.7971       6.1343      -5.7704       2.0726     223.9312       1.0124
    4477.0    1414.6532       0.0000      50.8611    -100.6466       6.1410      -6.0347       1.1322     230.4288       1.0226
    4478.0    1398.1990       0.0000      50.8611     -93.7217       6.5205      -6.5059       0.4220     236.5066       1.0226
    4479.0    1389.7405       0.0000      50.8611     -84.4275       6.9677      -6.9332      -0.6771     242.6223       1.0226
    4480.0    1392.2442       0.0000      50.8611     -82.2971       6.4143      -6.3561      -0.8578     248.7124       1.0223
    4481.0    1370.6140       0.0000      50.8611     -79.5738       6.4565      -6.3488      -1.1661     254.8138       1.0226
    4482.0    1355.0845       0.0000      50.8611     -73.9247       6.6146      -6.3548      -1.8279     260.9157       1.0226
    4483.0    1352.2416       0.0000      50.8611     -64.6230       6.8542      -6.1894      -2.9320     267.0055       1.0223
    4484.0    1339.2094       0.0000      50.8611     -63.2581       6.5765      -5.8704      -2.9541     273.1078       1.0226
    4485.0    1314.5493       0.0000      50.8611     -55.0498       5.9511      -4.8767      -3.3990     279.2096       1.0226
    4486.0    1302.1558       0.0000      50.8611     -50.2623       5.3067      -4.0762      -3.3912     285.3245       1.0226
    4487.0    1297.1355       0.0000      50.8611     -51.7487       6.5136      -5.1024      -4.0303     291.4145       1.0226
    4488.0    1269.3167       0.0000      50.8611     -41.9659       7.0008      -4.6751      -5.1993     297.5173       1.0124
    4489.0    1262.3429       0.0000      50.8611     -35.0825       6.9454      -3.9850      -5.6789     304.0142       1.0223
    4490.0    1253.4094       0.0000      50.8611     -25.2533       5.0339      -2.1458      -4.5512     310.1161       1.0226
    4491.0    1246.6755       0.0000      50.8611     -34.0098       8.0985      -4.5361      -6.6892     316.2309       1.0226
    4492.0    1240.0793       0.0000      50.8611     -25.6625       6.0415      -2.6085      -5.4442     322.3203       1.0226
