~VERSION INFORMATION
VERS.           2.0   :CWLS Log ASCII Standard - VERSION 2.0
WRAP.           NO    :One Line per depth step
PROD.  Schlumberger   :LAS Producer
PROG.  DLIS to ASCII 19C2-270                          :LAS Program name and version
CREA.        2017/09/16 17:42                          :LAS Creation date {YYYY/MM/DD hh:mm}
DLIS_CREA.  2017-Sep-15 16:29                          :DLIS Creation date and time {YYYY-MMM-DD hh:mm}
SOURCE.     LPC_S3-1_2AV.DLIS                          :DLIS File Name
FILE-ID.     PERFO_Perfo_WPGRT_041LTP                  :File Identification Number
#--------------------------------------------------
~WELL INFORMATION
#MNEM.UNIT      DATA             DESCRIPTION
#---- ------ --------------   -----------------------------
STRT .S         3547.0       :START TIME      
STOP .S         3943.0       :STOP TIME      
STEP .S            1.0       :STEP     
NULL .          -999.25      :NULL VALUE
COMP .        SHELL INTERNATIONAL E P                  :COMPANY
WELL .        WPP TEST 2                               :WELL
FLD  .        WILDCAT                                  :FIELD
LOC  .                                                 :LOCATION
CNTY .        HARRIS                                   :COUNTY
STAT .        TEXAS                                    :STATE
CTRY .                                                 :COUNTRY
API  .                                                 :API NUMBER
UWI  .                                                 :UNIQUE WELL ID
DATE .                                                 :LOG DATE
SRVC .        Schlumberger                             :SERVICE COMPANY
LATI .DEG                                              :LATITUDE
LONG .DEG                                              :LONGITUDE
GDAT .                                                 :GeoDetic Datum
#-----------------------------------------------------------------------------
~PARAMETER INFORMATION
#MNEM.UNIT    VALUE                      DESCRIPTION
#---- -----   --------------------       ------------------------
U-PHASE_B_COMP_PER_YT.                 0 :Phase B Comparator Period Yt
U-PHASE_A_COMP_PER_XT.                 0 :Phase A Comparator Period Xt
U-MAX_EXC_CUR_LIMIT.MA       240.00000   :Requested CM Current Limit
U-REQ_EXC_FQ.HZ              50          :Requested CM Frequency
U-TILT_Y_OFFSET.           0.19916       :WPTET Tilt Y Offset
U-TILT_Y_GAIN.           1.01796         :WPTET Tilt Y Gain
U-TILT_X_OFFSET.          -1.77103       :WPTET Tilt X Offset
U-TILT_X_GAIN.           1.00000         :WPTET Tilt X Gain
U-TILT_OFFSET_TOL.           0.00100     :WPTET Tilt Offset Calibration Tolerance
U-NO_TILT_CAL_ROTATIONS.                 3 :Number of Rotations for Tilt Calibration
HAZI .DEG        0.00000                 :Hole Azimuth
U-STD_TOL_TILT.           0.01000        :Tilt Standard Deviation Tolerance
U-GUN_POS_TOL.DEG        5.00000         :Gun Position Tolerance
ROT_ANGLE_THRESHOLD.DEG        5.00000   :Rotation Stop Angle Tolerance
STOP_ROT_ANGLE.DEG        0.00000        :Rotation Stop Angle
WITN .                                   :Witness's Name
ENGI .                                   :Engineer's Name
COUN .        HARRIS                     :County or Rig Name
FN   .        WILDCAT                    :Field Name
WN   .        WPP TEST 2                 :Well Name
CN   .        SHELL INTERNATIONAL E P    :Company Name
CLAB .        County                     :County/Rig Label
SLAB .        State                      :State/Province Label
RUN  .          1                        :RUN NUMBER
PDAT .        GROUND LEVEL               :Permanent Datum
EPD  .                                   :Elevation of Permanent Datum above Mean Sea Level
LMF  .                                   :Logging Measured From (Name of Logging Elevation Reference)
APD  .                                   :Elevation of Depth Reference (LMF) above Permanent Datum
#-----------------------------------------------------------------------------
~CURVE INFORMATION
#MNEM.UNIT   API CODE                                  DESCRIPTION
#---- -----  --------                                  -----------------------
TIME .S                                                :TIME {F10.1}
FREQ_EMF_SL.HZ                                         :Electromagnetic Field Frequency {F13.4}
PH_SH_WPPCM_SL.DEG                                     :WPPCM Phase Shift {F13.4}
FREQ_EXC_REQ_SL.HZ                                     :Requested Exciter Frequency {F13.4}
RB_SL.DEG                                              :Relative Bearing {F13.4}
SDEV_SL.DEG                                            :Sonde Deviation {F13.4}
TILX_SL.DEG                                            :X-axis Tilt {F13.4}
TILY_SL.DEG                                            :Y-axis Tilt {F13.4}
ROTA_SL.DEG                                            :Motor Rotation Angle {F13.4}
MSPE_SL.RPM                                            :Motor Speed {F13.4}
#-----------------------------------------------------------------------------
# 
#     TIME    FREQ_EMF_SL  PH_SH_WPPCM_ FREQ_EXC_REQ    RB_SL       SDEV_SL      TILX_SL      TILY_SL      ROTA_SL      MSPE_SL
#                          SL           _SL
~A  
    3547.0    1420.3435       0.0000 9999999.9999     -65.9373       1.0157      -0.9275      -0.4141     155.6093       1.0225
    3548.0    1408.4384       0.0000      50.8611     -59.1167       1.1363      -0.9742      -0.5844     159.6242       1.0226
    3549.0    1400.6475       0.0000      50.8611     -55.1371       1.0399      -0.8537      -0.5936     165.7399       1.0226
    3550.0    1402.7309       0.0000      50.8611     -59.4315       1.1311      -0.9742      -0.5738     171.8549       1.0098
    3551.0    1395.0892       0.0000      50.8611     -60.3861       1.1494      -0.9988      -0.5685     177.9584       1.0226
    3552.0    1392.3268       0.0000      50.8611     -56.0236       1.0896      -0.9029      -0.6094     184.0612       1.0268
    3553.0    1389.5751       0.0000      50.8611     -58.4519       1.1654      -0.9923      -0.6094     190.1438       1.0057
    3554.0    1393.5893       0.0000      50.8611     -57.1626       1.0667      -0.8964      -0.5777     196.2180       1.0203
    3555.0    1385.7765       0.0000      50.8611     -55.1702       1.1709      -0.9612      -0.6687     202.3172       1.0145
    3556.0    1374.7878       0.0000      50.8611     -46.6956       1.1546      -0.8407      -0.7914     208.6584       1.0145
    3557.0    1373.7382       0.0000      50.8611     -54.8289       1.1561      -0.9366      -0.6712     214.9145       1.0226
    3558.0    1377.0240       0.0000      50.8611     -55.3469       1.0599      -0.8718      -0.6028     221.0220       1.0185
    3559.0    1367.5262       0.0000      50.8611     -59.9353       1.0907      -0.9431      -0.5460     227.1199       1.0226
    3560.0    1361.0311       0.0000      50.8611     -54.5636       1.0758      -0.8758      -0.6120     233.2026       1.0098
    3561.0    1357.8210       0.0000      50.8611     -51.6511       0.9982      -0.7864      -0.6028     239.3268       1.0226
    3562.0    1351.3678       0.0000      50.8611     -58.6655       1.0744      -0.9148      -0.5615     245.4287       1.0226
    3563.0    1345.9848       0.0000      50.8611     -50.6070       1.1683      -0.9029      -0.7413     251.5182       1.0185
    3564.0    1343.8338       0.0000      50.8611     -48.3661       1.0768      -0.8045      -0.7096     257.6343       1.0226
    3565.0    1339.8646       0.0000      50.8611     -53.3136       1.0702      -0.8602      -0.6344     263.7350       1.0226
    3566.0    1337.3162       0.0000      50.8611     -50.8276       1.0938      -0.8472      -0.6912     269.8424       1.0121
    3567.0    1335.7567       0.0000      50.8611     -56.2023       1.0592      -0.8833      -0.5777     275.9195       1.0161
    3568.0    1327.6227       0.0000      50.8611     -53.7817       0.9508      -0.7669      -0.5619     282.0173       1.0226
    3569.0    1313.7042       0.0000      50.8611     -45.0912       0.9627      -0.6840      -0.6753     288.5403       1.0226
    3570.0    1315.2060       0.0000      50.8611     -46.3301       1.0839      -0.7759      -0.7530     294.6421       1.0226
    3571.0    1319.5961       0.0000      50.8611     -50.1865       1.0303      -0.7915      -0.6595     300.7571       1.0226
    3572.0    1310.3041       0.0000      50.8611     -47.9244       1.0234      -0.7603      -0.6845     306.8589       1.0226
    3573.0    1311.8003       0.0000      50.8611     -51.3399       1.0526      -0.8161      -0.6569     312.9539       1.0226
    3574.0    1319.7660       0.0000      50.8611     -52.7052       1.0574      -0.8410      -0.6407     319.0640       1.0226
    3575.0    1319.1838       0.0000      50.8611     -52.6008       0.9352      -0.7423      -0.5685     325.1658       1.0226
    3576.0    1321.2699       0.0000      50.8611     -52.5287       1.0169      -0.8070      -0.6186     331.2601       1.0185
    3577.0    1326.2544       0.0000      50.8611     -54.0539       0.9854      -0.7980      -0.5777     337.3572       1.0226
    3578.0    1335.1859       0.0000      50.8611     -49.3493       0.9258      -0.7021      -0.6028     343.4801       1.0268
    3579.0    1333.6382       0.0000      50.8611     -50.5376       0.9093      -0.7021      -0.5777     349.5912       1.0226
    3580.0    1339.8646       0.0000      50.8611     -53.7144       0.8530      -0.6865      -0.5051     355.6888       1.0292
    3581.0    1346.5741       0.0000      50.8611     -51.4487       0.9284      -0.7242      -0.5711       1.8068       1.0226
    3582.0    1348.5663       0.0000      50.8611     -55.0044       0.9500      -0.7759      -0.5435       7.9091       1.0251
    3583.0    1348.4224       0.0000      50.8611     -53.1514       1.0165      -0.8136      -0.6094      14.0244       1.0226
    3584.0    1358.9923       0.0000      50.8611     -59.5508       0.8501      -0.7332      -0.4300      20.1139       1.0226
    3585.0    1362.2273       0.0000      50.8611     -52.9746       0.9005      -0.7177      -0.5435      26.2166       1.0226
    3586.0    1360.0098       0.0000      50.8611     -57.2841       0.9186      -0.7669      -0.4985      32.3184       1.0226
    3587.0    1371.6514       0.0000      50.8611     -60.4741       0.8289      -0.7252      -0.4009      38.4333       1.0292
    3588.0    1375.9785       0.0000      50.8611     -57.6541       0.8320      -0.7021      -0.4459      44.5483       1.0226
    3589.0    1372.2537       0.0000      50.8611     -66.0277       0.8565      -0.7824      -0.3482      50.6508       1.0226
    3590.0    1375.9785       0.0000      50.8611     -59.1476       1.0156      -0.8718      -0.5210      56.7658       1.0292
    3591.0    1387.2906       0.0000      50.8611     -61.5026       0.9663      -0.8472      -0.4617      62.8807       1.0226
    3592.0    1391.1079       0.0000      50.8611     -59.5232       0.9468      -0.8161      -0.4801      68.9825       1.0226
    3593.0    1390.1985       0.0000      50.8611     -59.8060       0.9052      -0.7824      -0.4551      75.5055       1.0226
    3594.0    1389.5751       0.0000      50.8611     -67.7644       0.9575      -0.8783      -0.3600      81.6072       1.0226
    3595.0    1392.3268       0.0000      50.8611     -63.1184       1.0500      -0.9341      -0.4775      87.7090       1.0226
    3596.0    1394.0188       0.0000      50.8611     -48.4811       0.8888      -0.6760      -0.5619      93.8258       1.0226
    3597.0    1397.8628       0.0000      50.8611     -61.5294       0.9869      -0.8653      -0.4735      99.9257       1.0226
    3598.0    1401.1128       0.0000      50.8611     -61.1147       0.9625      -0.8407      -0.4617     106.0152       1.0226
    3599.0    1407.5382       0.0000      50.8611     -61.7999       0.9966      -0.8783      -0.4709     112.1301       1.0226
    3600.0    1397.4232       0.0000      50.8611     -63.0913       1.0404      -0.9275      -0.4709     118.2399       1.0268
    3601.0    1406.1077       0.0000      50.8611     -61.4291       1.1422      -1.0013      -0.5435     124.3467       1.0292
    3602.0    1414.1037       0.0000      50.8611     -59.8285       1.0368      -0.8964      -0.5210     130.4616       1.0226
    3603.0    1406.8885       0.0000      50.8611     -59.1476       1.0156      -0.8718      -0.5210     136.5517       1.0185
    3604.0    1405.1623       0.0000      50.8611     -67.3483       1.1126      -1.0284      -0.4234     142.6538       1.0226
    3605.0    1411.2654       0.0000      50.8611     -62.0721       1.1131      -0.9833      -0.5210     149.1769       1.0226
    3606.0    1402.3598       0.0000      50.8611     -62.0639       1.0599      -0.9366      -0.4959     155.2796       1.0226
    3607.0    1407.5382       0.0000      50.8611     -62.6245       1.1559      -1.0259      -0.5276     161.3568       1.0185
    3608.0    1402.3598       0.0000      50.8611     -60.4883       1.1404      -0.9923      -0.5619     167.4587       1.0226
    3609.0    1402.8184       0.0000      50.8611     -54.9639       1.1928      -0.9767      -0.6845     173.5606       1.0226
