~VERSION INFORMATION
VERS.           2.0   :CWLS Log ASCII Standard - VERSION 2.0
WRAP.           NO    :One Line per depth step
PROD.  Schlumberger   :LAS Producer
PROG.  DLIS to ASCII 19C2-270                          :LAS Program name and version
CREA.        2017/09/16 17:42                          :LAS Creation date {YYYY/MM/DD hh:mm}
DLIS_CREA.  2017-Sep-15 15:01                          :DLIS Creation date and time {YYYY-MMM-DD hh:mm}
SOURCE.     LPC_S2-1_2AV.DLIS                          :DLIS File Name
FILE-ID.     PERFO_Perfo_WPGRT_032LTP                  :File Identification Number
#--------------------------------------------------
~WELL INFORMATION
#MNEM.UNIT      DATA             DESCRIPTION
#---- ------ --------------   -----------------------------
STRT .S        15223.0       :START TIME      
STOP .S        15655.0       :STOP TIME      
STEP .S            1.0       :STEP     
NULL .          -999.25      :NULL VALUE
COMP .        SHELL INTERNATIONAL E P                  :COMPANY
WELL .                                                 :WELL
FLD  .        WPP TEST 2                               :FIELD
LOC  .                                                 :LOCATION
CNTY .        HARRIS                                   :COUNTY
STAT .        TEXAS                                    :STATE
CTRY .                                                 :COUNTRY
API  .                                                 :API NUMBER
UWI  .                                                 :UNIQUE WELL ID
DATE .                                                 :LOG DATE
SRVC .        Schlumberger                             :SERVICE COMPANY
LATI .DEG                                              :LATITUDE
LONG .DEG                                              :LONGITUDE
GDAT .                                                 :GeoDetic Datum
#-----------------------------------------------------------------------------
~PARAMETER INFORMATION
#MNEM.UNIT    VALUE                      DESCRIPTION
#---- -----   --------------------       ------------------------
U-PHASE_B_COMP_PER_YT.                 0 :Phase B Comparator Period Yt
U-PHASE_A_COMP_PER_XT.                 0 :Phase A Comparator Period Xt
U-MAX_EXC_CUR_LIMIT.MA       240.00000   :Requested CM Current Limit
U-REQ_EXC_FQ.HZ              50          :Requested CM Frequency
U-TILT_Y_OFFSET.           0.19916       :WPTET Tilt Y Offset
U-TILT_Y_GAIN.           1.01796         :WPTET Tilt Y Gain
U-TILT_X_OFFSET.          -1.77103       :WPTET Tilt X Offset
U-TILT_X_GAIN.           1.00000         :WPTET Tilt X Gain
U-TILT_OFFSET_TOL.           0.00100     :WPTET Tilt Offset Calibration Tolerance
U-NO_TILT_CAL_ROTATIONS.                 3 :Number of Rotations for Tilt Calibration
HAZI .DEG        0.00000                 :Hole Azimuth
U-STD_TOL_TILT.           0.01000        :Tilt Standard Deviation Tolerance
U-GUN_POS_TOL.DEG        5.00000         :Gun Position Tolerance
ROT_ANGLE_THRESHOLD.DEG        5.00000   :Rotation Stop Angle Tolerance
STOP_ROT_ANGLE.DEG       80.00000        :Rotation Stop Angle
WITN .                                   :Witness's Name
ENGI .                                   :Engineer's Name
COUN .        HARRIS                     :County or Rig Name
FN   .        WPP TEST 2                 :Field Name
WN   .                                   :Well Name
CN   .        SHELL INTERNATIONAL E P    :Company Name
CLAB .        County                     :County/Rig Label
SLAB .        State                      :State/Province Label
RUN  .          1                        :RUN NUMBER
PDAT .        GROUND LEVEL               :Permanent Datum
EPD  .                                   :Elevation of Permanent Datum above Mean Sea Level
LMF  .                                   :Logging Measured From (Name of Logging Elevation Reference)
APD  .                                   :Elevation of Depth Reference (LMF) above Permanent Datum
#-----------------------------------------------------------------------------
~CURVE INFORMATION
#MNEM.UNIT   API CODE                                  DESCRIPTION
#---- -----  --------                                  -----------------------
TIME .S                                                :TIME {F10.1}
FREQ_EMF_SL.HZ                                         :Electromagnetic Field Frequency {F13.4}
PH_SH_WPPCM_SL.DEG                                     :WPPCM Phase Shift {F13.4}
FREQ_EXC_REQ_SL.HZ                                     :Requested Exciter Frequency {F13.4}
RB_SL.DEG                                              :Relative Bearing {F13.4}
SDEV_SL.DEG                                            :Sonde Deviation {F13.4}
TILX_SL.DEG                                            :X-axis Tilt {F13.4}
TILY_SL.DEG                                            :Y-axis Tilt {F13.4}
ROTA_SL.DEG                                            :Motor Rotation Angle {F13.4}
MSPE_SL.RPM                                            :Motor Speed {F13.4}
#-----------------------------------------------------------------------------
# 
#     TIME    FREQ_EMF_SL  PH_SH_WPPCM_ FREQ_EXC_REQ    RB_SL       SDEV_SL      TILX_SL      TILY_SL      ROTA_SL      MSPE_SL
#                          SL           _SL
~A  
# ...
   15601.0    1459.3266       0.0000      50.8611     -59.7668       0.9047      -0.7817      -0.4551     120.0690       1.0226
   15602.0    1461.0239       0.0000      50.8611     -54.8489       0.9196      -0.7520      -0.5293     126.1688       1.0226
   15603.0    1470.4048       0.0000      50.8611     -24.4347       0.7330      -0.3278      -0.5883     132.2726       1.0226
   15604.0    1463.4956       0.0000      50.8611     -55.1335       0.8236      -0.6761      -0.4702     138.3776       1.0226
   15605.0    1464.8438       0.0000      50.8611     -46.8115       0.8479      -0.6136      -0.5808     144.5039       1.0226
   15606.0    1472.3523       0.0000      50.8611     -55.2960       0.8450      -0.6940      -0.4808     150.5904       1.0226
   15607.0    1461.2373       0.0000      50.8611     -56.9127       0.8196      -0.6865      -0.4475     152.0423       0.0005
   15608.0    1457.4286       0.0000      50.8611     -59.7668       0.9047      -0.7817      -0.4551     152.0423       0.0005
   15609.0    1466.2116       0.0000      50.8611     -59.5493       0.8982      -0.7743      -0.4551     152.0423       0.0005
   15610.0    1461.7983       0.0000      50.8611     -57.4013       0.8720      -0.7341      -0.4702     152.0423       0.0005
   15611.0    1455.7454       0.0000      50.8611     -59.4030       0.8147      -0.7014      -0.4142     152.0423       0.0005
   15612.0    1455.5430       0.0000      50.8611     -57.9450       0.8574      -0.7267      -0.4551     152.0423       0.0005
   15613.0    1464.2803       0.0000      50.8611     -61.3248       0.8484      -0.7446      -0.4066     152.0423       0.0005
   15614.0    1463.7193       0.0000      50.8611     -56.1588       0.9055      -0.7520      -0.5035     152.0423       0.0005
   15615.0    1460.6785       0.0000      50.8611     -59.8202       0.9075      -0.7847      -0.4551     152.0423       0.0005
   15616.0    1462.3617       0.0000      50.8611     -60.1966       0.8633      -0.7490      -0.4293     152.0423       0.0005
   15617.0    1464.2803       0.0000      50.8611     -62.0006       0.8411      -0.7416      -0.3960     152.0423       0.0005
   15618.0    1460.6785       0.0000      50.8611     -58.1633       0.8955      -0.7594      -0.4732     152.0423       0.0005
   15619.0    1459.3266       0.0000      50.8611     -52.5014       0.8147      -0.6464      -0.4959     152.0423       0.0005
   15620.0    1456.8652       0.0000      50.8611     -55.3276       0.9828      -0.8070      -0.5595     152.0423       0.0005
   15621.0    1459.8900       0.0000      50.8611     -53.8135       0.8137      -0.6582      -0.4777     152.0423       0.0005
   15622.0    1464.2803       0.0000      50.8611     -52.8583       0.9956      -0.7922      -0.6004     152.0423       0.0005
   15623.0    1464.8438       0.0000      50.8611     -68.1140       0.6199      -0.5735      -0.2324     152.0423       0.0005
   15624.0    1459.3266       0.0000      50.8611     -62.1787       0.7005      -0.6180      -0.3293     152.0423       0.0005
   15625.0    1461.7983       0.0000      50.8611     -57.3730       0.8450      -0.7118      -0.4551     152.0423       0.0005
   15626.0    1461.7983       0.0000      50.8611     -65.1881       0.7924      -0.7193      -0.3324     152.0423       0.0005
   15627.0    1461.7983       0.0000      50.8611     -59.6221       0.8046      -0.6940      -0.4066     152.0423       0.0005
   15628.0    1461.0974       0.0000      50.8611     -56.5724       0.8226      -0.6865      -0.4532     152.0423       0.0005
   15629.0    1464.2803       0.0000      50.8611     -56.4525       0.7764      -0.6464      -0.4293     152.0423       0.0005
   15630.0    1460.4557       0.0000      50.8611     -61.8899       0.7510      -0.6612      -0.3551     152.0423       0.0005
   15631.0    1462.3617       0.0000      50.8611     -64.1249       0.7961      -0.7162      -0.3475     152.0423       0.0005
   15632.0    1463.7193       0.0000      50.8611     -60.1966       0.8633      -0.7490      -0.4293     152.0423       0.0005
   15633.0    1458.7655       0.0000      50.8611     -45.9150       0.8682      -0.6241      -0.6035     152.0423       0.0005
   15634.0    1457.4286       0.0000      50.8611     -57.1489       0.9438      -0.7922      -0.5111     152.0423       0.0005
   15635.0    1461.7983       0.0000      50.8611     -57.4417       0.8492      -0.7162      -0.4551     152.0423       0.0005
   15636.0    1471.7889       0.0000      50.8611     -56.7194       0.9175      -0.7669      -0.5035     152.0423       0.0005
   15637.0    1463.7193       0.0000      50.8611     -61.8011       0.8078      -0.7118      -0.3808     152.0423       0.0005
   15638.0    1457.9943       0.0000      50.8611     -53.5653       0.7223      -0.5809      -0.4293     152.0423       0.0005
   15639.0    1461.7983       0.0000      50.8611     -58.5147       0.9203      -0.7847      -0.4808     152.0423       0.0005
   15640.0    1464.4210       0.0000      50.8611     -58.6248       0.9453      -0.8070      -0.4922     152.0423       0.0005
   15641.0    1455.7454       0.0000      50.8611     -52.9429       0.8918      -0.7118      -0.5368     152.0423       0.0005
   15642.0    1457.4286       0.0000      50.8611     -53.2568       0.8586      -0.6865      -0.5141     152.0423       0.0005
   15643.0    1462.9275       0.0000      50.8611     -49.7363       0.8589      -0.6538      -0.5550     152.0423       0.0005
   15644.0    1463.7193       0.0000      50.8611     -58.3604       0.8834      -0.7520      -0.4626     152.0423       0.0005
   15645.0    1458.7655       0.0000      50.8611     -60.5402       0.7893      -0.6865      -0.3884     152.0423       0.0005
   15646.0    1461.2373       0.0000      50.8611     -57.2337       0.8748      -0.7341      -0.4732     152.0423       0.0005
   15647.0    1459.3266       0.0000      50.8611     -53.5085       0.8226      -0.6612      -0.4884     152.0423       0.0005
   15648.0    1458.7655       0.0000      50.8611     -57.6373       0.9287      -0.7847      -0.4959     152.0423       0.0005
   15649.0    1459.8900       0.0000      50.8611     -58.7870       0.8791      -0.7520      -0.4551     152.0423       0.0005
   15650.0    1461.7983       0.0000      50.8611     -55.0741       0.7491      -0.6136      -0.4293     152.0423       0.0005
   15651.0    1459.3266       0.0000      50.8611     -55.9951       0.8591      -0.7118      -0.4808     152.0423       0.0005
   15652.0    1455.0257       0.0000      50.8611     -62.0923       0.8325      -0.7356      -0.3892     152.0423       0.0005
   15653.0    1460.4557       0.0000      50.8611     -61.7737       0.9082      -0.7996      -0.4293     152.0423       0.0005
   15654.0       0.0000       0.0000      50.8611     -58.7870       0.8791      -0.7520      -0.4551     152.0423       0.0005
   15655.0       0.0000       0.0000      50.8611     -51.8006       0.9492      -0.7446      -0.5883     152.0423       0.0005
