~VERSION INFORMATION
VERS.           2.0   :CWLS Log ASCII Standard - VERSION 2.0
WRAP.           NO    :One Line per depth step
PROD.  Schlumberger   :LAS Producer
PROG.  DLIS to ASCII 19C2-270                          :LAS Program name and version
CREA.        2017/09/16 17:42                          :LAS Creation date {YYYY/MM/DD hh:mm}
DLIS_CREA.  2017-Sep-15 14:28                          :DLIS Creation date and time {YYYY-MMM-DD hh:mm}
SOURCE.     LPC_S2-1_A5.DLIS                           :DLIS File Name
FILE-ID.     PERFO_Perfo_WPGRT_029LTP                  :File Identification Number
#--------------------------------------------------
~WELL INFORMATION
#MNEM.UNIT      DATA             DESCRIPTION
#---- ------ --------------   -----------------------------
STRT .S        13288.0       :START TIME      
STOP .S        13773.0       :STOP TIME      
STEP .S            1.0       :STEP     
NULL .          -999.25      :NULL VALUE
COMP .        SHELL INTERNATIONAL E P                  :COMPANY
WELL .        WPP TEST 2                               :WELL
FLD  .        WILDCAT                                  :FIELD
LOC  .                                                 :LOCATION
CNTY .        HARRIS                                   :COUNTY
STAT .        TEXAS                                    :STATE
CTRY .                                                 :COUNTRY
API  .                                                 :API NUMBER
UWI  .                                                 :UNIQUE WELL ID
DATE .                                                 :LOG DATE
SRVC .        Schlumberger                             :SERVICE COMPANY
LATI .DEG                                              :LATITUDE
LONG .DEG                                              :LONGITUDE
GDAT .                                                 :GeoDetic Datum
#-----------------------------------------------------------------------------
~PARAMETER INFORMATION
#MNEM.UNIT    VALUE                      DESCRIPTION
#---- -----   --------------------       ------------------------
U-PHASE_B_COMP_PER_YT.                 0 :Phase B Comparator Period Yt
U-PHASE_A_COMP_PER_XT.                 0 :Phase A Comparator Period Xt
U-MAX_EXC_CUR_LIMIT.MA       240.00000   :Requested CM Current Limit
U-REQ_EXC_FQ.HZ              50          :Requested CM Frequency
U-TILT_Y_OFFSET.           0.19916       :WPTET Tilt Y Offset
U-TILT_Y_GAIN.           1.01796         :WPTET Tilt Y Gain
U-TILT_X_OFFSET.          -1.77103       :WPTET Tilt X Offset
U-TILT_X_GAIN.           1.00000         :WPTET Tilt X Gain
U-TILT_OFFSET_TOL.           0.00100     :WPTET Tilt Offset Calibration Tolerance
U-NO_TILT_CAL_ROTATIONS.                 3 :Number of Rotations for Tilt Calibration
HAZI .DEG        0.00000                 :Hole Azimuth
U-STD_TOL_TILT.           0.01000        :Tilt Standard Deviation Tolerance
U-GUN_POS_TOL.DEG        5.00000         :Gun Position Tolerance
ROT_ANGLE_THRESHOLD.DEG        5.00000   :Rotation Stop Angle Tolerance
STOP_ROT_ANGLE.DEG       80.00000        :Rotation Stop Angle
WITN .                                   :Witness's Name
ENGI .                                   :Engineer's Name
COUN .        HARRIS                     :County or Rig Name
FN   .        WILDCAT                    :Field Name
WN   .        WPP TEST 2                 :Well Name
CN   .        SHELL INTERNATIONAL E P    :Company Name
CLAB .        County                     :County/Rig Label
SLAB .        State                      :State/Province Label
RUN  .          1                        :RUN NUMBER
PDAT .        GROUND LEVEL               :Permanent Datum
EPD  .                                   :Elevation of Permanent Datum above Mean Sea Level
LMF  .                                   :Logging Measured From (Name of Logging Elevation Reference)
APD  .                                   :Elevation of Depth Reference (LMF) above Permanent Datum
#-----------------------------------------------------------------------------
~CURVE INFORMATION
#MNEM.UNIT   API CODE                                  DESCRIPTION
#---- -----  --------                                  -----------------------
TIME .S                                                :TIME {F10.1}
FREQ_EMF_SL.HZ                                         :Electromagnetic Field Frequency {F13.4}
PH_SH_WPPCM_SL.DEG                                     :WPPCM Phase Shift {F13.4}
FREQ_EXC_REQ_SL.HZ                                     :Requested Exciter Frequency {F13.4}
RB_SL.DEG                                              :Relative Bearing {F13.4}
SDEV_SL.DEG                                            :Sonde Deviation {F13.4}
TILX_SL.DEG                                            :X-axis Tilt {F13.4}
TILY_SL.DEG                                            :Y-axis Tilt {F13.4}
ROTA_SL.DEG                                            :Motor Rotation Angle {F13.4}
MSPE_SL.RPM                                            :Motor Speed {F13.4}
#-----------------------------------------------------------------------------
# 
#     TIME    FREQ_EMF_SL  PH_SH_WPPCM_ FREQ_EXC_REQ    RB_SL       SDEV_SL      TILX_SL      TILY_SL      ROTA_SL      MSPE_SL
#                          SL           _SL
~A  
# ...
   13414.0    1521.7187       0.0000      50.8611    -137.4382       3.9930      -2.6997       2.9399     130.9972       1.0226
   13415.0    1489.6716       0.0000      50.8611    -130.8937       4.3607      -3.2949       2.8532     137.1153       1.0226
   13416.0    1458.5847       0.0000      50.8611    -123.4612       4.4339      -3.6978       2.4431     143.2143       1.0226
   13417.0    1434.8613       0.0000      50.8611    -120.1888       4.3763      -3.7818       2.1990     149.7183       1.0226
   13418.0    1406.0819       0.0000      50.8611    -113.1155       4.4594      -4.1007       1.7492     155.8230       1.0226
   13419.0    1381.3038       0.0000      50.8611    -110.0635       4.6229      -4.3417       1.5844     161.9155       1.0226
   13420.0    1352.0856       0.0000      50.8611    -103.5657       4.6732      -4.5425       1.0950     168.0276       1.0226
   13421.0    1321.5151       0.0000      50.8611     -98.4904       4.6362      -4.5851       0.6837     174.1326       1.0226
   13422.0    1299.3903       0.0000      50.8611     -92.3731       4.7852      -4.7811       0.1979     180.2504       1.0226
   13423.0    1255.4463       0.0000      50.8611     -88.4647       4.8266      -4.8249      -0.1292     186.3493       1.0226
   13424.0    1171.8750       0.0000      50.8611     -83.5749       4.8568      -4.8261      -0.5430     192.4490       1.0226
   13425.0    1122.5691       0.0000      50.8611     -76.8609       4.8749      -4.7470      -1.1068     198.5421       1.0330
   13426.0    1071.4495       0.0000      50.8611     -72.8403       4.8821      -4.6642      -1.4388     204.6598       1.0226
   13427.0    1020.5899       0.0000      50.8611     -72.0427       5.1879      -4.9346      -1.5975     210.7588       1.0226
   13428.0    1002.9031       0.0000      50.8611     -62.5799       5.0723      -4.5012      -2.3334     216.8711       1.0226
   13429.0     988.7169       0.0000      50.8611     -57.6490       4.9091      -4.1457      -2.6246     223.4069       1.0226
   13430.0     976.4409       0.0000      50.8611     -54.6372       4.9758      -4.0557      -2.8773     229.5244       1.0223
   13431.0     962.1061       0.0000      50.8611     -49.3288       4.9795      -3.7745      -3.2428     235.6242       1.0223
   13432.0     955.4895       0.0000      50.8611     -44.7295       5.1351      -3.6115      -3.6455     241.7113       1.0226
   13433.0     955.2552       0.0000      50.8611     -38.8496       4.9986      -3.1331      -3.8909     247.8226       1.0124
   13434.0     960.3578       0.0000      50.8611     -34.7648       4.9330      -2.8105      -4.0507     253.9345       1.0226
   13435.0     955.4895       0.0000      50.8611     -29.3700       4.8415      -2.3723      -4.2180     260.0211       1.0226
   13436.0     959.3216       0.0000      50.8611     -24.2654       4.8057      -1.9731      -4.3803     266.1389       1.0226
   13437.0     971.0869       0.0000      50.8611     -18.3456       4.6179      -1.4521      -4.3827     272.2434       1.0226
   13438.0     979.2828       0.0000      50.8611     -13.1432       4.6244      -1.0504      -4.5030     278.3422       1.0226
   13439.0     989.0078       0.0000      50.8611      -6.4756       4.6904      -0.5283      -4.6604     284.4410       1.0226
   13440.0    1008.8311       0.0000      50.8611      -6.4384       4.6502      -0.5210      -4.6207     290.5456       1.0226
   13441.0    1028.1877       0.0000      50.8611      -0.0245       4.4981      -0.0001      -4.4981     297.0559       1.0226
   13442.0    1061.1068       0.0000      50.8611       7.3308       4.3728       0.5574      -4.3370     303.1555       1.0226
   13443.0    1129.2201       0.0000      50.8611      13.4266       4.1290       0.9579      -4.0160     309.2543       1.0226
   13444.0    1212.6647       0.0000      50.8611      15.9466       4.0919       1.1234      -3.9342     315.3588       1.0226
   13445.0    1260.2850       0.0000      50.8611      23.8070       4.0705       1.6419      -3.7236     321.4509       1.0127
   13446.0    1285.7046       0.0000      50.8611      29.7427       3.9597       1.9633      -3.4374     327.5630       1.0226
   13447.0    1316.7876       0.0000      50.8611      36.1593       3.8057       2.2444      -3.0719     333.6677       1.0226
   13448.0    1346.8286       0.0000      50.8611      40.9180       3.7368       2.4465      -2.8229     339.7724       1.0226
   13449.0    1376.2223       0.0000      50.8611      45.3657       3.5005       2.4903      -2.4586     345.8710       1.0226
   13450.0    1400.9001       0.0000      50.8611      54.9057       3.2882       2.6899      -1.8898     351.9576       1.0124
   13451.0    1429.2032       0.0000      50.8611      60.7355       3.2667       2.8493      -1.5962     358.0625       1.0330
   13452.0    1461.7074       0.0000      50.8611      65.8294       3.3010       3.0112      -1.3509       4.1802       1.0229
   13453.0    1492.8344       0.0000      50.8611      74.9195       3.1603       3.0514      -0.8218      10.6970       1.0226
   13454.0    1522.2139       0.0000      50.8611      83.7163       3.0270       3.0088      -0.3312      16.8017       1.0226
   13455.0    1545.5343       0.0000      50.8611      90.7398       3.1638       3.1634       0.0405      22.9004       1.0226
   13456.0    1573.0924       0.0000      50.8611     100.2662       2.9415       2.8943       0.5238      29.0051       1.0226
   13457.0    1598.1206       0.0000      50.8611     105.6450       2.8757       2.7690       0.7753      35.1171       1.0223
   13458.0    1616.6033       0.0000      50.8611     116.9421       2.8798       2.5670       1.3044      41.2226       1.0226
   13459.0    1642.7004       0.0000      50.8611     124.3672       2.9613       2.4441       1.6711      47.3273       1.0226
   13460.0    1654.5288       0.0000      50.8611     132.8886       3.0591       2.2408       2.0812      53.4266       1.0229
   13461.0    1662.3522       0.0000      50.8611     139.4203       2.9609       1.9255       2.2485      59.5395       1.0127
   13462.0    1674.1072       0.0000      50.8611     147.6864       2.9952       1.6006       2.5310      65.6575       1.0229
   13463.0    1677.8634       0.0000      50.8611     157.1569       3.0989       1.2025       2.8556      71.7748       1.0226
   13464.0    1678.1025       0.0000      50.8611     160.9962       3.1973       1.0406       3.0229      75.8001       0.0005
   13465.0    1678.1025       0.0000      50.8611     160.9265       3.0702       1.0029       2.9014      75.8001       0.0005
   13466.0    1678.1025       0.0000      50.8611     161.1784       3.1061       1.0017       2.9399      75.8001       0.0005
   13467.0    1682.1173       0.0000      50.8611     159.1965       3.1478       1.1174       2.9423      75.8001       0.0005
   13468.0    1681.9969       0.0000      50.8611     162.5231       3.0811       0.9250       2.9387      75.8001       0.0005
   13469.0    1678.1025       0.0000      50.8611     161.2522       3.2318       1.0382       3.0601      75.8001       0.0005
   13470.0    1681.9969       0.0000      50.8611     159.1619       3.1459       1.1186       2.9399      75.8001       0.0005
   13471.0    1682.1173       0.0000      50.8611     160.5350       3.1209       1.0394       2.9423      75.8001       0.0005
   13472.0    1678.1025       0.0000      50.8611     160.9467       3.1931       1.0418       3.0180      75.8001       0.0005
   13473.0    1674.3475       0.0000      50.8611     159.2103       3.1463       1.1162       2.9411      75.8001       0.0005
   13474.0    1678.1025       0.0000      50.8611     160.7097       3.1517       1.0406       2.9746      75.8001       0.0005
   13475.0    1674.1072       0.0000      50.8611     161.0670       3.7047       1.1953       3.5054      75.8001       0.0005
   13476.0    1678.1025       0.0000      50.8611     161.1421       3.3385       1.0772       3.1594      75.8001       0.0005
