~VERSION INFORMATION
VERS.           2.0   :CWLS Log ASCII Standard - VERSION 2.0
WRAP.           NO    :One Line per depth step
PROD.  Schlumberger   :LAS Producer
PROG.  DLIS to ASCII 19C2-270                          :LAS Program name and version
CREA.        2017/09/16 17:42                          :LAS Creation date {YYYY/MM/DD hh:mm}
DLIS_CREA.  2017-Sep-15 16:20                          :DLIS Creation date and time {YYYY-MMM-DD hh:mm}
SOURCE.     LPC_S3-1_BV.DLIS                           :DLIS File Name
FILE-ID.     PERFO_Perfo_WPGRT_040LTP                  :File Identification Number
#--------------------------------------------------
~WELL INFORMATION
#MNEM.UNIT      DATA             DESCRIPTION
#---- ------ --------------   -----------------------------
STRT .S         2992.0       :START TIME      
STOP .S         3401.0       :STOP TIME      
STEP .S            1.0       :STEP     
NULL .          -999.25      :NULL VALUE
COMP .        SHELL INTERNATIONAL E P                  :COMPANY
WELL .        WPP TEST 2                               :WELL
FLD  .        WILDCAT                                  :FIELD
LOC  .                                                 :LOCATION
CNTY .        HARRIS                                   :COUNTY
STAT .        TEXAS                                    :STATE
CTRY .                                                 :COUNTRY
API  .                                                 :API NUMBER
UWI  .                                                 :UNIQUE WELL ID
DATE .                                                 :LOG DATE
SRVC .        Schlumberger                             :SERVICE COMPANY
LATI .DEG                                              :LATITUDE
LONG .DEG                                              :LONGITUDE
GDAT .                                                 :GeoDetic Datum
#-----------------------------------------------------------------------------
~PARAMETER INFORMATION
#MNEM.UNIT    VALUE                      DESCRIPTION
#---- -----   --------------------       ------------------------
U-PHASE_B_COMP_PER_YT.                 0 :Phase B Comparator Period Yt
U-PHASE_A_COMP_PER_XT.                 0 :Phase A Comparator Period Xt
U-MAX_EXC_CUR_LIMIT.MA       240.00000   :Requested CM Current Limit
U-REQ_EXC_FQ.HZ              50          :Requested CM Frequency
U-TILT_Y_OFFSET.           0.19916       :WPTET Tilt Y Offset
U-TILT_Y_GAIN.           1.01796         :WPTET Tilt Y Gain
U-TILT_X_OFFSET.          -1.77103       :WPTET Tilt X Offset
U-TILT_X_GAIN.           1.00000         :WPTET Tilt X Gain
U-TILT_OFFSET_TOL.           0.00100     :WPTET Tilt Offset Calibration Tolerance
U-NO_TILT_CAL_ROTATIONS.                 3 :Number of Rotations for Tilt Calibration
HAZI .DEG        0.00000                 :Hole Azimuth
U-STD_TOL_TILT.           0.01000        :Tilt Standard Deviation Tolerance
U-GUN_POS_TOL.DEG        5.00000         :Gun Position Tolerance
ROT_ANGLE_THRESHOLD.DEG        5.00000   :Rotation Stop Angle Tolerance
STOP_ROT_ANGLE.DEG        0.00000        :Rotation Stop Angle
WITN .                                   :Witness's Name
ENGI .                                   :Engineer's Name
COUN .        HARRIS                     :County or Rig Name
FN   .        WILDCAT                    :Field Name
WN   .        WPP TEST 2                 :Well Name
CN   .        SHELL INTERNATIONAL E P    :Company Name
CLAB .        County                     :County/Rig Label
SLAB .        State                      :State/Province Label
RUN  .          1                        :RUN NUMBER
PDAT .        GROUND LEVEL               :Permanent Datum
EPD  .                                   :Elevation of Permanent Datum above Mean Sea Level
LMF  .                                   :Logging Measured From (Name of Logging Elevation Reference)
APD  .                                   :Elevation of Depth Reference (LMF) above Permanent Datum
#-----------------------------------------------------------------------------
~CURVE INFORMATION
#MNEM.UNIT   API CODE                                  DESCRIPTION
#---- -----  --------                                  -----------------------
TIME .S                                                :TIME {F10.1}
FREQ_EMF_SL.HZ                                         :Electromagnetic Field Frequency {F13.4}
PH_SH_WPPCM_SL.DEG                                     :WPPCM Phase Shift {F13.4}
FREQ_EXC_REQ_SL.HZ                                     :Requested Exciter Frequency {F13.4}
RB_SL.DEG                                              :Relative Bearing {F13.4}
SDEV_SL.DEG                                            :Sonde Deviation {F13.4}
TILX_SL.DEG                                            :X-axis Tilt {F13.4}
TILY_SL.DEG                                            :Y-axis Tilt {F13.4}
ROTA_SL.DEG                                            :Motor Rotation Angle {F13.4}
MSPE_SL.RPM                                            :Motor Speed {F13.4}
#-----------------------------------------------------------------------------
# 
#     TIME    FREQ_EMF_SL  PH_SH_WPPCM_ FREQ_EXC_REQ    RB_SL       SDEV_SL      TILX_SL      TILY_SL      ROTA_SL      MSPE_SL
#                          SL           _SL
~A  
# ...
    3181.0    1593.4576       0.0000      50.8611     -61.9317       0.9247      -0.8163      -0.4343      93.0557       0.0005
    3182.0    1594.3877       0.0000      50.8611     -26.9196       1.7242      -0.5543      -1.5343      93.0557       0.0005
    3183.0    1594.3877       0.0000      50.8611     -78.4615       0.9428      -0.9176      -0.1884      93.0557       0.0005
    3184.0    1591.6689       0.0000      50.8611     -57.0936       0.9502      -0.7971      -0.5167      93.0557       0.0005
    3185.0    1594.3877       0.0000      50.8611     -58.9775       0.8833      -0.7570      -0.4551      93.0557       0.0005
    3186.0    1597.1190       0.0000      50.8611     -65.3056       0.9441      -0.8571      -0.3940      93.0557       0.0005
    3187.0    1595.2800       0.0000      50.8611     -60.6357       0.9487      -0.8268      -0.4651      93.0557       0.0005
    3188.0    1595.2800       0.0000      50.8611     -69.1052       1.0372      -0.9671      -0.3727      93.0557       0.0005
    3189.0    1598.0114       0.0000      50.8611     -60.6899       0.9289      -0.8070      -0.4557      93.0557       0.0005
    3190.0    1597.1190       0.0000      50.8611     -71.9632       0.8774      -0.8274      -0.2701      93.0557       0.0005
    3191.0    1597.1190       0.0000      50.8611     -66.8560       1.1075      -1.0177      -0.4349      93.0557       0.0005
    3192.0    1597.1190       0.0000      50.8611     -62.8457       0.9751      -0.8676      -0.4450      93.0557       0.0005
    3193.0    1595.2800       0.0000      50.8611     -61.2128       0.8627      -0.7564      -0.4142      93.0557       0.0005
    3194.0    1594.3877       0.0000      50.8611     -62.2786       0.9119      -0.8070      -0.4242      93.0557       0.0005
    3195.0    1593.4995       0.0000      50.8611     -60.2203       0.8833      -0.7663      -0.4349      93.0557       0.0005
    3196.0    1598.9077       0.0000      50.8611     -63.9692       0.9768      -0.8781      -0.4242      93.0557       0.0005
    3197.0    1598.9745       0.0000      50.8611     -59.7807       1.0648      -0.9176      -0.5374      93.0557       0.0005
    3198.0    1594.3877       0.0000      50.8611     -59.5166       0.9596      -0.8268      -0.4859      93.0557       0.0005
    3199.0    1590.7806       0.0000      50.8611     -59.9164       0.9089      -0.7866      -0.4551      93.0557       0.0005
    3200.0    1588.9621       0.0000      50.8611     -67.3844       0.9957      -0.9176      -0.3840      94.0324       0.0013
    3201.0    1588.0739       0.0000      50.8611     -58.3938       1.0659      -0.9071      -0.5576      97.7624       0.7308
    3202.0    1597.1190       0.0000      50.8611     -62.9376       1.1109      -0.9881      -0.5066     102.9702       0.9821
    3203.0    1592.5612       0.0000      50.8611     -61.6783       1.1792      -1.0375      -0.5576     109.0477       1.0226
    3204.0    1597.0769       0.0000      50.8611     -64.0893       1.0878      -0.9782      -0.4758     115.1495       1.0226
    3205.0    1601.6515       0.0000      50.8611     -61.1389       1.0711      -0.9374      -0.5167     121.2513       1.0226
    3206.0    1592.6152       0.0000      50.8611     -54.8692       1.0227      -0.8367      -0.5878     127.3531       1.0226
    3207.0    1588.0739       0.0000      50.8611     -60.0265       1.0590      -0.9182      -0.5268     133.4557       1.0226
    3208.0    1575.6038       0.0000      50.8611     -64.6685       1.2509      -1.1290      -0.5374     139.5706       1.0226
    3209.0    1569.4755       0.0000      50.8611     -61.6740       1.1107      -0.9776      -0.5268     145.6601       1.0226
    3210.0    1556.4356       0.0000      50.8611     -57.3088       1.0305      -0.8670      -0.5570     151.7620       1.0226
    3211.0    1539.3976       0.0000      50.8611     -54.3178       1.0432      -0.8472      -0.6085     158.2851       1.0226
    3212.0    1522.7285       0.0000      50.8611     -59.2274       1.0925      -0.9380      -0.5570     164.3870       1.0226
    3213.0    1509.6510       0.0000      50.8611     -57.1365       1.1403      -0.9578      -0.6186     170.4765       1.0226
    3214.0    1492.8344       0.0000      50.8611     -59.0439       1.1455      -0.9782      -0.5872     176.5699       1.0146
    3215.0    1470.9458       0.0000      50.8611     -59.1023       1.0228      -0.8769      -0.5261     182.6680       1.0226
    3216.0    1448.9721       0.0000      50.8611     -57.6305       1.1357      -0.9578      -0.6079     188.7699       1.0226
    3217.0    1427.6476       0.0000      50.8611     -57.6035       1.0399      -0.8775      -0.5576     194.8718       1.0226
    3218.0    1402.0271       0.0000      50.8611     -56.7769       1.0727      -0.8972      -0.5878     200.9869       1.0226
    3219.0    1386.1621       0.0000      50.8611     -54.5376       1.1025      -0.8972      -0.6394     207.0888       1.0226
    3220.0    1346.3173       0.0000      50.8611     -55.6158       1.0632      -0.8769      -0.5985     213.1660       1.0226
    3221.0    1323.5070       0.0000      50.8611     -53.9254       1.1727      -0.9479      -0.6903     219.2679       1.0226
    3222.0    1283.6525       0.0000      50.8611     -56.6257       1.1976      -0.9980      -0.6601     225.3735       1.0146
    3223.0    1232.9939       0.0000      50.8611     -56.0746       1.2712      -1.0480      -0.7117     231.8811       1.0226
    3224.0    1176.2645       0.0000      50.8611     -55.3376       1.1048      -0.9077      -0.6293     237.9831       1.0200
    3225.0    1135.8850       0.0000      50.8611     -59.7593       1.1902      -1.0276      -0.5985     244.0981       1.0226
    3226.0    1099.9012       0.0000      50.8611     -50.1255       1.1563      -0.8874      -0.7413     250.1877       1.0200
    3227.0    1060.9149       0.0000      50.8611     -49.4662       1.1560      -0.8775      -0.7519     256.2896       1.0226
    3228.0    1029.0757       0.0000      50.8611     -42.6557       1.0292      -0.6958      -0.7519     262.3821       1.0200
    3229.0    1004.8058       0.0000      50.8611     -55.2635       1.0679      -0.8775      -0.6085     268.4809       1.0226
    3230.0     997.7135       0.0000      50.8611     -52.7128       1.0895      -0.8670      -0.6595     274.5835       1.0226
    3231.0     982.7161       0.0000      50.8611     -49.8127       1.0548      -0.8064      -0.6796     280.6767       1.0200
    3232.0     974.1781       0.0000      50.8611     -51.9549       1.0891      -0.8577      -0.6696     286.7878       1.0226
    3233.0     973.1656       0.0000      50.8611     -53.9609       1.0860      -0.8775      -0.6387     292.8896       1.0226
    3234.0     974.5438       0.0000      50.8611     -51.0785       1.0500      -0.8169      -0.6595     298.9821       1.0200
    3235.0     974.5751       0.0000      50.8611     -56.0195       0.9310      -0.7663      -0.5255     305.4889       1.0226
    3236.0     976.2115       0.0000      50.8611     -46.3110       0.9172      -0.6655      -0.6287     311.5698       1.0146
    3237.0     987.5352       0.0000      50.8611     -54.5575       1.0821      -0.8775      -0.6281     317.6662       1.0307
    3238.0     994.5190       0.0000      50.8611     -32.2343       0.7753      -0.4239      -0.6387     323.7844       1.0146
    3239.0     999.9004       0.0000      50.8611     -53.0232       0.9467      -0.7564      -0.5676     329.8745       1.0226
    3240.0    1013.8914       0.0000      50.8611     -50.8911       0.9229      -0.7174      -0.5777     335.9640       1.0226
    3241.0    1047.4923       0.0000      50.8611     -53.1458       0.8805      -0.7057      -0.5261     342.0544       1.0200
    3242.0    1085.0695       0.0000      50.8611     -53.2878       1.0698      -0.8577      -0.6394     348.1693       1.0226
    3243.0    1124.5575       0.0000      50.8611     -50.4340       0.9558      -0.7366      -0.6085     354.2711       1.0307
