~VERSION INFORMATION
VERS.           2.0   :CWLS Log ASCII Standard - VERSION 2.0
WRAP.           NO    :One Line per depth step
PROD.  Schlumberger   :LAS Producer
PROG.  DLIS to ASCII 19C2-270                          :LAS Program name and version
CREA.        2017/09/16 17:42                          :LAS Creation date {YYYY/MM/DD hh:mm}
DLIS_CREA.  2017-Sep-15 13:58                          :DLIS Creation date and time {YYYY-MMM-DD hh:mm}
SOURCE.     LPC_S1-1_2BV.DLIS                          :DLIS File Name
FILE-ID.     PERFO_Perfo_WPGRT_027LTP                  :File Identification Number
#--------------------------------------------------
~WELL INFORMATION
#MNEM.UNIT      DATA             DESCRIPTION
#---- ------ --------------   -----------------------------
STRT .S        11467.0       :START TIME      
STOP .S        11862.0       :STOP TIME      
STEP .S            1.0       :STEP     
NULL .          -999.25      :NULL VALUE
COMP .        SHELL INTERNATIONAL E P                  :COMPANY
WELL .        WPP TEST 2                               :WELL
FLD  .        WILDCAT                                  :FIELD
LOC  .                                                 :LOCATION
CNTY .        HARRIS                                   :COUNTY
STAT .        TEXAS                                    :STATE
CTRY .                                                 :COUNTRY
API  .                                                 :API NUMBER
UWI  .                                                 :UNIQUE WELL ID
DATE .                                                 :LOG DATE
SRVC .        Schlumberger                             :SERVICE COMPANY
LATI .DEG                                              :LATITUDE
LONG .DEG                                              :LONGITUDE
GDAT .                                                 :GeoDetic Datum
#-----------------------------------------------------------------------------
~PARAMETER INFORMATION
#MNEM.UNIT    VALUE                      DESCRIPTION
#---- -----   --------------------       ------------------------
U-PHASE_B_COMP_PER_YT.                 0 :Phase B Comparator Period Yt
U-PHASE_A_COMP_PER_XT.                 0 :Phase A Comparator Period Xt
U-MAX_EXC_CUR_LIMIT.MA       240.00000   :Requested CM Current Limit
U-REQ_EXC_FQ.HZ              50          :Requested CM Frequency
U-TILT_Y_OFFSET.           0.19916       :WPTET Tilt Y Offset
U-TILT_Y_GAIN.           1.01796         :WPTET Tilt Y Gain
U-TILT_X_OFFSET.          -1.77103       :WPTET Tilt X Offset
U-TILT_X_GAIN.           1.00000         :WPTET Tilt X Gain
U-TILT_OFFSET_TOL.           0.00100     :WPTET Tilt Offset Calibration Tolerance
U-NO_TILT_CAL_ROTATIONS.                 3 :Number of Rotations for Tilt Calibration
HAZI .DEG        0.00000                 :Hole Azimuth
U-STD_TOL_TILT.           0.01000        :Tilt Standard Deviation Tolerance
U-GUN_POS_TOL.DEG        5.00000         :Gun Position Tolerance
ROT_ANGLE_THRESHOLD.DEG        5.00000   :Rotation Stop Angle Tolerance
STOP_ROT_ANGLE.DEG       80.00000        :Rotation Stop Angle
WITN .                                   :Witness's Name
ENGI .                                   :Engineer's Name
COUN .        HARRIS                     :County or Rig Name
FN   .        WILDCAT                    :Field Name
WN   .        WPP TEST 2                 :Well Name
CN   .        SHELL INTERNATIONAL E P    :Company Name
CLAB .        County                     :County/Rig Label
SLAB .        State                      :State/Province Label
RUN  .          1                        :RUN NUMBER
PDAT .        GROUND LEVEL               :Permanent Datum
EPD  .                                   :Elevation of Permanent Datum above Mean Sea Level
LMF  .                                   :Logging Measured From (Name of Logging Elevation Reference)
APD  .                                   :Elevation of Depth Reference (LMF) above Permanent Datum
#-----------------------------------------------------------------------------
~CURVE INFORMATION
#MNEM.UNIT   API CODE                                  DESCRIPTION
#---- -----  --------                                  -----------------------
TIME .S                                                :TIME {F10.1}
FREQ_EMF_SL.HZ                                         :Electromagnetic Field Frequency {F13.4}
PH_SH_WPPCM_SL.DEG                                     :WPPCM Phase Shift {F13.4}
FREQ_EXC_REQ_SL.HZ                                     :Requested Exciter Frequency {F13.4}
RB_SL.DEG                                              :Relative Bearing {F13.4}
SDEV_SL.DEG                                            :Sonde Deviation {F13.4}
TILX_SL.DEG                                            :X-axis Tilt {F13.4}
TILY_SL.DEG                                            :Y-axis Tilt {F13.4}
ROTA_SL.DEG                                            :Motor Rotation Angle {F13.4}
MSPE_SL.RPM                                            :Motor Speed {F13.4}
#-----------------------------------------------------------------------------
# 
#     TIME    FREQ_EMF_SL  PH_SH_WPPCM_ FREQ_EXC_REQ    RB_SL       SDEV_SL      TILX_SL      TILY_SL      ROTA_SL      MSPE_SL
#                          SL           _SL
~A  
# ...
   11530.0    1434.9490       0.0000      50.8611     -60.2441       0.9997      -0.8679      -0.4959     143.1362       1.0172
   11531.0    1424.6553       0.0000      50.8611     -69.4741       0.8862      -0.8277      -0.3101     149.2380       1.0226
   11532.0    1416.2074       0.0000      50.8611     -64.4476       0.9606      -0.8667      -0.4142     155.3431       1.0226
   11533.0    1406.4413       0.0000      50.8611     -59.7602       0.9817      -0.8472      -0.4947     161.4420       1.0226
   11534.0    1399.3915       0.0000      50.8611     -61.6944       0.9180      -0.8082      -0.4352     167.5379       1.0281
   11535.0    1388.0922       0.0000      50.8611     -65.8359       1.0199      -0.9299      -0.4129     174.0424       1.0278
   11536.0    1379.9196       0.0000      50.8611     -64.9791       0.9793      -0.8874      -0.4142     180.1574       1.0226
   11537.0    1352.1635       0.0000      50.8611     -62.3503       1.0691      -0.9470      -0.4959     186.2656       1.0281
   11538.0    1326.8200       0.0000      50.8611     -62.3728       1.0237      -0.9068      -0.4749     192.3617       1.0226
   11539.0    1303.2550       0.0000      50.8611     -64.5034       1.0321      -0.9251      -0.4514     198.4644       1.0226
   11540.0    1274.9677       0.0000      50.8611     -60.4055       1.0267      -0.8922      -0.5071     204.5860       1.0265
   11541.0    1250.1914       0.0000      50.8611     -65.7870       1.0166      -0.9263      -0.4154     210.6886       1.0278
   11542.0    1234.6041       0.0000      50.8611     -62.8035       1.0865      -0.9665      -0.4959     216.7880       1.0226
   11543.0    1215.5306       0.0000      50.8611     -57.4906       1.0753      -0.9068      -0.5777     222.8900       1.0226
   11544.0    1199.8721       0.0000      50.8611     -57.5250       1.0763      -0.9080      -0.5777     229.0019       1.0281
   11545.0    1187.7112       0.0000      50.8611     -58.7094       1.1107      -0.9482      -0.5765     235.1045       1.0226
   11546.0    1166.1060       0.0000      50.8611     -60.6720       1.1814      -1.0297      -0.5789     241.1971       1.0226
   11547.0    1159.3452       0.0000      50.8611     -56.9312       1.0601      -0.8886      -0.5777     247.6859       1.0278
   11548.0    1150.6767       0.0000      50.8611     -58.3073       1.1407      -0.9701      -0.6000     253.7944       1.0278
   11549.0    1148.9564       0.0000      50.8611     -54.8822       1.1126      -0.9092      -0.6409     259.9093       1.0226
   11550.0    1141.4368       0.0000      50.8611     -53.0523       0.9585      -0.7657      -0.5765     266.0111       1.0226
   11551.0    1141.4368       0.0000      50.8611     -57.6203       1.1948      -1.0091      -0.6397     272.1006       1.0226
   11552.0    1144.1958       0.0000      50.8611     -53.4480       1.0059      -0.8082      -0.5988     278.2021       1.0226
   11553.0    1146.9228       0.0000      50.8611     -52.9968       1.0626      -0.8484      -0.6384     284.2915       1.0226
   11554.0    1148.8971       0.0000      50.8611     -54.3874       1.1432      -0.9311      -0.6595     290.3808       1.0226
   11555.0    1161.4705       0.0000      50.8611     -54.0942       1.0228      -0.8289      -0.5988     296.4825       1.0226
   11556.0    1168.0432       0.0000      50.8611     -52.5229       1.1184      -0.8874      -0.6805     302.5980       1.0281
   11557.0    1173.6844       0.0000      50.8611     -55.3924       0.9822      -0.8082      -0.5567     308.7160       1.0281
   11558.0    1194.6912       0.0000      50.8611     -51.6098       1.0299      -0.8070      -0.6397     314.8207       1.0226
   11559.0    1208.1844       0.0000      50.8611     -49.7799       1.0556      -0.8058      -0.6805     321.3118       1.0226
   11560.0    1230.3482       0.0000      50.8611     -52.1734       1.0754      -0.8484      -0.6583     327.4134       1.0226
   11561.0    1246.5119       0.0000      50.8611     -49.8785       1.0567      -0.8082      -0.6805     333.5093       1.0281
   11562.0    1266.6838       0.0000      50.8611     -52.0367       0.9695      -0.7644      -0.5963     339.6209       1.0226
   11563.0    1298.5135       0.0000      50.8611     -51.6633       1.0292      -0.8070      -0.6384     345.7259       1.0278
   11564.0    1324.1526       0.0000      50.8611     -51.5273       1.0585      -0.8277      -0.6583     351.8343       1.0226
   11565.0    1346.9103       0.0000      50.8611     -51.1259       0.8580      -0.6682      -0.5381     357.9393       1.0226
   11566.0    1361.2880       0.0000      50.8611     -49.4447       0.9838      -0.7474      -0.6397       4.0512       1.0226
   11567.0    1375.9785       0.0000      50.8611     -54.2279       0.9210      -0.7462      -0.5381      10.1529       1.0226
   11568.0    1384.1044       0.0000      50.8611     -36.1463       0.7928      -0.4662      -0.6409      16.2709       1.0226
   11569.0    1397.7850       0.0000      50.8611     -49.7021       0.9279      -0.7084      -0.5988      22.3859       1.0226
   11570.0    1410.5254       0.0000      50.8611     -49.4869       0.9576      -0.7291      -0.6186      28.4876       1.0226
   11571.0    1414.6588       0.0000      50.8611     -50.5274       1.1264      -0.8641      -0.5096      34.9943       1.0226
   11572.0    1419.0657       0.0000      50.8611     -53.6800       0.7994      -0.6439      -0.4737      41.0961       1.0226
   11573.0    1430.6148       0.0000      50.8611     -53.9610       0.9467      -0.7657      -0.5567      47.1980       1.0226
   11574.0    1430.5275       0.0000      50.8611     -56.2043       0.8935      -0.7438      -0.4947      53.2997       1.0226
   11575.0    1442.3536       0.0000      50.8611     -55.1191       0.9360      -0.7669      -0.5356      59.4278       1.0226
   11576.0    1451.1950       0.0000      50.8611     -56.4620       0.8237      -0.6865      -0.4551      65.5328       1.0226
   11577.0    1448.2060       0.0000      50.8611     -56.0146       0.8537      -0.7084      -0.4761      71.6131       1.0172
   11578.0    1454.3892       0.0000      50.8611     -55.6876       0.8798      -0.7267      -0.4959      77.7246       1.0175
   11579.0    1463.3667       0.0000      50.8611     -55.6876       0.8798      -0.7267      -0.4959      83.8142       1.0226
   11580.0    1460.1581       0.0000      50.8611     -63.3534       0.9270      -0.8289      -0.4142      89.9224       1.0278
   11581.0    1454.2866       0.0000      50.8611     -66.6229       0.9452      -0.8667      -0.3745      96.0409       1.0226
   11582.0    1466.4187       0.0000      50.8611     -60.6983       0.9739      -0.8472      -0.4773     102.1455       1.0226
   11583.0    1463.2754       0.0000      50.8611     -60.4470       0.8801      -0.7657      -0.4340     108.6524       1.0226
   11584.0    1461.5818       0.0000      50.8611     -62.8410       0.9508      -0.8460      -0.4340     114.7572       1.0226
   11585.0    1449.6588       0.0000      50.8611     -60.8733       1.0621      -0.9275      -0.5170     120.8559       1.0226
   11586.0    1451.3871       0.0000      50.8611     -65.4965       0.9997      -0.9092      -0.4154     126.9576       1.0226
   11587.0    1446.9624       0.0000      50.8611     -62.7148       0.9521      -0.8460      -0.4352     133.0596       1.0226
   11588.0    1439.3124       0.0000      50.8611     -64.5777       0.9167      -0.8277      -0.3931     139.1616       1.0226
   11589.0    1427.7099       0.0000      50.8611     -63.3731       0.9245      -0.8265      -0.4142     145.2511       1.0226
   11590.0    1429.1158       0.0000      50.8611     -63.7849       0.9879      -0.8862      -0.4352     151.3438       1.0226
   11591.0    1418.9797       0.0000      50.8611     -61.7936       1.0072      -0.8874      -0.4761     157.4458       1.0226
   11592.0    1414.8296       0.0000      50.8611     -62.4664       1.0688      -0.9470      -0.4947     163.5577       1.0226
