~VERSION INFORMATION
VERS.           2.0   :CWLS Log ASCII Standard - VERSION 2.0
WRAP.           NO    :One Line per depth step
PROD.  Schlumberger   :LAS Producer
PROG.  DLIS to ASCII 19C2-270                          :LAS Program name and version
CREA.        2017/09/16 17:42                          :LAS Creation date {YYYY/MM/DD hh:mm}
DLIS_CREA.  2017-Sep-15 18:02                          :DLIS Creation date and time {YYYY-MMM-DD hh:mm}
SOURCE.     LPC_S4-1_2AV.DLIS                          :DLIS File Name
FILE-ID.     PERFO_Perfo_WPGRT_052LTP                  :File Identification Number
#--------------------------------------------------
~WELL INFORMATION
#MNEM.UNIT      DATA             DESCRIPTION
#---- ------ --------------   -----------------------------
STRT .S         3713.0       :START TIME      
STOP .S         4115.0       :STOP TIME      
STEP .S            1.0       :STEP     
NULL .          -999.25      :NULL VALUE
COMP .        SHELL INTERNATIONAL E P                  :COMPANY
WELL .        WPP TEST 2                               :WELL
FLD  .        WILDCAT                                  :FIELD
LOC  .        NA                                       :LOCATION
CNTY .        HARRIS                                   :COUNTY
STAT .        TEXAS                                    :STATE
CTRY .                                                 :COUNTRY
API  .        NA                                       :API NUMBER
UWI  .                                                 :UNIQUE WELL ID
DATE .        15-Sep-2017                              :LOG DATE {DD-MMM-YYYY}
SRVC .        Schlumberger                             :SERVICE COMPANY
LATI .DEG                                              :LATITUDE
LONG .DEG                                              :LONGITUDE
GDAT .                                                 :GeoDetic Datum
SECT .        NA                                       :Section
RANG .        NA                                       :Range
TOWN .        NA                                       :Township
#-----------------------------------------------------------------------------
~PARAMETER INFORMATION
#MNEM.UNIT    VALUE                      DESCRIPTION
#---- -----   --------------------       ------------------------
U-PHASE_B_COMP_PER_YT.                 0 :Phase B Comparator Period Yt
U-PHASE_A_COMP_PER_XT.                 0 :Phase A Comparator Period Xt
U-MAX_EXC_CUR_LIMIT.MA       240.00000   :Requested CM Current Limit
U-REQ_EXC_FQ.HZ              50          :Requested CM Frequency
U-TILT_Y_OFFSET.           0.19916       :WPTET Tilt Y Offset
U-TILT_Y_GAIN.           1.01796         :WPTET Tilt Y Gain
U-TILT_X_OFFSET.          -1.77103       :WPTET Tilt X Offset
U-TILT_X_GAIN.           1.00000         :WPTET Tilt X Gain
U-TILT_OFFSET_TOL.           0.00100     :WPTET Tilt Offset Calibration Tolerance
U-NO_TILT_CAL_ROTATIONS.                 3 :Number of Rotations for Tilt Calibration
HAZI .DEG        0.00000                 :Hole Azimuth
U-STD_TOL_TILT.           0.01000        :Tilt Standard Deviation Tolerance
U-GUN_POS_TOL.DEG        5.00000         :Gun Position Tolerance
ROT_ANGLE_THRESHOLD.DEG        5.00000   :Rotation Stop Angle Tolerance
STOP_ROT_ANGLE.DEG        0.00000        :Rotation Stop Angle
WITN .        MR. DHRUA ARORA            :Witness's Name
ENGI .        MORRIS MOORE               :Engineer's Name
COUN .        HARRIS                     :County or Rig Name
FN   .        WILDCAT                    :Field Name
WN   .        WPP TEST 2                 :Well Name
CN   .        SHELL INTERNATIONAL E P    :Company Name
CLAB .        County                     :County/Rig Label
SLAB .        State                      :State/Province Label
RUN  .          1                        :RUN NUMBER
PDAT .        GROUND LEVEL               :Permanent Datum
EPD  .                                   :Elevation of Permanent Datum above Mean Sea Level
LMF  .          NA                       :Logging Measured From (Name of Logging Elevation Reference)
APD  .                                   :Elevation of Depth Reference (LMF) above Permanent Datum
#-----------------------------------------------------------------------------
~CURVE INFORMATION
#MNEM.UNIT   API CODE                                  DESCRIPTION
#---- -----  --------                                  -----------------------
TIME .S                                                :TIME {F10.1}
FREQ_EMF_SL.HZ                                         :Electromagnetic Field Frequency {F13.4}
PH_SH_WPPCM_SL.DEG                                     :WPPCM Phase Shift {F13.4}
FREQ_EXC_REQ_SL.HZ                                     :Requested Exciter Frequency {F13.4}
RB_SL.DEG                                              :Relative Bearing {F13.4}
SDEV_SL.DEG                                            :Sonde Deviation {F13.4}
TILX_SL.DEG                                            :X-axis Tilt {F13.4}
TILY_SL.DEG                                            :Y-axis Tilt {F13.4}
ROTA_SL.DEG                                            :Motor Rotation Angle {F13.4}
MSPE_SL.RPM                                            :Motor Speed {F13.4}
#-----------------------------------------------------------------------------
# 
#     TIME    FREQ_EMF_SL  PH_SH_WPPCM_ FREQ_EXC_REQ    RB_SL       SDEV_SL      TILX_SL      TILY_SL      ROTA_SL      MSPE_SL
#                          SL           _SL
~A  
# ...
    3902.0    1466.9047       0.0000      50.8611     -84.8311       1.1328      -1.1280      -0.1008     221.4081       0.0005
    3903.0    1466.8682       0.0000      50.8611     -88.0189       1.0622      -1.0608      -0.0328     221.4081       0.0005
    3904.0    1469.9403       0.0000      50.8611     -84.7317       1.0935      -1.0882      -0.1004     221.4081       0.0005
    3905.0    1473.0197       0.0000      50.8611     -82.3509       1.0709      -1.0612      -0.1417     221.4081       0.0005
    3906.0    1470.9729       0.0000      50.8611     -80.9671       1.3053      -1.2880      -0.2094     221.4081       0.0005
    3907.0    1468.9120       0.0000      50.8611     -81.3507       1.1019      -1.0878      -0.1685     221.4081       0.0005
    3908.0    1467.8880       0.0000      50.8611     -83.2081       1.0823      -1.0747      -0.1279     221.4081       0.0005
    3909.0    1470.9729       0.0000      50.8611     -82.0106       1.1123      -1.1013      -0.1551     221.4081       0.0005
    3910.0    1465.8720       0.0000      50.8611     -81.7434       1.0867      -1.0747      -0.1554     221.4081       0.0005
    3911.0    1469.9403       0.0000      50.8611     -83.8287       0.9464      -0.9407      -0.1008     221.4081       0.0005
    3912.0    1466.9047       0.0000      50.8611     -82.8570       1.0294      -1.0214      -0.1279     221.4081       0.0005
    3913.0    1463.8197       0.0000      50.8611     -80.0481       1.1316      -1.1145      -0.1960     221.4081       0.0005
    3914.0    1469.9403       0.0000      50.8611     -81.5049       1.0458      -1.0342      -0.1551     221.4081       0.0005
    3915.0    1465.8720       0.0000      50.8611     -88.0113       0.9688      -0.9680      -0.0324     221.4081       0.0005
    3916.0    1464.8833       0.0000      50.8611     -87.3678       1.0106      -1.0079      -0.0465     221.4081       0.0005
    3917.0    1469.9403       0.0000      50.8611     -79.8568       1.0383      -1.0214      -0.1822     221.4081       0.0005
    3918.0    1468.9120       0.0000      50.8611     -78.8182       1.0837      -1.0615      -0.2094     221.4081       0.0005
    3919.0    1466.9047       0.0000      50.8611     -84.6232       1.0796      -1.0747      -0.1008     221.4081       0.0005
    3920.0    1466.9047       0.0000      50.8611     -83.6501       1.0416      -1.0345      -0.1146     221.4081       0.0005
    3921.0    1469.9403       0.0000      50.8611     -85.1815       1.0266      -1.0214      -0.0874     221.4081       0.0005
    3922.0    1466.8736       0.0000      50.8611     -85.1261       1.0251      -1.0214      -0.0871     221.4081       0.0005
    3923.0    1469.9403       0.0000      50.8611     -77.4031       1.0196      -0.9944      -0.2231     221.4081       0.0005
    3924.0    1466.9615       0.0000      50.8611     -81.3855       1.1276      -1.1149      -0.1688     221.4081       0.0005
    3925.0    1464.8438       0.0000      50.8611     -82.4417       1.0851      -1.0750      -0.1413     221.4081       0.0005
    3926.0    1475.0752       0.0000      50.8611     -81.5847       1.0596      -1.0480      -0.1551     221.4081       0.0005
    3927.0    1471.0127       0.0000      50.8611     -80.8116       0.9808      -0.9680      -0.1551     224.1867       0.6253
    3928.0    1468.9345       0.0000      50.8611     -80.4777       1.1036      -1.0882      -0.1826     228.7521       0.9038
    3929.0    1463.8197       0.0000      50.8611     -78.8203       1.0821      -1.0615      -0.2097     234.6292       1.0226
    3930.0    1467.9019       0.0000      50.8611     -78.4105       1.2490      -1.2222      -0.2503     241.1392       1.0226
    3931.0    1459.7630       0.0000      50.8611     -77.1839       1.2536      -1.2222      -0.2778     247.2380       1.0226
    3932.0    1458.7655       0.0000      50.8611     -78.2314       1.2897      -1.2620      -0.2640     253.3430       1.0226
    3933.0    1457.7500       0.0000      50.8611     -73.5546       1.4138      -1.3559      -0.4004     259.4438       1.0226
    3934.0    1453.7268       0.0000      50.8611     -74.1852       1.2706      -1.2225      -0.3461     265.5466       1.0226
    3935.0    1454.7340       0.0000      50.8611     -72.7412       1.3504      -1.2890      -0.4008     271.6443       1.0190
    3936.0    1442.7881       0.0000      50.8611     -66.6860       1.5216      -1.3957      -0.6045     277.7387       1.0226
    3937.0    1437.8834       0.0000      50.8611     -65.2909       1.4488      -1.3160      -0.6049     283.8546       1.0226
    3938.0    1430.0945       0.0000      50.8611     -71.0999       1.4050      -1.3292      -0.4551     289.9554       1.0226
    3939.0    1421.4214       0.0000      50.8611     -63.3939       1.4419      -1.2890      -0.6457     296.0448       1.0226
    3940.0    1415.6765       0.0000      50.8611     -60.0683       1.4876      -1.2894      -0.7413     302.1598       1.0226
    3941.0    1402.5313       0.0000      50.8611     -60.7558       1.6306      -1.4227      -0.7959     308.2616       1.0226
    3942.0    1386.8692       0.0000      50.8611     -60.4047       1.5288      -1.3292      -0.7550     314.7704       1.0226
    3943.0    1375.0689       0.0000      50.8611     -52.7776       1.4518      -1.1554      -0.8773     320.8874       1.0226
    3944.0    1367.9346       0.0000      50.8611     -54.7892       1.5456      -1.2624      -0.8914     326.9871       1.0190
    3945.0    1362.6454       0.0000      50.8611     -48.2525       1.6032      -1.1952      -1.0680     333.0776       1.0226
    3946.0    1347.8521       0.0000      50.8611     -48.5172       1.4901      -1.1149      -0.9870     339.1794       1.0226
    3947.0    1331.6761       0.0000      50.8611     -51.0115       1.4862      -1.1547      -0.9323     345.2689       1.0226
    3948.0    1328.3538       0.0000      50.8611     -47.4420       1.4590      -1.0747      -0.9866     351.3585       1.0226
    3949.0    1302.0834       0.0000      50.8611     -45.2506       1.3628      -0.9677      -0.9595     357.4599       1.0226
    3950.0    1291.7354       0.0000      50.8611     -39.3427       1.4868      -0.9410      -1.1498       3.5504       1.0156
    3951.0    1269.9331       0.0000      50.8611     -42.4197       1.3554      -0.9140      -1.0003       9.6399       1.0226
    3952.0    1257.0747       0.0000      50.8611     -37.4478       1.4154      -0.8603      -1.1230      15.7294       1.0226
    3953.0    1241.5928       0.0000      50.8611     -32.4256       1.2814      -0.6865      -1.0818      21.8312       1.0226
    3954.0    1229.2395       0.0000      50.8611     -33.4297       1.2970      -0.7135      -1.0818      28.3400       1.0226
    3955.0    1220.6955       0.0000      50.8611     -33.9779       1.2068      -0.6734      -1.0000      34.4429       1.0226
    3956.0    1214.3671       0.0000      50.8611     -31.6134       1.1607      -0.6058      -0.9870      40.5406       1.0156
    3957.0    1217.8995       0.0000      50.8611     -34.4950       1.2811      -0.7263      -1.0546      46.6219       1.0226
    3958.0    1207.4771       0.0000      50.8611     -31.9907       1.2441      -0.6595      -1.0546      52.7237       1.0226
    3959.0    1211.5767       0.0000      50.8611     -26.5517       0.9667      -0.4324      -0.8639      58.8345       1.0190
    3960.0    1215.7728       0.0000      50.8611     -33.3113       1.0246      -0.5667      -0.8505      64.9281       1.0226
    3961.0    1219.9918       0.0000      50.8611     -33.0259       0.9652      -0.5259      -0.8093      71.0175       1.0156
    3962.0    1229.2395       0.0000      50.8611     -32.5433       0.9052      -0.4864      -0.7547      77.1325       1.0226
    3963.0    1241.5554       0.0000      50.8611     -22.6462       0.8049      -0.3126      -0.7275      83.2473       1.0226
    3964.0    1265.4131       0.0000      50.8611     -33.3117       0.8592      -0.4718      -0.7141      89.3368       1.0156
