~VERSION INFORMATION
VERS.           2.0   :CWLS Log ASCII Standard - VERSION 2.0
WRAP.           NO    :One Line per depth step
PROD.  Schlumberger   :LAS Producer
PROG.  DLIS to ASCII 19C2-270                          :LAS Program name and version
CREA.        2017/09/16 17:42                          :LAS Creation date {YYYY/MM/DD hh:mm}
DLIS_CREA.  2017-Sep-15 14:39                          :DLIS Creation date and time {YYYY-MMM-DD hh:mm}
SOURCE.     LPC_S2-1_B5.DLIS                           :DLIS File Name
FILE-ID.     PERFO_Perfo_WPGRT_030LTP                  :File Identification Number
#--------------------------------------------------
~WELL INFORMATION
#MNEM.UNIT      DATA             DESCRIPTION
#---- ------ --------------   -----------------------------
STRT .S        13946.0       :START TIME      
STOP .S        14402.0       :STOP TIME      
STEP .S            1.0       :STEP     
NULL .          -999.25      :NULL VALUE
COMP .        SHELL INTERNATIONAL E P                  :COMPANY
WELL .        WPP TEST 2                               :WELL
FLD  .        WILDCAT                                  :FIELD
LOC  .                                                 :LOCATION
CNTY .        HARRIS                                   :COUNTY
STAT .        TEXAS                                    :STATE
CTRY .                                                 :COUNTRY
API  .                                                 :API NUMBER
UWI  .                                                 :UNIQUE WELL ID
DATE .                                                 :LOG DATE
SRVC .        Schlumberger                             :SERVICE COMPANY
LATI .DEG                                              :LATITUDE
LONG .DEG                                              :LONGITUDE
GDAT .                                                 :GeoDetic Datum
#-----------------------------------------------------------------------------
~PARAMETER INFORMATION
#MNEM.UNIT    VALUE                      DESCRIPTION
#---- -----   --------------------       ------------------------
U-PHASE_B_COMP_PER_YT.                 0 :Phase B Comparator Period Yt
U-PHASE_A_COMP_PER_XT.                 0 :Phase A Comparator Period Xt
U-MAX_EXC_CUR_LIMIT.MA       240.00000   :Requested CM Current Limit
U-REQ_EXC_FQ.HZ              50          :Requested CM Frequency
U-TILT_Y_OFFSET.           0.19916       :WPTET Tilt Y Offset
U-TILT_Y_GAIN.           1.01796         :WPTET Tilt Y Gain
U-TILT_X_OFFSET.          -1.77103       :WPTET Tilt X Offset
U-TILT_X_GAIN.           1.00000         :WPTET Tilt X Gain
U-TILT_OFFSET_TOL.           0.00100     :WPTET Tilt Offset Calibration Tolerance
U-NO_TILT_CAL_ROTATIONS.                 3 :Number of Rotations for Tilt Calibration
HAZI .DEG        0.00000                 :Hole Azimuth
U-STD_TOL_TILT.           0.01000        :Tilt Standard Deviation Tolerance
U-GUN_POS_TOL.DEG        5.00000         :Gun Position Tolerance
ROT_ANGLE_THRESHOLD.DEG        5.00000   :Rotation Stop Angle Tolerance
STOP_ROT_ANGLE.DEG       80.00000        :Rotation Stop Angle
WITN .                                   :Witness's Name
ENGI .                                   :Engineer's Name
COUN .        HARRIS                     :County or Rig Name
FN   .        WILDCAT                    :Field Name
WN   .        WPP TEST 2                 :Well Name
CN   .        SHELL INTERNATIONAL E P    :Company Name
CLAB .        County                     :County/Rig Label
SLAB .        State                      :State/Province Label
RUN  .          1                        :RUN NUMBER
PDAT .        GROUND LEVEL               :Permanent Datum
EPD  .                                   :Elevation of Permanent Datum above Mean Sea Level
LMF  .                                   :Logging Measured From (Name of Logging Elevation Reference)
APD  .                                   :Elevation of Depth Reference (LMF) above Permanent Datum
#-----------------------------------------------------------------------------
~CURVE INFORMATION
#MNEM.UNIT   API CODE                                  DESCRIPTION
#---- -----  --------                                  -----------------------
TIME .S                                                :TIME {F10.1}
FREQ_EMF_SL.HZ                                         :Electromagnetic Field Frequency {F13.4}
PH_SH_WPPCM_SL.DEG                                     :WPPCM Phase Shift {F13.4}
FREQ_EXC_REQ_SL.HZ                                     :Requested Exciter Frequency {F13.4}
RB_SL.DEG                                              :Relative Bearing {F13.4}
SDEV_SL.DEG                                            :Sonde Deviation {F13.4}
TILX_SL.DEG                                            :X-axis Tilt {F13.4}
TILY_SL.DEG                                            :Y-axis Tilt {F13.4}
ROTA_SL.DEG                                            :Motor Rotation Angle {F13.4}
MSPE_SL.RPM                                            :Motor Speed {F13.4}
#-----------------------------------------------------------------------------
# 
#     TIME    FREQ_EMF_SL  PH_SH_WPPCM_ FREQ_EXC_REQ    RB_SL       SDEV_SL      TILX_SL      TILY_SL      ROTA_SL      MSPE_SL
#                          SL           _SL
~A  
   13946.0    1562.5000       0.0000      50.8611    -123.5124       3.4463      -0.1503       3.4406     109.0764       1.0226
   13947.0    1567.5599       0.0000      50.8611    -173.9673       3.4772      -0.3652       3.4579     115.1276       1.0226
   13948.0    1565.4579       0.0000      50.8611    -165.0430       3.6754      -0.9481       3.5504     121.2315       1.0226
   13949.0    1552.6674       0.0000      50.8611    -161.0825       3.7119      -1.2027       3.5111     127.3485       1.0226
   13950.0    1539.5812       0.0000      50.8611    -152.7710       3.7472      -1.7128       3.3312     133.4615       1.0226
   13951.0    1522.9081       0.0000      50.8611    -148.4420       3.8889      -2.0341       3.3128     139.5365       1.0210
   13952.0    1499.6809       0.0000      50.8611    -142.6990       3.9087      -2.3675       3.1083     145.6402       1.0226
   13953.0    1481.2020       0.0000      50.8611    -136.3083       3.9610      -2.7350       2.8630     151.7471       1.0226
   13954.0    1454.0968       0.0000      50.8611    -126.5775       4.0933      -3.2853       2.4378     158.2034       1.0242
   13955.0    1443.7886       0.0000      50.8611    -125.1729       4.2737      -3.4922       2.4603     164.3555       1.0242
   13956.0    1420.8859       0.0000      50.8611    -119.4838       4.4926      -3.9099       2.2088     170.4727       1.0317
   13957.0    1398.6998       0.0000      50.8611    -114.2150       4.4772      -4.0826       1.8347     176.5622       1.0226
   13958.0    1376.7895       0.0000      50.8611    -110.3567       4.7952      -4.4943       1.6445     182.6629       1.0226
   13959.0    1348.1507       0.0000      50.8611    -101.8879       4.6548      -4.5546       0.9576     188.7782       1.0317
   13960.0    1334.4277       0.0000      50.8611     -97.8856       4.7653      -4.7203       0.6515     194.8843       1.0226
   13961.0    1310.0918       0.0000      50.8611     -93.2908       4.9001      -4.8920       0.2809     200.9840       1.0226
   13962.0    1287.0698       0.0000      50.8611     -86.3835       4.7816      -4.7715      -0.3017     207.0713       1.0226
   13963.0    1263.0252       0.0000      50.8611     -82.8476       4.9244      -4.8860      -0.6125     213.1754       1.0136
   13964.0    1239.2130       0.0000      50.8611     -77.8643       4.8644      -4.7554      -1.0213     219.2782       1.0317
   13965.0    1185.5240       0.0000      50.8611     -71.7018       5.0013      -4.7474      -1.5692     225.3930       1.0226
   13966.0    1141.9945       0.0000      50.8611     -65.0262       4.8903      -4.4321      -2.0619     231.5039       1.0334
   13967.0    1095.8355       0.0000      50.8611     -62.9100       5.0450      -4.4903      -2.2950     238.0331       1.0226
   13968.0    1055.2258       0.0000      50.8611     -58.6908       4.9165      -4.1991      -2.5526     244.1328       1.0226
   13969.0    1024.5166       0.0000      50.8611     -52.8082       5.0869      -4.0505      -3.0719     250.2314       1.0242
   13970.0    1005.2565       0.0000      50.8611     -50.7551       5.0255      -3.8898      -3.1761     256.3374       1.0226
   13971.0     997.5529       0.0000      50.8611     -42.5818       4.9271      -3.3315      -3.6259     262.4289       1.0226
   13972.0     990.3990       0.0000      50.8611     -38.3332       4.9427      -3.0634      -3.8748     268.5417       1.0226
   13973.0     986.1500       0.0000      50.8611     -34.4194       4.7319      -2.6728      -3.9019     274.6290       1.0226
   13974.0     984.7689       0.0000      50.8611     -29.1191       4.8616      -2.3635      -4.2454     280.7328       1.0226
   13975.0     983.5982       0.0000      50.8611     -24.0329       4.7078      -1.9156      -4.2985     286.8355       1.0152
   13976.0     984.6399       0.0000      50.8611     -18.4366       4.7537      -1.5019      -4.5091     292.9253       1.0226
   13977.0     993.3251       0.0000      50.8611     -13.4950       4.6211      -1.0782      -4.4927     299.0248       1.0226
   13978.0    1008.7282       0.0000      50.8611      -8.9054       4.6352      -0.7167      -4.5786     305.1273       1.0242
   13979.0    1017.3265       0.0000      50.8611      -5.2538       4.5632      -0.4174      -4.5438     311.6389       1.0226
   13980.0    1043.6779       0.0000      50.8611       2.3650       4.3433       0.1791      -4.3394     317.7384       1.0226
   13981.0    1091.4914       0.0000      50.8611       8.0056       4.4177       0.6149      -4.3742     323.8422       1.0226
   13982.0    1144.8064       0.0000      50.8611      11.9272       4.2327       0.8739      -4.1411     329.9471       1.0226
   13983.0    1202.4480       0.0000      50.8611      17.5235       4.0073       1.2053      -3.8201     336.0341       1.0226
   13984.0    1234.7484       0.0000      50.8611      23.8852       4.0310       1.6311      -3.6852     342.1337       1.0226
   13985.0    1261.6654       0.0000      50.8611      28.1331       3.7553       1.7697      -3.3111     348.2486       1.0242
   13986.0    1281.4401       0.0000      50.8611      33.6300       3.7049       2.0508      -3.0841     354.3544       1.0136
   13987.0    1312.7893       0.0000      50.8611      41.9907       3.7187       2.4866      -2.7632      54.4662       1.0259
   13988.0    1335.6025       0.0000      50.8611      47.7195       3.2851       2.4284      -2.2091       6.5556       1.0226
   13989.0    1361.0731       0.0000      50.8611      55.2772       3.3340       2.7397      -1.8984      12.6473       1.0210
   13990.0    1383.6965       0.0000      50.8611      62.5969       3.3562       2.9787      -1.5427      18.7388       1.0226
   13991.0    1404.2869       0.0000      50.8611      67.6721       3.1531       2.9164      -1.1972      25.2562       1.0334
   13992.0    1434.0740       0.0000      50.8611      76.5071       3.1521       3.0650      -0.7351      31.3499       1.0226
   13993.0    1450.9515       0.0000      50.8611      83.0094       3.1184       3.0952      -0.3794      37.4669       1.0242
   13994.0    1470.9729       0.0000      50.8611      89.3843       3.1055       3.1052      -0.0339      43.5796       1.0152
   13995.0    1496.9696       0.0000      50.8611      98.3424       2.8633       2.8321       0.4138      49.6680       1.0226
   13996.0    1518.6285       0.0000      50.8611     107.9544       2.8445       2.7055       0.8759      55.7719       1.0226
   13997.0    1536.2174       0.0000      50.8611     117.8240       2.9551       2.6132       1.3788      61.8636       1.0226
   13998.0    1560.9479       0.0000      50.8611     126.0870       2.9083       2.3501       1.7120      67.9640       1.0242
   13999.0    1566.5042       0.0000      50.8611     131.0024       2.9842       2.2517       1.9573      74.0637       1.0136
   14000.0    1582.5497       0.0000      50.8611     138.3949       2.9080       1.9303       2.1740      80.1684       1.0226
   14001.0    1580.0563       0.0000      50.8611     148.6573       2.9628       1.5407       2.5298      86.2723       1.0136
   14002.0    1583.6149       0.0000      50.8611     155.4250       3.0832       1.2816       2.8037      92.3730       1.0226
   14003.0    1594.3877       0.0000      50.8611     163.7538       3.1696       0.8860       3.0429      98.8880       1.0226
   14004.0    1590.7806       0.0000      50.8611     170.9279       3.3300       0.5245       3.2882     104.9997       1.0226
   14005.0    1586.6534       0.0000      50.8611     177.0415       3.3932       0.1750       3.3884     111.0994       1.0226
   14006.0    1571.0626       0.0000      50.8611    -176.8162       3.4634      -0.1925       3.4579     117.1990       1.0226
   14007.0    1568.9511       0.0000      50.8611    -167.8848       3.4365      -0.7207       3.3598     123.3030       1.0226
   14008.0    1555.5862       0.0000      50.8611    -155.5606       3.7871      -1.5662       3.4416     129.4069       1.0226
