~VERSION INFORMATION
VERS.           2.0   :CWLS Log ASCII Standard - VERSION 2.0
WRAP.           NO    :One Line per depth step
PROD.  Schlumberger   :LAS Producer
PROG.  DLIS to ASCII 19C2-270                          :LAS Program name and version
CREA.        2017/09/16 17:42                          :LAS Creation date {YYYY/MM/DD hh:mm}
DLIS_CREA.  2017-Sep-15 17:32                          :DLIS Creation date and time {YYYY-MMM-DD hh:mm}
SOURCE.     LPC_S4-1_A5.DLIS                           :DLIS File Name
FILE-ID.     PERFO_Perfo_WPGRT_048LTP                  :File Identification Number
#--------------------------------------------------
~WELL INFORMATION
#MNEM.UNIT      DATA             DESCRIPTION
#---- ------ --------------   -----------------------------
STRT .S         1889.0       :START TIME      
STOP .S         2373.0       :STOP TIME      
STEP .S            1.0       :STEP     
NULL .          -999.25      :NULL VALUE
COMP .        SHELL INTERNATIONAL E P                  :COMPANY
WELL .        WPP TEST 2                               :WELL
FLD  .        WILDCAT                                  :FIELD
LOC  .        NA                                       :LOCATION
CNTY .        HARRIS                                   :COUNTY
STAT .        TEXAS                                    :STATE
CTRY .                                                 :COUNTRY
API  .        NA                                       :API NUMBER
UWI  .                                                 :UNIQUE WELL ID
DATE .        15-Sep-2017                              :LOG DATE {DD-MMM-YYYY}
SRVC .        Schlumberger                             :SERVICE COMPANY
LATI .DEG                                              :LATITUDE
LONG .DEG                                              :LONGITUDE
GDAT .                                                 :GeoDetic Datum
SECT .        NA                                       :Section
RANG .        NA                                       :Range
TOWN .        NA                                       :Township
#-----------------------------------------------------------------------------
~PARAMETER INFORMATION
#MNEM.UNIT    VALUE                      DESCRIPTION
#---- -----   --------------------       ------------------------
U-PHASE_B_COMP_PER_YT.                 0 :Phase B Comparator Period Yt
U-PHASE_A_COMP_PER_XT.                 0 :Phase A Comparator Period Xt
U-MAX_EXC_CUR_LIMIT.MA       240.00000   :Requested CM Current Limit
U-REQ_EXC_FQ.HZ              50          :Requested CM Frequency
U-TILT_Y_OFFSET.           0.19916       :WPTET Tilt Y Offset
U-TILT_Y_GAIN.           1.01796         :WPTET Tilt Y Gain
U-TILT_X_OFFSET.          -1.77103       :WPTET Tilt X Offset
U-TILT_X_GAIN.           1.00000         :WPTET Tilt X Gain
U-TILT_OFFSET_TOL.           0.00100     :WPTET Tilt Offset Calibration Tolerance
U-NO_TILT_CAL_ROTATIONS.                 3 :Number of Rotations for Tilt Calibration
HAZI .DEG        0.00000                 :Hole Azimuth
U-STD_TOL_TILT.           0.01000        :Tilt Standard Deviation Tolerance
U-GUN_POS_TOL.DEG        5.00000         :Gun Position Tolerance
ROT_ANGLE_THRESHOLD.DEG        5.00000   :Rotation Stop Angle Tolerance
STOP_ROT_ANGLE.DEG        0.00000        :Rotation Stop Angle
WITN .        MR. DHRUA ARORA            :Witness's Name
ENGI .        MORRIS MOORE               :Engineer's Name
COUN .        HARRIS                     :County or Rig Name
FN   .        WILDCAT                    :Field Name
WN   .        WPP TEST 2                 :Well Name
CN   .        SHELL INTERNATIONAL E P    :Company Name
CLAB .        County                     :County/Rig Label
SLAB .        State                      :State/Province Label
RUN  .          1                        :RUN NUMBER
PDAT .        GROUND LEVEL               :Permanent Datum
EPD  .                                   :Elevation of Permanent Datum above Mean Sea Level
LMF  .          NA                       :Logging Measured From (Name of Logging Elevation Reference)
APD  .                                   :Elevation of Depth Reference (LMF) above Permanent Datum
#-----------------------------------------------------------------------------
~CURVE INFORMATION
#MNEM.UNIT   API CODE                                  DESCRIPTION
#---- -----  --------                                  -----------------------
TIME .S                                                :TIME {F10.1}
FREQ_EMF_SL.HZ                                         :Electromagnetic Field Frequency {F13.4}
PH_SH_WPPCM_SL.DEG                                     :WPPCM Phase Shift {F13.4}
FREQ_EXC_REQ_SL.HZ                                     :Requested Exciter Frequency {F13.4}
RB_SL.DEG                                              :Relative Bearing {F13.4}
SDEV_SL.DEG                                            :Sonde Deviation {F13.4}
TILX_SL.DEG                                            :X-axis Tilt {F13.4}
TILY_SL.DEG                                            :Y-axis Tilt {F13.4}
ROTA_SL.DEG                                            :Motor Rotation Angle {F13.4}
MSPE_SL.RPM                                            :Motor Speed {F13.4}
#-----------------------------------------------------------------------------
# 
#     TIME    FREQ_EMF_SL  PH_SH_WPPCM_ FREQ_EXC_REQ    RB_SL       SDEV_SL      TILX_SL      TILY_SL      ROTA_SL      MSPE_SL
#                          SL           _SL
~A  
# ...
    2330.0     917.9855       0.0000      50.8611      -1.0155       4.7467      -0.0840      -4.7460      43.8208       1.0226
    2331.0     938.8699       0.0000      50.8611       3.9082       4.6766       0.3184      -4.6657      49.9226       1.0226
    2332.0     967.3614       0.0000      50.8611       9.7581       4.4854       0.7595      -4.4204      56.0120       1.0228
    2333.0    1004.5998       0.0000      50.8611      14.1658       4.4329       1.0838      -4.2978      62.1277       1.0226
    2334.0    1057.8196       0.0000      50.8611      19.5826       4.4295       1.4832      -4.1728      68.6375       1.0226
    2335.0    1192.1226       0.0000      50.8611      26.8367       4.2657       1.9243      -3.8056      74.7393       1.0226
    2336.0    1264.7852       0.0000      50.8611      31.1541       4.1134       2.1266      -3.5193      80.8441       1.0226
    2337.0    1312.0319       0.0000      50.8611      38.2625       4.0187       2.4874      -3.1544      86.9429       1.0226
    2338.0    1357.5324       0.0000      50.8611      43.6036       3.9017       2.6897      -2.8243      93.0577       1.0226
    2339.0    1400.9117       0.0000      50.8611      48.3352       3.8160       2.8496      -2.5357      99.1471       1.0226
    2340.0    1455.8020       0.0000      50.8611      58.0570       3.6411       3.0891      -1.9255     105.2498       1.0226
    2341.0    1502.5856       0.0000      50.8611      64.4072       3.6039       3.2498      -1.5560     111.3393       1.0226
    2342.0    1552.4116       0.0000      50.8611      72.0182       3.4576       3.2885      -1.0668     117.4288       1.0226
    2343.0    1591.1911       0.0000      50.8611      80.8467       3.3716       3.3286      -0.5361     123.5436       1.0332
    2344.0    1639.0578       0.0000      50.8611      87.7452       3.2538       3.2513      -0.1279     129.6330       1.0226
    2345.0    1682.3453       0.0000      50.8611      93.4517       3.3355       3.3294       0.2007     135.7349       1.0226
    2346.0    1727.5798       0.0000      50.8611     103.0015       3.2530       3.1695       0.7315     142.2449       1.0226
    2347.0    1753.5936       0.0000      50.8611     110.5832       3.1308       2.9307       1.1002     148.3476       1.0226
    2348.0    1780.2331       0.0000      50.8611     118.2683       3.1877       2.8072       1.5091     154.4504       1.0226
    2349.0    1812.0905       0.0000      50.8611     125.1127       3.1895       2.6086       1.8339     158.0905       0.0005
    2350.0    1812.2657       0.0000      50.8611     124.5149       3.1655       2.6079       1.7930     158.0905       0.0005
    2351.0    1807.6943       0.0000      50.8611     124.5532       3.1652       2.6064       1.7946     158.0905       0.0005
    2352.0    1820.3222       0.0000      50.8611     124.1797       3.1391       2.5965       1.7629     158.0905       0.0005
    2353.0    1812.2657       0.0000      50.8611     122.7236       3.2409       2.7261       1.7514     158.0905       0.0005
    2354.0    1816.7727       0.0000      50.8611     124.7131       3.2202       2.6466       1.8331     158.0905       0.0005
    2355.0    1812.0905       0.0000      50.8611     125.3294       3.2445       2.6466       1.8756     158.0905       0.0005
    2356.0    1821.4790       0.0000      50.8611     124.9234       3.1331       2.5685       1.7930     158.0905       0.0005
    2357.0    1821.4790       0.0000      50.8611     123.7345       3.2312       2.6867       1.7938     158.0905       0.0005
    2358.0    1807.6065       0.0000      50.8611     124.1226       3.2002       2.6488       1.7946     158.0905       0.0005
    2359.0    1812.1779       0.0000      50.8611     124.5263       3.1660       2.6079       1.7938     158.0905       0.0005
    2360.0    1816.7727       0.0000      50.8611     124.3400       3.1112       2.5685       1.7544     158.0905       0.0005
    2361.0    1812.1779       0.0000      50.8611     123.7405       3.0875       2.5670       1.7143     158.0905       0.0005
    2362.0    1812.3539       0.0000      50.8611     123.5040       3.1753       2.6473       1.7521     158.0905       0.0005
    2363.0    1812.1779       0.0000      50.8611     124.3556       3.1099       2.5670       1.7544     158.0905       0.0005
    2364.0    1816.9487       0.0000      50.8611     123.4091       3.1482       2.6276       1.7328     158.0905       0.0005
    2365.0    1812.2657       0.0000      50.8611     125.9482       3.1237       2.5283       1.8331     158.0905       0.0005
    2366.0    1816.7727       0.0000      50.8611     122.3251       3.1334       2.6473       1.6750     158.0905       0.0005
    2367.0    1812.1779       0.0000      50.8611     122.6994       3.0986       2.6071       1.6734     158.0905       0.0005
    2368.0    1816.7727       0.0000      50.8611     125.5280       3.1557       2.5677       1.8331     158.0905       0.0005
    2369.0    1812.2657       0.0000      50.8611     124.9124       3.2770       2.6867       1.8748     158.0905       0.0005
    2370.0    1812.2657       0.0000      50.8611     122.9416       3.1550       2.6473       1.7151     158.0905       0.0005
    2371.0    1816.7727       0.0000      50.8611     123.8932       3.1431       2.6086       1.7521     158.0905       0.0005
    2372.0    1816.6853       0.0000      50.8611     124.3105       3.2533       2.6867       1.8331     158.0905       0.0005
    2373.0    1816.8605       0.0000      50.8611     124.5334       3.3098       2.7261       1.8756     158.0905       0.0005
