~VERSION INFORMATION
VERS.           2.0   :CWLS Log ASCII Standard - VERSION 2.0
WRAP.           NO    :One Line per depth step
PROD.  Schlumberger   :LAS Producer
PROG.  DLIS to ASCII 19C2-270                          :LAS Program name and version
CREA.        2017/09/16 17:42                          :LAS Creation date {YYYY/MM/DD hh:mm}
DLIS_CREA.  2017-Sep-15 17:32                          :DLIS Creation date and time {YYYY-MMM-DD hh:mm}
SOURCE.     LPC_S4-1_A5.DLIS                           :DLIS File Name
FILE-ID.     PERFO_Perfo_WPGRT_048LTP                  :File Identification Number
#--------------------------------------------------
~WELL INFORMATION
#MNEM.UNIT      DATA             DESCRIPTION
#---- ------ --------------   -----------------------------
STRT .S         1889.0       :START TIME      
STOP .S         2373.0       :STOP TIME      
STEP .S            1.0       :STEP     
NULL .          -999.25      :NULL VALUE
COMP .        SHELL INTERNATIONAL E P                  :COMPANY
WELL .        WPP TEST 2                               :WELL
FLD  .        WILDCAT                                  :FIELD
LOC  .        NA                                       :LOCATION
CNTY .        HARRIS                                   :COUNTY
STAT .        TEXAS                                    :STATE
CTRY .                                                 :COUNTRY
API  .        NA                                       :API NUMBER
UWI  .                                                 :UNIQUE WELL ID
DATE .        15-Sep-2017                              :LOG DATE {DD-MMM-YYYY}
SRVC .        Schlumberger                             :SERVICE COMPANY
LATI .DEG                                              :LATITUDE
LONG .DEG                                              :LONGITUDE
GDAT .                                                 :GeoDetic Datum
SECT .        NA                                       :Section
RANG .        NA                                       :Range
TOWN .        NA                                       :Township
#-----------------------------------------------------------------------------
~PARAMETER INFORMATION
#MNEM.UNIT    VALUE                      DESCRIPTION
#---- -----   --------------------       ------------------------
U-PHASE_B_COMP_PER_YT.                 0 :Phase B Comparator Period Yt
U-PHASE_A_COMP_PER_XT.                 0 :Phase A Comparator Period Xt
U-MAX_EXC_CUR_LIMIT.MA       240.00000   :Requested CM Current Limit
U-REQ_EXC_FQ.HZ              50          :Requested CM Frequency
U-TILT_Y_OFFSET.           0.19916       :WPTET Tilt Y Offset
U-TILT_Y_GAIN.           1.01796         :WPTET Tilt Y Gain
U-TILT_X_OFFSET.          -1.77103       :WPTET Tilt X Offset
U-TILT_X_GAIN.           1.00000         :WPTET Tilt X Gain
U-TILT_OFFSET_TOL.           0.00100     :WPTET Tilt Offset Calibration Tolerance
U-NO_TILT_CAL_ROTATIONS.                 3 :Number of Rotations for Tilt Calibration
HAZI .DEG        0.00000                 :Hole Azimuth
U-STD_TOL_TILT.           0.01000        :Tilt Standard Deviation Tolerance
U-GUN_POS_TOL.DEG        5.00000         :Gun Position Tolerance
ROT_ANGLE_THRESHOLD.DEG        5.00000   :Rotation Stop Angle Tolerance
STOP_ROT_ANGLE.DEG        0.00000        :Rotation Stop Angle
WITN .        MR. DHRUA ARORA            :Witness's Name
ENGI .        MORRIS MOORE               :Engineer's Name
COUN .        HARRIS                     :County or Rig Name
FN   .        WILDCAT                    :Field Name
WN   .        WPP TEST 2                 :Well Name
CN   .        SHELL INTERNATIONAL E P    :Company Name
CLAB .        County                     :County/Rig Label
SLAB .        State                      :State/Province Label
RUN  .          1                        :RUN NUMBER
PDAT .        GROUND LEVEL               :Permanent Datum
EPD  .                                   :Elevation of Permanent Datum above Mean Sea Level
LMF  .          NA                       :Logging Measured From (Name of Logging Elevation Reference)
APD  .                                   :Elevation of Depth Reference (LMF) above Permanent Datum
#-----------------------------------------------------------------------------
~CURVE INFORMATION
#MNEM.UNIT   API CODE                                  DESCRIPTION
#---- -----  --------                                  -----------------------
TIME .S                                                :TIME {F10.1}
FREQ_EMF_SL.HZ                                         :Electromagnetic Field Frequency {F13.4}
PH_SH_WPPCM_SL.DEG                                     :WPPCM Phase Shift {F13.4}
FREQ_EXC_REQ_SL.HZ                                     :Requested Exciter Frequency {F13.4}
RB_SL.DEG                                              :Relative Bearing {F13.4}
SDEV_SL.DEG                                            :Sonde Deviation {F13.4}
TILX_SL.DEG                                            :X-axis Tilt {F13.4}
TILY_SL.DEG                                            :Y-axis Tilt {F13.4}
ROTA_SL.DEG                                            :Motor Rotation Angle {F13.4}
MSPE_SL.RPM                                            :Motor Speed {F13.4}
#-----------------------------------------------------------------------------
# 
#     TIME    FREQ_EMF_SL  PH_SH_WPPCM_ FREQ_EXC_REQ    RB_SL       SDEV_SL      TILX_SL      TILY_SL      ROTA_SL      MSPE_SL
#                          SL           _SL
~A  
# ...
    2204.0     836.1520       0.0000      50.8611     -38.0032       5.3554      -3.2943      -4.2175     350.8982       1.0228
    2205.0     836.0956       0.0000      50.8611     -33.5437       5.1616      -2.8495      -4.3001     357.0068       1.0125
    2206.0     841.9906       0.0000      50.8611     -28.7990       5.0926      -2.4508      -4.4613       3.1155       1.0226
    2207.0     850.2891       0.0000      50.8611     -22.4400       4.9646      -1.8930      -4.5878       9.2173       1.0226
    2208.0     856.5632       0.0000      50.8611     -17.4556       5.1043      -1.5293      -4.8687      15.3192       1.0226
    2209.0     872.4247       0.0000      50.8611     -13.1529       4.9613      -1.1276      -4.8308      21.3962       1.0226
    2210.0     892.3332       0.0000      50.8611      -6.8145       4.7822      -0.5668      -4.7483      27.5112       1.0226
    2211.0     913.1940       0.0000      50.8611      -2.7845       4.9942      -0.2424      -4.9882      33.6007       1.0228
    2212.0     936.4646       0.0000      50.8611       2.8506       4.7928       0.2381      -4.7869      39.7156       1.0226
    2213.0     964.6815       0.0000      50.8611       8.5931       4.5550       0.6799      -4.5037      46.2254       1.0226
    2214.0     998.8372       0.0000      50.8611      13.1633       4.4140       1.0042      -4.2978      52.3273       1.0226
    2215.0    1045.0278       0.0000      50.8611      19.9248       4.3561       1.4832      -4.0948      58.4291       1.0226
    2216.0    1158.9112       0.0000      50.8611      24.1975       4.3098       1.7651      -3.9305      64.5440       1.0226
    2217.0    1251.2803       0.0000      50.8611      30.9980       4.2012       2.1623      -3.6004      70.6460       1.0332
    2218.0    1304.6819       0.0000      50.8611      37.7129       3.9369       2.4071      -3.1135      76.7618       1.0226
    2219.0    1352.4096       0.0000      50.8611      41.8936       3.8515       2.5707      -2.8659      82.8764       1.0226
    2220.0    1398.0201       0.0000      50.8611      48.6984       3.8470       2.8891      -2.5380      88.9781       1.0226
    2221.0    1446.8714       0.0000      50.8611      55.9552       3.7291       3.0891      -2.0867      95.0673       1.0224
    2222.0    1496.3122       0.0000      50.8611      62.0136       3.4094       3.0103      -1.5991     101.1572       1.0332
    2223.0    1542.1966       0.0000      50.8611      71.3726       3.3441       3.1687      -1.0676     107.2851       1.0226
    2224.0    1587.5293       0.0000      50.8611      78.2568       3.4432       3.3711      -0.7004     113.3869       1.0226
    2225.0    1639.0578       0.0000      50.8611      84.8995       3.2635       3.2506      -0.2900     119.8966       1.0226
    2226.0    1678.1778       0.0000      50.8611      93.5525       3.2158       3.2096       0.1992     125.9863       1.0332
    2227.0    1723.4250       0.0000      50.8611     101.7236       3.1953       3.1286       0.6489     132.1010       1.0226
    2228.0    1749.2311       0.0000      50.8611     110.7378       3.2199       3.0111       1.1396     138.2032       1.0228
    2229.0    1780.2331       0.0000      50.8611     118.5206       3.2428       2.8489       1.5477     144.3180       1.0226
    2230.0    1802.7982       0.0000      50.8611     124.9840       3.1337       2.5670       1.7961     150.4329       1.0332
    2231.0    1831.0547       0.0000      50.8611     131.5233       3.2655       2.4442       2.1641     156.5359       1.0305
    2232.0    1835.9257       0.0000      50.8611     140.8616       3.3668       2.1244       2.6108     162.6507       1.0226
    2233.0    1845.6550       0.0000      50.8611     148.6979       3.3946       1.7629       2.9001     168.7526       1.0226
    2234.0    1845.4724       0.0000      50.8611     154.8085       3.3868       1.4408       3.0644     174.8552       1.0226
    2235.0    1845.5635       0.0000      50.8611     166.5100       3.4427       0.8027       3.3475     180.9574       1.0228
    2236.0    1835.7459       0.0000      50.8611     169.8552       3.6086       0.6352       3.5520     187.0476       1.0226
    2237.0    1826.2101       0.0000      50.8611     177.5381       3.6402       0.1562       3.6368     193.1702       1.0332
    2238.0    1798.3601       0.0000      50.8611    -175.2029       3.8897      -0.3250       3.8760     199.6725       1.0224
    2239.0    1784.4966       0.0000      50.8611    -168.9152       3.7863      -0.7274       3.7155     205.7760       1.0332
    2240.0    1748.9858       0.0000      50.8611    -163.8832       3.7858      -1.0503       3.6368     211.8779       1.0226
    2241.0    1723.2666       0.0000      50.8611    -156.7217       4.0892      -1.6149       3.7556     217.9676       1.0226
    2242.0    1681.8184       0.0000      50.8611    -150.8011       4.2096      -2.0522       3.6739     224.0695       1.0226
    2243.0    1641.5892       0.0000      50.8611    -141.9890       4.1483      -2.5531       3.2673     230.1721       1.0226
    2244.0    1597.7414       0.0000      50.8611    -139.2527       4.2574      -2.7775       3.2241     236.2740       1.0226
    2245.0    1535.2074       0.0000      50.8611    -132.5202       4.4739      -3.2959       3.0220     242.3759       1.0226
    2246.0    1495.8327       0.0000      50.8611    -124.4874       4.6853      -3.8604       2.6509     248.4778       1.0226
    2247.0    1461.6285       0.0000      50.8611    -122.1776       4.5194      -3.8240       2.4048     254.5800       1.0332
    2248.0    1411.6344       0.0000      50.8611    -115.3390       4.6715      -4.2212       1.9975     260.6947       1.0226
    2249.0    1365.2416       0.0000      50.8611    -111.6914       4.8456      -4.5016       1.7892     266.7918       1.0226
    2250.0    1316.5299       0.0000      50.8611    -106.3845       4.9044      -4.7047       1.3818     273.2940       1.0226
    2251.0    1261.8031       0.0000      50.8611     -97.8329       5.0682      -5.0208       0.6898     279.4089       1.0226
    2252.0    1161.7662       0.0000      50.8611     -94.2586       4.8804      -4.8669       0.3619     285.5107       1.0226
    2253.0    1060.4904       0.0000      50.8611     -90.8318       5.0660      -5.0654       0.0734     291.6126       1.0226
    2254.0    1009.9952       0.0000      50.8611     -84.4278       5.1299      -5.1056      -0.4975     297.7276       1.0226
    2255.0     961.6419       0.0000      50.8611     -79.8795       5.1855      -5.1045      -0.9100     303.8048       1.0226
    2256.0     928.7622       0.0000      50.8611     -73.0289       5.2103      -4.9829      -1.5189     309.9073       1.0226
    2257.0     906.0018       0.0000      50.8611     -68.9428       5.2559      -4.9040      -1.8861     316.0091       1.0226
    2258.0     887.6177       0.0000      50.8611     -64.7231       5.2906      -4.7828      -2.2564     322.1109       1.0226
    2259.0     871.1819       0.0000      50.8611     -59.9320       5.2482      -4.5403      -2.6267     328.2011       1.0226
    2260.0     858.5165       0.0000      50.8611     -54.2271       5.3988      -4.3781      -3.1529     334.3029       1.0226
    2261.0     842.1419       0.0000      50.8611     -48.8647       5.2355      -3.9408      -3.4414     340.4047       1.0226
    2262.0     841.0210       0.0000      50.8611     -45.4043       5.2547      -3.7392      -3.6867     346.9153       1.0226
    2263.0     839.0325       0.0000      50.8611     -39.7962       5.2804      -3.3769      -4.0547     353.0301       1.0226
    2264.0     836.0956       0.0000      50.8611     -38.2013       5.3731      -3.3202      -4.2183     352.3696       1.0226
    2265.0     834.1868       0.0000      50.8611     -31.3495       5.1807      -2.6926      -4.4227       5.1968       1.0226
    2266.0     845.0831       0.0000      50.8611     -22.7154       5.0156      -1.9347      -4.6256      11.2986       1.0226
