~VERSION INFORMATION
VERS.           2.0   :CWLS Log ASCII Standard - VERSION 2.0
WRAP.           NO    :One Line per depth step
PROD.  Schlumberger   :LAS Producer
PROG.  DLIS to ASCII 19C2-270                          :LAS Program name and version
CREA.        2017/09/16 17:42                          :LAS Creation date {YYYY/MM/DD hh:mm}
DLIS_CREA.  2017-Sep-15 16:38                          :DLIS Creation date and time {YYYY-MMM-DD hh:mm}
SOURCE.     LPC_S3-1_2A5.DLIS                          :DLIS File Name
FILE-ID.     PERFO_Perfo_WPGRT_042LTP                  :File Identification Number
#--------------------------------------------------
~WELL INFORMATION
#MNEM.UNIT      DATA             DESCRIPTION
#---- ------ --------------   -----------------------------
STRT .S         4115.0       :START TIME      
STOP .S         4682.0       :STOP TIME      
STEP .S            1.0       :STEP     
NULL .          -999.25      :NULL VALUE
COMP .        SHELL INTERNATIONAL E P                  :COMPANY
WELL .        WPP TEST 2                               :WELL
FLD  .        WILDCAT                                  :FIELD
LOC  .                                                 :LOCATION
CNTY .        HARRIS                                   :COUNTY
STAT .        TEXAS                                    :STATE
CTRY .                                                 :COUNTRY
API  .                                                 :API NUMBER
UWI  .                                                 :UNIQUE WELL ID
DATE .                                                 :LOG DATE
SRVC .        Schlumberger                             :SERVICE COMPANY
LATI .DEG                                              :LATITUDE
LONG .DEG                                              :LONGITUDE
GDAT .                                                 :GeoDetic Datum
#-----------------------------------------------------------------------------
~PARAMETER INFORMATION
#MNEM.UNIT    VALUE                      DESCRIPTION
#---- -----   --------------------       ------------------------
U-PHASE_B_COMP_PER_YT.                 0 :Phase B Comparator Period Yt
U-PHASE_A_COMP_PER_XT.                 0 :Phase A Comparator Period Xt
U-MAX_EXC_CUR_LIMIT.MA       240.00000   :Requested CM Current Limit
U-REQ_EXC_FQ.HZ              50          :Requested CM Frequency
U-TILT_Y_OFFSET.           0.19916       :WPTET Tilt Y Offset
U-TILT_Y_GAIN.           1.01796         :WPTET Tilt Y Gain
U-TILT_X_OFFSET.          -1.77103       :WPTET Tilt X Offset
U-TILT_X_GAIN.           1.00000         :WPTET Tilt X Gain
U-TILT_OFFSET_TOL.           0.00100     :WPTET Tilt Offset Calibration Tolerance
U-NO_TILT_CAL_ROTATIONS.                 3 :Number of Rotations for Tilt Calibration
HAZI .DEG        0.00000                 :Hole Azimuth
U-STD_TOL_TILT.           0.01000        :Tilt Standard Deviation Tolerance
U-GUN_POS_TOL.DEG        5.00000         :Gun Position Tolerance
ROT_ANGLE_THRESHOLD.DEG        5.00000   :Rotation Stop Angle Tolerance
STOP_ROT_ANGLE.DEG        0.00000        :Rotation Stop Angle
WITN .                                   :Witness's Name
ENGI .                                   :Engineer's Name
COUN .        HARRIS                     :County or Rig Name
FN   .        WILDCAT                    :Field Name
WN   .        WPP TEST 2                 :Well Name
CN   .        SHELL INTERNATIONAL E P    :Company Name
CLAB .        County                     :County/Rig Label
SLAB .        State                      :State/Province Label
RUN  .          1                        :RUN NUMBER
PDAT .        GROUND LEVEL               :Permanent Datum
EPD  .                                   :Elevation of Permanent Datum above Mean Sea Level
LMF  .                                   :Logging Measured From (Name of Logging Elevation Reference)
APD  .                                   :Elevation of Depth Reference (LMF) above Permanent Datum
#-----------------------------------------------------------------------------
~CURVE INFORMATION
#MNEM.UNIT   API CODE                                  DESCRIPTION
#---- -----  --------                                  -----------------------
TIME .S                                                :TIME {F10.1}
FREQ_EMF_SL.HZ                                         :Electromagnetic Field Frequency {F13.4}
PH_SH_WPPCM_SL.DEG                                     :WPPCM Phase Shift {F13.4}
FREQ_EXC_REQ_SL.HZ                                     :Requested Exciter Frequency {F13.4}
RB_SL.DEG                                              :Relative Bearing {F13.4}
SDEV_SL.DEG                                            :Sonde Deviation {F13.4}
TILX_SL.DEG                                            :X-axis Tilt {F13.4}
TILY_SL.DEG                                            :Y-axis Tilt {F13.4}
ROTA_SL.DEG                                            :Motor Rotation Angle {F13.4}
MSPE_SL.RPM                                            :Motor Speed {F13.4}
#-----------------------------------------------------------------------------
# 
#     TIME    FREQ_EMF_SL  PH_SH_WPPCM_ FREQ_EXC_REQ    RB_SL       SDEV_SL      TILX_SL      TILY_SL      ROTA_SL      MSPE_SL
#                          SL           _SL
~A  
# ...
    4304.0    1435.0370       0.0000      50.8611     150.6925       4.6292       2.2653       4.0340     113.9232       0.0005
    4305.0    1434.6870       0.0000      50.8611     155.3585       4.2723       1.7805       3.8815     113.9232       0.0005
    4306.0    1431.9392       0.0000      50.8611     156.2902       4.3277       1.7391       3.9609     113.9232       0.0005
    4307.0    1429.2908       0.0000      50.8611     153.1607       4.6220       2.0850       4.1232     113.9232       0.0005
    4308.0    1432.0265       0.0000      50.8611     152.4933       4.4702       2.0633       3.9621     113.9232       0.0005
    4309.0    1434.8613       0.0000      50.8611     152.4923       4.5046       2.0789       3.9944     113.9232       0.0005
    4310.0    1431.7656       0.0000      50.8611     154.9985       4.4560       1.8817       4.0377     113.9232       0.0005
    4311.0    1423.7666       0.0000      50.8611     152.2935       4.4777       2.0802       3.9633     113.9232       0.0005
    4312.0    1432.0265       0.0000      50.8611     156.4656       4.4115       1.7600       4.0439     113.9232       0.0005
    4313.0    1429.2470       0.0000      50.8611     152.9131       4.2282       1.9237       3.7638     113.9232       0.0005
    4314.0    1429.3789       0.0000      50.8611     153.5607       4.3358       1.9291       3.8815     113.9232       0.0005
    4315.0    1434.8613       0.0000      50.8611     154.0673       4.4011       1.9231       3.9572     113.9232       0.0005
    4316.0    1429.2908       0.0000      50.8611     156.4780       4.6220       1.8428       4.2373     113.9232       0.0005
    4317.0    1429.2908       0.0000      50.8611     154.8425       4.3477       1.8464       3.9347     113.9232       0.0005
    4318.0    1432.1142       0.0000      50.8611     154.6461       4.5074       1.9279       4.0725     113.9232       0.0005
    4319.0    1429.2908       0.0000      50.8611     154.8529       4.7256       2.0058       4.2769     113.9232       0.0005
    4320.0    1434.8613       0.0000      50.8611     156.5792       4.3607       1.7319       4.0005     113.9232       0.0005
    4321.0    1429.2032       0.0000      50.8611     154.8021       4.5152       1.9207       4.0847     113.9232       0.0005
    4322.0    1432.0265       0.0000      50.8611     154.3395       4.4418       1.9219       4.0030     113.9232       0.0005
    4323.0    1431.9392       0.0000      50.8611     152.6664       4.4569       2.0448       3.9584     113.9232       0.0005
    4324.0    1434.9490       0.0000      50.8611     155.2394       4.4063       1.8440       4.0005     113.9232       0.0005
    4325.0    1426.4351       0.0000      50.8611     155.6817       4.4772       1.8422       4.0792     113.9232       0.0005
    4326.0    1429.2032       0.0000      50.8611     154.5664       4.3908       1.8841       3.9645     113.9232       0.0005
    4327.0    1434.8613       0.0000      50.8611     151.1064       4.3920       2.1203       3.8443     113.9232       0.0005
    4328.0    1431.9392       0.0000      50.8611     154.0788       4.2242       1.8452       3.7985     113.9232       0.0005
    4329.0    1426.3913       0.0000      50.8611     154.8152       4.3338       1.8428       3.9212     113.9232       0.0005
    4330.0    1434.8613       0.0000      50.8611     156.0226       4.7278       1.9195       4.3190     113.9232       0.0005
    4331.0    1437.7954       0.0000      50.8611     154.2459       4.4330       1.9243       3.9919     113.9232       0.0005
    4332.0    1431.9392       0.0000      50.8611     156.0163       4.4554       1.8086       4.0700     113.9232       0.0005
    4333.0    1426.4790       0.0000      50.8611     155.5142       4.2699       1.7685       3.8852     113.9232       0.0005
    4334.0    1432.2022       0.0000      50.8611     155.0317       4.4616       1.8817       4.0439     113.9232       0.0005
    4335.0    1434.7740       0.0000      50.8611     154.7538       4.5156       1.9243       4.0835     113.9232       0.0005
    4336.0    1428.8560       0.0000      50.8611     153.8985       4.1210       1.8110       3.7004     113.9232       0.0005
    4337.0    1433.4424       0.0000      50.8611     152.7507       4.1660       1.9060       3.7031     113.9232       0.0005
    4338.0    1434.8613       0.0000      50.8611     157.2605       4.4660       1.7247       4.1183     113.9232       0.0005
    4339.0    1429.2032       0.0000      50.8611     155.1962       4.4980       1.8853       4.0823     113.9232       0.0005
    4340.0    1432.0265       0.0000      50.8611     153.1570       4.2595       1.9219       3.7998     113.9232       0.0005
    4341.0    1434.7740       0.0000      50.8611     159.8771       4.1333       1.4214       3.8791     113.9232       0.0005
    4342.0    1429.1158       0.0000      50.8611     153.0871       4.4429       2.0095       3.9609     113.9232       0.0005
    4343.0    1434.7740       0.0000      50.8611     159.2353       4.1981       1.4873       3.9249     113.9232       0.0005
    4344.0    1434.9490       0.0000      50.8611     151.5550       4.2817       2.0376       3.7638     113.9232       0.0005
    4345.0    1432.1142       0.0000      50.8611     153.7022       4.0676       1.8002       3.6460     113.9232       0.0005
    4346.0    1429.2032       0.0000      50.8611     152.1278       4.5257       2.1143       3.9993     113.9232       0.0005
    4347.0    1429.1158       0.0000      50.8611     154.7410       4.5079       1.9219       4.0762     113.9232       0.0005
    4348.0    1429.2908       0.0000      50.8611     152.2873       4.4711       2.0777       3.9572     113.9232       0.0005
    4349.0    1435.6595       0.0000      50.8611     152.3786       4.1719       1.9328       3.6957     113.9232       0.0005
    4350.0    1434.5141       0.0000      50.8611     157.2834       4.4639       1.7223       4.1170     113.9232       0.0005
    4351.0    1426.4790       0.0000      50.8611     157.4264       4.3827       1.6809       4.0463     113.9232       0.0005
    4352.0    1432.0265       0.0000      50.8611     153.8610       4.4544       1.9609       3.9981     113.9232       0.0005
    4353.0    1434.6870       0.0000      50.8611     155.2552       4.3157       1.8050       3.9187     113.9232       0.0005
    4354.0    1434.7740       0.0000      50.8611     155.4248       4.2693       1.7745       3.8815     113.9232       0.0005
    4355.0    1429.2908       0.0000      50.8611     155.0240       4.4632       1.8829       4.0451     113.9232       0.0005
    4356.0    1429.2908       0.0000      50.8611     154.5525       4.3913       1.8853       3.9645     113.9232       0.0005
    4357.0    1432.0265       0.0000      50.8611     154.7306       4.1591       1.7745       3.7601     113.9232       0.0005
    4358.0    1431.7656       0.0000      50.8611     164.4908       3.9889       1.0672       3.8406     113.9232       0.0005
    4359.0    1426.3040       0.0000      50.8611     148.9072       4.7171       2.4344       4.0377     113.9232       0.0005
    4360.0    1426.3913       0.0000      50.8611     153.1028       4.4067       1.9914       3.9285     113.9232       0.0005
    4361.0    1426.3913       0.0000      50.8611     155.1468       4.2329       1.7781       3.8394     113.9232       0.0005
    4362.0    1426.3040       0.0000      50.8611     157.6624       4.1496       1.5761       3.8370     113.9232       0.0005
    4363.0    1431.8522       0.0000      50.8611     155.1931       4.3249       1.8134       3.9249     113.9232       0.0005
    4364.0    1431.8522       0.0000      50.8611     154.9342       4.4597       1.8878       4.0389     113.9232       0.0005
    4365.0    1429.2032       0.0000      50.8611     154.5178       4.5616       1.9609       4.1170     113.9232       0.0005
    4366.0    1426.3913       0.0000      50.8611     154.7870       4.3321       1.8440       3.9187     113.9232       0.0005
