~VERSION INFORMATION
VERS.           2.0   :CWLS Log ASCII Standard - VERSION 2.0
WRAP.           NO    :One Line per depth step
PROD.  Schlumberger   :LAS Producer
PROG.  DLIS to ASCII 19C2-270                          :LAS Program name and version
CREA.        2017/09/16 17:42                          :LAS Creation date {YYYY/MM/DD hh:mm}
DLIS_CREA.  2017-Sep-15 17:32                          :DLIS Creation date and time {YYYY-MMM-DD hh:mm}
SOURCE.     LPC_S4-1_A5.DLIS                           :DLIS File Name
FILE-ID.     PERFO_Perfo_WPGRT_048LTP                  :File Identification Number
#--------------------------------------------------
~WELL INFORMATION
#MNEM.UNIT      DATA             DESCRIPTION
#---- ------ --------------   -----------------------------
STRT .S         1889.0       :START TIME      
STOP .S         2373.0       :STOP TIME      
STEP .S            1.0       :STEP     
NULL .          -999.25      :NULL VALUE
COMP .        SHELL INTERNATIONAL E P                  :COMPANY
WELL .        WPP TEST 2                               :WELL
FLD  .        WILDCAT                                  :FIELD
LOC  .        NA                                       :LOCATION
CNTY .        HARRIS                                   :COUNTY
STAT .        TEXAS                                    :STATE
CTRY .                                                 :COUNTRY
API  .        NA                                       :API NUMBER
UWI  .                                                 :UNIQUE WELL ID
DATE .        15-Sep-2017                              :LOG DATE {DD-MMM-YYYY}
SRVC .        Schlumberger                             :SERVICE COMPANY
LATI .DEG                                              :LATITUDE
LONG .DEG                                              :LONGITUDE
GDAT .                                                 :GeoDetic Datum
SECT .        NA                                       :Section
RANG .        NA                                       :Range
TOWN .        NA                                       :Township
#-----------------------------------------------------------------------------
~PARAMETER INFORMATION
#MNEM.UNIT    VALUE                      DESCRIPTION
#---- -----   --------------------       ------------------------
U-PHASE_B_COMP_PER_YT.                 0 :Phase B Comparator Period Yt
U-PHASE_A_COMP_PER_XT.                 0 :Phase A Comparator Period Xt
U-MAX_EXC_CUR_LIMIT.MA       240.00000   :Requested CM Current Limit
U-REQ_EXC_FQ.HZ              50          :Requested CM Frequency
U-TILT_Y_OFFSET.           0.19916       :WPTET Tilt Y Offset
U-TILT_Y_GAIN.           1.01796         :WPTET Tilt Y Gain
U-TILT_X_OFFSET.          -1.77103       :WPTET Tilt X Offset
U-TILT_X_GAIN.           1.00000         :WPTET Tilt X Gain
U-TILT_OFFSET_TOL.           0.00100     :WPTET Tilt Offset Calibration Tolerance
U-NO_TILT_CAL_ROTATIONS.                 3 :Number of Rotations for Tilt Calibration
HAZI .DEG        0.00000                 :Hole Azimuth
U-STD_TOL_TILT.           0.01000        :Tilt Standard Deviation Tolerance
U-GUN_POS_TOL.DEG        5.00000         :Gun Position Tolerance
ROT_ANGLE_THRESHOLD.DEG        5.00000   :Rotation Stop Angle Tolerance
STOP_ROT_ANGLE.DEG        0.00000        :Rotation Stop Angle
WITN .        MR. DHRUA ARORA            :Witness's Name
ENGI .        MORRIS MOORE               :Engineer's Name
COUN .        HARRIS                     :County or Rig Name
FN   .        WILDCAT                    :Field Name
WN   .        WPP TEST 2                 :Well Name
CN   .        SHELL INTERNATIONAL E P    :Company Name
CLAB .        County                     :County/Rig Label
SLAB .        State                      :State/Province Label
RUN  .          1                        :RUN NUMBER
PDAT .        GROUND LEVEL               :Permanent Datum
EPD  .                                   :Elevation of Permanent Datum above Mean Sea Level
LMF  .          NA                       :Logging Measured From (Name of Logging Elevation Reference)
APD  .                                   :Elevation of Depth Reference (LMF) above Permanent Datum
#-----------------------------------------------------------------------------
~CURVE INFORMATION
#MNEM.UNIT   API CODE                                  DESCRIPTION
#---- -----  --------                                  -----------------------
TIME .S                                                :TIME {F10.1}
FREQ_EMF_SL.HZ                                         :Electromagnetic Field Frequency {F13.4}
PH_SH_WPPCM_SL.DEG                                     :WPPCM Phase Shift {F13.4}
FREQ_EXC_REQ_SL.HZ                                     :Requested Exciter Frequency {F13.4}
RB_SL.DEG                                              :Relative Bearing {F13.4}
SDEV_SL.DEG                                            :Sonde Deviation {F13.4}
TILX_SL.DEG                                            :X-axis Tilt {F13.4}
TILY_SL.DEG                                            :Y-axis Tilt {F13.4}
ROTA_SL.DEG                                            :Motor Rotation Angle {F13.4}
MSPE_SL.RPM                                            :Motor Speed {F13.4}
#-----------------------------------------------------------------------------
# 
#     TIME    FREQ_EMF_SL  PH_SH_WPPCM_ FREQ_EXC_REQ    RB_SL       SDEV_SL      TILX_SL      TILY_SL      ROTA_SL      MSPE_SL
#                          SL           _SL
~A  
# ...
    2078.0    1845.4724       0.0000      50.8611     138.8363       3.5715       2.3511       2.6864     155.3476       0.0005
    2079.0    1845.4724       0.0000      50.8611     140.5869       3.3270       2.1123       2.5684     155.3476       0.0005
    2080.0    1845.4724       0.0000      50.8611     141.7811       3.1716       1.9615       2.4912     155.3476       0.0005
    2081.0    1854.9379       0.0000      50.8611     143.8836       3.3328       1.9637       2.6918     155.3476       0.0005
    2082.0    1840.8230       0.0000      50.8611     141.5150       3.2857       2.0441       2.5714     155.3476       0.0005
    2083.0    1845.4724       0.0000      50.8611     142.9330       3.3258       2.0039       2.6532     155.3476       0.0005
    2084.0    1854.9379       0.0000      50.8611     146.2970       3.1901       1.7697       2.6532     155.3476       0.0005
    2085.0    1855.0285       0.0000      50.8611     147.1172       3.2565       1.7674       2.7342     155.3476       0.0005
    2086.0    1845.5635       0.0000      50.8611     146.4119       3.1441       1.7400       2.6169     155.3476       0.0005
    2087.0    1854.9379       0.0000      50.8611     140.1960       3.4589       2.2138       2.6563     155.3476       0.0005
    2088.0    1845.4724       0.0000      50.8611     144.3766       3.3163       1.9311       2.6949     155.3476       0.0005
    2089.0    1845.4724       0.0000      50.8611     145.9325       3.1522       1.7651       2.6108     155.3476       0.0005
    2090.0    1840.7319       0.0000      50.8611     142.9252       3.3252       2.0039       2.6524     155.3476       0.0005
    2091.0    1845.4724       0.0000      50.8611     142.7430       3.1809       1.9251       2.5313     155.3476       0.0005
    2092.0    1855.1195       0.0000      50.8611     143.1947       3.2131       1.9243       2.5722     155.3476       0.0005
    2093.0    1845.4724       0.0000      50.8611     140.9997       3.3106       2.0827       2.5722     155.3476       0.0005
    2094.0    1850.3290       0.0000      50.8611     141.9358       3.3177       2.0448       2.6115     155.3476       0.0005
    2095.0    1855.0285       0.0000      50.8611     140.8821       3.3659       2.1229       2.6108     155.3476       0.0005
    2096.0    1845.5635       0.0000      50.8611     142.4778       3.2925       2.0046       2.6108     155.3476       0.0005
    2097.0    1836.1073       0.0000      50.8611     142.9147       3.3256       2.0046       2.6524     155.3476       0.0005
    2098.0    1849.0442       0.0000      50.8611     142.5480       3.3788       2.0539       2.6818     155.3476       0.0005
    2099.0    1855.0285       0.0000      50.8611     142.8862       3.3259       2.0061       2.6517     155.3476       0.0005
    2100.0    1845.4724       0.0000      50.8611     142.4860       3.2931       2.0046       2.6115     155.3476       0.0005
    2101.0    1850.4205       0.0000      50.8611     141.4223       3.3423       2.0835       2.6123     155.3476       0.0005
    2102.0    1845.4724       0.0000      50.8611     142.4940       3.2937       2.0046       2.6123     155.3476       0.0005
    2103.0    1855.1195       0.0000      50.8611     141.9646       3.3174       2.0433       2.6123     155.3476       0.0005
    2104.0    1850.4205       0.0000      50.8611     141.5026       3.2873       2.0456       2.5722     155.3476       0.0005
    2105.0    1850.2379       0.0000      50.8611     143.4628       3.3009       1.9645       2.6517     155.3476       0.0005
    2106.0    1845.2917       0.0000      50.8611     142.6206       3.2395       1.9660       2.5737     155.3476       0.0005
    2107.0    1859.9355       0.0000      50.8611     142.4994       3.2954       2.0054       2.6138     155.3476       0.0005
    2108.0    1850.3290       0.0000      50.8611     142.4940       3.2937       2.0046       2.6123     155.3476       0.0005
    2109.0    1850.2379       0.0000      50.8611     142.5989       3.2366       1.9652       2.5707     155.3476       0.0005
    2110.0    1849.2268       0.0000      50.8611     144.1922       3.3084       1.9349       2.6825     155.3476       0.0005
    2111.0    1845.5635       0.0000      50.8611     141.8575       3.3734       2.0827       2.6524     155.3476       0.0005
    2112.0    1840.7319       0.0000      50.8611     141.2228       3.4537       2.1623       2.6918     155.3476       0.0005
    2113.0    1845.4724       0.0000      50.8611     141.9752       3.3170       2.0425       2.6123     155.6559       0.4817
    2114.0    1850.3290       0.0000      50.8611     150.7567       3.3666       1.6439       2.9371     159.2060       0.7738
    2115.0    1850.4205       0.0000      50.8611     155.0559       3.4234       1.4431       3.1037     164.4125       0.9823
    2116.0    1850.3290       0.0000      50.8611     160.0600       3.5154       1.1983       3.3043     170.4737       1.0228
    2117.0    1845.3818       0.0000      50.8611     166.7633       3.4811       0.7966       3.3884     176.9857       1.0226
    2118.0    1830.8768       0.0000      50.8611     175.6902       3.6457       0.2737       3.6353     183.0876       1.0226
    2119.0    1807.5192       0.0000      50.8611    -176.3204       3.8036      -0.2439       3.7958     189.1928       1.0228
    2120.0    1789.0371       0.0000      50.8611    -170.3112       3.8523      -0.6479       3.7973     195.3075       1.0226
    2121.0    1766.4800       0.0000      50.8611    -164.3801       3.9007      -1.0495       3.7564     201.4133       1.0332
    2122.0    1723.3456       0.0000      50.8611    -157.6795       3.9304      -1.4917       3.6355     207.5094       1.0227
    2123.0    1686.0755       0.0000      50.8611    -150.9107       4.0647      -1.9749       3.5512     213.6402       1.0226
    2124.0    1650.3118       0.0000      50.8611    -146.7788       4.1965      -2.2977       3.5096     219.7298       1.0226
    2125.0    1597.9434       0.0000      50.8611    -140.4363       4.2368      -2.6971       3.2650     225.8318       1.0226
    2126.0    1552.0244       0.0000      50.8611    -134.6080       4.3034      -3.0624       3.0204     231.9338       1.0228
    2127.0    1508.7310       0.0000      50.8611    -127.7186       4.4758      -3.5391       2.7365     238.0362       1.0226
    2128.0    1464.5606       0.0000      50.8611    -123.4716       4.5850      -3.8233       2.5267     244.1460       1.0332
    2129.0    1417.3782       0.0000      50.8611    -117.3585       4.6190      -4.1014       2.1209     250.6458       1.0226
    2130.0    1367.9475       0.0000      50.8611    -111.3792       4.7072      -4.3826       1.7143     256.7477       1.0226
    2131.0    1319.1375       0.0000      50.8611    -106.8489       4.9139      -4.7024       1.4227     262.8526       1.0226
    2132.0    1277.8557       0.0000      50.8611    -101.6186       4.8444      -4.7449       0.9745     268.9420       1.0226
    2133.0    1181.5016       0.0000      50.8611     -95.6056       4.9673      -4.9434       0.4846     275.0446       1.0332
    2134.0    1076.5243       0.0000      50.8611     -89.9440       5.0262      -5.0262      -0.0049     281.1471       1.0226
    2135.0    1012.8520       0.0000      50.8611     -85.7941       5.1591      -5.1450      -0.3779     287.2498       1.0226
    2136.0     966.9622       0.0000      50.8611     -79.0631       5.1988      -5.1041      -0.9851     293.3546       1.0226
    2137.0     931.2914       0.0000      50.8611     -75.2202       5.1561      -4.9851      -1.3137     299.4665       1.0226
    2138.0     910.7615       0.0000      50.8611     -69.5130       4.9439      -4.6304      -1.7287     305.5560       1.0226
    2139.0     890.9919       0.0000      50.8611     -66.5139       5.2615      -4.8244      -2.0944     311.6578       1.0226
    2140.0     878.7431       0.0000      50.8611     -61.1552       5.2777      -4.6214      -2.5434     317.7595       1.0226
