~VERSION INFORMATION
VERS.           2.0   :CWLS Log ASCII Standard - VERSION 2.0
WRAP.           NO    :One Line per depth step
PROD.  Schlumberger   :LAS Producer
PROG.  DLIS to ASCII 19C2-270                          :LAS Program name and version
CREA.        2017/09/16 17:42                          :LAS Creation date {YYYY/MM/DD hh:mm}
DLIS_CREA.  2017-Sep-15 19:35                          :DLIS Creation date and time {YYYY-MMM-DD hh:mm}
SOURCE.     LPC_S5-1_2AV.DLIS                          :DLIS File Name
FILE-ID.     PERFO_Perfo_WPGRT_062LTP                  :File Identification Number
#--------------------------------------------------
~WELL INFORMATION
#MNEM.UNIT      DATA             DESCRIPTION
#---- ------ --------------   -----------------------------
STRT .S          757.0       :START TIME      
STOP .S         1169.0       :STOP TIME      
STEP .S            1.0       :STEP     
NULL .          -999.25      :NULL VALUE
COMP .        SHELL INTERNATIONAL E P                  :COMPANY
WELL .        WPP TEST 2                               :WELL
FLD  .        WILDCAT                                  :FIELD
LOC  .        NA                                       :LOCATION
CNTY .        HARRIS                                   :COUNTY
STAT .        TEXAS                                    :STATE
CTRY .                                                 :COUNTRY
API  .        NA                                       :API NUMBER
UWI  .                                                 :UNIQUE WELL ID
DATE .        15-Sep-2017                              :LOG DATE {DD-MMM-YYYY}
SRVC .        Schlumberger                             :SERVICE COMPANY
LATI .DEG                                              :LATITUDE
LONG .DEG                                              :LONGITUDE
GDAT .                                                 :GeoDetic Datum
SECT .        NA                                       :Section
RANG .        NA                                       :Range
TOWN .        NA                                       :Township
#-----------------------------------------------------------------------------
~PARAMETER INFORMATION
#MNEM.UNIT    VALUE                      DESCRIPTION
#---- -----   --------------------       ------------------------
U-PHASE_B_COMP_PER_YT.                 0 :Phase B Comparator Period Yt
U-PHASE_A_COMP_PER_XT.                 0 :Phase A Comparator Period Xt
U-MAX_EXC_CUR_LIMIT.MA       240.00000   :Requested CM Current Limit
U-REQ_EXC_FQ.HZ              50          :Requested CM Frequency
U-TILT_Y_OFFSET.           0.19916       :WPTET Tilt Y Offset
U-TILT_Y_GAIN.           1.01796         :WPTET Tilt Y Gain
U-TILT_X_OFFSET.          -1.77103       :WPTET Tilt X Offset
U-TILT_X_GAIN.           1.00000         :WPTET Tilt X Gain
U-TILT_OFFSET_TOL.           0.00100     :WPTET Tilt Offset Calibration Tolerance
U-NO_TILT_CAL_ROTATIONS.                 3 :Number of Rotations for Tilt Calibration
HAZI .DEG        0.00000                 :Hole Azimuth
U-STD_TOL_TILT.           0.01000        :Tilt Standard Deviation Tolerance
U-GUN_POS_TOL.DEG        5.00000         :Gun Position Tolerance
ROT_ANGLE_THRESHOLD.DEG        5.00000   :Rotation Stop Angle Tolerance
STOP_ROT_ANGLE.DEG        0.00000        :Rotation Stop Angle
WITN .        MR. DHRUA ARORA            :Witness's Name
ENGI .        MORRIS MOORE               :Engineer's Name
COUN .        HARRIS                     :County or Rig Name
FN   .        WILDCAT                    :Field Name
WN   .        WPP TEST 2                 :Well Name
CN   .        SHELL INTERNATIONAL E P    :Company Name
CLAB .        County                     :County/Rig Label
SLAB .        State                      :State/Province Label
RUN  .          1                        :RUN NUMBER
PDAT .        GROUND LEVEL               :Permanent Datum
EPD  .                                   :Elevation of Permanent Datum above Mean Sea Level
LMF  .          NA                       :Logging Measured From (Name of Logging Elevation Reference)
APD  .                                   :Elevation of Depth Reference (LMF) above Permanent Datum
#-----------------------------------------------------------------------------
~CURVE INFORMATION
#MNEM.UNIT   API CODE                                  DESCRIPTION
#---- -----  --------                                  -----------------------
TIME .S                                                :TIME {F10.1}
FREQ_EMF_SL.HZ                                         :Electromagnetic Field Frequency {F13.4}
PH_SH_WPPCM_SL.DEG                                     :WPPCM Phase Shift {F13.4}
FREQ_EXC_REQ_SL.HZ                                     :Requested Exciter Frequency {F13.4}
RB_SL.DEG                                              :Relative Bearing {F13.4}
SDEV_SL.DEG                                            :Sonde Deviation {F13.4}
TILX_SL.DEG                                            :X-axis Tilt {F13.4}
TILY_SL.DEG                                            :Y-axis Tilt {F13.4}
ROTA_SL.DEG                                            :Motor Rotation Angle {F13.4}
MSPE_SL.RPM                                            :Motor Speed {F13.4}
#-----------------------------------------------------------------------------
# 
#     TIME    FREQ_EMF_SL  PH_SH_WPPCM_ FREQ_EXC_REQ    RB_SL       SDEV_SL      TILX_SL      TILY_SL      ROTA_SL      MSPE_SL
#                          SL           _SL
~A  
# ...
     946.0    1438.6123       0.0000      50.8611     -70.3786       1.1561      -1.0882      -0.3884     183.0966       0.0005
     947.0    1437.8834       0.0000      50.8611     -67.4805       1.1887      -1.0981      -0.4551     183.0966       0.0005
     948.0    1433.1132       0.0000      50.8611     -73.8211       1.2116      -1.1636      -0.3374     183.0966       0.0005
     949.0    1435.6749       0.0000      50.8611     -74.6822       1.1232      -1.0832      -0.2965     183.0966       0.0005
     950.0    1437.1605       0.0000      50.8611     -72.2346       1.0901      -1.0381      -0.3324     183.0966       0.0005
     951.0    1440.8298       0.0000      50.8611     -69.7650       1.0794      -1.0128      -0.3733     183.0966       0.0005
     952.0    1443.7886       0.0000      50.8611     -70.6249       1.0314      -0.9726      -0.3425     183.0966       0.0005
     953.0    1432.7495       0.0000      50.8611     -66.1845       1.1513      -1.0530      -0.4651     183.0966       0.0005
     954.0    1442.6974       0.0000      50.8611     -66.3376       1.0458      -0.9578      -0.4192     183.0966       0.0005
     955.0    1446.7593       0.0000      50.8611     -67.9232       1.0063      -0.9325      -0.3783     183.0966       0.0005
     956.0    1436.4068       0.0000      50.8611     -72.4025       1.0995      -1.0480      -0.3324     183.0966       0.0005
     957.0    1438.2471       0.0000      50.8611     -71.5902       1.0203      -0.9677      -0.3223     183.0966       0.0005
     958.0    1439.7432       0.0000      50.8611     -68.3634       1.0137      -0.9424      -0.3733     183.0966       0.0005
     959.0    1443.4234       0.0000      50.8611     -61.5918       1.0954      -0.9627      -0.5217     183.0966       0.0005
     960.0    1435.6749       0.0000      50.8611     -61.2125       1.1043      -0.9677      -0.5318     183.0966       0.0005
     961.0    1437.5212       0.0000      50.8611     -65.0898       1.1665      -1.0579      -0.4909     183.0966       0.0005
     962.0    1445.6637       0.0000      50.8611     -68.1578       1.1019      -1.0227      -0.4091     184.8273       0.5025
     963.0    1440.4661       0.0000      50.8611     -67.5572       1.0851      -1.0029      -0.4142     188.7781       0.8175
     964.0    1433.1132       0.0000      50.8611     -63.7409       1.0287      -0.9226      -0.4551     194.6834       1.0226
     965.0    1440.1039       0.0000      50.8611     -70.9320       1.2367      -1.1685      -0.4041     200.7861       1.0226
     966.0    1434.2289       0.0000      50.8611     -63.7409       1.2134      -1.0882      -0.5368     206.9012       1.0226
     967.0    1434.2289       0.0000      50.8611     -68.8906       1.2797      -1.1938      -0.4601     213.0162       1.0320
     968.0    1432.0265       0.0000      50.8611     -63.6733       1.4104      -1.2642      -0.6236     219.1208       1.0226
     969.0    1417.2387       0.0000      50.8611     -63.6342       1.2090      -1.0832      -0.5368     225.2200       1.0226
     970.0    1421.2216       0.0000      50.8611     -60.0881       1.3021      -1.1284      -0.6494     231.3246       1.0226
     971.0    1414.7384       0.0000      50.8611     -56.6031       1.3828      -1.1537      -0.7620     237.4265       1.0226
     972.0    1392.3268       0.0000      50.8611     -60.2668       1.2475      -1.0832      -0.6186     243.5257       1.0226
     973.0    1378.0117       0.0000      50.8611     -55.7885       1.2554      -1.0381      -0.7054     249.6310       1.0226
     974.0    1360.3351       0.0000      50.8611     -51.5057       1.2492      -0.9776      -0.7771     255.7322       1.0226
     975.0    1349.2490       0.0000      50.8611     -54.9639       1.2373      -1.0128      -0.7105     261.8340       1.0226
     976.0    1335.4943       0.0000      50.8611     -49.3549       1.3814      -1.0480      -0.8998     268.3411       1.0226
     977.0    1325.4242       0.0000      50.8611     -52.1784       1.2341      -0.9726      -0.7569     274.4560       1.0226
     978.0    1303.6077       0.0000      50.8611     -55.1506       1.1367      -0.9325      -0.6494     280.5585       1.0226
     979.0    1290.4303       0.0000      50.8611     -45.4467       1.2457      -0.8874      -0.8740     286.6479       1.0226
     980.0    1275.8035       0.0000      50.8611     -54.5119       1.1889      -0.9677      -0.6903     292.7524       1.0226
     981.0    1257.5493       0.0000      50.8611     -46.0517       1.1346      -0.8169      -0.7872     298.8658       1.0213
     982.0    1249.1642       0.0000      50.8611     -42.0658       1.1452      -0.7664      -0.8437     304.9568       1.0226
     983.0    1235.1863       0.0000      50.8611     -49.2183       1.0326      -0.7817      -0.6746     311.0613       1.0226
     984.0    1213.3498       0.0000      50.8611     -42.7665       1.2330      -0.8373      -0.9048     317.1577       1.0226
     985.0    1215.4472       0.0000      50.8611     -43.1569       1.1355      -0.7768      -0.8281     323.2599       1.0213
     986.0    1198.0802       0.0000      50.8611     -47.1881       1.2232      -0.8978      -0.8281     329.3525       1.0213
     987.0    1185.2163       0.0000      50.8611     -41.4748       1.0441      -0.6915      -0.7822     335.4550       1.0213
     988.0    1179.0105       0.0000      50.8611     -41.5816       0.8472      -0.5611      -0.6337     341.9502       1.0213
     989.0    1173.8313       0.0000      50.8611     -39.1161       1.0086      -0.6364      -0.7822     348.0393       1.0226
     990.0    1159.0710       0.0000      50.8611     -39.4489       1.1640      -0.7316      -0.9003     354.1288       1.0226
     991.0    1156.6907       0.0000      50.8611     -37.4566       1.0379      -0.6315      -0.8230       0.2318       1.0134
     992.0    1166.0448       0.0000      50.8611     -47.4524       1.1089      -0.8174      -0.7463       6.3202       1.0226
     993.0    1171.6343       0.0000      50.8611     -46.8609       0.9604      -0.7019      -0.6544      12.4220       1.0226
     994.0    1168.2216       0.0000      50.8611     -48.0472       0.7098      -0.5259      -0.4752      18.5238       1.0226
     995.0    1167.9817       0.0000      50.8611     -50.0702       0.9813      -0.7520      -0.6287      24.6388       1.0226
     996.0    1173.0906       0.0000      50.8611     -44.6518       0.7621      -0.5358      -0.5419      30.7437       1.0226
     997.0    1179.4959       0.0000      50.8611     -46.2577       0.7907      -0.5710      -0.5469      36.8327       1.0134
     998.0    1179.7399       0.0000      50.8611     -44.6389       0.6616      -0.4654      -0.4702      42.9345       1.0226
     999.0    1189.9697       0.0000      50.8611     -50.6602       0.7903      -0.6111      -0.5010      49.0367       1.0226
    1000.0    1198.8424       0.0000      50.8611     -46.9129       0.8307      -0.6062      -0.5676      55.5698       1.0213
    1001.0    1207.0749       0.0000      50.8611     -52.2283       0.8179      -0.6464      -0.5010      61.6578       1.0213
    1002.0    1222.3029       0.0000      50.8611     -51.2026       0.7263      -0.5660      -0.4551      67.7619       1.0226
    1003.0    1241.9998       0.0000      50.8611     -56.7627       0.8210      -0.6865      -0.4500      73.8515       1.0134
    1004.0    1249.4395       0.0000      50.8611     -54.7411       0.8414      -0.6865      -0.4858      79.9533       1.0226
    1005.0    1260.3599       0.0000      50.8611     -57.5406       0.7719      -0.6513      -0.4142      86.0577       1.0226
    1006.0    1282.2735       0.0000      50.8611     -76.4083       0.9627      -0.9358      -0.2226      92.1576       1.0156
    1007.0    1303.9037       0.0000      50.8611     -64.3202       0.7672      -0.6915      -0.3324      98.2594       1.0226
    1008.0    1321.3575       0.0000      50.8611     -66.7752       0.9714      -0.8923      -0.3834     104.3612       1.0239
