~VERSION INFORMATION
VERS.           2.0   :CWLS Log ASCII Standard - VERSION 2.0
WRAP.           NO    :One Line per depth step
PROD.  Schlumberger   :LAS Producer
PROG.  DLIS to ASCII 19C2-270                          :LAS Program name and version
CREA.        2017/09/16 17:42                          :LAS Creation date {YYYY/MM/DD hh:mm}
DLIS_CREA.  2017-Sep-15 15:10                          :DLIS Creation date and time {YYYY-MMM-DD hh:mm}
SOURCE.     LPC_S2-1_2A5.DLIS                          :DLIS File Name
FILE-ID.     PERFO_Perfo_WPGRT_033LTP                  :File Identification Number
#--------------------------------------------------
~WELL INFORMATION
#MNEM.UNIT      DATA             DESCRIPTION
#---- ------ --------------   -----------------------------
STRT .S        15770.0       :START TIME      
STOP .S        16224.0       :STOP TIME      
STEP .S            1.0       :STEP     
NULL .          -999.25      :NULL VALUE
COMP .        SHELL INTERNATIONAL E P                  :COMPANY
WELL .        WPP TEST 2                               :WELL
FLD  .        WILDCAT                                  :FIELD
LOC  .                                                 :LOCATION
CNTY .        HARRIS                                   :COUNTY
STAT .        TEXAS                                    :STATE
CTRY .                                                 :COUNTRY
API  .                                                 :API NUMBER
UWI  .                                                 :UNIQUE WELL ID
DATE .                                                 :LOG DATE
SRVC .        Schlumberger                             :SERVICE COMPANY
LATI .DEG                                              :LATITUDE
LONG .DEG                                              :LONGITUDE
GDAT .                                                 :GeoDetic Datum
#-----------------------------------------------------------------------------
~PARAMETER INFORMATION
#MNEM.UNIT    VALUE                      DESCRIPTION
#---- -----   --------------------       ------------------------
U-PHASE_B_COMP_PER_YT.                 0 :Phase B Comparator Period Yt
U-PHASE_A_COMP_PER_XT.                 0 :Phase A Comparator Period Xt
U-MAX_EXC_CUR_LIMIT.MA       240.00000   :Requested CM Current Limit
U-REQ_EXC_FQ.HZ              50          :Requested CM Frequency
U-TILT_Y_OFFSET.           0.19916       :WPTET Tilt Y Offset
U-TILT_Y_GAIN.           1.01796         :WPTET Tilt Y Gain
U-TILT_X_OFFSET.          -1.77103       :WPTET Tilt X Offset
U-TILT_X_GAIN.           1.00000         :WPTET Tilt X Gain
U-TILT_OFFSET_TOL.           0.00100     :WPTET Tilt Offset Calibration Tolerance
U-NO_TILT_CAL_ROTATIONS.                 3 :Number of Rotations for Tilt Calibration
HAZI .DEG        0.00000                 :Hole Azimuth
U-STD_TOL_TILT.           0.01000        :Tilt Standard Deviation Tolerance
U-GUN_POS_TOL.DEG        5.00000         :Gun Position Tolerance
ROT_ANGLE_THRESHOLD.DEG        5.00000   :Rotation Stop Angle Tolerance
STOP_ROT_ANGLE.DEG       80.00000        :Rotation Stop Angle
WITN .                                   :Witness's Name
ENGI .                                   :Engineer's Name
COUN .        HARRIS                     :County or Rig Name
FN   .        WILDCAT                    :Field Name
WN   .        WPP TEST 2                 :Well Name
CN   .        SHELL INTERNATIONAL E P    :Company Name
CLAB .        County                     :County/Rig Label
SLAB .        State                      :State/Province Label
RUN  .          1                        :RUN NUMBER
PDAT .        GROUND LEVEL               :Permanent Datum
EPD  .                                   :Elevation of Permanent Datum above Mean Sea Level
LMF  .                                   :Logging Measured From (Name of Logging Elevation Reference)
APD  .                                   :Elevation of Depth Reference (LMF) above Permanent Datum
#-----------------------------------------------------------------------------
~CURVE INFORMATION
#MNEM.UNIT   API CODE                                  DESCRIPTION
#---- -----  --------                                  -----------------------
TIME .S                                                :TIME {F10.1}
FREQ_EMF_SL.HZ                                         :Electromagnetic Field Frequency {F13.4}
PH_SH_WPPCM_SL.DEG                                     :WPPCM Phase Shift {F13.4}
FREQ_EXC_REQ_SL.HZ                                     :Requested Exciter Frequency {F13.4}
RB_SL.DEG                                              :Relative Bearing {F13.4}
SDEV_SL.DEG                                            :Sonde Deviation {F13.4}
TILX_SL.DEG                                            :X-axis Tilt {F13.4}
TILY_SL.DEG                                            :Y-axis Tilt {F13.4}
ROTA_SL.DEG                                            :Motor Rotation Angle {F13.4}
MSPE_SL.RPM                                            :Motor Speed {F13.4}
#-----------------------------------------------------------------------------
# 
#     TIME    FREQ_EMF_SL  PH_SH_WPPCM_ FREQ_EXC_REQ    RB_SL       SDEV_SL      TILX_SL      TILY_SL      ROTA_SL      MSPE_SL
#                          SL           _SL
~A  
   15770.0    1446.7593       0.0000      50.8611    -137.6550       4.4205      -2.9760       3.2658     192.5610       1.0226
   15771.0    1449.2993       0.0000      50.8611    -134.7346       4.7575      -3.3777       3.3465     197.0653       1.0226
   15772.0    1426.0730       0.0000      50.8611    -127.1946       5.0548      -4.0244       3.0531     203.1643       1.0226
   15773.0    1411.8268       0.0000      50.8611    -119.4420       4.9871      -4.3417       2.4490     209.2634       1.0226
   15774.0    1403.3732       0.0000      50.8611    -114.9938       4.9254      -4.4632       2.0790     215.3623       1.0226
   15775.0    1384.1044       0.0000      50.8611    -111.6481       5.1929      -4.8257       1.9134     221.8664       1.0226
   15776.0    1370.7481       0.0000      50.8611    -104.3372       5.2694      -5.1049       1.3031     227.9719       1.0226
   15777.0    1357.2536       0.0000      50.8611     -98.7999       5.2838      -5.2213       0.8074     234.0768       1.0226
   15778.0    1349.3750       0.0000      50.8611     -93.0252       5.3111      -5.3037       0.2799     240.1757       1.0226
   15779.0    1319.1838       0.0000      50.8611     -88.7096       5.5070      -5.5055      -0.1239     246.2751       1.0331
   15780.0    1287.5406       0.0000      50.8611     -84.7438       5.4542      -5.4312      -0.4990     252.3928       1.0226
   15781.0    1266.4974       0.0000      50.8611     -77.7293       5.4291      -5.3047      -1.1522     258.4975       1.0223
   15782.0    1231.2849       0.0000      50.8611     -70.2222       5.4696      -5.1460      -1.8483     264.5838       1.0226
   15783.0    1210.0425       0.0000      50.8611     -68.9372       5.7234      -5.3398      -2.0538     270.6701       1.0226
   15784.0    1189.4713       0.0000      50.8611     -61.7269       5.6206      -4.9482      -2.6589     276.7878       1.0226
   15785.0    1175.3585       0.0000      50.8611     -58.5198       5.6563      -4.8217      -2.9502     282.8923       1.0226
   15786.0    1148.8971       0.0000      50.8611     -53.0276       5.5347      -4.4190      -3.3254     288.9912       1.0226
   15787.0    1128.9322       0.0000      50.8611     -48.2579       5.6601      -4.2202      -3.7649     295.5008       1.0226
   15788.0    1126.7129       0.0000      50.8611     -45.5835       5.6809      -4.0545      -3.9724     301.6184       1.0331
   15789.0    1121.1458       0.0000      50.8611     -40.4586       5.5033      -3.5675      -4.1840     307.7172       1.0226
   15790.0    1105.5425       0.0000      50.8611     -33.0839       5.3803      -2.9339      -4.5060     313.8423       1.0226
   15791.0    1093.8080       0.0000      50.8611     -28.0347       5.4775      -2.5713      -4.8331     319.9480       1.0226
   15792.0    1096.9617       0.0000      50.8611     -23.9403       5.5546      -2.2510      -5.0754     326.0529       1.0328
   15793.0    1105.4991       0.0000      50.8611     -19.6125       5.3879      -1.8062      -5.0744     332.1397       1.0226
   15794.0    1105.6297       0.0000      50.8611     -12.2492       5.1543      -1.0922      -5.0365     338.2385       1.0226
   15795.0    1116.2049       0.0000      50.8611      -7.9350       5.2495      -0.7237      -5.1991     344.3427       1.0223
   15796.0    1126.8029       0.0000      50.8611      -3.0822       5.2865      -0.2839      -5.2788     350.4619       1.0223
   15797.0    1145.1547       0.0000      50.8611       0.9456       5.0763       0.0837      -5.0754     356.5617       1.0226
   15798.0    1156.5510       0.0000      50.8611       7.3132       4.7483       0.6038      -4.7094       2.6605       1.0226
   15799.0    1175.8930       0.0000      50.8611      15.3822       4.8371       1.2816      -4.6634       9.1647       1.0123
   15800.0    1197.9303       0.0000      50.8611      18.7527       4.8824       1.5678      -4.6226      15.2636       1.0226
   15801.0    1225.3345       0.0000      50.8611      22.9913       4.5417       1.7727      -4.1799      21.3622       1.0223
   15802.0    1257.9394       0.0000      50.8611      29.3993       4.4164       2.1663      -3.8467      27.4550       1.0226
   15803.0    1302.2652       0.0000      50.8611      37.1955       4.3186       2.6091      -3.4389      33.5594       1.0226
   15804.0    1331.6761       0.0000      50.8611      43.3337       4.3883       3.0098      -3.1905      39.6596       1.0226
   15805.0    1349.8292       0.0000      50.8611      48.3522       4.1908       3.1303      -2.7836      45.7715       1.0226
   15806.0    1362.9115       0.0000      50.8611      56.3332       3.9949       3.3241      -2.2132      51.8762       1.0226
   15807.0    1383.9012       0.0000      50.8611      62.1421       3.8593       3.4115      -1.8023      57.9940       1.0331
   15808.0    1400.5778       0.0000      50.8611      71.7434       3.9320       3.7338      -1.2309      64.1061       1.0226
   15809.0    1415.0254       0.0000      50.8611      77.5600       3.8186       3.7288      -0.8220      70.2048       1.0226
   15810.0    1423.5474       0.0000      50.8611      83.4374       3.6352       3.6113      -0.4152      76.3223       1.0123
   15811.0    1437.8834       0.0000      50.8611      90.6172       3.4930       3.4928       0.0376      82.8463       1.0226
   15812.0    1461.5718       0.0000      50.8611     101.8454       3.5669       3.4908       0.7317      88.9327       1.0226
   15813.0    1464.9970       0.0000      50.8611     108.0350       3.7076       3.5249       1.1467      95.0507       1.0226
   15814.0    1471.2052       0.0000      50.8611     113.9719       3.4253       3.1293       1.3910     101.1692       1.0226
   15815.0    1489.5929       0.0000      50.8611     121.1134       3.3263       2.8471       1.7181     107.2942       1.0226
   15816.0    1495.8521       0.0000      50.8611     130.5634       3.6418       2.7658       2.3672     113.3941       1.0226
   15817.0    1496.0904       0.0000      50.8611     142.6881       3.6417       2.2065       2.8957     119.5118       1.0226
   15818.0    1496.1704       0.0000      50.8611     145.9767       3.7908       2.1201       3.1410     125.6295       1.0223
   15819.0    1508.6106       0.0000      50.8611     154.1437       3.4954       1.5236       3.1451     131.7165       1.0226
   15820.0    1502.4842       0.0000      50.8611     158.6202       3.7303       1.3590       3.4733     137.8162       1.0226
   15821.0    1505.7017       0.0000      50.8611     169.1185       3.9952       0.7534       3.9230     143.9341       1.0226
   15822.0    1508.6907       0.0000      50.8611     175.9626       3.9297       0.2765       3.9200     150.0520       1.0226
   15823.0    1499.2805       0.0000      50.8611    -177.6067       3.9633      -0.1654       3.9598     156.5694       1.0229
   15824.0    1499.1207       0.0000      50.8611    -171.3514       4.0479      -0.6082       4.0017     162.6870       1.0226
   15825.0    1489.6716       0.0000      50.8611    -163.9297       4.3776      -1.2107       4.2062     168.7793       1.0123
   15826.0    1483.3080       0.0000      50.8611    -158.0664       4.3201      -1.6124       4.0069     174.8783       1.0226
   15827.0    1477.2311       0.0000      50.8611    -151.5743       4.3165      -2.0532       3.7953     180.9904       1.0331
   15828.0    1461.7983       0.0000      50.8611    -146.0962       4.4744      -2.4940       3.7125     187.0952       1.0226
   15829.0    1451.4266       0.0000      50.8611    -141.6284       4.7095      -2.9213       3.6905     193.2000       1.0226
   15830.0    1449.6676       0.0000      50.8611    -134.0534       4.8717      -3.4992       3.3854     199.2867       1.0226
   15831.0    1435.1700       0.0000      50.8611    -128.6100       4.8389      -3.7794       3.0174     205.3734       1.0226
   15832.0    1417.6624       0.0000      50.8611    -123.4002       4.8186      -4.0214       2.6504     211.4782       1.0226
