~VERSION INFORMATION
VERS.           2.0   :CWLS Log ASCII Standard - VERSION 2.0
WRAP.           NO    :One Line per depth step
PROD.  Schlumberger   :LAS Producer
PROG.  DLIS to ASCII 19C2-270                          :LAS Program name and version
CREA.        2017/09/16 17:42                          :LAS Creation date {YYYY/MM/DD hh:mm}
DLIS_CREA.  2017-Sep-15 12:00                          :DLIS Creation date and time {YYYY-MMM-DD hh:mm}
SOURCE.     LPC_S1-1_A5.DLIS                           :DLIS File Name
FILE-ID.     PERFO_Perfo_WPGRT_019LTP                  :File Identification Number
#--------------------------------------------------
~WELL INFORMATION
#MNEM.UNIT      DATA             DESCRIPTION
#---- ------ --------------   -----------------------------
STRT .S         4414.0       :START TIME      
STOP .S         5447.0       :STOP TIME      
STEP .S            1.0       :STEP     
NULL .          -999.25      :NULL VALUE
COMP .        SHELL INTERNATIONAL E P                  :COMPANY
WELL .        WPP TEST 2                               :WELL
FLD  .        WILDCAT                                  :FIELD
LOC  .                                                 :LOCATION
CNTY .        HARRIS                                   :COUNTY
STAT .        TEXAS                                    :STATE
CTRY .                                                 :COUNTRY
API  .                                                 :API NUMBER
UWI  .                                                 :UNIQUE WELL ID
DATE .                                                 :LOG DATE
SRVC .        Schlumberger                             :SERVICE COMPANY
LATI .DEG                                              :LATITUDE
LONG .DEG                                              :LONGITUDE
GDAT .                                                 :GeoDetic Datum
#-----------------------------------------------------------------------------
~PARAMETER INFORMATION
#MNEM.UNIT    VALUE                      DESCRIPTION
#---- -----   --------------------       ------------------------
U-PHASE_B_COMP_PER_YT.                 0 :Phase B Comparator Period Yt
U-PHASE_A_COMP_PER_XT.                 0 :Phase A Comparator Period Xt
U-MAX_EXC_CUR_LIMIT.MA       240.00000   :Requested CM Current Limit
U-REQ_EXC_FQ.HZ              50          :Requested CM Frequency
U-TILT_Y_OFFSET.           0.19916       :WPTET Tilt Y Offset
U-TILT_Y_GAIN.           1.01796         :WPTET Tilt Y Gain
U-TILT_X_OFFSET.          -1.77103       :WPTET Tilt X Offset
U-TILT_X_GAIN.           1.00000         :WPTET Tilt X Gain
U-TILT_OFFSET_TOL.           0.00100     :WPTET Tilt Offset Calibration Tolerance
U-NO_TILT_CAL_ROTATIONS.                 3 :Number of Rotations for Tilt Calibration
HAZI .DEG        0.00000                 :Hole Azimuth
U-STD_TOL_TILT.           0.01000        :Tilt Standard Deviation Tolerance
U-GUN_POS_TOL.DEG        5.00000         :Gun Position Tolerance
ROT_ANGLE_THRESHOLD.DEG        5.00000   :Rotation Stop Angle Tolerance
STOP_ROT_ANGLE.DEG       80.00000        :Rotation Stop Angle
WITN .                                   :Witness's Name
ENGI .                                   :Engineer's Name
COUN .        HARRIS                     :County or Rig Name
FN   .        WILDCAT                    :Field Name
WN   .        WPP TEST 2                 :Well Name
CN   .        SHELL INTERNATIONAL E P    :Company Name
CLAB .        County                     :County/Rig Label
SLAB .        State                      :State/Province Label
RUN  .          1                        :RUN NUMBER
PDAT .        GROUND LEVEL               :Permanent Datum
EPD  .                                   :Elevation of Permanent Datum above Mean Sea Level
LMF  .                                   :Logging Measured From (Name of Logging Elevation Reference)
APD  .                                   :Elevation of Depth Reference (LMF) above Permanent Datum
#-----------------------------------------------------------------------------
~CURVE INFORMATION
#MNEM.UNIT   API CODE                                  DESCRIPTION
#---- -----  --------                                  -----------------------
TIME .S                                                :TIME {F10.1}
FREQ_EMF_SL.HZ                                         :Electromagnetic Field Frequency {F13.4}
PH_SH_WPPCM_SL.DEG                                     :WPPCM Phase Shift {F13.4}
FREQ_EXC_REQ_SL.HZ                                     :Requested Exciter Frequency {F13.4}
RB_SL.DEG                                              :Relative Bearing {F13.4}
SDEV_SL.DEG                                            :Sonde Deviation {F13.4}
TILX_SL.DEG                                            :X-axis Tilt {F13.4}
TILY_SL.DEG                                            :Y-axis Tilt {F13.4}
ROTA_SL.DEG                                            :Motor Rotation Angle {F13.4}
MSPE_SL.RPM                                            :Motor Speed {F13.4}
#-----------------------------------------------------------------------------
# 
#     TIME    FREQ_EMF_SL  PH_SH_WPPCM_ FREQ_EXC_REQ    RB_SL       SDEV_SL      TILX_SL      TILY_SL      ROTA_SL      MSPE_SL
#                          SL           _SL
~A  
# ...
    4666.0    1244.4926       0.0000      50.8611     -90.9718       5.0655      -5.0647       0.0858     258.5298       1.0144
    4667.0    1177.9049       0.0000      50.8611     -86.5739       5.0960      -5.0866      -0.3045     264.6199       1.0226
    4668.0    1111.8468       0.0000      50.8611     -80.9931       5.2231      -5.1578      -0.8174     270.7217       1.0226
    4669.0    1043.0793       0.0000      50.8611     -75.3586       5.1494      -4.9807      -1.2988     276.8235       1.0226
    4670.0    1003.7359       0.0000      50.8611     -71.6072       5.2521      -4.9830      -1.6552     282.9290       1.0202
    4671.0     980.8451       0.0000      50.8611     -65.0491       5.2089      -4.7215      -2.1946     289.0273       1.0226
    4672.0     961.0439       0.0000      50.8611     -61.5314       5.3626      -4.7123      -2.5533     295.1299       1.0226
    4673.0     947.2052       0.0000      50.8611     -56.3683       5.3134      -4.4220      -2.9399     301.2340       1.0226
    4674.0     934.7242       0.0000      50.8611     -51.9098       5.3825      -4.2339      -3.3172     307.3335       1.0226
    4675.0     922.9098       0.0000      50.8611     -45.2771       5.3183      -3.7757      -3.7391     313.4253       1.0226
    4676.0     919.5664       0.0000      50.8611     -40.7622       5.3427      -3.4854      -4.0439     319.8399       1.0226
    4677.0     921.5269       0.0000      50.8611     -36.3737       5.1890      -3.0746      -4.1759     326.0215       1.0226
    4678.0     915.2565       0.0000      50.8611     -32.0869       5.2052      -2.7624      -4.4082     332.1364       1.0226
    4679.0     917.9178       0.0000      50.8611     -26.5222       5.0822      -2.2677      -4.5458     338.2266       1.0202
    4680.0     921.1461       0.0000      50.8611     -21.1091       5.0234      -1.8076      -4.6851     344.3292       1.0226
    4681.0     930.0595       0.0000      50.8611     -17.1542       5.0886      -1.4990      -4.8617     350.4310       1.0226
    4682.0     942.0380       0.0000      50.8611     -10.5991       4.9157      -0.9034      -4.8301     356.5336       1.0226
    4683.0     951.1622       0.0000      50.8611      -6.7925       4.7913      -0.5660      -4.7576       2.6354       1.0226
    4684.0     969.1004       0.0000      50.8611      -1.0998       4.8626      -0.0932      -4.8617       8.7249       1.0226
    4685.0     992.9302       0.0000      50.8611       5.5491       4.7615       0.4600      -4.7390      14.8267       1.0226
    4686.0    1012.6291       0.0000      50.8611      10.5625       4.6548       0.8526      -4.5754      20.9213       1.0144
    4687.0    1040.6180       0.0000      50.8611      15.7356       4.4006       1.1922      -4.2353      27.0335       1.0226
    4688.0    1090.0731       0.0000      50.8611      20.4052       4.4065       1.5354      -4.1293      33.1353       1.0226
    4689.0    1177.2791       0.0000      50.8611      26.5235       4.3703       1.9498      -3.9082      39.6298       1.0226
    4690.0    1245.8939       0.0000      50.8611      32.4442       4.3100       2.3113      -3.6350      45.7323       1.0202
    4691.0    1284.0663       0.0000      50.8611      36.3870       4.0434       2.3972      -3.2540      51.8442       1.0309
    4692.0    1316.9484       0.0000      50.8611      45.1811       3.9831       2.8243      -2.8043      57.9497       1.0226
    4693.0    1345.8132       0.0000      50.8611      49.7180       3.8976       2.9723      -2.5181      64.0515       1.0226
    4694.0    1376.2357       0.0000      50.8611      56.0754       3.7242       3.0891      -2.0776      70.1665       1.0226
    4695.0    1403.4431       0.0000      50.8611      65.7433       3.5897       3.2717      -1.4736      76.2683       1.0226
    4696.0    1432.9625       0.0000      50.8611      73.5795       3.4653       3.3210      -0.9792      82.3700       1.0226
    4697.0    1461.4081       0.0000      50.8611      79.0207       3.4648       3.4013      -0.6595      88.4718       1.0226
    4698.0    1481.9681       0.0000      50.8611      88.4916       3.3094       3.3083      -0.0871      94.5736       1.0226
    4699.0    1512.0968       0.0000      50.8611      95.6234       3.3341       3.3174       0.3255     100.6778       1.0226
    4700.0    1541.1732       0.0000      50.8611     102.4386       3.2241       3.1476       0.6935     106.7795       1.0226
    4701.0    1565.1882       0.0000      50.8611     112.9868       3.3467       3.0800       1.3068     113.2871       1.0226
    4702.0    1581.9993       0.0000      50.8611     120.4871       3.4053       2.9321       1.7287     119.3896       1.0226
    4703.0    1603.6482       0.0000      50.8611     126.5964       3.2370       2.5980       1.9294     125.5037       1.0144
    4704.0    1613.5155       0.0000      50.8611     135.9334       3.2822       2.2822       2.3569     131.6070       1.0226
    4705.0    1632.5971       0.0000      50.8611     141.3860       3.3718       2.1033       2.6338     137.7213       1.0226
    4706.0    1636.3966       0.0000      50.8611     149.9155       3.4589       1.7326       2.9925     143.8232       1.0226
    4707.0    1642.8153       0.0000      50.8611     158.8802       3.4474       1.2415       3.2156     149.9396       1.0285
    4708.0    1644.9164       0.0000      50.8611     165.2691       3.6209       0.9201       3.5018     156.0416       1.0226
    4709.0    1641.9441       0.0000      50.8611     172.3752       3.6756       0.4874       3.6430     162.1566       1.0226
    4710.0    1636.0416       0.0000      50.8611     -98.6941       3.7539       0.0420       3.7527     168.2509       1.0226
    4711.0    1631.3805       0.0000      50.8611    -172.8874       3.7764      -0.4674       3.7471     174.3606       1.0250
    4712.0    1620.1036       0.0000      50.8611    -167.0712       3.8451      -0.8599       3.7471     180.4532       1.0226
    4713.0    1601.6515       0.0000      50.8611    -160.3762       4.0602      -1.3638       3.8233     186.9600       1.0226
    4714.0    1586.0657       0.0000      50.8611    -155.5112       4.1641      -1.7253       3.7880     193.0626       1.0226
    4715.0    1564.8857       0.0000      50.8611    -148.7096       4.1685      -2.1636       3.5613     199.1645       1.0226
    4716.0    1546.1040       0.0000      50.8611    -141.8919       4.1234      -2.5433       3.2435     205.2664       1.0226
    4717.0    1519.3763       0.0000      50.8611    -137.2295       4.2532      -2.8866       3.1208     211.3690       1.0226
    4718.0    1493.5570       0.0000      50.8611    -132.3456       4.4816      -3.3101       3.0167     217.4709       1.0226
    4719.0    1470.9729       0.0000      50.8611    -125.2110       4.7301      -3.8633       2.7249     223.5712       1.0285
    4720.0    1446.7593       0.0000      50.8611    -119.1125       4.5439      -3.9619       2.2102     229.6767       1.0226
    4721.0    1412.3128       0.0000      50.8611    -116.7282       5.1263      -4.5736       2.3048     235.7786       1.0309
    4722.0    1390.8295       0.0000      50.8611    -110.3340       4.8412      -4.5389       1.6804     241.8814       1.0226
    4723.0    1357.3842       0.0000      50.8611    -104.1448       4.9655      -4.8146       1.2121     247.9733       1.0226
    4724.0    1320.8826       0.0000      50.8611     -96.8419       4.9984      -4.9625       0.5951     254.0860       1.0309
    4725.0    1286.1434       0.0000      50.8611     -92.8397       5.0435      -5.0373       0.2493     260.5740       1.0226
    4726.0    1204.1298       0.0000      50.8611     -89.2537       5.2295      -5.2290      -0.0685     266.6862       1.0226
    4727.0    1140.2803       0.0000      50.8611     -82.2320       5.0695      -5.0228      -0.6818     272.7756       1.0202
    4728.0    1061.0032       0.0000      50.8611     -78.1804       5.2386      -5.1267      -1.0721     278.8650       1.0202
