~VERSION INFORMATION
VERS.           2.0   :CWLS Log ASCII Standard - VERSION 2.0
WRAP.           NO    :One Line per depth step
PROD.  Schlumberger   :LAS Producer
PROG.  DLIS to ASCII 19C2-270                          :LAS Program name and version
CREA.        2017/09/16 17:42                          :LAS Creation date {YYYY/MM/DD hh:mm}
DLIS_CREA.  2017-Sep-15 12:43                          :DLIS Creation date and time {YYYY-MMM-DD hh:mm}
SOURCE.     LPC_S1-1_BV.DLIS                           :DLIS File Name
FILE-ID.     PERFO_Perfo_WPGRT_021LTP                  :File Identification Number
#--------------------------------------------------
~WELL INFORMATION
#MNEM.UNIT      DATA             DESCRIPTION
#---- ------ --------------   -----------------------------
STRT .S         6992.0       :START TIME      
STOP .S         7825.0       :STOP TIME      
STEP .S            1.0       :STEP     
NULL .          -999.25      :NULL VALUE
COMP .        SHELL INTERNATIONAL E P                  :COMPANY
WELL .        WPP TEST 2                               :WELL
FLD  .        WILDCAT                                  :FIELD
LOC  .                                                 :LOCATION
CNTY .        HARRIS                                   :COUNTY
STAT .        TEXAS                                    :STATE
CTRY .                                                 :COUNTRY
API  .                                                 :API NUMBER
UWI  .                                                 :UNIQUE WELL ID
DATE .                                                 :LOG DATE
SRVC .        Schlumberger                             :SERVICE COMPANY
LATI .DEG                                              :LATITUDE
LONG .DEG                                              :LONGITUDE
GDAT .                                                 :GeoDetic Datum
#-----------------------------------------------------------------------------
~PARAMETER INFORMATION
#MNEM.UNIT    VALUE                      DESCRIPTION
#---- -----   --------------------       ------------------------
U-PHASE_B_COMP_PER_YT.                 0 :Phase B Comparator Period Yt
U-PHASE_A_COMP_PER_XT.                 0 :Phase A Comparator Period Xt
U-MAX_EXC_CUR_LIMIT.MA       240.00000   :Requested CM Current Limit
U-REQ_EXC_FQ.HZ              50          :Requested CM Frequency
U-TILT_Y_OFFSET.           0.19916       :WPTET Tilt Y Offset
U-TILT_Y_GAIN.           1.01796         :WPTET Tilt Y Gain
U-TILT_X_OFFSET.          -1.77103       :WPTET Tilt X Offset
U-TILT_X_GAIN.           1.00000         :WPTET Tilt X Gain
U-TILT_OFFSET_TOL.           0.00100     :WPTET Tilt Offset Calibration Tolerance
U-NO_TILT_CAL_ROTATIONS.                 3 :Number of Rotations for Tilt Calibration
HAZI .DEG        0.00000                 :Hole Azimuth
U-STD_TOL_TILT.           0.01000        :Tilt Standard Deviation Tolerance
U-GUN_POS_TOL.DEG        5.00000         :Gun Position Tolerance
ROT_ANGLE_THRESHOLD.DEG        5.00000   :Rotation Stop Angle Tolerance
STOP_ROT_ANGLE.DEG       80.00000        :Rotation Stop Angle
WITN .                                   :Witness's Name
ENGI .                                   :Engineer's Name
COUN .        HARRIS                     :County or Rig Name
FN   .        WILDCAT                    :Field Name
WN   .        WPP TEST 2                 :Well Name
CN   .        SHELL INTERNATIONAL E P    :Company Name
CLAB .        County                     :County/Rig Label
SLAB .        State                      :State/Province Label
RUN  .          1                        :RUN NUMBER
PDAT .        GROUND LEVEL               :Permanent Datum
EPD  .                                   :Elevation of Permanent Datum above Mean Sea Level
LMF  .                                   :Logging Measured From (Name of Logging Elevation Reference)
APD  .                                   :Elevation of Depth Reference (LMF) above Permanent Datum
#-----------------------------------------------------------------------------
~CURVE INFORMATION
#MNEM.UNIT   API CODE                                  DESCRIPTION
#---- -----  --------                                  -----------------------
TIME .S                                                :TIME {F10.1}
FREQ_EMF_SL.HZ                                         :Electromagnetic Field Frequency {F13.4}
PH_SH_WPPCM_SL.DEG                                     :WPPCM Phase Shift {F13.4}
FREQ_EXC_REQ_SL.HZ                                     :Requested Exciter Frequency {F13.4}
RB_SL.DEG                                              :Relative Bearing {F13.4}
SDEV_SL.DEG                                            :Sonde Deviation {F13.4}
TILX_SL.DEG                                            :X-axis Tilt {F13.4}
TILY_SL.DEG                                            :Y-axis Tilt {F13.4}
ROTA_SL.DEG                                            :Motor Rotation Angle {F13.4}
MSPE_SL.RPM                                            :Motor Speed {F13.4}
#-----------------------------------------------------------------------------
# 
#     TIME    FREQ_EMF_SL  PH_SH_WPPCM_ FREQ_EXC_REQ    RB_SL       SDEV_SL      TILX_SL      TILY_SL      ROTA_SL      MSPE_SL
#                          SL           _SL
~A  
# ...
    7433.0    1518.6285       0.0000      50.8611     -52.8631       0.9573      -0.7632      -0.5777     252.5444       0.0005
    7434.0    1516.9412       0.0000      50.8611     -50.4331       1.0353      -0.7986      -0.6583     252.5444       0.0005
    7435.0    1512.0968       0.0000      50.8611     -54.1028       0.9887      -0.8010      -0.5789     252.5444       0.0005
    7436.0    1512.2928       0.0000      50.8611     -48.3535       0.8697      -0.6500      -0.5777     252.5444       0.0005
    7437.0    1515.4538       0.0000      50.8611     -46.6024       0.8438      -0.6134      -0.5789     252.5444       0.0005
    7438.0    1518.4326       0.0000      50.8611     -50.6098       1.0378      -0.8022      -0.6583     252.5444       0.0005
    7439.0    1515.3556       0.0000      50.8611     -55.5350       1.0216      -0.8424      -0.5777     252.5444       0.0005
    7440.0    1515.4538       0.0000      50.8611     -54.8537       0.9349      -0.7644      -0.5381     252.5444       0.0005
    7441.0    1518.6285       0.0000      50.8611     -49.9301       0.8956      -0.6853      -0.5765     252.5444       0.0005
    7442.0    1515.3556       0.0000      50.8611     -51.8960       0.8757      -0.6889      -0.5405     252.5444       0.0005
    7443.0    1515.4538       0.0000      50.8611     -46.7290       0.8451      -0.6158      -0.5777     252.5444       0.0005
    7444.0    1518.5304       0.0000      50.8611     -51.4576       0.9291      -0.7267      -0.5789     252.5444       0.0005
    7445.0    1515.1605       0.0000      50.8611     -56.1071       1.1084      -0.9203      -0.6174     252.5444       0.0005
    7446.0    1514.4663       0.0000      50.8611     -50.7667       0.9998      -0.7742      -0.6322     252.5444       0.0005
    7447.0    1509.0470       0.0000      50.8611     -45.0066       1.7041      -1.1991      -1.2086     252.5444       0.0005
    7448.0    1521.6210       0.0000      50.8611     -59.4564       1.2879      -1.1103      -0.6521     252.5444       0.0005
    7449.0    1515.3556       0.0000      50.8611     -49.2100       1.0097      -0.7644      -0.6595     252.5444       0.0005
    7450.0    1512.2928       0.0000      50.8611     -46.2054       0.9512      -0.6865      -0.6583     252.5444       0.0005
    7451.0    1518.6285       0.0000      50.8611     -44.3710       0.8704      -0.6086      -0.6223     252.5444       0.0005
    7452.0    1518.4326       0.0000      50.8611     -44.6771       1.0930      -0.7681      -0.7772     252.5444       0.0005
    7453.0    1518.3352       0.0000      50.8611     -41.9218       1.1511      -0.7681      -0.8566     252.5444       0.0005
    7454.0    1512.2928       0.0000      50.8611     -52.3109       1.1628      -0.9107      -0.7204     252.5444       0.0005
    7455.0    1515.4538       0.0000      50.8611     -39.5657       0.9030      -0.5745      -0.6942     252.5444       0.0005
    7456.0    1521.7187       0.0000      50.8611     -48.0807       0.9320      -0.6938      -0.6223     252.5444       0.0005
    7457.0    1509.0470       0.0000      50.8611     -56.8155       1.0559      -0.8837      -0.5777     252.5444       0.0005
    7458.0    1512.1946       0.0000      50.8611     -40.9284       0.8682      -0.5684      -0.6558     252.5444       0.0005
    7459.0    1515.4538       0.0000      50.8611     -49.0976       1.0678      -0.8070      -0.6992     252.5444       0.0005
    7460.0    1515.2578       0.0000      50.8611     -51.1502       0.9862      -0.7681      -0.6186     252.5444       0.0005
    7461.0    1512.2928       0.0000      50.8611     -46.2570       0.8947      -0.6464      -0.6186     252.5444       0.0005
    7462.0    1518.5304       0.0000      50.8611     -52.9761       0.9575      -0.7644      -0.5765     252.5444       0.0005
    7463.0    1512.0968       0.0000      50.8611     -47.5508       1.0360      -0.7644      -0.6992     252.5444       0.0007
    7464.0    1515.3556       0.0000      50.8611     -49.5286       0.9586      -0.7291      -0.6223     256.8763       0.7364
    7465.0    1521.9155       0.0000      50.8611     -49.7540       0.8963      -0.6841      -0.5789     262.3330       0.9798
    7466.0    1521.8169       0.0000      50.8611     -56.6715       1.0531      -0.8801      -0.5777     268.4081       1.0226
    7467.0    1531.7629       0.0000      50.8611     -42.9675       0.9523      -0.6488      -0.6967     274.4976       1.0226
    7468.0    1528.5327       0.0000      50.8611     -49.8756       0.8946      -0.6841      -0.5765     280.5994       1.0226
    7469.0    1535.3082       0.0000      50.8611     -55.4803       0.8760      -0.7219      -0.4959     286.7143       1.0229
    7470.0    1522.0146       0.0000      50.8611     -51.9501       0.8749      -0.6889      -0.5393     292.8161       1.0226
    7471.0    1522.0146       0.0000      50.8611     -54.2221       0.8506      -0.6901      -0.4972     298.9179       1.0226
    7472.0    1505.9130       0.0000      50.8611     -58.3953       0.9419      -0.8022      -0.4935     305.0327       1.0226
    7473.0    1499.4900       0.0000      50.8611     -54.1812       0.8496      -0.6889      -0.4972     311.1345       1.0226
    7474.0    1496.1063       0.0000      50.8611     -62.6478       0.8155      -0.7243      -0.3745     317.2241       1.0226
    7475.0    1486.3343       0.0000      50.8611     -56.7399       0.8202      -0.6853      -0.4501     323.3259       1.0226
    7476.0    1465.1201       0.0000      50.8611     -60.2893       0.8381      -0.7279      -0.4154     329.4277       1.0124
    7477.0    1453.1926       0.0000      50.8611     -57.1882       0.7708      -0.6476      -0.4178     335.9131       1.0124
    7478.0    1446.6702       0.0000      50.8611     -65.1033       0.7988      -0.7243      -0.3361     342.0026       1.0124
    7479.0    1432.1142       0.0000      50.8611     -62.7652       0.9077      -0.8070      -0.4154     348.1040       1.0226
    7480.0    1417.6767       0.0000      50.8611     -58.4923       0.9466      -0.8070      -0.4947     354.2062       1.0327
    7481.0    1406.3345       0.0000      50.8611     -57.3163       0.9115      -0.7669      -0.4923      11.1216       1.0226
    7482.0    1392.1620       0.0000      50.8611     -61.8225       0.8689      -0.7657      -0.4105       6.4114       1.0223
    7483.0    1373.3716       0.0000      50.8611     -66.4214       0.8396      -0.7693      -0.3361      12.5259       1.0226
    7484.0    1352.4779       0.0000      50.8611     -61.7649       0.8732      -0.7693      -0.4129      18.6277       1.0226
    7485.0    1342.0733       0.0000      50.8611     -64.8192       1.0667      -0.9653      -0.4538      24.7296       1.0226
    7486.0    1321.6636       0.0000      50.8611     -66.9868       0.9616      -0.8849      -0.3757      30.8314       1.0226
    7487.0    1304.5718       0.0000      50.8611     -71.0485       0.7721      -0.7303      -0.2506      36.9341       1.0226
    7488.0    1285.4912       0.0000      50.8611     -67.0877       0.9621      -0.8862      -0.3745      43.0358       1.0226
    7489.0    1278.3396       0.0000      50.8611     -73.5080       1.0493      -1.0054      -0.2976      49.5464       1.0226
    7490.0    1244.6684       0.0000      50.8611     -70.1969       1.1129      -1.0468      -0.3770      55.6482       1.0226
    7491.0    1204.1676       0.0000      50.8611     -65.0079       0.9804      -0.8886      -0.4142      61.7407       1.0226
    7492.0    1162.5393       0.0000      50.8611     -72.0308       1.2209      -1.1613      -0.3757      67.8395       1.0226
    7493.0    1134.2934       0.0000      50.8611     -67.3984       1.1775      -1.0870      -0.4526      73.9289       1.0226
    7494.0    1119.5192       0.0000      50.8611     -66.0905       1.0160      -0.9287      -0.4117      80.0438       1.0330
    7495.0    1095.3646       0.0000      50.8611     -71.3168       1.0639      -1.0067      -0.3410      86.1587       1.0226
