~VERSION INFORMATION
VERS.           2.0   :CWLS Log ASCII Standard - VERSION 2.0
WRAP.           NO    :One Line per depth step
PROD.  Schlumberger   :LAS Producer
PROG.  DLIS to ASCII 19C2-270                          :LAS Program name and version
CREA.        2017/09/16 17:42                          :LAS Creation date {YYYY/MM/DD hh:mm}
DLIS_CREA.  2017-Sep-15 12:22                          :DLIS Creation date and time {YYYY-MMM-DD hh:mm}
SOURCE.     LPC_S1-1_B5.DLIS                           :DLIS File Name
FILE-ID.     PERFO_Perfo_WPGRT_020LTP                  :File Identification Number
#--------------------------------------------------
~WELL INFORMATION
#MNEM.UNIT      DATA             DESCRIPTION
#---- ------ --------------   -----------------------------
STRT .S         5686.0       :START TIME      
STOP .S         6834.0       :STOP TIME      
STEP .S            1.0       :STEP     
NULL .          -999.25      :NULL VALUE
COMP .        SHELL INTERNATIONAL E P                  :COMPANY
WELL .        WPP TEST 2                               :WELL
FLD  .        WILDCAT                                  :FIELD
LOC  .                                                 :LOCATION
CNTY .        HARRIS                                   :COUNTY
STAT .        TEXAS                                    :STATE
CTRY .                                                 :COUNTRY
API  .                                                 :API NUMBER
UWI  .                                                 :UNIQUE WELL ID
DATE .                                                 :LOG DATE
SRVC .        Schlumberger                             :SERVICE COMPANY
LATI .DEG                                              :LATITUDE
LONG .DEG                                              :LONGITUDE
GDAT .                                                 :GeoDetic Datum
#-----------------------------------------------------------------------------
~PARAMETER INFORMATION
#MNEM.UNIT    VALUE                      DESCRIPTION
#---- -----   --------------------       ------------------------
U-PHASE_B_COMP_PER_YT.                 0 :Phase B Comparator Period Yt
U-PHASE_A_COMP_PER_XT.                 0 :Phase A Comparator Period Xt
U-MAX_EXC_CUR_LIMIT.MA       240.00000   :Requested CM Current Limit
U-REQ_EXC_FQ.HZ              50          :Requested CM Frequency
U-TILT_Y_OFFSET.           0.19916       :WPTET Tilt Y Offset
U-TILT_Y_GAIN.           1.01796         :WPTET Tilt Y Gain
U-TILT_X_OFFSET.          -1.77103       :WPTET Tilt X Offset
U-TILT_X_GAIN.           1.00000         :WPTET Tilt X Gain
U-TILT_OFFSET_TOL.           0.00100     :WPTET Tilt Offset Calibration Tolerance
U-NO_TILT_CAL_ROTATIONS.                 3 :Number of Rotations for Tilt Calibration
HAZI .DEG        0.00000                 :Hole Azimuth
U-STD_TOL_TILT.           0.01000        :Tilt Standard Deviation Tolerance
U-GUN_POS_TOL.DEG        5.00000         :Gun Position Tolerance
ROT_ANGLE_THRESHOLD.DEG        5.00000   :Rotation Stop Angle Tolerance
STOP_ROT_ANGLE.DEG       80.00000        :Rotation Stop Angle
WITN .                                   :Witness's Name
ENGI .                                   :Engineer's Name
COUN .        HARRIS                     :County or Rig Name
FN   .        WILDCAT                    :Field Name
WN   .        WPP TEST 2                 :Well Name
CN   .        SHELL INTERNATIONAL E P    :Company Name
CLAB .        County                     :County/Rig Label
SLAB .        State                      :State/Province Label
RUN  .          1                        :RUN NUMBER
PDAT .        GROUND LEVEL               :Permanent Datum
EPD  .                                   :Elevation of Permanent Datum above Mean Sea Level
LMF  .                                   :Logging Measured From (Name of Logging Elevation Reference)
APD  .                                   :Elevation of Depth Reference (LMF) above Permanent Datum
#-----------------------------------------------------------------------------
~CURVE INFORMATION
#MNEM.UNIT   API CODE                                  DESCRIPTION
#---- -----  --------                                  -----------------------
TIME .S                                                :TIME {F10.1}
FREQ_EMF_SL.HZ                                         :Electromagnetic Field Frequency {F13.4}
PH_SH_WPPCM_SL.DEG                                     :WPPCM Phase Shift {F13.4}
FREQ_EXC_REQ_SL.HZ                                     :Requested Exciter Frequency {F13.4}
RB_SL.DEG                                              :Relative Bearing {F13.4}
SDEV_SL.DEG                                            :Sonde Deviation {F13.4}
TILX_SL.DEG                                            :X-axis Tilt {F13.4}
TILY_SL.DEG                                            :Y-axis Tilt {F13.4}
ROTA_SL.DEG                                            :Motor Rotation Angle {F13.4}
MSPE_SL.RPM                                            :Motor Speed {F13.4}
#-----------------------------------------------------------------------------
# 
#     TIME    FREQ_EMF_SL  PH_SH_WPPCM_ FREQ_EXC_REQ    RB_SL       SDEV_SL      TILX_SL      TILY_SL      ROTA_SL      MSPE_SL
#                          SL           _SL
~A  
# ...
    6253.0    1515.3556       0.0000      50.8611     133.8289       3.2354       2.3334       2.2398     194.5426       0.0005
    6254.0    1518.6285       0.0000      50.8611     132.6122       3.3149       2.4390       2.2436     194.5426       0.0005
    6255.0    1515.0542       0.0000      50.8611     131.9819       3.2328       2.4026       2.1618     194.5426       0.0005
    6256.0    1518.6285       0.0000      50.8611     131.9770       3.1888       2.3699       2.1322     194.5426       0.0005
    6257.0    1515.0542       0.0000      50.8611     132.5159       3.2604       2.4026       2.2027     194.5426       0.0005
    6258.0    1515.3556       0.0000      50.8611     131.6493       3.2599       2.4353       2.1656     194.5426       0.0005
    6259.0    1518.4770       0.0000      50.8611     131.0812       3.2429       2.4437       2.1303     194.5426       0.0005
    6260.0    1515.0542       0.0000      50.8611     132.4278       3.2658       2.4100       2.2027     194.5426       0.0005
    6261.0    1512.3982       0.0000      50.8611     132.0383       3.2848       2.4390       2.1989     194.5426       0.0005
    6262.0    1518.6285       0.0000      50.8611     132.9479       3.2883       2.4063       2.2398     194.5426       0.0005
    6263.0    1518.3258       0.0000      50.8611     132.2328       3.3005       2.4428       2.2178     194.5426       0.0005
    6264.0    1512.3982       0.0000      50.8611     131.9869       3.2381       2.4063       2.1656     194.5426       0.0005
    6265.0    1512.7010       0.0000      50.8611     131.2545       3.3420       2.5119       2.2027     194.5426       0.0005
    6266.0    1518.6285       0.0000      50.8611     133.0038       3.2415       2.3699       2.2102     194.5426       0.0005
    6267.0    1518.0244       0.0000      50.8611     133.0356       3.3429       2.4428       2.2807     194.5426       0.0005
    6268.0    1515.3556       0.0000      50.8611     131.5736       3.3148       2.4792       2.1989     194.5426       0.0005
    6269.0    1512.7010       0.0000      50.8611     132.4755       3.3178       2.4465       2.2398     194.5426       0.0005
    6270.0    1512.7010       0.0000      50.8611     133.3351       3.2592       2.3699       2.2360     194.5426       0.0005
    6271.0    1514.6150       0.0000      50.8611     132.3267       3.2998       2.4390       2.2212     194.5426       0.0005
    6272.0    1515.3556       0.0000      50.8611     132.4755       3.3178       2.4465       2.2398     194.5426       0.0005
    6273.0    1512.3982       0.0000      50.8611     133.0005       3.2962       2.4100       2.2473     194.5426       0.0005
    6274.0    1515.6583       0.0000      50.8611     132.4715       3.2631       2.4063       2.2027     194.5426       0.0005
    6275.0    1512.3982       0.0000      50.8611     132.4388       3.2764       2.4175       2.2102     194.5426       0.0005
    6276.0    1515.3556       0.0000      50.8611     131.5160       3.2681       2.4465       2.1656     194.5426       0.0005
    6277.0    1515.3556       0.0000      50.8611     132.8638       3.2390       2.3736       2.2027     194.5426       0.0005
    6278.0    1518.0244       0.0000      50.8611     132.4221       3.2606       2.4063       2.1989     194.5426       0.0005
    6279.0    1512.0968       0.0000      50.8611     132.1296       3.2794       2.4316       2.1989     194.5426       0.0005
    6280.0    1512.0968       0.0000      50.8611     133.8977       3.2847       2.3661       2.2769     194.5426       0.0005
    6281.0    1515.3556       0.0000      50.8611     131.5838       3.2080       2.3989       2.1285     194.5426       0.0005
    6282.0    1515.3556       0.0000      50.8611     131.6405       3.3720       2.5194       2.2398     194.5426       0.0005
    6283.0    1514.9178       0.0000      50.8611     132.1541       3.2221       2.3881       2.1618     194.5426       0.0005
    6284.0    1515.9624       0.0000      50.8611     132.0434       3.2901       2.4428       2.2027     194.5426       0.0005
    6285.0    1521.0073       0.0000      50.8611     132.5549       3.3017       2.4316       2.2322     194.5426       0.0005
    6286.0    1518.3258       0.0000      50.8611     132.0434       3.2901       2.4428       2.2027     194.5426       0.0005
    6287.0    1515.6583       0.0000      50.8611     131.5160       3.2681       2.4465       2.1656     194.5426       0.0005
    6288.0    1515.0542       0.0000      50.8611     133.7668       3.2929       2.3773       2.2769     194.5426       0.0005
    6289.0    1518.3258       0.0000      50.8611     132.9184       3.1375       2.2970       2.1360     194.5426       0.0005
    6290.0    1515.3556       0.0000      50.8611     133.3563       3.2150       2.3371       2.2065     194.5426       0.0005
    6291.0    1515.9624       0.0000      50.8611     133.7040       3.1783       2.2970       2.1951     194.5426       0.0005
    6292.0    1516.2678       0.0000      50.8611     133.7600       3.1861       2.3007       2.2027     194.5426       0.0005
    6293.0    1518.0244       0.0000      50.8611     133.4565       3.3057       2.3989       2.2731     194.5426       0.0005
    6294.0    1515.0542       0.0000      50.8611     133.3134       3.2177       2.3408       2.2065     194.5426       0.0005
    6295.0    1512.7010       0.0000      50.8611     132.2386       3.3053       2.4465       2.2212     194.5426       0.0005
    6296.0    1521.0073       0.0000      50.8611     131.9375       3.2356       2.4063       2.1618     194.5426       0.0005
    6297.0    1515.3556       0.0000      50.8611     132.3785       3.2633       2.4100       2.1989     194.5426       0.0005
    6298.0    1515.6583       0.0000      50.8611     132.4715       3.2631       2.4063       2.2027     194.5426       0.0005
    6299.0    1515.0542       0.0000      50.8611     132.5191       3.3151       2.4428       2.2398     194.5426       0.0005
    6300.0    1521.3087       0.0000      50.8611     132.9919       3.3456       2.4465       2.2807     194.5426       0.0005
    6301.0    1512.3982       0.0000      50.8611     131.4447       3.2109       2.4063       2.1247     194.5426       0.0005
    6302.0    1512.3982       0.0000      50.8611     132.0800       3.2380       2.4026       2.1693     194.5426       0.0005
    6303.0    1514.7540       0.0000      50.8611     131.9433       3.2409       2.4100       2.1656     194.5426       0.0005
    6304.0    1515.0542       0.0000      50.8611     132.4623       3.2031       2.3624       2.1618     194.5426       0.0005
    6305.0    1518.0244       0.0000      50.8611     134.1017       2.9545       2.1221       2.0542     194.5426       0.0005
    6306.0    1515.6583       0.0000      50.8611     129.9100       3.3714       2.5856       2.1618     194.5426       0.0005
    6307.0    1509.4535       0.0000      50.8611     125.4938       3.8893       3.1681       2.2473     194.5426       0.0005
    6308.0    1518.0244       0.0000      50.8611     131.2062       2.9554       2.2233       1.9460     194.5426       0.0005
    6309.0    1509.7563       0.0000      50.8611     135.4860       3.1795       2.2278       2.2655     194.5426       0.0005
    6310.0    1512.7010       0.0000      50.8611     128.9904       3.2420       2.5194       2.0391     194.5426       0.0005
    6311.0    1512.3982       0.0000      50.8611     131.1847       3.3969       2.5558       2.2360     194.5426       0.0005
    6312.0    1518.0244       0.0000      50.8611     131.0908       3.2903       2.4792       2.1618     194.5426       0.0005
    6313.0    1512.3982       0.0000      50.8611     131.4799       3.3150       2.4829       2.1951     194.5426       0.0005
    6314.0    1509.7563       0.0000      50.8611     137.1158       3.3719       2.2932       2.4700     194.5426       0.0005
    6315.0    1521.3087       0.0000      50.8611     132.2296       3.2899       2.4353       2.2102     194.5426       0.0005
