~VERSION INFORMATION
VERS.           2.0   :CWLS Log ASCII Standard - VERSION 2.0
WRAP.           NO    :One Line per depth step
PROD.  Schlumberger   :LAS Producer
PROG.  DLIS to ASCII 19C2-270                          :LAS Program name and version
CREA.        2017/09/16 17:42                          :LAS Creation date {YYYY/MM/DD hh:mm}
DLIS_CREA.  2017-Sep-15 12:43                          :DLIS Creation date and time {YYYY-MMM-DD hh:mm}
SOURCE.     LPC_S1-1_BV.DLIS                           :DLIS File Name
FILE-ID.     PERFO_Perfo_WPGRT_021LTP                  :File Identification Number
#--------------------------------------------------
~WELL INFORMATION
#MNEM.UNIT      DATA             DESCRIPTION
#---- ------ --------------   -----------------------------
STRT .S         6992.0       :START TIME      
STOP .S         7825.0       :STOP TIME      
STEP .S            1.0       :STEP     
NULL .          -999.25      :NULL VALUE
COMP .        SHELL INTERNATIONAL E P                  :COMPANY
WELL .        WPP TEST 2                               :WELL
FLD  .        WILDCAT                                  :FIELD
LOC  .                                                 :LOCATION
CNTY .        HARRIS                                   :COUNTY
STAT .        TEXAS                                    :STATE
CTRY .                                                 :COUNTRY
API  .                                                 :API NUMBER
UWI  .                                                 :UNIQUE WELL ID
DATE .                                                 :LOG DATE
SRVC .        Schlumberger                             :SERVICE COMPANY
LATI .DEG                                              :LATITUDE
LONG .DEG                                              :LONGITUDE
GDAT .                                                 :GeoDetic Datum
#-----------------------------------------------------------------------------
~PARAMETER INFORMATION
#MNEM.UNIT    VALUE                      DESCRIPTION
#---- -----   --------------------       ------------------------
U-PHASE_B_COMP_PER_YT.                 0 :Phase B Comparator Period Yt
U-PHASE_A_COMP_PER_XT.                 0 :Phase A Comparator Period Xt
U-MAX_EXC_CUR_LIMIT.MA       240.00000   :Requested CM Current Limit
U-REQ_EXC_FQ.HZ              50          :Requested CM Frequency
U-TILT_Y_OFFSET.           0.19916       :WPTET Tilt Y Offset
U-TILT_Y_GAIN.           1.01796         :WPTET Tilt Y Gain
U-TILT_X_OFFSET.          -1.77103       :WPTET Tilt X Offset
U-TILT_X_GAIN.           1.00000         :WPTET Tilt X Gain
U-TILT_OFFSET_TOL.           0.00100     :WPTET Tilt Offset Calibration Tolerance
U-NO_TILT_CAL_ROTATIONS.                 3 :Number of Rotations for Tilt Calibration
HAZI .DEG        0.00000                 :Hole Azimuth
U-STD_TOL_TILT.           0.01000        :Tilt Standard Deviation Tolerance
U-GUN_POS_TOL.DEG        5.00000         :Gun Position Tolerance
ROT_ANGLE_THRESHOLD.DEG        5.00000   :Rotation Stop Angle Tolerance
STOP_ROT_ANGLE.DEG       80.00000        :Rotation Stop Angle
WITN .                                   :Witness's Name
ENGI .                                   :Engineer's Name
COUN .        HARRIS                     :County or Rig Name
FN   .        WILDCAT                    :Field Name
WN   .        WPP TEST 2                 :Well Name
CN   .        SHELL INTERNATIONAL E P    :Company Name
CLAB .        County                     :County/Rig Label
SLAB .        State                      :State/Province Label
RUN  .          1                        :RUN NUMBER
PDAT .        GROUND LEVEL               :Permanent Datum
EPD  .                                   :Elevation of Permanent Datum above Mean Sea Level
LMF  .                                   :Logging Measured From (Name of Logging Elevation Reference)
APD  .                                   :Elevation of Depth Reference (LMF) above Permanent Datum
#-----------------------------------------------------------------------------
~CURVE INFORMATION
#MNEM.UNIT   API CODE                                  DESCRIPTION
#---- -----  --------                                  -----------------------
TIME .S                                                :TIME {F10.1}
FREQ_EMF_SL.HZ                                         :Electromagnetic Field Frequency {F13.4}
PH_SH_WPPCM_SL.DEG                                     :WPPCM Phase Shift {F13.4}
FREQ_EXC_REQ_SL.HZ                                     :Requested Exciter Frequency {F13.4}
RB_SL.DEG                                              :Relative Bearing {F13.4}
SDEV_SL.DEG                                            :Sonde Deviation {F13.4}
TILX_SL.DEG                                            :X-axis Tilt {F13.4}
TILY_SL.DEG                                            :Y-axis Tilt {F13.4}
ROTA_SL.DEG                                            :Motor Rotation Angle {F13.4}
MSPE_SL.RPM                                            :Motor Speed {F13.4}
#-----------------------------------------------------------------------------
# 
#     TIME    FREQ_EMF_SL  PH_SH_WPPCM_ FREQ_EXC_REQ    RB_SL       SDEV_SL      TILX_SL      TILY_SL      ROTA_SL      MSPE_SL
#                          SL           _SL
~A  
# ...
    7055.0       0.0000       0.0000      50.8611     -56.9036       0.9111      -0.7632      -0.4972     297.2735       1.0226
    7056.0       0.0000       0.0000      50.8611     -60.5298       0.9298      -0.8094      -0.4575     303.3752       1.0226
    7057.0       0.0000       0.0000      50.8611     -61.4915       0.8728      -0.7669      -0.4166     309.4651       1.0124
    7058.0       0.0000       0.0000      50.8611     -60.6834       0.9270      -0.8082      -0.4538     315.5546       1.0226
    7059.0       0.0000       0.0000      50.8611     -60.1182       0.7469      -0.6476      -0.3720     321.6721       1.0124
    7060.0       0.0000       0.0000      50.8611     -62.7917       0.9033      -0.8034      -0.4129     327.7625       1.0226
    7061.0       0.0000       0.0000      50.8611     -68.2492       0.9129      -0.8472      -0.3385     333.8650       1.0226
    7062.0       0.0000       0.0000      50.8611     -67.6843       0.8685      -0.8034      -0.3299     339.9422       1.0327
    7063.0       0.0000       0.0000      50.8611     -48.6073       0.8644      -0.6476      -0.5716     346.0577       1.0226
    7064.0       0.0000       0.0000      50.8611     -72.5732       0.9734      -0.9287      -0.2915     352.1603       1.0330
    7065.0       0.0000       0.0000      50.8611     -54.3485       0.8493      -0.6901      -0.4947     358.2761       1.0327
    7066.0       0.0000       0.0000      50.8611     -67.9904       0.9965      -0.9239      -0.3733       4.7829       1.0226
    7067.0       0.0000       0.0000      50.8611     -62.9138       0.9967      -0.8874      -0.4538      10.9022       1.0334
    7068.0       0.0000       0.0000      50.8611     -60.1181       1.0700      -0.9275      -0.5331      17.0014       1.0226
    7069.0       0.0000       0.0000      50.8611     -62.9649       1.0825      -0.9641      -0.4923      23.0917       1.0229
    7070.0       0.0000       0.0000      50.8611     -71.0766       0.7783      -0.7363      -0.2518      29.2003       1.0229
    7071.0       0.0000       0.0000      50.8611     -62.8140       0.7414      -0.6596      -0.3385      35.2869       1.0226
    7072.0       0.0000       0.0000      50.8611     -64.7838       1.0710      -0.9689      -0.4563      41.4018       1.0226
    7073.0       0.0000       0.0000      50.8611     -64.5778       1.0690      -0.9653      -0.4587      47.5036       1.0226
    7074.0       0.0000       0.0000      50.8611     -63.1880       1.0038      -0.8958      -0.4514      53.5932       1.0330
    7075.0       0.0000       0.0000      50.8611     -68.2692       1.1284      -1.0480      -0.4178      59.7081       1.0226
    7076.0       0.0000       0.0000      50.8611     -66.4772       1.1404      -1.0456      -0.4551      65.8108       1.0124
    7077.0       0.0000       0.0000      50.8611     -57.1655       1.0619      -0.8922      -0.5753      71.9003       1.0226
    7078.0       0.0000       0.0000      50.8611     -57.9447       1.2381      -1.0492      -0.6570      78.4197       1.0330
    7079.0       0.0000       0.0000      50.8611     -60.2351       1.1665      -1.0127      -0.5789      84.5219       1.0226
    7080.0       0.0000       0.0000      50.8611     -62.0295       1.0556      -0.9323      -0.4947      90.6245       1.0229
    7081.0       0.0000       0.0000      50.8611     -60.2061       1.1628      -1.0091      -0.5777      96.7293       1.0226
    7082.0       0.0000       0.0000      50.8611     -58.2006       1.3221      -1.1235      -0.6967     102.8442       1.0226
    7083.0       0.0000       0.0000      50.8611     -58.7631       1.2741      -1.0894      -0.6607     108.9460       1.0226
    7084.0       0.0000       0.0000      50.8611     -64.1750       1.3363      -1.2027      -0.5814     115.0478       1.0226
    7085.0       0.0000       0.0000      50.8611     -55.5110       1.1714      -0.9653      -0.6632     121.1496       1.0226
    7086.0       0.0000       0.0000      50.8611     -48.9663       1.1234      -0.8472      -0.7376     127.2391       1.0226
    7087.0     656.4310       0.0000      50.8611     -56.8628       1.0613      -0.8886      -0.5802     133.1884       0.8943
    7088.0    1186.5468       0.0000      50.8611     -58.6849       1.0419      -0.8898      -0.5417     139.0441       1.0226
    7089.0    1273.5023       0.0000      50.8611     -48.7253       1.1274      -0.8472      -0.7437     145.1460       1.0226
    7090.0    1301.7962       0.0000      50.8611     -56.9163       1.0562      -0.8849      -0.5765     151.6282       1.0226
    7091.0    1321.5892       0.0000      50.8611     -53.6660       1.0521      -0.8472      -0.6235     157.7428       1.0330
    7092.0    1339.3624       0.0000      50.8611     -55.1630       1.2220      -1.0030      -0.6979     163.8612       1.0229
    7093.0    1359.9310       0.0000      50.8611     -47.3299       1.2613      -0.9263      -0.8553     169.9631       1.0226
    7094.0    1373.2107       0.0000      50.8611     -53.3114       1.1020      -0.8837      -0.6583     176.0526       1.0223
    7095.0    1389.4929       0.0000      50.8611     -47.9580       0.9834      -0.7303      -0.6583     182.1581       1.0226
    7096.0    1409.2383       0.0000      50.8611     -48.9982       1.0694      -0.8070      -0.7016     188.2570       1.0226
    7097.0    1431.8522       0.0000      50.8611     -47.0717       1.2052      -0.8825      -0.8206     194.3597       1.0226
    7098.0    1446.4930       0.0000      50.8611     -50.5737       1.2951      -1.0006      -0.8218     200.4751       1.0229
    7099.0    1455.7454       0.0000      50.8611     -47.3881       1.0950      -0.8058      -0.7413     206.5774       1.0226
    7100.0    1471.0654       0.0000      50.8611     -52.8769       1.1587      -0.9239      -0.6992     212.2743       1.0226
    7101.0    1489.4831       0.0000      50.8611     -49.2484       1.0140      -0.7681      -0.6619     218.3762       1.0226
    7102.0    1492.9296       0.0000      50.8611     -51.6609       0.9296      -0.7291      -0.5765     224.8832       1.0226
    7103.0    1505.5245       0.0000      50.8611     -43.0467       0.9499      -0.6476      -0.6942     230.9977       1.0229
    7104.0    1508.9493       0.0000      50.8611     -48.0372       0.9233      -0.6865      -0.6174     237.0877       1.0226
    7105.0    1521.8169       0.0000      50.8611     -48.7002       0.7568      -0.5684      -0.4996     243.2056       1.0226
    7106.0    1528.3342       0.0000      50.8611     -49.2100       1.0097      -0.7644      -0.6595     249.2952       1.0223
    7107.0    1525.0193       0.0000      50.8611     -48.1755       0.8107      -0.6038      -0.5405     255.3971       1.0226
    7108.0    1522.0146       0.0000      50.8611     -52.2657       0.8715      -0.6889      -0.5331     261.5117       1.0330
    7109.0    1518.6285       0.0000      50.8611     -46.7352       0.7778      -0.5660      -0.5331     267.6139       1.0226
    7110.0    1512.1946       0.0000      50.8611     -54.1374       0.8486      -0.6877      -0.4972     273.7157       1.0226
    7111.0    1512.1946       0.0000      50.8611     -50.4258       0.8387      -0.6464      -0.5344     279.8175       1.0226
    7112.0    1502.5003       0.0000      50.8611     -53.5846       0.9001      -0.7243      -0.5344     285.9193       1.0226
    7113.0    1502.1167       0.0000      50.8611     -60.4560       0.9278      -0.8070      -0.4575     292.0211       1.0226
    7114.0    1480.5454       0.0000      50.8611     -56.6531       0.8262      -0.6901      -0.4538     298.5156       1.0226
    7115.0    1468.1794       0.0000      50.8611     -57.9271       0.8547      -0.7243      -0.4538     304.6050       1.0226
    7116.0    1458.9479       0.0000      50.8611     -61.5780       0.8678      -0.7632      -0.4129     310.6976       1.0226
    7117.0    1443.6998       0.0000      50.8611     -63.7735       0.8554      -0.7669      -0.3782     316.7870       1.0226
