~VERSION INFORMATION
VERS.           2.0   :CWLS Log ASCII Standard - VERSION 2.0
WRAP.           NO    :One Line per depth step
PROD.  Schlumberger   :LAS Producer
PROG.  DLIS to ASCII 19C2-270                          :LAS Program name and version
CREA.        2017/09/16 17:42                          :LAS Creation date {YYYY/MM/DD hh:mm}
DLIS_CREA.  2017-Sep-15 20:01                          :DLIS Creation date and time {YYYY-MMM-DD hh:mm}
SOURCE.     LPC_S5-1_2BV.DLIS                          :DLIS File Name
FILE-ID.     PERFO_Perfo_WPGRT_065LTP                  :File Identification Number
#--------------------------------------------------
~WELL INFORMATION
#MNEM.UNIT      DATA             DESCRIPTION
#---- ------ --------------   -----------------------------
STRT .S         2351.0       :START TIME      
STOP .S         2776.0       :STOP TIME      
STEP .S            1.0       :STEP     
NULL .          -999.25      :NULL VALUE
COMP .        SHELL INTERNATIONAL E P                  :COMPANY
WELL .        WPP TEST 2                               :WELL
FLD  .        WILDCAT                                  :FIELD
LOC  .        NA                                       :LOCATION
CNTY .        HARRIS                                   :COUNTY
STAT .        TEXAS                                    :STATE
CTRY .                                                 :COUNTRY
API  .        NA                                       :API NUMBER
UWI  .                                                 :UNIQUE WELL ID
DATE .        15-Sep-2017                              :LOG DATE {DD-MMM-YYYY}
SRVC .        Schlumberger                             :SERVICE COMPANY
LATI .DEG                                              :LATITUDE
LONG .DEG                                              :LONGITUDE
GDAT .                                                 :GeoDetic Datum
SECT .        NA                                       :Section
RANG .        NA                                       :Range
TOWN .        NA                                       :Township
#-----------------------------------------------------------------------------
~PARAMETER INFORMATION
#MNEM.UNIT    VALUE                      DESCRIPTION
#---- -----   --------------------       ------------------------
U-PHASE_B_COMP_PER_YT.                 0 :Phase B Comparator Period Yt
U-PHASE_A_COMP_PER_XT.                 0 :Phase A Comparator Period Xt
U-MAX_EXC_CUR_LIMIT.MA       240.00000   :Requested CM Current Limit
U-REQ_EXC_FQ.HZ              50          :Requested CM Frequency
U-TILT_Y_OFFSET.           0.19916       :WPTET Tilt Y Offset
U-TILT_Y_GAIN.           1.01796         :WPTET Tilt Y Gain
U-TILT_X_OFFSET.          -1.77103       :WPTET Tilt X Offset
U-TILT_X_GAIN.           1.00000         :WPTET Tilt X Gain
U-TILT_OFFSET_TOL.           0.00100     :WPTET Tilt Offset Calibration Tolerance
U-NO_TILT_CAL_ROTATIONS.                 3 :Number of Rotations for Tilt Calibration
HAZI .DEG        0.00000                 :Hole Azimuth
U-STD_TOL_TILT.           0.01000        :Tilt Standard Deviation Tolerance
U-GUN_POS_TOL.DEG        5.00000         :Gun Position Tolerance
ROT_ANGLE_THRESHOLD.DEG        5.00000   :Rotation Stop Angle Tolerance
STOP_ROT_ANGLE.DEG        0.00000        :Rotation Stop Angle
WITN .        MR. DHRUA ARORA            :Witness's Name
ENGI .        MORRIS MOORE               :Engineer's Name
COUN .        HARRIS                     :County or Rig Name
FN   .        WILDCAT                    :Field Name
WN   .        WPP TEST 2                 :Well Name
CN   .        SHELL INTERNATIONAL E P    :Company Name
CLAB .        County                     :County/Rig Label
SLAB .        State                      :State/Province Label
RUN  .          1                        :RUN NUMBER
PDAT .        GROUND LEVEL               :Permanent Datum
EPD  .                                   :Elevation of Permanent Datum above Mean Sea Level
LMF  .          NA                       :Logging Measured From (Name of Logging Elevation Reference)
APD  .                                   :Elevation of Depth Reference (LMF) above Permanent Datum
#-----------------------------------------------------------------------------
~CURVE INFORMATION
#MNEM.UNIT   API CODE                                  DESCRIPTION
#---- -----  --------                                  -----------------------
TIME .S                                                :TIME {F10.1}
FREQ_EMF_SL.HZ                                         :Electromagnetic Field Frequency {F13.4}
PH_SH_WPPCM_SL.DEG                                     :WPPCM Phase Shift {F13.4}
FREQ_EXC_REQ_SL.HZ                                     :Requested Exciter Frequency {F13.4}
RB_SL.DEG                                              :Relative Bearing {F13.4}
SDEV_SL.DEG                                            :Sonde Deviation {F13.4}
TILX_SL.DEG                                            :X-axis Tilt {F13.4}
TILY_SL.DEG                                            :Y-axis Tilt {F13.4}
ROTA_SL.DEG                                            :Motor Rotation Angle {F13.4}
MSPE_SL.RPM                                            :Motor Speed {F13.4}
#-----------------------------------------------------------------------------
# 
#     TIME    FREQ_EMF_SL  PH_SH_WPPCM_ FREQ_EXC_REQ    RB_SL       SDEV_SL      TILX_SL      TILY_SL      ROTA_SL      MSPE_SL
#                          SL           _SL
~A  
# ...
    2477.0    1315.1968       0.0000      50.8611     -48.4802       1.2383      -0.9182      -0.8259     351.6015       1.0226
    2478.0    1291.5991       0.0000      50.8611     -48.7345       1.1477      -0.8626      -0.7570     357.7033       1.0226
    2479.0    1269.3893       0.0000      50.8611     -44.5782       1.2150      -0.8533      -0.8639       3.8051       1.0226
    2480.0    1239.7568       0.0000      50.8611     -35.9463       1.1453      -0.6678      -0.9238       9.9069       1.0226
    2481.0    1223.1557       0.0000      50.8611     -45.6969       1.0668      -0.7575      -0.7446      16.0088       1.0226
    2482.0    1200.3516       0.0000      50.8611     -41.8562       1.1752      -0.7855      -0.8734      22.1117       1.0226
    2483.0    1190.8866       0.0000      50.8611     -32.8629       1.0600      -0.5721      -0.8920      28.2001       1.0226
    2484.0    1169.7862       0.0000      50.8611     -38.3887       1.0949      -0.6804      -0.8577      34.2983       1.0161
    2485.0    1149.6186       0.0000      50.8611     -27.1799       0.8612      -0.4049      -0.7256      40.7851       1.0267
    2486.0    1142.3103       0.0000      50.8611     -39.2735       1.0224      -0.6464      -0.7917      46.9142       1.0161
    2487.0    1124.9174       0.0000      50.8611     -47.0040       1.0273      -0.7514      -0.7004      53.0179       1.0267
    2488.0    1113.8949       0.0000      50.8611     -38.3320       0.7916      -0.4918      -0.6186      59.1281       1.0161
    2489.0    1100.2282       0.0000      50.8611     -40.0741       0.9291      -0.5969      -0.7099      65.2224       1.0226
    2490.0    1090.5118       0.0000      50.8611     -44.4262       0.9588      -0.6711      -0.6847      71.3242       1.0226
    2491.0    1086.3586       0.0000      50.8611     -41.7362       0.8636      -0.5754      -0.6438      77.4241       1.0226
    2492.0    1085.7130       0.0000      50.8611     -43.8709       0.8028      -0.5567      -0.5777      83.5154       1.0226
    2493.0    1074.3603       0.0000      50.8611     -44.4019       0.6942      -0.4857      -0.4959      89.6172       1.0226
    2494.0    1077.7788       0.0000      50.8611     -49.8530       0.7934      -0.6062      -0.5116      95.7213       1.0226
    2495.0    1080.0691       0.0000      50.8611     -47.3148       0.6949      -0.5104      -0.4707     101.8096       1.0226
    2496.0    1082.7579       0.0000      50.8611     -46.5323       0.6272      -0.4549      -0.4299     107.9114       1.0226
    2497.0    1085.3283       0.0000      50.8611     -50.9198       0.6575      -0.5104      -0.4142     114.4182       1.0226
    2498.0    1098.8982       0.0000      50.8611     -55.1354       0.5632      -0.4609      -0.3229     120.5077       1.0226
    2499.0    1103.5507       0.0000      50.8611     -56.2081       0.6525      -0.5413      -0.3638     126.6095       1.0226
    2500.0    1125.4214       0.0000      50.8611     -59.3190       0.6615      -0.5660      -0.3386     132.6961       1.0185
    2501.0    1122.3800       0.0000      50.8611     -64.5839       0.6813      -0.6155      -0.2915     138.7905       1.0226
    2502.0    1131.8254       0.0000      50.8611     -59.7576       0.8068      -0.6959      -0.4047     144.8850       1.0292
    2503.0    1149.4914       0.0000      50.8611     -63.3149       0.7406      -0.6618      -0.3324     150.9961       1.0226
    2504.0    1163.3758       0.0000      50.8611     -69.4453       0.7599      -0.7113      -0.2663     157.0968       1.0226
    2505.0    1186.1766       0.0000      50.8611     -75.8135       0.7942      -0.7701      -0.1940     163.1987       1.0226
    2506.0    1209.7172       0.0000      50.8611     -65.9270       0.7429      -0.6772      -0.3010     169.3188       1.0292
    2507.0    1215.8615       0.0000      50.8611     -68.9382       0.8394      -0.7823      -0.3010     175.4177       1.0226
    2508.0    1235.2194       0.0000      50.8611     -71.9956       0.7989      -0.7575      -0.2444     181.5196       1.0226
    2509.0    1261.4748       0.0000      50.8611     -75.1846       0.8862      -0.8565      -0.2254     188.0315       1.0267
    2510.0    1282.0032       0.0000      50.8611     -72.4689       0.9146      -0.8719      -0.2758     194.1292       1.0226
    2511.0    1295.2597       0.0000      50.8611     -69.4620       0.9077      -0.8505      -0.3167     200.2329       1.0226
    2512.0    1315.1968       0.0000      50.8611     -76.5412       0.9024      -0.8719      -0.2130     206.3348       1.0226
    2513.0    1336.7396       0.0000      50.8611     -74.6187       1.0039      -0.9677      -0.2663     212.4295       1.0292
    2514.0    1365.9128       0.0000      50.8611     -76.1026       0.9586      -0.9303      -0.2192     218.5394       1.0226
    2515.0    1380.7595       0.0000      50.8611     -72.0488       1.2299      -1.1685      -0.3795     224.6413       1.0226
    2516.0    1398.9314       0.0000      50.8611     -67.4235       1.0619      -0.9677      -0.4113     230.7483       1.0292
    2517.0    1412.9877       0.0000      50.8611     -70.8934       1.1417      -1.0789      -0.3733     236.8583       1.0226
    2518.0    1427.3295       0.0000      50.8611     -70.4438       1.1649      -1.0975      -0.3890     242.9613       1.0226
    2519.0    1421.1276       0.0000      50.8611     -71.7855       1.2156      -1.1531      -0.3795     249.0632       1.0226
    2520.0    1452.7377       0.0000      50.8611     -66.3970       1.1613      -1.0634      -0.4646     253.0676       0.0005
    2521.0    1460.4104       0.0000      50.8611     -68.9898       1.1830      -1.1036      -0.4237     253.0676       0.0005
    2522.0    1459.9294       0.0000      50.8611     -67.1891       1.2140      -1.1190      -0.4707     253.0676       0.0005
    2523.0    1463.6751       0.0000      50.8611     -68.0673       1.1527      -1.0695      -0.4299     253.0676       0.0005
    2524.0    1460.6345       0.0000      50.8611     -69.5378       1.1229      -1.0508      -0.3951     253.0676       0.0005
    2525.0    1461.7983       0.0000      50.8611     -70.5738       1.1480      -1.0821      -0.3828     253.0676       0.0005
    2526.0    1458.7655       0.0000      50.8611     -73.7773       1.1335      -1.0882      -0.3167     253.0676       0.0005
    2527.0    1461.3522       0.0000      50.8611     -70.4029       1.3094      -1.2334      -0.4394     253.0676       0.0005
    2528.0    1463.2368       0.0000      50.8611     -68.1497       1.1958      -1.1097      -0.4455     253.0676       0.0005
    2529.0    1461.0980       0.0000      50.8611     -67.1026       1.1920      -1.0975      -0.4646     253.0676       0.0005
    2530.0    1463.4501       0.0000      50.8611     -66.7973       1.2393      -1.1377      -0.4898     253.0676       0.0005
    2531.0    1462.5112       0.0000      50.8611     -68.3258       1.2742      -1.1839      -0.4707     253.0676       0.0005
    2532.0    1457.6065       0.0000      50.8611     -67.9431       1.2807      -1.1872      -0.4802     253.0676       0.0005
    2533.0    1461.7983       0.0000      50.8611     -67.3814       1.2064      -1.1129      -0.4646     253.0676       0.0005
    2534.0    1459.9294       0.0000      50.8611     -68.7292       1.2110      -1.1284      -0.4394     253.0676       0.0005
    2535.0    1463.6751       0.0000      50.8611     -70.2375       1.2253      -1.1531      -0.4142     253.0676       0.0005
    2536.0    1462.5112       0.0000      50.8611     -70.0885       1.2435      -1.1685      -0.4237     253.0676       0.0005
    2537.0    1464.8438       0.0000      50.8611     -70.3354       1.1558      -1.0882      -0.3890     253.0676       0.0005
    2538.0    1459.2369       0.0000      50.8611     -65.1445       1.1449      -1.0387      -0.4802     253.0676       0.0005
    2539.0    1458.7655       0.0000      50.8611     -67.6347       1.1785      -1.0882      -0.4489     253.0676       0.0005
