~VERSION INFORMATION
VERS.           2.0   :CWLS Log ASCII Standard - VERSION 2.0
WRAP.           NO    :One Line per depth step
PROD.  Schlumberger   :LAS Producer
PROG.  DLIS to ASCII 19C2-270                          :LAS Program name and version
CREA.        2017/09/16 17:42                          :LAS Creation date {YYYY/MM/DD hh:mm}
DLIS_CREA.  2017-Sep-15 19:08                          :DLIS Creation date and time {YYYY-MMM-DD hh:mm}
SOURCE.     LPC_S5-1_B5.DLIS                           :DLIS File Name
FILE-ID.     PERFO_Perfo_WPGRT_059LTP                  :File Identification Number
#--------------------------------------------------
~WELL INFORMATION
#MNEM.UNIT      DATA             DESCRIPTION
#---- ------ --------------   -----------------------------
STRT .S         7683.0       :START TIME      
STOP .S         8122.0       :STOP TIME      
STEP .S            1.0       :STEP     
NULL .          -999.25      :NULL VALUE
COMP .        SHELL INTERNATIONAL E P                  :COMPANY
WELL .        WPP TEST 2                               :WELL
FLD  .        WILDCAT                                  :FIELD
LOC  .        NA                                       :LOCATION
CNTY .        HARRIS                                   :COUNTY
STAT .        TEXAS                                    :STATE
CTRY .                                                 :COUNTRY
API  .        NA                                       :API NUMBER
UWI  .                                                 :UNIQUE WELL ID
DATE .        15-Sep-2017                              :LOG DATE {DD-MMM-YYYY}
SRVC .        Schlumberger                             :SERVICE COMPANY
LATI .DEG                                              :LATITUDE
LONG .DEG                                              :LONGITUDE
GDAT .                                                 :GeoDetic Datum
SECT .        NA                                       :Section
RANG .        NA                                       :Range
TOWN .        NA                                       :Township
#-----------------------------------------------------------------------------
~PARAMETER INFORMATION
#MNEM.UNIT    VALUE                      DESCRIPTION
#---- -----   --------------------       ------------------------
U-PHASE_B_COMP_PER_YT.                 0 :Phase B Comparator Period Yt
U-PHASE_A_COMP_PER_XT.                 0 :Phase A Comparator Period Xt
U-MAX_EXC_CUR_LIMIT.MA       240.00000   :Requested CM Current Limit
U-REQ_EXC_FQ.HZ              50          :Requested CM Frequency
U-TILT_Y_OFFSET.           0.19916       :WPTET Tilt Y Offset
U-TILT_Y_GAIN.           1.01796         :WPTET Tilt Y Gain
U-TILT_X_OFFSET.          -1.77103       :WPTET Tilt X Offset
U-TILT_X_GAIN.           1.00000         :WPTET Tilt X Gain
U-TILT_OFFSET_TOL.           0.00100     :WPTET Tilt Offset Calibration Tolerance
U-NO_TILT_CAL_ROTATIONS.                 3 :Number of Rotations for Tilt Calibration
HAZI .DEG        0.00000                 :Hole Azimuth
U-STD_TOL_TILT.           0.01000        :Tilt Standard Deviation Tolerance
U-GUN_POS_TOL.DEG        5.00000         :Gun Position Tolerance
ROT_ANGLE_THRESHOLD.DEG        5.00000   :Rotation Stop Angle Tolerance
STOP_ROT_ANGLE.DEG        0.00000        :Rotation Stop Angle
WITN .        MR. DHRUA ARORA            :Witness's Name
ENGI .        MORRIS MOORE               :Engineer's Name
COUN .        HARRIS                     :County or Rig Name
FN   .        WILDCAT                    :Field Name
WN   .        WPP TEST 2                 :Well Name
CN   .        SHELL INTERNATIONAL E P    :Company Name
CLAB .        County                     :County/Rig Label
SLAB .        State                      :State/Province Label
RUN  .          1                        :RUN NUMBER
PDAT .        GROUND LEVEL               :Permanent Datum
EPD  .                                   :Elevation of Permanent Datum above Mean Sea Level
LMF  .          NA                       :Logging Measured From (Name of Logging Elevation Reference)
APD  .                                   :Elevation of Depth Reference (LMF) above Permanent Datum
#-----------------------------------------------------------------------------
~CURVE INFORMATION
#MNEM.UNIT   API CODE                                  DESCRIPTION
#---- -----  --------                                  -----------------------
TIME .S                                                :TIME {F10.1}
FREQ_EMF_SL.HZ                                         :Electromagnetic Field Frequency {F13.4}
PH_SH_WPPCM_SL.DEG                                     :WPPCM Phase Shift {F13.4}
FREQ_EXC_REQ_SL.HZ                                     :Requested Exciter Frequency {F13.4}
RB_SL.DEG                                              :Relative Bearing {F13.4}
SDEV_SL.DEG                                            :Sonde Deviation {F13.4}
TILX_SL.DEG                                            :X-axis Tilt {F13.4}
TILY_SL.DEG                                            :Y-axis Tilt {F13.4}
ROTA_SL.DEG                                            :Motor Rotation Angle {F13.4}
MSPE_SL.RPM                                            :Motor Speed {F13.4}
#-----------------------------------------------------------------------------
# 
#     TIME    FREQ_EMF_SL  PH_SH_WPPCM_ FREQ_EXC_REQ    RB_SL       SDEV_SL      TILX_SL      TILY_SL      ROTA_SL      MSPE_SL
#                          SL           _SL
~A  
# ...
    7935.0    1413.1831       0.0000      50.8611     -74.6031       5.3186      -5.1268      -1.4101     127.7295       1.0226
    7936.0    1406.2500       0.0000      50.8611     -70.2359       5.3136      -4.9987      -1.7936     133.8314       1.0226
    7937.0    1403.4431       0.0000      50.8611     -65.0265       5.5486      -5.0283      -2.3398     139.9333       1.0226
    7938.0    1388.0745       0.0000      50.8611     -60.5576       5.4988      -4.7835      -2.7009     146.0352       1.0226
    7939.0    1388.0745       0.0000      50.8611     -54.9015       5.3488      -4.3742      -3.0719     152.1371       1.0226
    7940.0    1381.3850       0.0000      50.8611     -50.3067       5.4269      -4.1734      -3.4623     158.4483       1.0226
    7941.0    1366.7456       0.0000      50.8611     -46.2667       5.4320      -3.9218      -3.7524     164.7568       1.0285
    7942.0    1350.9891       0.0000      50.8611     -40.7196       5.5824      -3.6369      -4.2284     170.8595       1.0237
    7943.0    1353.3424       0.0000      50.8611     -35.2927       5.3894      -3.1071      -4.3958     176.9680       1.0178
    7944.0    1335.5918       0.0000      50.8611     -31.4522       5.2545      -2.7388      -4.4806     183.0704       1.0237
    7945.0    1329.1588       0.0000      50.8611     -25.3801       5.3231      -2.2788      -4.8077     189.1660       1.0178
    7946.0    1303.0748       0.0000      50.8611     -21.0577       5.3265      -1.9114      -4.9695     195.2754       1.0226
    7947.0    1301.8587       0.0000      50.8611     -14.6335       5.1806      -1.3072      -5.0121     201.3649       1.0285
    7948.0    1286.4858       0.0000      50.8611      -9.2438       5.1161      -0.8214      -5.0491     207.5001       1.0285
    7949.0    1271.4738       0.0000      50.8611      -5.3688       5.0010      -0.4675      -4.9790     213.6151       1.0275
    7950.0    1267.9267       0.0000      50.8611       1.4615       4.9782       0.1283      -4.9751     219.7105       1.0226
    7951.0    1269.1787       0.0000      50.8611       5.8256       4.8070       0.4859      -4.7814     225.8124       1.0226
    7952.0    1274.6120       0.0000      50.8611      11.6186       4.6660       0.9383      -4.5701     231.9021       1.0226
    7953.0    1271.6964       0.0000      50.8611      18.0345       4.6898       1.4499      -4.4582     238.4103       1.0226
    7954.0    1269.4004       0.0000      50.8611      22.8144       4.5997       1.7818      -4.2391     244.5102       1.0285
    7955.0    1272.3056       0.0000      50.8611      27.4041       4.3986       2.0228      -3.9043     250.6166       1.0226
    7956.0    1288.8439       0.0000      50.8611      34.5046       4.2663       2.4139      -3.5139     256.7061       1.0226
    7957.0    1300.1507       0.0000      50.8611      40.0435       4.1451       2.6655      -3.1722     262.8080       1.0226
    7958.0    1300.9943       0.0000      50.8611      47.5477       4.1525       3.0621      -2.8003     268.8974       1.0226
    7959.0    1315.1413       0.0000      50.8611      53.1954       3.8879       3.1111      -2.3281     274.9878       1.0285
    7960.0    1328.0240       0.0000      50.8611      59.4662       3.6644       3.1551      -1.8599     281.1028       1.0226
    7961.0    1333.0596       0.0000      50.8611      67.4057       3.7234       3.4363      -1.4286     287.1978       1.0168
    7962.0    1340.4423       0.0000      50.8611      74.6152       3.7082       3.5750      -0.9827     293.2817       1.0226
    7963.0    1339.2858       0.0000      50.8611      81.7916       3.6044       3.5673      -0.5144     299.3835       1.0226
    7964.0    1357.1403       0.0000      50.8611      87.6515       3.4981       3.4946      -0.1426     305.4860       1.0226
    7965.0    1358.8217       0.0000      50.8611      96.8985       3.3651       3.3407       0.4036     311.9958       1.0226
    7966.0    1364.0940       0.0000      50.8611     105.2798       3.4945       3.3703       0.9205     318.1048       1.0285
    7967.0    1373.2910       0.0000      50.8611     112.4954       3.3682       3.1111       1.2885     324.2135       1.0226
    7968.0    1375.9785       0.0000      50.8611     120.6595       3.4475       2.9648       1.7568     330.3153       1.0285
    7969.0    1378.6765       0.0000      50.8611     128.3048       3.4043       2.6693       2.1102     336.4301       1.0226
    7970.0    1396.6078       0.0000      50.8611     135.5910       3.4028       2.3805       2.4295     342.5072       1.0226
    7971.0    1404.9799       0.0000      50.8611     143.2268       3.5211       2.1070       2.8199     348.6090       1.0226
    7972.0    1400.9180       0.0000      50.8611     150.9311       3.5805       1.7378       3.1285     354.7240       1.0226
    7973.0    1411.6340       0.0000      50.8611     159.1843       3.6096       1.2816       3.3738       0.8258       1.0226
    7974.0    1418.8867       0.0000      50.8611     167.7103       3.7422       0.7958       3.6561       6.9276       1.0226
    7975.0    1424.6364       0.0000      50.8611     172.8344       3.8049       0.4745       3.7749      13.0294       1.0226
    7976.0    1427.8041       0.0000      50.8611    -179.3680       3.9796      -0.0439       3.9794      19.1313       1.0226
    7977.0    1429.1158       0.0000      50.8611    -174.5737       3.9659      -0.3766       3.9462      25.6542       1.0226
    7978.0    1433.0832       0.0000      50.8611    -166.3348       4.0995      -0.9677       3.9832      31.7561       1.0226
    7979.0    1441.1165       0.0000      50.8611    -160.7440       4.2006      -1.3837       3.9647      37.8710       1.0275
    7980.0    1441.4151       0.0000      50.8611    -155.4421       4.2206      -1.7528       3.8382      43.9588       1.0226
    7981.0    1439.4966       0.0000      50.8611    -148.3617       4.3274      -2.2645       3.6815      50.0755       1.0275
    7982.0    1443.5129       0.0000      50.8611    -142.5049       4.4969      -2.7350       3.5666      56.1904       1.0275
    7983.0    1451.3822       0.0000      50.8611    -136.2263       4.7219      -3.2648       3.4069      62.2929       1.0226
    7984.0    1451.0976       0.0000      50.8611    -131.4036       4.5642      -3.4217       3.0165      68.4078       1.0226
    7985.0    1454.0987       0.0000      50.8611    -124.8836       4.6593      -3.8195       2.6632      74.5096       1.0226
    7986.0    1451.3822       0.0000      50.8611    -119.4351       4.8487      -4.2212       2.3808      80.6245       1.0226
    7987.0    1449.7422       0.0000      50.8611    -112.7518       5.1056      -4.7070       1.9720      86.7269       1.0275
    7988.0    1449.7422       0.0000      50.8611    -108.3075       5.0664      -4.8093       1.5893      92.8164       1.0226
    7989.0    1439.4966       0.0000      50.8611    -103.8432       5.1536      -5.0025       1.2321      99.3210       1.0275
    7990.0    1436.5556       0.0000      50.8611     -97.5892       5.1729      -5.1268       0.6820     105.4295       1.0275
    7991.0    1433.3489       0.0000      50.8611     -92.0788       5.2916      -5.2875       0.1914     111.5190       1.0226
    7992.0    1429.1158       0.0000      50.8611     -85.7877       5.3969      -5.3822      -0.3957     117.6339       1.0226
    7993.0    1427.2651       0.0000      50.8611     -82.7747       5.4556      -5.4118      -0.6858     123.7502       1.0226
    7994.0    1419.1587       0.0000      50.8611     -77.9163       5.1984      -5.0829      -1.0869     129.8507       1.0226
    7995.0    1404.7132       0.0000      50.8611     -71.6418       5.4066      -5.1307      -1.7002     135.9526       1.0226
    7996.0    1403.1826       0.0000      50.8611     -65.9500       5.5478      -5.0647      -2.2580     142.0544       1.0226
    7997.0    1399.3874       0.0000      50.8611     -61.7245       5.5499      -4.8858      -2.6260     148.1563       1.0226
