~VERSION INFORMATION
VERS.           2.0   :CWLS Log ASCII Standard - VERSION 2.0
WRAP.           NO    :One Line per depth step
PROD.  Schlumberger   :LAS Producer
PROG.  DLIS to ASCII 19C2-270                          :LAS Program name and version
CREA.        2017/09/16 17:42                          :LAS Creation date {YYYY/MM/DD hh:mm}
DLIS_CREA.  2017-Sep-15 17:53                          :DLIS Creation date and time {YYYY-MMM-DD hh:mm}
SOURCE.     LPC_S4-1_BV.DLIS                           :DLIS File Name
FILE-ID.     PERFO_Perfo_WPGRT_051LTP                  :File Identification Number
#--------------------------------------------------
~WELL INFORMATION
#MNEM.UNIT      DATA             DESCRIPTION
#---- ------ --------------   -----------------------------
STRT .S         3166.0       :START TIME      
STOP .S         3598.0       :STOP TIME      
STEP .S            1.0       :STEP     
NULL .          -999.25      :NULL VALUE
COMP .        SHELL INTERNATIONAL E P                  :COMPANY
WELL .        WPP TEST 2                               :WELL
FLD  .        WILDCAT                                  :FIELD
LOC  .        NA                                       :LOCATION
CNTY .        HARRIS                                   :COUNTY
STAT .        TEXAS                                    :STATE
CTRY .                                                 :COUNTRY
API  .        NA                                       :API NUMBER
UWI  .                                                 :UNIQUE WELL ID
DATE .        15-Sep-2017                              :LOG DATE {DD-MMM-YYYY}
SRVC .        Schlumberger                             :SERVICE COMPANY
LATI .DEG                                              :LATITUDE
LONG .DEG                                              :LONGITUDE
GDAT .                                                 :GeoDetic Datum
SECT .        NA                                       :Section
RANG .        NA                                       :Range
TOWN .        NA                                       :Township
#-----------------------------------------------------------------------------
~PARAMETER INFORMATION
#MNEM.UNIT    VALUE                      DESCRIPTION
#---- -----   --------------------       ------------------------
U-PHASE_B_COMP_PER_YT.                 0 :Phase B Comparator Period Yt
U-PHASE_A_COMP_PER_XT.                 0 :Phase A Comparator Period Xt
U-MAX_EXC_CUR_LIMIT.MA       240.00000   :Requested CM Current Limit
U-REQ_EXC_FQ.HZ              50          :Requested CM Frequency
U-TILT_Y_OFFSET.           0.19916       :WPTET Tilt Y Offset
U-TILT_Y_GAIN.           1.01796         :WPTET Tilt Y Gain
U-TILT_X_OFFSET.          -1.77103       :WPTET Tilt X Offset
U-TILT_X_GAIN.           1.00000         :WPTET Tilt X Gain
U-TILT_OFFSET_TOL.           0.00100     :WPTET Tilt Offset Calibration Tolerance
U-NO_TILT_CAL_ROTATIONS.                 3 :Number of Rotations for Tilt Calibration
HAZI .DEG        0.00000                 :Hole Azimuth
U-STD_TOL_TILT.           0.01000        :Tilt Standard Deviation Tolerance
U-GUN_POS_TOL.DEG        5.00000         :Gun Position Tolerance
ROT_ANGLE_THRESHOLD.DEG        5.00000   :Rotation Stop Angle Tolerance
STOP_ROT_ANGLE.DEG        0.00000        :Rotation Stop Angle
WITN .        MR. DHRUA ARORA            :Witness's Name
ENGI .        MORRIS MOORE               :Engineer's Name
COUN .        HARRIS                     :County or Rig Name
FN   .        WILDCAT                    :Field Name
WN   .        WPP TEST 2                 :Well Name
CN   .        SHELL INTERNATIONAL E P    :Company Name
CLAB .        County                     :County/Rig Label
SLAB .        State                      :State/Province Label
RUN  .          1                        :RUN NUMBER
PDAT .        GROUND LEVEL               :Permanent Datum
EPD  .                                   :Elevation of Permanent Datum above Mean Sea Level
LMF  .          NA                       :Logging Measured From (Name of Logging Elevation Reference)
APD  .                                   :Elevation of Depth Reference (LMF) above Permanent Datum
#-----------------------------------------------------------------------------
~CURVE INFORMATION
#MNEM.UNIT   API CODE                                  DESCRIPTION
#---- -----  --------                                  -----------------------
TIME .S                                                :TIME {F10.1}
FREQ_EMF_SL.HZ                                         :Electromagnetic Field Frequency {F13.4}
PH_SH_WPPCM_SL.DEG                                     :WPPCM Phase Shift {F13.4}
FREQ_EXC_REQ_SL.HZ                                     :Requested Exciter Frequency {F13.4}
RB_SL.DEG                                              :Relative Bearing {F13.4}
SDEV_SL.DEG                                            :Sonde Deviation {F13.4}
TILX_SL.DEG                                            :X-axis Tilt {F13.4}
TILY_SL.DEG                                            :Y-axis Tilt {F13.4}
ROTA_SL.DEG                                            :Motor Rotation Angle {F13.4}
MSPE_SL.RPM                                            :Motor Speed {F13.4}
#-----------------------------------------------------------------------------
# 
#     TIME    FREQ_EMF_SL  PH_SH_WPPCM_ FREQ_EXC_REQ    RB_SL       SDEV_SL      TILX_SL      TILY_SL      ROTA_SL      MSPE_SL
#                          SL           _SL
~A  
# ...
    3292.0    1661.6607       0.0000      50.8611     -78.0155       1.2357      -1.2087      -0.2566     252.8032       1.0226
    3293.0    1632.4928       0.0000      50.8611     -75.2214       1.3037      -1.2606      -0.3324     258.9181       1.0226
    3294.0    1586.2527       0.0000      50.8611     -73.3671       1.3457      -1.2890      -0.3852     265.0330       1.0226
    3295.0    1553.1590       0.0000      50.8611     -65.0963       1.3547      -1.2263      -0.5727     271.1348       1.0226
    3296.0    1511.6222       0.0000      50.8611     -68.8876       1.4743      -1.3752      -0.5308     277.6447       1.0226
    3297.0    1475.8797       0.0000      50.8611     -68.4159       1.4600      -1.3576      -0.5368     283.7438       1.0226
    3298.0    1439.6178       0.0000      50.8611     -66.5089       1.5370      -1.4095      -0.6126     289.8483       1.0226
    3299.0    1403.8536       0.0000      50.8611     -63.3164       1.5329      -1.3694      -0.6884     295.9501       1.0226
    3300.0    1357.7682       0.0000      50.8611     -59.3924       1.4918      -1.2841      -0.7592     302.0396       1.0226
    3301.0    1316.0656       0.0000      50.8611     -62.8131       1.4054      -1.2489      -0.6425     308.1414       1.0226
    3302.0    1279.4346       0.0000      50.8611     -56.7942       1.4735      -1.2322      -0.8051     314.2439       1.0226
    3303.0    1213.5158       0.0000      50.8611     -55.8082       1.4755      -1.2204      -0.8290     320.3458       1.0226
    3304.0    1120.4868       0.0000      50.8611     -49.8141       1.3412      -1.0264      -0.8580     326.4484       1.0226
    3305.0    1058.5023       0.0000      50.8611     -48.0453       1.4328      -1.0656      -0.9577     332.5503       1.0226
    3306.0     995.1952       0.0000      50.8611     -58.8698       1.3564      -1.1568      -0.7013     338.6521       1.0136
    3307.0     972.3139       0.0000      50.8611     -46.7843       1.4073      -1.0255      -0.9636     344.7547       1.0226
    3308.0     946.8935       0.0000      50.8611     -46.1654       1.5010      -1.0823      -1.0394     351.2645       1.0226
    3309.0     929.0106       0.0000      50.8611     -38.8518       1.4693      -0.9217      -1.1442     357.3637       1.0226
    3310.0     906.7755       0.0000      50.8611     -43.1968       1.4332      -0.9794      -1.0445       3.4655       1.0226
    3311.0     897.6539       0.0000      50.8611     -43.1770       1.2969      -0.8874      -0.9457       9.5594       1.0211
    3312.0     883.8115       0.0000      50.8611     -39.9704       1.2037      -0.7727      -0.9228      15.6595       1.0226
    3313.0     879.0672       0.0000      50.8611     -40.1287       1.3061      -0.8413      -0.9986      21.7744       1.0226
    3314.0     871.1563       0.0000      50.8611     -36.1820       1.2517      -0.7384      -1.0105      27.8762       1.0226
    3315.0     866.3872       0.0000      50.8611     -37.9733       1.0965      -0.6748      -0.8639      33.9657       1.0226
    3316.0     874.8302       0.0000      50.8611     -32.1525       1.1925      -0.6346      -1.0095      40.0811       1.0242
    3317.0     877.6336       0.0000      50.8611     -33.0324       1.0667      -0.5827      -0.8929      46.1725       1.0136
    3318.0     878.1303       0.0000      50.8611     -36.5411       1.0490      -0.6229      -0.8410      52.2720       1.0226
    3319.0     887.1570       0.0000      50.8611     -34.2337       0.9957      -0.5602      -0.8230      58.3616       1.0226
    3320.0     906.4075       0.0000      50.8611     -35.1108       0.9641      -0.5543      -0.7881      64.8714       1.0226
    3321.0     922.1961       0.0000      50.8611     -32.0878       0.9598      -0.5092      -0.8111      70.9608       1.0211
    3322.0     940.5319       0.0000      50.8611     -23.3552       0.8905      -0.3534      -0.8171      77.0652       1.0226
    3323.0     961.3251       0.0000      50.8611     -25.0781       0.6406      -0.2741      -0.5787      83.1633       1.0302
    3324.0     993.7008       0.0000      50.8611     -32.3324       0.8219      -0.4397      -0.6944      89.2670       1.0226
    3325.0    1055.7254       0.0000      50.8611     -29.5497       0.7317      -0.3593      -0.6365      95.3688       1.0226
    3326.0    1153.1820       0.0000      50.8611     -36.4677       0.6242      -0.3711      -0.5019     101.4837       1.0226
    3327.0    1238.8089       0.0000      50.8611     -30.7193       0.6247      -0.3192      -0.5368     107.5860       1.0226
    3328.0    1301.0313       0.0000      50.8611     -36.0538       0.6208      -0.3652      -0.5019     113.6767       1.0136
    3329.0    1336.3686       0.0000      50.8611     -44.3926       0.6285      -0.4397      -0.4491     119.7767       1.0226
    3330.0    1382.5229       0.0000      50.8611     -42.9319       0.5194      -0.3534      -0.3793     125.8785       1.0226
    3331.0    1421.6580       0.0000      50.8611     -46.2160       0.4045      -0.2907      -0.2795     131.9922       1.0226
    3332.0    1465.6841       0.0000      50.8611     -55.2100       0.5010      -0.4112      -0.2855     138.5040       1.0226
    3333.0    1513.9319       0.0000      50.8611     -60.3854       0.5912      -0.5141      -0.2915     144.5936       1.0226
    3334.0    1555.5862       0.0000      50.8611     -63.9660       0.5968      -0.5367      -0.2566     150.6832       1.0302
    3335.0    1598.0114       0.0000      50.8611     -66.7757       0.5476      -0.5033      -0.2157     156.7876       1.0136
    3336.0    1637.8737       0.0000      50.8611     -82.9689       0.5895      -0.5836      -0.0691     162.8877       1.0226
    3337.0    1679.7855       0.0000      50.8611     -84.9066       0.5970      -0.5944      -0.0522     168.9896       1.0318
    3338.0    1710.1592       0.0000      50.8611     -84.3706       0.6509      -0.6464      -0.0641     175.1053       1.0226
    3339.0    1735.4857       0.0000      50.8611     -86.0592       0.7629      -0.7610      -0.0522     181.2079       1.0226
    3340.0    1757.1715       0.0000      50.8611     -87.9882       0.7569      -0.7551      -0.0282     185.0594       0.0005
    3341.0    1761.5737       0.0000      50.8611     -82.9468       0.6692      -0.6640      -0.0811     185.0594       0.0005
    3342.0    1756.0126       0.0000      50.8611     -76.7436       0.7115      -0.6924      -0.1629     185.0594       0.0005
    3343.0    1763.5164       0.0000      50.8611     -84.2639       0.6914      -0.6865      -0.0691     185.0594       0.0005
    3344.0    1769.7974       0.0000      50.8611     -90.6964       0.7976      -0.7953       0.0117     185.0594       0.0005
    3345.0    1761.5737       0.0000      50.8611     -89.6249       0.8070      -0.8070      -0.0053     185.0594       0.0005
    3346.0    1759.1044       0.0000      50.8611     -90.4869       0.8419      -0.8413       0.0067     185.0594       0.0005
    3347.0    1765.9981       0.0000      50.8611     -78.8365       0.7710      -0.7551      -0.1509     185.0594       0.0005
    3348.0    1765.3538       0.0000      50.8611     -87.9519       0.8139      -0.8119      -0.0232     185.0594       0.0005
    3349.0    1762.8656       0.0000      50.8611     -86.8317       0.7221      -0.7208      -0.0402     185.0594       0.0005
    3350.0    1769.1532       0.0000      50.8611     -86.3645       0.7282      -0.7267      -0.0462     185.0594       0.0005
    3351.0    1765.9981       0.0000      50.8611     -77.5019       0.8182      -0.7953      -0.1798     185.0594       0.0005
    3352.0    1765.9981       0.0000      50.8611     -80.8684       0.7958      -0.7659      -0.1119     185.0594       0.0005
    3353.0    1759.1044       0.0000      50.8611     -82.9647       0.7531      -0.7434      -0.0980     185.0594       0.0005
    3354.0    1767.2965       0.0000      50.8611     -68.6046       0.7932      -0.7276      -0.2726     185.0594       0.0005
