~VERSION INFORMATION
VERS.           2.0   :CWLS Log ASCII Standard - VERSION 2.0
WRAP.           NO    :One Line per depth step
PROD.  Schlumberger   :LAS Producer
PROG.  DLIS to ASCII 19C2-270                          :LAS Program name and version
CREA.        2017/09/16 17:42                          :LAS Creation date {YYYY/MM/DD hh:mm}
DLIS_CREA.  2017-Sep-15 14:28                          :DLIS Creation date and time {YYYY-MMM-DD hh:mm}
SOURCE.     LPC_S2-1_A5.DLIS                           :DLIS File Name
FILE-ID.     PERFO_Perfo_WPGRT_029LTP                  :File Identification Number
#--------------------------------------------------
~WELL INFORMATION
#MNEM.UNIT      DATA             DESCRIPTION
#---- ------ --------------   -----------------------------
STRT .S        13288.0       :START TIME      
STOP .S        13773.0       :STOP TIME      
STEP .S            1.0       :STEP     
NULL .          -999.25      :NULL VALUE
COMP .        SHELL INTERNATIONAL E P                  :COMPANY
WELL .        WPP TEST 2                               :WELL
FLD  .        WILDCAT                                  :FIELD
LOC  .                                                 :LOCATION
CNTY .        HARRIS                                   :COUNTY
STAT .        TEXAS                                    :STATE
CTRY .                                                 :COUNTRY
API  .                                                 :API NUMBER
UWI  .                                                 :UNIQUE WELL ID
DATE .                                                 :LOG DATE
SRVC .        Schlumberger                             :SERVICE COMPANY
LATI .DEG                                              :LATITUDE
LONG .DEG                                              :LONGITUDE
GDAT .                                                 :GeoDetic Datum
#-----------------------------------------------------------------------------
~PARAMETER INFORMATION
#MNEM.UNIT    VALUE                      DESCRIPTION
#---- -----   --------------------       ------------------------
U-PHASE_B_COMP_PER_YT.                 0 :Phase B Comparator Period Yt
U-PHASE_A_COMP_PER_XT.                 0 :Phase A Comparator Period Xt
U-MAX_EXC_CUR_LIMIT.MA       240.00000   :Requested CM Current Limit
U-REQ_EXC_FQ.HZ              50          :Requested CM Frequency
U-TILT_Y_OFFSET.           0.19916       :WPTET Tilt Y Offset
U-TILT_Y_GAIN.           1.01796         :WPTET Tilt Y Gain
U-TILT_X_OFFSET.          -1.77103       :WPTET Tilt X Offset
U-TILT_X_GAIN.           1.00000         :WPTET Tilt X Gain
U-TILT_OFFSET_TOL.           0.00100     :WPTET Tilt Offset Calibration Tolerance
U-NO_TILT_CAL_ROTATIONS.                 3 :Number of Rotations for Tilt Calibration
HAZI .DEG        0.00000                 :Hole Azimuth
U-STD_TOL_TILT.           0.01000        :Tilt Standard Deviation Tolerance
U-GUN_POS_TOL.DEG        5.00000         :Gun Position Tolerance
ROT_ANGLE_THRESHOLD.DEG        5.00000   :Rotation Stop Angle Tolerance
STOP_ROT_ANGLE.DEG       80.00000        :Rotation Stop Angle
WITN .                                   :Witness's Name
ENGI .                                   :Engineer's Name
COUN .        HARRIS                     :County or Rig Name
FN   .        WILDCAT                    :Field Name
WN   .        WPP TEST 2                 :Well Name
CN   .        SHELL INTERNATIONAL E P    :Company Name
CLAB .        County                     :County/Rig Label
SLAB .        State                      :State/Province Label
RUN  .          1                        :RUN NUMBER
PDAT .        GROUND LEVEL               :Permanent Datum
EPD  .                                   :Elevation of Permanent Datum above Mean Sea Level
LMF  .                                   :Logging Measured From (Name of Logging Elevation Reference)
APD  .                                   :Elevation of Depth Reference (LMF) above Permanent Datum
#-----------------------------------------------------------------------------
~CURVE INFORMATION
#MNEM.UNIT   API CODE                                  DESCRIPTION
#---- -----  --------                                  -----------------------
TIME .S                                                :TIME {F10.1}
FREQ_EMF_SL.HZ                                         :Electromagnetic Field Frequency {F13.4}
PH_SH_WPPCM_SL.DEG                                     :WPPCM Phase Shift {F13.4}
FREQ_EXC_REQ_SL.HZ                                     :Requested Exciter Frequency {F13.4}
RB_SL.DEG                                              :Relative Bearing {F13.4}
SDEV_SL.DEG                                            :Sonde Deviation {F13.4}
TILX_SL.DEG                                            :X-axis Tilt {F13.4}
TILY_SL.DEG                                            :Y-axis Tilt {F13.4}
ROTA_SL.DEG                                            :Motor Rotation Angle {F13.4}
MSPE_SL.RPM                                            :Motor Speed {F13.4}
#-----------------------------------------------------------------------------
# 
#     TIME    FREQ_EMF_SL  PH_SH_WPPCM_ FREQ_EXC_REQ    RB_SL       SDEV_SL      TILX_SL      TILY_SL      ROTA_SL      MSPE_SL
#                          SL           _SL
~A  
   13288.0    1650.5282       0.0000      50.8611     167.2097       3.9779       0.8800       3.8791      79.5149       1.0226
   13289.0    1654.1215       0.0000      50.8611    -177.4693       3.3873      -0.1483       3.3811      84.0243       1.0228
   13290.0    1627.3791       0.0000      50.8611    -170.1745       3.7772      -0.6439       3.7217      90.1421       1.0226
   13291.0    1612.4512       0.0000      50.8611    -150.4698       3.4347      -1.6919       2.9881      96.2540       1.0226
   13292.0    1594.1718       0.0000      50.8611    -159.5062       4.1194      -1.4413       3.8582     102.3529       1.0226
   13293.0    1569.3706       0.0000      50.8611    -150.3331       3.8175      -1.8879       3.3165     108.4450       1.0223
   13294.0    1541.7388       0.0000      50.8611    -138.6702       3.8455      -2.5378       2.8867     114.5387       1.0124
   13295.0    1511.9995       0.0000      50.8611    -138.9084       4.2839      -2.8142       3.2273     120.6376       1.0226
   13296.0    1495.6319       0.0000      50.8611    -127.1658       4.0488      -3.2255       2.4443     127.1352       1.0226
   13297.0    1464.8438       0.0000      50.8611    -133.5399       4.3780      -3.1720       3.0143     133.2399       1.0226
   13298.0    1437.7954       0.0000      50.8611    -118.8302       4.3191      -3.7830       2.0812     139.3267       1.0226
   13299.0    1414.4838       0.0000      50.8611    -111.4502       4.4446      -4.1360       1.6241     145.4138       1.0330
   13300.0    1378.5956       0.0000      50.8611    -108.5216       4.8760      -4.6229       1.5472     151.5314       1.0226
   13301.0    1352.1635       0.0000      50.8611    -105.2041       4.5057      -4.3477       1.1805     157.6362       1.0226
   13302.0    1323.7820       0.0000      50.8611    -103.9398       4.6776      -4.5389       1.1261     163.7349       1.0124
   13303.0    1297.0643       0.0000      50.8611     -92.7703       4.8733      -4.8675       0.2351     169.8220       1.0226
   13304.0    1268.9736       0.0000      50.8611     -87.4728       4.7894      -4.7847      -0.2109     175.9267       1.0226
   13305.0    1205.6171       0.0000      50.8611     -83.5615       5.1079      -5.0755      -0.5716     182.0315       1.0226
   13306.0    1144.4961       0.0000      50.8611     -82.3035       4.6688      -4.6265      -0.6247     188.1182       1.0226
   13307.0    1096.3636       0.0000      50.8611     -76.8586       4.8799      -4.7518      -1.1080     194.2173       1.0226
   13308.0    1032.4890       0.0000      50.8611     -71.0031       4.9760      -4.7032      -1.6183     200.7207       1.0226
   13309.0    1005.9445       0.0000      50.8611     -65.1514       5.0062      -4.5413      -2.1016     206.8197       1.0223
   13310.0     998.3789       0.0000      50.8611     -60.9822       5.3273      -4.6570      -2.5812     212.9199       1.0330
   13311.0     984.6043       0.0000      50.8611     -56.3784       4.9704      -4.1372      -2.7497     219.0247       1.0226
   13312.0     968.6123       0.0000      50.8611     -46.7067       4.7226      -3.4359      -3.2354     225.1427       1.0330
   13313.0     961.9068       0.0000      50.8611     -42.5671       5.1752      -3.4982      -3.8091     231.2417       1.0226
   13314.0     960.4748       0.0000      50.8611     -39.4954       4.9354      -3.1367      -3.8066     237.3669       1.0330
   13315.0     961.7494       0.0000      50.8611     -36.6144       4.9979      -2.9784      -4.0099     243.4849       1.0226
   13316.0     956.7897       0.0000      50.8611     -29.3426       4.5172      -2.2117      -3.9367     249.5897       1.0226
   13317.0     963.1849       0.0000      50.8611     -26.1162       4.8355      -2.1265      -4.3406     255.6883       1.0124
   13318.0     972.5104       0.0000      50.8611     -18.0096       4.9544      -1.5300      -4.7111     261.7750       1.0226
   13319.0     978.0026       0.0000      50.8611     -18.2405       4.6127      -1.4425      -4.3803     267.8796       1.0223
   13320.0     990.6127       0.0000      50.8611     -12.2031       4.5655      -0.9641      -4.4621     274.3766       1.0223
   13321.0    1004.6375       0.0000      50.8611      -6.6941       4.4147      -0.5138      -4.3840     280.4643       1.0226
   13322.0    1026.5049       0.0000      50.8611       0.9513       4.6214       0.0766      -4.6207     286.5689       1.0226
   13323.0    1065.4869       0.0000      50.8611       4.6853       4.4748       0.3650      -4.4596     292.6734       1.0226
   13324.0    1125.3823       0.0000      50.8611       7.9575       4.0477       0.5598      -4.0086     298.7855       1.0226
   13325.0    1208.2435       0.0000      50.8611      16.1773       4.1755       1.1623      -4.0099     304.8843       1.0226
   13326.0    1244.7353       0.0000      50.8611      23.3016       3.9741       1.5712      -3.6492     310.9888       1.0226
   13327.0    1269.6660       0.0000      50.8611      29.4239       4.0882       2.0071      -3.5601     317.0811       1.0226
   13328.0    1304.6448       0.0000      50.8611      32.1925       3.7759       2.0107      -3.1945     323.1799       1.0226
   13329.0    1341.7649       0.0000      50.8611      35.9442       3.4891       2.0472      -2.8241     329.2787       1.0226
   13330.0    1368.0275       0.0000      50.8611      45.8098       3.6423       2.6108      -2.5379     335.3963       1.0223
   13331.0    1395.2560       0.0000      50.8611      53.6070       3.5919       2.8907      -2.1302     341.5017       1.0226
   13332.0    1414.9961       0.0000      50.8611      57.3425       3.3359       2.8080      -1.7994     348.0052       1.0223
   13333.0    1452.6478       0.0000      50.8611      63.9161       3.3439       3.0028      -1.4699     354.0978       1.0226
   13334.0    1480.5454       0.0000      50.8611      74.4523       3.0853       2.9723      -0.8267       0.2287       1.0226
   13335.0    1509.2438       0.0000      50.8611      82.1121       3.3178       3.2864      -0.4551       6.3277       1.0223
   13336.0    1535.5111       0.0000      50.8611      92.1822       3.0524       3.0502       0.1162      12.4141       1.0226
   13337.0    1562.7093       0.0000      50.8611      95.2190       2.7037       2.6923       0.2462      18.5248       1.0229
   13338.0    1594.4964       0.0000      50.8611     103.9826       2.8561       2.7714       0.6898      24.6493       1.0124
   13339.0    1612.6721       0.0000      50.8611     110.8459       2.8788       2.6899       1.0243      30.7627       1.0226
   13340.0    1631.4943       0.0000      50.8611     124.3844       2.9664       2.4477       1.6748      36.8612       1.0124
   13341.0    1650.6447       0.0000      50.8611     131.1770       2.9794       2.2420       1.9610      42.9538       1.0229
   13342.0    1658.4313       0.0000      50.8611     135.6077       2.9169       2.0400       2.0837      49.0718       1.0226
   13343.0    1666.2917       0.0000      50.8611     145.1185       3.0828       1.7624       2.5285      55.1839       1.0226
   13344.0    1670.0120       0.0000      50.8611     154.2122       3.2159       1.3985       2.8953      61.7070       1.0226
   13345.0    1666.2917       0.0000      50.8611     161.9442       3.2175       0.9969       3.0589      67.8117       1.0226
   13346.0    1677.9827       0.0000      50.8611     167.9178       3.0546       0.6390       2.9869      73.9112       1.0226
   13347.0    1669.8938       0.0000      50.8611     173.7878       3.2863       0.3554       3.2670      80.0234       1.0226
   13348.0    1658.1967       0.0000      50.8611    -177.8977       3.5160      -0.1290       3.5135      86.1340       1.0226
   13349.0    1646.5474       0.0000      50.8611    -169.7861       3.4469      -0.6110       3.3921      92.2327       1.0226
   13350.0    1620.1036       0.0000      50.8611    -160.8289       3.5457      -1.1637       3.3488      98.3449       1.0226
