~VERSION INFORMATION
VERS.           2.0   :CWLS Log ASCII Standard - VERSION 2.0
WRAP.           NO    :One Line per depth step
PROD.  Schlumberger   :LAS Producer
PROG.  DLIS to ASCII 19C2-270                          :LAS Program name and version
CREA.        2017/09/16 17:42                          :LAS Creation date {YYYY/MM/DD hh:mm}
DLIS_CREA.  2017-Sep-15 20:01                          :DLIS Creation date and time {YYYY-MMM-DD hh:mm}
SOURCE.     LPC_S5-1_2BV.DLIS                          :DLIS File Name
FILE-ID.     PERFO_Perfo_WPGRT_065LTP                  :File Identification Number
#--------------------------------------------------
~WELL INFORMATION
#MNEM.UNIT      DATA             DESCRIPTION
#---- ------ --------------   -----------------------------
STRT .S         2351.0       :START TIME      
STOP .S         2776.0       :STOP TIME      
STEP .S            1.0       :STEP     
NULL .          -999.25      :NULL VALUE
COMP .        SHELL INTERNATIONAL E P                  :COMPANY
WELL .        WPP TEST 2                               :WELL
FLD  .        WILDCAT                                  :FIELD
LOC  .        NA                                       :LOCATION
CNTY .        HARRIS                                   :COUNTY
STAT .        TEXAS                                    :STATE
CTRY .                                                 :COUNTRY
API  .        NA                                       :API NUMBER
UWI  .                                                 :UNIQUE WELL ID
DATE .        15-Sep-2017                              :LOG DATE {DD-MMM-YYYY}
SRVC .        Schlumberger                             :SERVICE COMPANY
LATI .DEG                                              :LATITUDE
LONG .DEG                                              :LONGITUDE
GDAT .                                                 :GeoDetic Datum
SECT .        NA                                       :Section
RANG .        NA                                       :Range
TOWN .        NA                                       :Township
#-----------------------------------------------------------------------------
~PARAMETER INFORMATION
#MNEM.UNIT    VALUE                      DESCRIPTION
#---- -----   --------------------       ------------------------
U-PHASE_B_COMP_PER_YT.                 0 :Phase B Comparator Period Yt
U-PHASE_A_COMP_PER_XT.                 0 :Phase A Comparator Period Xt
U-MAX_EXC_CUR_LIMIT.MA       240.00000   :Requested CM Current Limit
U-REQ_EXC_FQ.HZ              50          :Requested CM Frequency
U-TILT_Y_OFFSET.           0.19916       :WPTET Tilt Y Offset
U-TILT_Y_GAIN.           1.01796         :WPTET Tilt Y Gain
U-TILT_X_OFFSET.          -1.77103       :WPTET Tilt X Offset
U-TILT_X_GAIN.           1.00000         :WPTET Tilt X Gain
U-TILT_OFFSET_TOL.           0.00100     :WPTET Tilt Offset Calibration Tolerance
U-NO_TILT_CAL_ROTATIONS.                 3 :Number of Rotations for Tilt Calibration
HAZI .DEG        0.00000                 :Hole Azimuth
U-STD_TOL_TILT.           0.01000        :Tilt Standard Deviation Tolerance
U-GUN_POS_TOL.DEG        5.00000         :Gun Position Tolerance
ROT_ANGLE_THRESHOLD.DEG        5.00000   :Rotation Stop Angle Tolerance
STOP_ROT_ANGLE.DEG        0.00000        :Rotation Stop Angle
WITN .        MR. DHRUA ARORA            :Witness's Name
ENGI .        MORRIS MOORE               :Engineer's Name
COUN .        HARRIS                     :County or Rig Name
FN   .        WILDCAT                    :Field Name
WN   .        WPP TEST 2                 :Well Name
CN   .        SHELL INTERNATIONAL E P    :Company Name
CLAB .        County                     :County/Rig Label
SLAB .        State                      :State/Province Label
RUN  .          1                        :RUN NUMBER
PDAT .        GROUND LEVEL               :Permanent Datum
EPD  .                                   :Elevation of Permanent Datum above Mean Sea Level
LMF  .          NA                       :Logging Measured From (Name of Logging Elevation Reference)
APD  .                                   :Elevation of Depth Reference (LMF) above Permanent Datum
#-----------------------------------------------------------------------------
~CURVE INFORMATION
#MNEM.UNIT   API CODE                                  DESCRIPTION
#---- -----  --------                                  -----------------------
TIME .S                                                :TIME {F10.1}
FREQ_EMF_SL.HZ                                         :Electromagnetic Field Frequency {F13.4}
PH_SH_WPPCM_SL.DEG                                     :WPPCM Phase Shift {F13.4}
FREQ_EXC_REQ_SL.HZ                                     :Requested Exciter Frequency {F13.4}
RB_SL.DEG                                              :Relative Bearing {F13.4}
SDEV_SL.DEG                                            :Sonde Deviation {F13.4}
TILX_SL.DEG                                            :X-axis Tilt {F13.4}
TILY_SL.DEG                                            :Y-axis Tilt {F13.4}
ROTA_SL.DEG                                            :Motor Rotation Angle {F13.4}
MSPE_SL.RPM                                            :Motor Speed {F13.4}
#-----------------------------------------------------------------------------
# 
#     TIME    FREQ_EMF_SL  PH_SH_WPPCM_ FREQ_EXC_REQ    RB_SL       SDEV_SL      TILX_SL      TILY_SL      ROTA_SL      MSPE_SL
#                          SL           _SL
~A  
# ...
    2666.0    1085.3283       0.0000      50.8611     -43.9968       0.8629      -0.6001      -0.6186      92.3756       1.0226
    2667.0    1074.1031       0.0000      50.8611     -45.1644       0.7845      -0.5567      -0.5525      98.4786       1.0226
    2668.0    1077.1470       0.0000      50.8611     -48.7881       0.8605      -0.6496      -0.5620     104.5770       1.0334
    2669.0    1078.6682       0.0000      50.8611     -49.7071       0.7425      -0.5660      -0.4802     110.7080       1.0292
    2670.0    1091.4175       0.0000      50.8611     -53.7128       0.7838      -0.6309      -0.4646     116.8013       1.0226
    2671.0    1090.7659       0.0000      50.8611     -55.5603       0.7054      -0.5814      -0.3985     122.9124       1.0226
    2672.0    1093.2555       0.0000      50.8611     -54.8990       0.7213      -0.5875      -0.4080     129.0142       1.0226
    2673.0    1116.4861       0.0000      50.8611     -60.0080       0.7387      -0.6370      -0.3671     135.1180       1.0226
    2674.0    1128.1932       0.0000      50.8611     -51.0469       0.5847      -0.4581      -0.3481     141.2076       1.0226
    2675.0    1131.7086       0.0000      50.8611     -64.9888       0.7210      -0.6524      -0.3010     147.3106       1.0226
    2676.0    1144.4401       0.0000      50.8611     -68.3203       0.6789      -0.6309      -0.2506     153.4175       1.0292
    2677.0    1166.4976       0.0000      50.8611     -62.4590       0.7312      -0.6496      -0.3324     159.5027       1.0226
    2678.0    1185.2468       0.0000      50.8611     -65.6915       0.7705      -0.7019      -0.3167     166.0096       1.0226
    2679.0    1194.8590       0.0000      50.8611     -72.4234       0.8304      -0.7916      -0.2506     172.0991       1.0226
    2680.0    1213.0880       0.0000      50.8611     -68.9830       0.7975      -0.7421      -0.2853     178.2010       1.0226
    2681.0    1238.4067       0.0000      50.8611     -69.7333       1.0728      -1.0018      -0.3766     184.3048       1.0226
    2682.0    1258.6916       0.0000      50.8611     -72.6731       0.8939      -0.8533      -0.2663     190.4180       1.0292
    2683.0    1268.1300       0.0000      50.8611     -73.9033       0.9405      -0.9028      -0.2601     196.5268       1.0292
    2684.0    1290.6832       0.0000      50.8611     -76.6464       0.8903      -0.8659      -0.2066     202.6243       1.0226
    2685.0    1309.3575       0.0000      50.8611     -73.7087       0.9796      -0.9369      -0.2725     208.7262       1.0226
    2686.0    1332.6458       0.0000      50.8611     -73.2354       1.0107      -0.9677      -0.2915     214.8281       1.0226
    2687.0    1344.4073       0.0000      50.8611     -76.3831       0.9013      -0.8748      -0.2159     220.9300       1.0226
    2688.0    1369.9981       0.0000      50.8611     -70.1191       1.0980      -1.0326      -0.3733     227.0331       1.0226
    2689.0    1387.2597       0.0000      50.8611     -68.2795       1.1881      -1.1036      -0.4394     233.1482       1.0226
    2690.0    1398.2950       0.0000      50.8611     -70.2006       1.0550      -0.9924      -0.3576     239.6550       1.0226
    2691.0    1423.3300       0.0000      50.8611     -74.5676       1.0969      -1.0574      -0.2915     245.7569       1.0226
    2692.0    1426.2170       0.0000      50.8611     -71.9055       1.1380      -1.0789      -0.3514     251.8588       1.0226
    2693.0    1440.1495       0.0000      50.8611     -68.4684       1.1008      -1.0233      -0.4047     257.9625       1.0226
    2694.0    1455.0509       0.0000      50.8611     -65.3863       1.1530      -1.0480      -0.4802     264.0625       1.0226
    2695.0    1457.1718       0.0000      50.8611     -68.0182       1.1737      -1.0882      -0.4394     270.1643       1.0226
    2696.0    1463.6751       0.0000      50.8611     -66.1178       1.2224      -1.1160      -0.4958     276.2810       1.0226
    2697.0    1447.2228       0.0000      50.8611     -62.5955       1.2371      -1.0975      -0.5682     282.3828       1.0226
    2698.0    1456.9043       0.0000      50.8611     -62.0354       1.2321      -1.0882      -0.5777     288.4846       1.0226
    2699.0    1451.1569       0.0000      50.8611     -62.5301       1.2194      -1.0821      -0.5620     294.6016       1.0226
    2700.0    1459.4755       0.0000      50.8611     -59.4061       1.3186      -1.1344      -0.6690     300.7034       1.0226
    2701.0    1456.9043       0.0000      50.8611     -60.9405       1.2611      -1.1003      -0.6153     306.8041       1.0226
    2702.0    1443.3532       0.0000      50.8611     -59.3438       1.2937      -1.1129      -0.6595     313.0625       1.0185
    2703.0    1440.8298       0.0000      50.8611     -57.6363       1.2426      -1.0480      -0.6657     319.4146       1.0226
    2704.0    1437.4516       0.0000      50.8611     -54.0087       1.2769      -1.0326      -0.7508     325.5164       1.0226
    2705.0    1415.8330       0.0000      50.8611     -51.4479       1.2697      -0.9924      -0.7917     331.6314       1.0226
    2706.0    1383.4762       0.0000      50.8611     -48.8927       1.3379      -1.0079      -0.8796     337.7332       1.0226
    2707.0    1369.2058       0.0000      50.8611     -51.8625       1.2506      -0.9831      -0.7726     343.8350       1.0226
    2708.0    1354.4164       0.0000      50.8611     -52.4264       1.0317      -0.8236      -0.6192     349.9387       1.0226
    2709.0    1329.1588       0.0000      50.8611     -51.0037       1.1623      -0.9028      -0.7318     356.0405       1.0226
    2710.0    1315.7690       0.0000      50.8611     -41.0683       1.2091      -0.7883      -0.9081       2.1423       1.0226
    2711.0    1300.8114       0.0000      50.8611     -51.3132       1.2832      -0.9985      -0.8012       8.2441       1.0226
    2712.0    1272.0125       0.0000      50.8611     -50.7198       1.1597      -0.8967      -0.7351      14.3459       1.0226
    2713.0    1241.9467       0.0000      50.8611     -50.8938       1.2289      -0.9523      -0.7760      20.4477       1.0226
    2714.0    1231.8975       0.0000      50.8611     -46.0234       1.1009      -0.7883      -0.7603      26.7061       1.0226
    2715.0    1213.0880       0.0000      50.8611     -40.3734       1.1407      -0.7328      -0.8673      33.0575       1.0226
    2716.0    1188.9496       0.0000      50.8611     -40.0359       1.0564      -0.6804      -0.8074      39.1470       1.0161
    2717.0    1178.2258       0.0000      50.8611     -43.0774       1.0507      -0.7174      -0.7665      45.2460       1.0185
    2718.0    1157.6297       0.0000      50.8611     -42.8045       1.0104      -0.6865      -0.7413      51.3384       1.0226
    2719.0    1144.8792       0.0000      50.8611     -38.8188       0.9978      -0.6127      -0.7536      57.4402       1.0226
    2720.0    1123.7069       0.0000      50.8611     -39.2755       0.9304      -0.5891      -0.7200      63.5420       1.0226
    2721.0    1112.6990       0.0000      50.8611     -39.4137       0.9405      -0.5969      -0.7256      69.6611       1.0226
    2722.0    1108.6260       0.0000      50.8611     -42.7420       0.9751      -0.6618      -0.7161      75.7606       1.0226
    2723.0    1102.6227       0.0000      50.8611     -39.1886       0.8401      -0.5319      -0.6500      81.8754       1.0226
    2724.0    1088.0396       0.0000      50.8611     -46.7551       0.8666      -0.6309      -0.5934      87.9784       1.0226
    2725.0    1091.7300       0.0000      50.8611     -46.3779       0.8374      -0.6062      -0.5777      94.0802       1.0226
    2726.0    1087.7832       0.0000      50.8611     -49.9896       0.9515      -0.7267      -0.6124     100.1819       1.0226
    2727.0    1088.6892       0.0000      50.8611     -47.5067       0.8556      -0.6309      -0.5777     106.6887       1.0226
    2728.0    1081.3464       0.0000      50.8611     -51.0311       0.8074      -0.6249      -0.5021     112.7905       1.0226
