~VERSION INFORMATION
VERS.           2.0   :CWLS Log ASCII Standard - VERSION 2.0
WRAP.           NO    :One Line per depth step
PROD.  Schlumberger   :LAS Producer
PROG.  DLIS to ASCII 19C2-270                          :LAS Program name and version
CREA.        2017/09/16 17:42                          :LAS Creation date {YYYY/MM/DD hh:mm}
DLIS_CREA.  2017-Sep-15 17:44                          :DLIS Creation date and time {YYYY-MMM-DD hh:mm}
SOURCE.     LPC_S4-1_B5.DLIS                           :DLIS File Name
FILE-ID.     PERFO_Perfo_WPGRT_050LTP                  :File Identification Number
#--------------------------------------------------
~WELL INFORMATION
#MNEM.UNIT      DATA             DESCRIPTION
#---- ------ --------------   -----------------------------
STRT .S         2640.0       :START TIME      
STOP .S         3106.0       :STOP TIME      
STEP .S            1.0       :STEP     
NULL .          -999.25      :NULL VALUE
COMP .        SHELL INTERNATIONAL E P                  :COMPANY
WELL .        WPP TEST 2                               :WELL
FLD  .        WILDCAT                                  :FIELD
LOC  .        NA                                       :LOCATION
CNTY .        HARRIS                                   :COUNTY
STAT .        TEXAS                                    :STATE
CTRY .                                                 :COUNTRY
API  .        NA                                       :API NUMBER
UWI  .                                                 :UNIQUE WELL ID
DATE .        15-Sep-2017                              :LOG DATE {DD-MMM-YYYY}
SRVC .        Schlumberger                             :SERVICE COMPANY
LATI .DEG                                              :LATITUDE
LONG .DEG                                              :LONGITUDE
GDAT .                                                 :GeoDetic Datum
SECT .        NA                                       :Section
RANG .        NA                                       :Range
TOWN .        NA                                       :Township
#-----------------------------------------------------------------------------
~PARAMETER INFORMATION
#MNEM.UNIT    VALUE                      DESCRIPTION
#---- -----   --------------------       ------------------------
U-PHASE_B_COMP_PER_YT.                 0 :Phase B Comparator Period Yt
U-PHASE_A_COMP_PER_XT.                 0 :Phase A Comparator Period Xt
U-MAX_EXC_CUR_LIMIT.MA       240.00000   :Requested CM Current Limit
U-REQ_EXC_FQ.HZ              50          :Requested CM Frequency
U-TILT_Y_OFFSET.           0.19916       :WPTET Tilt Y Offset
U-TILT_Y_GAIN.           1.01796         :WPTET Tilt Y Gain
U-TILT_X_OFFSET.          -1.77103       :WPTET Tilt X Offset
U-TILT_X_GAIN.           1.00000         :WPTET Tilt X Gain
U-TILT_OFFSET_TOL.           0.00100     :WPTET Tilt Offset Calibration Tolerance
U-NO_TILT_CAL_ROTATIONS.                 3 :Number of Rotations for Tilt Calibration
HAZI .DEG        0.00000                 :Hole Azimuth
U-STD_TOL_TILT.           0.01000        :Tilt Standard Deviation Tolerance
U-GUN_POS_TOL.DEG        5.00000         :Gun Position Tolerance
ROT_ANGLE_THRESHOLD.DEG        5.00000   :Rotation Stop Angle Tolerance
STOP_ROT_ANGLE.DEG        0.00000        :Rotation Stop Angle
WITN .        MR. DHRUA ARORA            :Witness's Name
ENGI .        MORRIS MOORE               :Engineer's Name
COUN .        HARRIS                     :County or Rig Name
FN   .        WILDCAT                    :Field Name
WN   .        WPP TEST 2                 :Well Name
CN   .        SHELL INTERNATIONAL E P    :Company Name
CLAB .        County                     :County/Rig Label
SLAB .        State                      :State/Province Label
RUN  .          1                        :RUN NUMBER
PDAT .        GROUND LEVEL               :Permanent Datum
EPD  .                                   :Elevation of Permanent Datum above Mean Sea Level
LMF  .          NA                       :Logging Measured From (Name of Logging Elevation Reference)
APD  .                                   :Elevation of Depth Reference (LMF) above Permanent Datum
#-----------------------------------------------------------------------------
~CURVE INFORMATION
#MNEM.UNIT   API CODE                                  DESCRIPTION
#---- -----  --------                                  -----------------------
TIME .S                                                :TIME {F10.1}
FREQ_EMF_SL.HZ                                         :Electromagnetic Field Frequency {F13.4}
PH_SH_WPPCM_SL.DEG                                     :WPPCM Phase Shift {F13.4}
FREQ_EXC_REQ_SL.HZ                                     :Requested Exciter Frequency {F13.4}
RB_SL.DEG                                              :Relative Bearing {F13.4}
SDEV_SL.DEG                                            :Sonde Deviation {F13.4}
TILX_SL.DEG                                            :X-axis Tilt {F13.4}
TILY_SL.DEG                                            :Y-axis Tilt {F13.4}
ROTA_SL.DEG                                            :Motor Rotation Angle {F13.4}
MSPE_SL.RPM                                            :Motor Speed {F13.4}
#-----------------------------------------------------------------------------
# 
#     TIME    FREQ_EMF_SL  PH_SH_WPPCM_ FREQ_EXC_REQ    RB_SL       SDEV_SL      TILX_SL      TILY_SL      ROTA_SL      MSPE_SL
#                          SL           _SL
~A  
# ...
    2766.0    1494.3351       0.0000      50.8611    -132.6385       4.5440      -3.3397       3.0761     249.9927       1.0226
    2767.0    1463.0824       0.0000      50.8611    -126.9742       4.4809      -3.5785       2.6933     256.0946       1.0226
    2768.0    1426.0638       0.0000      50.8611    -121.8577       4.5303      -3.8473       2.3878     262.1964       1.0226
    2769.0    1397.8628       0.0000      50.8611    -116.3345       4.6876      -4.2000       2.0778     268.2982       1.0226
    2770.0    1354.6302       0.0000      50.8611    -111.2885       4.8143      -4.4834       1.7462     274.4000       1.0226
    2771.0    1312.8332       0.0000      50.8611    -105.6393       4.9922      -4.8069       1.3440     280.5018       1.0226
    2772.0    1260.8250       0.0000      50.8611    -100.1826       4.8219      -4.7456       0.8511     286.6036       1.0226
    2773.0    1180.3895       0.0000      50.8611     -95.0161       5.0286      -5.0078       0.4377     292.6931       1.0176
    2774.0    1112.1251       0.0000      50.8611     -90.1575       5.0837      -5.0837       0.0140     298.7982       1.0226
    2775.0    1039.7595       0.0000      50.8611     -83.2486       5.1416      -5.1049      -0.6038     304.8968       1.0226
    2776.0     998.6091       0.0000      50.8611     -79.2204       5.0919      -5.0011      -0.9502     311.3820       1.0226
    2777.0     966.3894       0.0000      50.8611     -75.1214       5.2824      -5.1049      -1.3546     317.4846       1.0226
    2778.0     941.7326       0.0000      50.8611     -69.6094       5.3168      -4.9821      -1.8497     323.5864       1.0226
    2779.0     921.9748       0.0000      50.8611     -63.7621       5.2897      -4.7434      -2.3359     329.6882       1.0226
    2780.0     903.0868       0.0000      50.8611     -59.3730       5.2368      -4.5046      -2.6653     335.7900       1.0226
    2781.0     893.4883       0.0000      50.8611     -55.3761       5.3016      -4.3607      -3.0094     341.8861       1.0170
    2782.0     886.6646       0.0000      50.8611     -49.5326       5.3411      -4.0605      -3.4637     347.9698       1.0226
    2783.0     878.9680       0.0000      50.8611     -43.9646       5.2409      -3.6355      -3.7692     354.0716       1.0226
    2784.0     865.8601       0.0000      50.8611     -38.9575       5.2461      -3.2951      -4.0770     170.2866       1.0226
    2785.0     867.8906       0.0000      50.8611     -35.1190       5.1608      -2.9672      -4.2167       6.2884       1.0226
    2786.0     864.2919       0.0000      50.8611     -30.7440       5.2698      -2.6904      -4.5268      12.3902       1.0226
    2787.0     872.9975       0.0000      50.8611     -22.8357       4.9336      -1.9127      -4.5461      18.4921       1.0226
    2788.0     877.8706       0.0000      50.8611     -20.2221       5.0614      -1.7476      -4.7483      24.9911       1.0226
    2789.0     888.2555       0.0000      50.8611     -14.9329       4.9995      -1.2868      -4.8301      31.0913       1.0226
    2790.0     903.3480       0.0000      50.8611     -11.1325       5.0064      -0.9655      -4.9118      37.1932       1.0226
    2791.0     918.7675       0.0000      50.8611      -6.1449       4.9186      -0.5259      -4.8903      43.2885       1.0170
    2792.0     938.8963       0.0000      50.8611       0.9934       4.6657       0.0811      -4.6643      49.3977       1.0226
    2793.0     967.6535       0.0000      50.8611       6.2298       4.6098       0.4995      -4.5825      55.4995       1.0226
    2794.0     996.1785       0.0000      50.8611      10.6968       4.6441       0.8610      -4.5632      61.6013       1.0226
    2795.0    1057.9416       0.0000      50.8611      16.7498       4.4806       1.2861      -4.2895      67.7031       1.0226
    2796.0    1149.3592       0.0000      50.8611      22.8014       4.2433       1.6431      -3.9112      73.8180       1.0226
    2797.0    1241.4993       0.0000      50.8611      29.3523       4.1796       2.0470      -3.6421      79.9329       1.0226
    2798.0    1292.7880       0.0000      50.8611      35.5717       4.2809       2.4889      -3.4808      86.0478       1.0226
    2799.0    1337.2024       0.0000      50.8611      40.8171       4.0506       2.6451      -3.0651      92.1627       1.0226
    2800.0    1381.3850       0.0000      50.8611      46.5212       3.8125       2.7656      -2.6221      98.6725       1.0226
    2801.0    1429.2815       0.0000      50.8611      53.8979       3.7494       3.0278      -2.2087     104.7743       1.0226
    2802.0    1466.8316       0.0000      50.8611      60.7211       3.6815       3.2096      -1.7999     110.8761       1.0226
    2803.0    1502.5873       0.0000      50.8611      66.8713       3.5966       3.3067      -1.4125     116.9713       1.0176
    2804.0    1548.9286       0.0000      50.8611      72.6274       3.4286       3.2710      -1.0230     123.0742       1.0283
    2805.0    1598.9703       0.0000      50.8611      80.4923       3.2521       3.2074      -0.5368     128.9686       1.0226
    2806.0    1639.2050       0.0000      50.8611      90.9876       3.3117       3.3112       0.0572     134.8923       1.0226
    2807.0    1674.1072       0.0000      50.8611      97.3154       3.3581       3.3301       0.4274     140.9877       1.0176
    2808.0    1700.3126       0.0000      50.8611     103.4828       3.1355       3.0490       0.7307     147.0743       1.0176
    2809.0    1727.5798       0.0000      50.8611     113.6008       3.1546       2.8905       1.2622     153.1733       1.0226
    2810.0    1747.2766       0.0000      50.8611     120.7063       3.1978       2.7488       1.6325     159.2756       1.0233
    2811.0    1762.2180       0.0000      50.8611     126.6630       3.3481       2.6853       1.9982     162.2949       0.0005
    2812.0    1766.6456       0.0000      50.8611     124.2205       3.3428       2.7634       1.8778     162.2949       0.0005
    2813.0    1771.0958       0.0000      50.8611     127.0294       3.1154       2.4866       1.8756     162.2949       0.0005
    2814.0    1766.9011       0.0000      50.8611     124.4452       3.2139       2.6495       1.8176     162.2949       0.0005
    2815.0    1768.7483       0.0000      50.8611     124.7929       3.3271       2.7321       1.8971     162.2949       0.0005
    2816.0    1773.2090       0.0000      50.8611     126.7038       3.2762       2.6261       1.9573     162.2949       0.0005
    2817.0    1771.0958       0.0000      50.8611     125.0745       3.1604       2.5860       1.8154     162.2949       0.0005
    2818.0    1764.5536       0.0000      50.8611     126.7824       3.1293       2.5056       1.8733     162.2949       0.0005
    2819.0    1771.0958       0.0000      50.8611     126.9501       3.2896       2.6283       1.9767     162.2949       0.0005
    2820.0    1768.7483       0.0000      50.8611     126.7484       3.2042       2.5670       1.9165     162.2949       0.0005
    2821.0    1766.6456       0.0000      50.8611     125.8934       3.0935       2.5056       1.8131     162.2949       0.0005
    2822.0    1768.7483       0.0000      50.8611     124.2124       3.1582       2.6116       1.7745     162.2949       0.0005
    2823.0    1768.7483       0.0000      50.8611     125.7356       3.2124       2.6071       1.8756     162.2949       0.0005
    2824.0    1768.9931       0.0000      50.8611     125.9933       3.2988       2.6685       1.9380     162.2949       0.0005
    2825.0    1768.7483       0.0000      50.8611     124.5156       3.1672       2.6094       1.7938     162.2949       0.0005
    2826.0    1764.5536       0.0000      50.8611     125.6381       3.1149       2.5312       1.8131     162.2949       0.0005
    2827.0    1770.8616       0.0000      50.8611     124.0825       3.2713       2.7087       1.8324     162.2949       0.0005
    2828.0    1768.9931       0.0000      50.8611     127.1702       3.2776       2.6116       1.9789     162.2949       0.0005
