~VERSION INFORMATION
VERS.           2.0   :CWLS Log ASCII Standard - VERSION 2.0
WRAP.           NO    :One Line per depth step
PROD.  Schlumberger   :LAS Producer
PROG.  DLIS to ASCII 19C2-270                          :LAS Program name and version
CREA.        2017/09/16 17:42                          :LAS Creation date {YYYY/MM/DD hh:mm}
DLIS_CREA.  2017-Sep-15 18:59                          :DLIS Creation date and time {YYYY-MMM-DD hh:mm}
SOURCE.     LPC_S5-1_A5.DLIS                           :DLIS File Name
FILE-ID.     PERFO_Perfo_WPGRT_058LTP                  :File Identification Number
#--------------------------------------------------
~WELL INFORMATION
#MNEM.UNIT      DATA             DESCRIPTION
#---- ------ --------------   -----------------------------
STRT .S         7119.0       :START TIME      
STOP .S         7636.0       :STOP TIME      
STEP .S            1.0       :STEP     
NULL .          -999.25      :NULL VALUE
COMP .        SHELL INTERNATIONAL E P                  :COMPANY
WELL .        WPP TEST 2                               :WELL
FLD  .        WILDCAT                                  :FIELD
LOC  .        NA                                       :LOCATION
CNTY .        HARRIS                                   :COUNTY
STAT .        TEXAS                                    :STATE
CTRY .                                                 :COUNTRY
API  .        NA                                       :API NUMBER
UWI  .                                                 :UNIQUE WELL ID
DATE .        15-Sep-2017                              :LOG DATE {DD-MMM-YYYY}
SRVC .        Schlumberger                             :SERVICE COMPANY
LATI .DEG                                              :LATITUDE
LONG .DEG                                              :LONGITUDE
GDAT .                                                 :GeoDetic Datum
SECT .        NA                                       :Section
RANG .        NA                                       :Range
TOWN .        NA                                       :Township
#-----------------------------------------------------------------------------
~PARAMETER INFORMATION
#MNEM.UNIT    VALUE                      DESCRIPTION
#---- -----   --------------------       ------------------------
U-PHASE_B_COMP_PER_YT.                 0 :Phase B Comparator Period Yt
U-PHASE_A_COMP_PER_XT.                 0 :Phase A Comparator Period Xt
U-MAX_EXC_CUR_LIMIT.MA       240.00000   :Requested CM Current Limit
U-REQ_EXC_FQ.HZ              50          :Requested CM Frequency
U-TILT_Y_OFFSET.           0.19916       :WPTET Tilt Y Offset
U-TILT_Y_GAIN.           1.01796         :WPTET Tilt Y Gain
U-TILT_X_OFFSET.          -1.77103       :WPTET Tilt X Offset
U-TILT_X_GAIN.           1.00000         :WPTET Tilt X Gain
U-TILT_OFFSET_TOL.           0.00100     :WPTET Tilt Offset Calibration Tolerance
U-NO_TILT_CAL_ROTATIONS.                 3 :Number of Rotations for Tilt Calibration
HAZI .DEG        0.00000                 :Hole Azimuth
U-STD_TOL_TILT.           0.01000        :Tilt Standard Deviation Tolerance
U-GUN_POS_TOL.DEG        5.00000         :Gun Position Tolerance
ROT_ANGLE_THRESHOLD.DEG        5.00000   :Rotation Stop Angle Tolerance
STOP_ROT_ANGLE.DEG        0.00000        :Rotation Stop Angle
WITN .        MR. DHRUA ARORA            :Witness's Name
ENGI .        MORRIS MOORE               :Engineer's Name
COUN .        HARRIS                     :County or Rig Name
FN   .        WILDCAT                    :Field Name
WN   .        WPP TEST 2                 :Well Name
CN   .        SHELL INTERNATIONAL E P    :Company Name
CLAB .        County                     :County/Rig Label
SLAB .        State                      :State/Province Label
RUN  .          1                        :RUN NUMBER
PDAT .        GROUND LEVEL               :Permanent Datum
EPD  .                                   :Elevation of Permanent Datum above Mean Sea Level
LMF  .          NA                       :Logging Measured From (Name of Logging Elevation Reference)
APD  .                                   :Elevation of Depth Reference (LMF) above Permanent Datum
#-----------------------------------------------------------------------------
~CURVE INFORMATION
#MNEM.UNIT   API CODE                                  DESCRIPTION
#---- -----  --------                                  -----------------------
TIME .S                                                :TIME {F10.1}
FREQ_EMF_SL.HZ                                         :Electromagnetic Field Frequency {F13.4}
PH_SH_WPPCM_SL.DEG                                     :WPPCM Phase Shift {F13.4}
FREQ_EXC_REQ_SL.HZ                                     :Requested Exciter Frequency {F13.4}
RB_SL.DEG                                              :Relative Bearing {F13.4}
SDEV_SL.DEG                                            :Sonde Deviation {F13.4}
TILX_SL.DEG                                            :X-axis Tilt {F13.4}
TILY_SL.DEG                                            :Y-axis Tilt {F13.4}
ROTA_SL.DEG                                            :Motor Rotation Angle {F13.4}
MSPE_SL.RPM                                            :Motor Speed {F13.4}
#-----------------------------------------------------------------------------
# 
#     TIME    FREQ_EMF_SL  PH_SH_WPPCM_ FREQ_EXC_REQ    RB_SL       SDEV_SL      TILX_SL      TILY_SL      ROTA_SL      MSPE_SL
#                          SL           _SL
~A  
# ...
    7371.0    1510.2797       0.0000      50.8611    -173.1098       3.9704      -0.4728       3.9412     351.4034       0.0005
    7372.0    1508.8519       0.0000      50.8611    -176.1562       3.6567      -0.2447       3.6485     351.4034       0.0005
    7373.0    1507.0426       0.0000      50.8611    -178.0398       3.8368      -0.1322       3.8333     351.4034       0.0005
    7374.0    1512.4940       0.0000      50.8611    -174.9252       4.0134      -0.3556       3.9968     351.4034       0.0005
    7375.0    1508.4703       0.0000      50.8611    -175.1693       4.0702      -0.3427       4.0557     351.4034       0.0005
    7376.0    1507.0426       0.0000      50.8611    -173.7515       3.8762      -0.4198       3.8513     351.4034       0.0005
    7377.0    1509.2474       0.0000      50.8611    -178.4911       3.8478      -0.1017       3.8464     351.4034       0.0005
    7378.0    1513.5307       0.0000      50.8611    -176.2966       3.9065      -0.2527       3.8971     351.4034       0.0005
    7379.0    1507.0426       0.0000      50.8611    -174.8632       4.0164      -0.3604       4.0001     351.4034       0.0005
    7380.0    1512.0968       0.0000      50.8611    -175.6638       3.6985      -0.2800       3.6877     351.4034       0.0005
    7381.0    1510.6691       0.0000      50.8611    -177.5163       3.7960      -0.1644       3.7924     351.4034       0.0005
    7382.0    1509.2474       0.0000      50.8611    -177.1100       4.0609      -0.2045       4.0557     351.4034       0.0005
    7383.0    1513.5307       0.0000      50.8611    -176.5274       3.9782      -0.2399       3.9707     351.4034       0.0005
    7384.0    1510.2797       0.0000      50.8611    -175.9325       3.9481      -0.2800       3.9380     351.4034       0.0005
    7385.0    1508.8519       0.0000      50.8611    -176.5682       3.8470      -0.2302       3.8382     351.4034       0.0005
    7386.0    1509.3740       0.0000      50.8611    -177.3541       4.0250      -0.1852       4.0197     351.4034       0.0005
    7387.0    1510.6691       0.0000      50.8611    -176.1992       4.1110      -0.2720       4.1015     351.4034       0.0005
    7388.0    1510.6691       0.0000      50.8611    -175.3277       3.8933      -0.3170       3.8791     351.4034       0.0005
    7389.0    1508.4703       0.0000      50.8611    -176.1593       3.8473      -0.2575       3.8382     351.4034       0.0005
    7390.0    1511.7135       0.0000      50.8611    -177.9578       3.9814      -0.1419       3.9788     351.4034       0.0005
    7391.0    1508.8519       0.0000      50.8611    -176.6634       4.0552      -0.2351       4.0475     351.4034       0.0005
    7392.0    1510.6691       0.0000      50.8611    -174.7951       4.0618      -0.3684       4.0426     351.4034       0.0005
    7393.0    1511.0724       0.0000      50.8611    -174.7902       3.8312      -0.3475       3.8153     351.4034       0.0005
    7394.0    1510.6691       0.0000      50.8611    -174.3030       3.8622      -0.3829       3.8431     351.4034       0.0005
    7395.0    1508.8519       0.0000      50.8611     -20.8144       4.0520      -0.0535       4.0508     351.4034       0.0005
    7396.0    1510.6691       0.0000      50.8611    -175.9942       4.0118      -0.2800       4.0017     351.4034       0.0005
    7397.0    1512.0968       0.0000      50.8611    -175.5805       3.9268      -0.3025       3.9151     351.4034       0.0005
    7398.0    1510.7332       0.0000      50.8611    -175.9353       3.8545      -0.2728       3.8447     351.4034       0.0005
    7399.0    1507.8319       0.0000      50.8611    -176.3080       3.9650      -0.2543       3.9559     351.4034       0.0005
    7400.0    1511.0724       0.0000      50.8611    -176.9038       3.9675      -0.2142       3.9609     351.4034       0.0005
    7401.0    1510.2797       0.0000      50.8611    -175.7268       3.8259      -0.2849       3.8153     351.4034       0.0005
    7402.0    1508.4703       0.0000      50.8611    -174.8223       3.9004      -0.3523       3.8840     353.5001       0.6019
    7403.0    1515.7546       0.0000      50.8611    -169.7733       4.0980      -0.7267       4.0328     357.9417       0.8902
    7404.0    1522.9864       0.0000      50.8611    -165.6361       4.2290      -1.0480       4.0966       3.9246       1.0334
    7405.0    1528.5327       0.0000      50.8611    -155.9317       4.1952      -1.7084       3.8300      10.2760       1.0286
    7406.0    1530.7266       0.0000      50.8611    -149.9228       4.1680      -2.0875       3.6059      16.3664       1.0167
    7407.0    1532.2705       0.0000      50.8611    -144.5327       4.5011      -2.6097       3.6648      22.4682       1.0226
    7408.0    1537.0886       0.0000      50.8611    -142.0055       4.7003      -2.8909       3.7024      28.5700       1.0226
    7409.0    1535.2074       0.0000      50.8611    -133.2823       4.6732      -3.4002       3.2020      34.6732       1.0226
    7410.0    1528.1411       0.0000      50.8611    -125.8585       4.5543      -3.6898       2.6659      40.7868       1.0261
    7411.0    1528.9386       0.0000      50.8611    -121.3610       4.8337      -4.1264       2.5118      46.9026       1.0226
    7412.0    1521.9155       0.0000      50.8611    -118.1184       5.0754      -4.4750       2.3891      53.0044       1.0226
    7413.0    1508.8519       0.0000      50.8611    -110.5154       5.1519      -4.8237       1.8036      59.1120       1.0286
    7414.0    1507.8319       0.0000      50.8611    -106.0656       5.0443      -4.8462       1.3947      65.2229       1.0226
    7415.0    1494.2319       0.0000      50.8611     -99.3235       5.1327      -5.0647       0.8305      71.3230       1.0226
    7416.0    1480.2632       0.0000      50.8611     -96.3340       5.2485      -5.2157       0.5770      77.4379       1.0226
    7417.0    1472.6998       0.0000      50.8611     -89.9441       5.4214      -5.4214      -0.0053      83.9608       1.0226
    7418.0    1457.8116       0.0000      50.8611     -85.0219       5.3494      -5.3282      -0.4632      90.0625       1.0226
    7419.0    1441.1903       0.0000      50.8611     -78.2055       5.2977      -5.1852      -1.0815      96.1775       1.0226
    7420.0    1424.9467       0.0000      50.8611     -75.0393       5.5525      -5.3635      -1.4315     102.2793       1.0226
    7421.0    1410.6527       0.0000      50.8611     -69.6380       5.6125      -5.2607      -1.9499     108.3811       1.0226
    7422.0    1393.9143       0.0000      50.8611     -62.4686       5.3165      -4.7120      -2.4549     114.4959       1.0286
    7423.0    1378.3574       0.0000      50.8611     -57.2031       5.5086      -4.6277      -2.9803     120.5977       1.0226
    7424.0    1352.1635       0.0000      50.8611     -54.1781       5.5339      -4.4847      -3.2354     126.6871       1.0226
    7425.0    1339.5967       0.0000      50.8611     -49.2148       5.7228      -4.3288      -3.7343     132.7766       1.0273
    7426.0    1304.0428       0.0000      50.8611     -44.4794       5.3407      -3.7392      -3.8079     138.8917       1.0180
    7427.0    1269.4577       0.0000      50.8611     -40.0590       5.3158      -3.4179      -4.0663     144.9870       1.0240
    7428.0    1239.1187       0.0000      50.8611     -34.9347       5.5551      -3.1769      -4.5520     151.0650       1.0286
    7429.0    1218.4627       0.0000      50.8611     -30.0177       5.5540      -2.7752      -4.8072     157.5823       1.0226
    7430.0    1189.3393       0.0000      50.8611     -25.9053       5.3781      -2.3478      -4.8350     163.6842       1.0226
    7431.0    1166.8970       0.0000      50.8611     -19.5040       4.9653      -1.6553      -4.6796     169.7820       1.0167
    7432.0    1143.0726       0.0000      50.8611     -13.1086       5.2141      -1.1766      -5.0770     175.8886       1.0226
    7433.0    1123.0939       0.0000      50.8611      -8.9414       5.2807      -0.8199      -5.2160     181.9905       1.0226
