~VERSION INFORMATION
VERS.           2.0   :CWLS Log ASCII Standard - VERSION 2.0
WRAP.           NO    :One Line per depth step
PROD.  Schlumberger   :LAS Producer
PROG.  DLIS to ASCII 19C2-270                          :LAS Program name and version
CREA.        2017/09/16 17:42                          :LAS Creation date {YYYY/MM/DD hh:mm}
DLIS_CREA.  2017-Sep-15 19:44                          :DLIS Creation date and time {YYYY-MMM-DD hh:mm}
SOURCE.     LPC_S5-1_2A5.DLIS                          :DLIS File Name
FILE-ID.     PERFO_Perfo_WPGRT_063LTP                  :File Identification Number
#--------------------------------------------------
~WELL INFORMATION
#MNEM.UNIT      DATA             DESCRIPTION
#---- ------ --------------   -----------------------------
STRT .S         1302.0       :START TIME      
STOP .S         1712.0       :STOP TIME      
STEP .S            1.0       :STEP     
NULL .          -999.25      :NULL VALUE
COMP .        SHELL INTERNATIONAL E P                  :COMPANY
WELL .        WPP TEST 2                               :WELL
FLD  .        WILDCAT                                  :FIELD
LOC  .        NA                                       :LOCATION
CNTY .        HARRIS                                   :COUNTY
STAT .        TEXAS                                    :STATE
CTRY .                                                 :COUNTRY
API  .        NA                                       :API NUMBER
UWI  .                                                 :UNIQUE WELL ID
DATE .        15-Sep-2017                              :LOG DATE {DD-MMM-YYYY}
SRVC .        Schlumberger                             :SERVICE COMPANY
LATI .DEG                                              :LATITUDE
LONG .DEG                                              :LONGITUDE
GDAT .                                                 :GeoDetic Datum
SECT .        NA                                       :Section
RANG .        NA                                       :Range
TOWN .        NA                                       :Township
#-----------------------------------------------------------------------------
~PARAMETER INFORMATION
#MNEM.UNIT    VALUE                      DESCRIPTION
#---- -----   --------------------       ------------------------
U-PHASE_B_COMP_PER_YT.                 0 :Phase B Comparator Period Yt
U-PHASE_A_COMP_PER_XT.                 0 :Phase A Comparator Period Xt
U-MAX_EXC_CUR_LIMIT.MA       240.00000   :Requested CM Current Limit
U-REQ_EXC_FQ.HZ              50          :Requested CM Frequency
U-TILT_Y_OFFSET.           0.19916       :WPTET Tilt Y Offset
U-TILT_Y_GAIN.           1.01796         :WPTET Tilt Y Gain
U-TILT_X_OFFSET.          -1.77103       :WPTET Tilt X Offset
U-TILT_X_GAIN.           1.00000         :WPTET Tilt X Gain
U-TILT_OFFSET_TOL.           0.00100     :WPTET Tilt Offset Calibration Tolerance
U-NO_TILT_CAL_ROTATIONS.                 3 :Number of Rotations for Tilt Calibration
HAZI .DEG        0.00000                 :Hole Azimuth
U-STD_TOL_TILT.           0.01000        :Tilt Standard Deviation Tolerance
U-GUN_POS_TOL.DEG        5.00000         :Gun Position Tolerance
ROT_ANGLE_THRESHOLD.DEG        5.00000   :Rotation Stop Angle Tolerance
STOP_ROT_ANGLE.DEG        0.00000        :Rotation Stop Angle
WITN .        MR. DHRUA ARORA            :Witness's Name
ENGI .        MORRIS MOORE               :Engineer's Name
COUN .        HARRIS                     :County or Rig Name
FN   .        WILDCAT                    :Field Name
WN   .        WPP TEST 2                 :Well Name
CN   .        SHELL INTERNATIONAL E P    :Company Name
CLAB .        County                     :County/Rig Label
SLAB .        State                      :State/Province Label
RUN  .          1                        :RUN NUMBER
PDAT .        GROUND LEVEL               :Permanent Datum
EPD  .                                   :Elevation of Permanent Datum above Mean Sea Level
LMF  .          NA                       :Logging Measured From (Name of Logging Elevation Reference)
APD  .                                   :Elevation of Depth Reference (LMF) above Permanent Datum
#-----------------------------------------------------------------------------
~CURVE INFORMATION
#MNEM.UNIT   API CODE                                  DESCRIPTION
#---- -----  --------                                  -----------------------
TIME .S                                                :TIME {F10.1}
FREQ_EMF_SL.HZ                                         :Electromagnetic Field Frequency {F13.4}
PH_SH_WPPCM_SL.DEG                                     :WPPCM Phase Shift {F13.4}
FREQ_EXC_REQ_SL.HZ                                     :Requested Exciter Frequency {F13.4}
RB_SL.DEG                                              :Relative Bearing {F13.4}
SDEV_SL.DEG                                            :Sonde Deviation {F13.4}
TILX_SL.DEG                                            :X-axis Tilt {F13.4}
TILY_SL.DEG                                            :Y-axis Tilt {F13.4}
ROTA_SL.DEG                                            :Motor Rotation Angle {F13.4}
MSPE_SL.RPM                                            :Motor Speed {F13.4}
#-----------------------------------------------------------------------------
# 
#     TIME    FREQ_EMF_SL  PH_SH_WPPCM_ FREQ_EXC_REQ    RB_SL       SDEV_SL      TILX_SL      TILY_SL      ROTA_SL      MSPE_SL
#                          SL           _SL
~A  
# ...
    1617.0    1127.4011       0.0000      50.8611      -4.5397       5.8981      -0.4658      -5.8794      39.6123       1.0226
    1618.0    1112.2441       0.0000      50.8611      -0.1514       5.8316      -0.0168      -5.8313      46.0535       1.0226
    1619.0    1117.2704       0.0000      50.8611       5.9804       5.6927       0.5921      -5.6616      52.2234       1.0226
    1620.0    1117.8756       0.0000      50.8611      11.3766       5.6920       1.1210      -5.5798      58.3129       1.0226
    1621.0    1137.1343       0.0000      50.8611      16.1148       5.5179       1.5294      -5.3005      64.4147       1.0226
    1622.0    1143.2915       0.0000      50.8611      21.8490       5.4837       2.0381      -5.0888      70.5174       1.0226
    1623.0    1149.5304       0.0000      50.8611      29.3095       5.2914       2.5869      -4.6122      76.6192       1.0226
    1624.0    1163.6378       0.0000      50.8611      34.8704       5.1680       2.9516      -4.2374      82.7210       1.0226
    1625.0    1186.7044       0.0000      50.8611      42.3974       4.9933       3.3636      -3.6856      88.8235       1.0226
    1626.0    1195.4547       0.0000      50.8611      48.0556       4.8854       3.6312      -3.2629      94.9253       1.0138
    1627.0    1205.3532       0.0000      50.8611      53.5418       4.7834       3.8456      -2.8403     101.0148       1.0226
    1628.0    1219.3001       0.0000      50.8611      59.4899       4.7526       4.0933      -2.4108     107.1171       1.0226
    1629.0    1243.7311       0.0000      50.8611      66.0465       4.5826       4.1871      -1.8590     113.2184       1.0226
    1630.0    1264.6134       0.0000      50.8611      73.8950       4.4699       4.2941      -1.2388     119.3207       1.0226
    1631.0    1279.1802       0.0000      50.8611      80.0706       4.6996       4.6290      -0.8093     125.8351       1.0226
    1632.0    1305.3022       0.0000      50.8611      88.8561       4.3496       4.3478      -0.0874     131.9319       1.0226
    1633.0    1327.8987       0.0000      50.8611      93.9955       4.3181       4.3073       0.3012     138.0235       1.0138
    1634.0    1350.0045       0.0000      50.8611     103.2046       4.3359       4.2206       0.9894     144.1234       1.0226
    1635.0    1372.8409       0.0000      50.8611     110.2257       4.2849       4.0197       1.4801     150.2253       1.0226
    1636.0    1394.9721       0.0000      50.8611     118.1640       4.2150       3.7151       1.9881     156.3272       1.0226
    1637.0    1411.4219       0.0000      50.8611     125.4488       4.1306       3.3639       2.3934     162.4316       1.0226
    1638.0    1426.2170       0.0000      50.8611     133.0658       4.2769       3.1229       2.9180     168.5419       1.0244
    1639.0    1435.9377       0.0000      50.8611     141.2878       4.2569       2.6608       3.3204     174.6460       1.0226
    1640.0    1454.2346       0.0000      50.8611     147.9293       4.4099       2.3395       3.7358     180.7479       1.0226
    1641.0    1443.7886       0.0000      50.8611     154.5915       4.3630       1.8706       3.9402     186.8514       1.0244
    1642.0    1447.2608       0.0000      50.8611     162.1930       4.5257       1.3822       4.3082     192.9407       1.0226
    1643.0    1456.7630       0.0000      50.8611     168.7588       4.5876       0.8935       4.4993     199.4611       1.0244
    1644.0    1469.4304       0.0000      50.8611     177.1657       4.6691       0.2309       4.6628     205.5652       1.0226
    1645.0    1455.2397       0.0000      50.8611    -177.0180       4.6903      -0.2443       4.6831     211.6780       1.0315
    1646.0    1454.2610       0.0000      50.8611    -170.7327       4.8081      -0.7733       4.7446     217.7821       1.0226
    1647.0    1461.7983       0.0000      50.8611    -164.4683       5.0169      -1.3423       4.8329     223.8702       1.0315
    1648.0    1454.7361       0.0000      50.8611    -158.1274       5.0994      -1.8979       4.7308     229.9748       1.0226
    1649.0    1451.2592       0.0000      50.8611    -151.4656       5.1700      -2.4670       4.5402     236.0762       1.0226
    1650.0    1447.2608       0.0000      50.8611    -146.3787       5.2586      -2.9088       4.3766     242.1684       1.0138
    1651.0    1441.3273       0.0000      50.8611    -140.7127       5.4556      -3.4513       4.2199     248.2797       1.0244
    1652.0    1419.0411       0.0000      50.8611    -134.4489       5.5141      -3.9333       3.8585     254.3828       1.0226
    1653.0    1414.7384       0.0000      50.8611    -127.9783       5.5455      -4.3684       3.4090     260.4851       1.0226
    1654.0    1403.9150       0.0000      50.8611    -121.7807       5.6771      -4.8237       2.9864     266.6001       1.0226
    1655.0    1374.1965       0.0000      50.8611    -116.9379       5.8033      -5.1717       2.6253     273.1094       1.0226
    1656.0    1365.2913       0.0000      50.8611    -111.2078       5.8149      -5.4198       2.1006     279.2112       1.0226
    1657.0    1343.1406       0.0000      50.8611    -106.5634       5.8715      -5.6270       1.6711     285.3130       1.0226
    1658.0    1338.4312       0.0000      50.8611    -100.9434       5.9771      -5.8680       1.1327     291.4279       1.0226
    1659.0    1300.8950       0.0000      50.8611     -95.4786       6.0229      -5.9953       0.5740     297.5322       1.0226
    1660.0    1293.7143       0.0000      50.8611     -88.7285       6.0708      -6.0689      -0.1345     303.6315       1.0226
    1661.0    1281.9003       0.0000      50.8611     -83.7965       6.1788      -6.1424      -0.6664     309.7333       1.0226
    1662.0    1252.2410       0.0000      50.8611     -78.9314       6.1435      -6.0287      -1.1773     315.8359       1.0226
    1663.0    1232.8528       0.0000      50.8611     -73.6738       6.1855      -5.9349      -1.7360     321.9274       1.0208
    1664.0    1211.9641       0.0000      50.8611     -67.8900       6.1982      -5.7408      -2.3290     328.0297       1.0226
    1665.0    1194.4444       0.0000      50.8611     -62.3360       6.2888      -5.5670      -2.9148     334.1294       1.0226
    1666.0    1189.3830       0.0000      50.8611     -56.6808       6.3466      -5.2993      -3.4804     340.2312       1.0138
    1667.0    1162.8381       0.0000      50.8611     -53.2588       6.3175      -5.0583      -3.7735     346.7283       1.0226
    1668.0    1145.2494       0.0000      50.8611     -48.1338       6.2947      -4.6833      -4.1961     352.8432       1.0226
    1669.0    1151.4127       0.0000      50.8611     -42.8636       6.2614      -4.2550      -4.5847     358.9354       1.0208
    1670.0    1139.5867       0.0000      50.8611     -38.5067       6.3253      -3.9333      -4.9459       5.0228       1.0226
    1671.0    1130.7321       0.0000      50.8611     -31.9894       6.0152      -3.1843      -5.0960      11.1033       1.0208
    1672.0    1127.4120       0.0000      50.8611     -26.5851       6.0314      -2.6956      -5.3887      17.2020       1.0226
    1673.0    1118.4452       0.0000      50.8611     -25.0997       6.3400      -2.6874      -5.7361      23.3038       1.0226
    1674.0    1111.9495       0.0000      50.8611     -16.6516       6.1235      -1.7511      -5.8657      29.4061       1.0226
    1675.0    1111.9696       0.0000      50.8611     -10.3702       6.0679      -1.0885      -5.9677      35.5074       1.0226
    1676.0    1114.8984       0.0000      50.8611      -6.9548       5.8479      -0.7068      -5.8045      41.6098       1.0226
    1677.0    1120.8120       0.0000      50.8611      -1.0775       5.9488      -0.1110      -5.9474      47.7014       1.0208
    1678.0    1120.5137       0.0000      50.8611       4.6064       5.7143       0.4580      -5.6956      53.8012       1.0226
    1679.0    1128.9105       0.0000      50.8611      10.0586       5.6603       0.9870      -5.5729      60.3235       1.0226
