~VERSION INFORMATION
VERS.           2.0   :CWLS Log ASCII Standard - VERSION 2.0
WRAP.           NO    :One Line per depth step
PROD.  Schlumberger   :LAS Producer
PROG.  DLIS to ASCII 19C2-270                          :LAS Program name and version
CREA.        2017/09/16 17:42                          :LAS Creation date {YYYY/MM/DD hh:mm}
DLIS_CREA.  2017-Sep-15 13:29                          :DLIS Creation date and time {YYYY-MMM-DD hh:mm}
SOURCE.     LPC_S1-1_2A5.DLIS                          :DLIS File Name
FILE-ID.     PERFO_Perfo_WPGRT_025LTP                  :File Identification Number
#--------------------------------------------------
~WELL INFORMATION
#MNEM.UNIT      DATA             DESCRIPTION
#---- ------ --------------   -----------------------------
STRT .S         9747.0       :START TIME      
STOP .S        10374.0       :STOP TIME      
STEP .S            1.0       :STEP     
NULL .          -999.25      :NULL VALUE
COMP .        SHELL INTERNATIONAL E P                  :COMPANY
WELL .        WPP TEST 2                               :WELL
FLD  .        WILDCAT                                  :FIELD
LOC  .                                                 :LOCATION
CNTY .        HARRIS                                   :COUNTY
STAT .        TEXAS                                    :STATE
CTRY .                                                 :COUNTRY
API  .                                                 :API NUMBER
UWI  .                                                 :UNIQUE WELL ID
DATE .                                                 :LOG DATE
SRVC .        Schlumberger                             :SERVICE COMPANY
LATI .DEG                                              :LATITUDE
LONG .DEG                                              :LONGITUDE
GDAT .                                                 :GeoDetic Datum
#-----------------------------------------------------------------------------
~PARAMETER INFORMATION
#MNEM.UNIT    VALUE                      DESCRIPTION
#---- -----   --------------------       ------------------------
U-PHASE_B_COMP_PER_YT.                 0 :Phase B Comparator Period Yt
U-PHASE_A_COMP_PER_XT.                 0 :Phase A Comparator Period Xt
U-MAX_EXC_CUR_LIMIT.MA       240.00000   :Requested CM Current Limit
U-REQ_EXC_FQ.HZ              40          :Requested CM Frequency
U-TILT_Y_OFFSET.           0.19916       :WPTET Tilt Y Offset
U-TILT_Y_GAIN.           1.01796         :WPTET Tilt Y Gain
U-TILT_X_OFFSET.          -1.77103       :WPTET Tilt X Offset
U-TILT_X_GAIN.           1.00000         :WPTET Tilt X Gain
U-TILT_OFFSET_TOL.           0.00100     :WPTET Tilt Offset Calibration Tolerance
U-NO_TILT_CAL_ROTATIONS.                 3 :Number of Rotations for Tilt Calibration
HAZI .DEG        0.00000                 :Hole Azimuth
U-STD_TOL_TILT.           0.01000        :Tilt Standard Deviation Tolerance
U-GUN_POS_TOL.DEG        5.00000         :Gun Position Tolerance
ROT_ANGLE_THRESHOLD.DEG        5.00000   :Rotation Stop Angle Tolerance
STOP_ROT_ANGLE.DEG       80.00000        :Rotation Stop Angle
WITN .                                   :Witness's Name
ENGI .                                   :Engineer's Name
COUN .        HARRIS                     :County or Rig Name
FN   .        WILDCAT                    :Field Name
WN   .        WPP TEST 2                 :Well Name
CN   .        SHELL INTERNATIONAL E P    :Company Name
CLAB .        County                     :County/Rig Label
SLAB .        State                      :State/Province Label
RUN  .          1                        :RUN NUMBER
PDAT .        GROUND LEVEL               :Permanent Datum
EPD  .                                   :Elevation of Permanent Datum above Mean Sea Level
LMF  .                                   :Logging Measured From (Name of Logging Elevation Reference)
APD  .                                   :Elevation of Depth Reference (LMF) above Permanent Datum
#-----------------------------------------------------------------------------
~CURVE INFORMATION
#MNEM.UNIT   API CODE                                  DESCRIPTION
#---- -----  --------                                  -----------------------
TIME .S                                                :TIME {F10.1}
FREQ_EMF_SL.HZ                                         :Electromagnetic Field Frequency {F13.4}
PH_SH_WPPCM_SL.DEG                                     :WPPCM Phase Shift {F13.4}
FREQ_EXC_REQ_SL.HZ                                     :Requested Exciter Frequency {F13.4}
RB_SL.DEG                                              :Relative Bearing {F13.4}
SDEV_SL.DEG                                            :Sonde Deviation {F13.4}
TILX_SL.DEG                                            :X-axis Tilt {F13.4}
TILY_SL.DEG                                            :Y-axis Tilt {F13.4}
ROTA_SL.DEG                                            :Motor Rotation Angle {F13.4}
MSPE_SL.RPM                                            :Motor Speed {F13.4}
#-----------------------------------------------------------------------------
# 
#     TIME    FREQ_EMF_SL  PH_SH_WPPCM_ FREQ_EXC_REQ    RB_SL       SDEV_SL      TILX_SL      TILY_SL      ROTA_SL      MSPE_SL
#                          SL           _SL
~A  
# ...
    9810.0    1502.8601       0.0000      40.6889     -82.5818       5.1096      -5.0647      -0.6591     110.6953       1.0226
    9811.0    1498.7597       0.0000      40.6889     -77.6689       5.0619      -4.9442      -1.0798     116.7844       1.0226
    9812.0    1489.6716       0.0000      40.6889     -73.5220       5.0436      -4.8349      -1.4302     122.8874       1.0226
    9813.0    1489.6716       0.0000      40.6889     -67.7023       5.1464      -4.7606      -1.9503     128.9896       1.0226
    9814.0    1480.0932       0.0000      40.6889     -61.6085       5.0607      -4.4479      -2.4041     135.0911       1.0226
    9815.0    1476.2684       0.0000      40.6889     -57.6957       5.1527      -4.3533      -2.7505     141.1926       1.0226
    9816.0    1475.3882       0.0000      40.6889     -52.7395       5.1551      -4.1007      -3.1185     147.2826       1.0226
    9817.0    1467.9019       0.0000      40.6889     -47.8953       5.1620      -3.8256      -3.4570     153.3849       1.0226
    9818.0    1465.7434       0.0000      40.6889     -44.4791       5.2011      -3.6416      -3.7085     159.4741       1.0226
    9819.0    1456.6338       0.0000      40.6889     -38.9451       5.0490      -3.1712      -3.9248     165.5756       1.0226
    9820.0    1449.7422       0.0000      40.6889     -34.5966       5.0542      -2.8672      -4.1583     172.0864       1.0226
    9821.0    1450.6233       0.0000      40.6889     -29.1947       4.9918      -2.4310      -4.3566     178.1963       1.0287
    9822.0    1445.0660       0.0000      40.6889     -25.5923       4.8648      -2.0980      -4.3864     184.2909       1.0226
    9823.0    1443.3795       0.0000      40.6889     -20.2438       4.8562      -1.6790      -4.5553     190.3932       1.0226
    9824.0    1437.8834       0.0000      40.6889     -13.7728       4.7448      -1.1284      -4.6080     196.4833       1.0226
    9825.0    1442.5163       0.0000      40.6889      -8.9682       4.7019      -0.7327      -4.6432     202.5653       1.0166
    9826.0    1437.8834       0.0000      40.6889      -2.5452       4.6859      -0.2075      -4.6810     208.6614       1.0226
    9827.0    1433.6923       0.0000      40.6889       2.1347       4.5241       0.1686      -4.5205     214.7638       1.0226
    9828.0    1438.7309       0.0000      40.6889       7.2417       4.5222       0.5699      -4.4854     220.8737       1.0272
    9829.0    1434.9490       0.0000      40.6889      13.3247       4.3458       1.0005      -4.2286     226.9685       1.0287
    9830.0    1429.1158       0.0000      40.6889      18.4062       4.2786       1.3503      -4.0589     233.0831       1.0226
    9831.0    1436.2108       0.0000      40.6889      24.5751       4.1493       1.7235      -3.7731     239.1854       1.0226
    9832.0    1436.2108       0.0000      40.6889      29.6115       4.0248       1.9874      -3.4983     245.5288       1.0272
    9833.0    1436.6216       0.0000      40.6889      35.7912       3.9106       2.2858      -3.1712     251.7978       1.0226
    9834.0    1436.2108       0.0000      40.6889      40.9668       3.7599       2.4637      -2.8384     257.9000       1.0226
    9835.0    1440.8298       0.0000      40.6889      47.6360       3.6770       2.7160      -2.4761     264.0021       1.0226
    9836.0    1440.8298       0.0000      40.6889      55.3866       3.5380       2.9112      -2.0088     270.1034       1.0226
    9837.0    1445.4819       0.0000      40.6889      60.6421       3.2972       2.8710      -1.6171     276.2046       1.0226
    9838.0    1450.6046       0.0000      40.6889      69.0994       3.3214       3.1007      -1.1855     282.2945       1.0226
    9839.0    1454.0310       0.0000      40.6889      77.0022       3.2709       3.1867      -0.7355     288.4041       1.0272
    9840.0    1452.3236       0.0000      40.6889      83.4178       3.2025       3.1811      -0.3676     294.5111       1.0226
    9841.0    1456.6142       0.0000      40.6889      91.1994       3.1077       3.1064       0.0646     300.6256       1.0166
    9842.0    1466.5869       0.0000      40.6889     100.4844       3.1184       3.0662       0.5671     306.7154       1.0226
    9843.0    1464.8438       0.0000      40.6889     107.9560       3.0076       2.8594       0.9290     312.8276       1.0272
    9844.0    1472.7306       0.0000      40.6889     115.6997       3.0727       2.7678       1.3322     318.9310       1.0181
    9845.0    1475.3882       0.0000      40.6889     125.8955       3.0206       2.4465       1.7705     325.4292       1.0226
    9846.0    1478.9259       0.0000      40.6889     133.1310       2.9918       2.1826       2.0448     331.5340       1.0226
    9847.0    1481.6060       0.0000      40.6889     139.4996       3.1671       2.0565       2.4071     337.6456       1.0226
    9848.0    1479.8334       0.0000      40.6889     146.8286       3.2595       1.7809       2.7281     343.7469       1.0226
    9849.0    1491.4744       0.0000      40.6889     155.5519       3.2799       1.3564       2.9853     349.8490       1.0226
    9850.0    1488.7731       0.0000      40.6889     162.8249       3.2723       0.9662       3.1256     355.9511       1.0226
    9851.0    1496.4630       0.0000      40.6889     170.3913       3.4252       0.5703       3.3766       2.0523       1.0226
    9852.0    1496.9492       0.0000      40.6889     178.2817       3.5369       0.1056       3.5344       8.1703       1.0226
    9853.0    1497.8288       0.0000      40.6889    -174.7538       3.6140      -0.3306       3.5986      14.2690       1.0226
    9854.0    1506.0792       0.0000      40.6889    -168.8886       3.7096      -0.7150       3.6395      20.3766       1.0226
    9855.0    1504.2376       0.0000      40.6889    -162.6276       3.8019      -1.1340       3.6280      26.4753       1.0226
    9856.0    1506.0792       0.0000      40.6889    -156.4083       3.8827      -1.5529       3.5577      32.5618       1.0226
    9857.0    1512.0968       0.0000      40.6889    -150.8235       4.0699      -1.9831       3.5520      39.0725       1.0226
    9858.0    1510.2472       0.0000      40.6889    -145.0655       4.0774      -2.3334       3.3418      45.1738       1.0226
    9859.0    1513.4981       0.0000      40.6889    -138.1778       4.1817      -2.7864       3.1141      51.2752       1.0226
    9860.0    1512.0968       0.0000      40.6889    -133.1944       4.2019      -3.0620       2.8745      57.3650       1.0226
    9861.0    1517.2212       0.0000      40.6889    -127.5206       4.4261      -3.5094       2.6933      63.4602       1.0166
    9862.0    1507.9301       0.0000      40.6889    -122.0204       4.4453      -3.7677       2.3547      69.5493       1.0181
    9863.0    1515.8199       0.0000      40.6889    -116.3872       4.5400      -4.0661       2.0158      75.6454       1.0226
    9864.0    1514.9054       0.0000      40.6889    -110.8988       4.6236      -4.3188       1.6478      81.7511       1.0226
    9865.0    1505.6210       0.0000      40.6889    -104.7186       4.6974      -4.5425       1.1923      87.8525       1.0226
    9866.0    1507.4626       0.0000      40.6889    -100.0409       4.7304      -4.6574       0.8243      93.9538       1.0226
    9867.0    1506.0792       0.0000      40.6889     -94.2699       4.8774      -4.8639       0.3627     100.0586       1.0181
    9868.0    1504.2376       0.0000      40.6889     -89.2471       4.9003      -4.8984      -0.0633     106.1468       1.0181
    9869.0    1497.3822       0.0000      40.6889     -84.2232       4.9822      -4.9558      -0.5021     112.6539       1.0181
    9870.0    1497.3822       0.0000      40.6889     -79.3853       4.9489      -4.8639      -0.9105     118.7552       1.0226
    9871.0    1492.3974       0.0000      40.6889     -75.5620       5.0171      -4.8582      -1.2495     124.8574       1.0226
    9872.0    1488.7716       0.0000      40.6889     -69.2724       5.0540      -4.7261      -1.7868     130.9727       1.0226
