~VERSION INFORMATION
VERS.           2.0   :CWLS Log ASCII Standard - VERSION 2.0
WRAP.           NO    :One Line per depth step
PROD.  Schlumberger   :LAS Producer
PROG.  DLIS to ASCII 19C2-270                          :LAS Program name and version
CREA.        2017/09/16 17:42                          :LAS Creation date {YYYY/MM/DD hh:mm}
DLIS_CREA.  2017-Sep-15 12:22                          :DLIS Creation date and time {YYYY-MMM-DD hh:mm}
SOURCE.     LPC_S1-1_B5.DLIS                           :DLIS File Name
FILE-ID.     PERFO_Perfo_WPGRT_020LTP                  :File Identification Number
#--------------------------------------------------
~WELL INFORMATION
#MNEM.UNIT      DATA             DESCRIPTION
#---- ------ --------------   -----------------------------
STRT .S         5686.0       :START TIME      
STOP .S         6834.0       :STOP TIME      
STEP .S            1.0       :STEP     
NULL .          -999.25      :NULL VALUE
COMP .        SHELL INTERNATIONAL E P                  :COMPANY
WELL .        WPP TEST 2                               :WELL
FLD  .        WILDCAT                                  :FIELD
LOC  .                                                 :LOCATION
CNTY .        HARRIS                                   :COUNTY
STAT .        TEXAS                                    :STATE
CTRY .                                                 :COUNTRY
API  .                                                 :API NUMBER
UWI  .                                                 :UNIQUE WELL ID
DATE .                                                 :LOG DATE
SRVC .        Schlumberger                             :SERVICE COMPANY
LATI .DEG                                              :LATITUDE
LONG .DEG                                              :LONGITUDE
GDAT .                                                 :GeoDetic Datum
#-----------------------------------------------------------------------------
~PARAMETER INFORMATION
#MNEM.UNIT    VALUE                      DESCRIPTION
#---- -----   --------------------       ------------------------
U-PHASE_B_COMP_PER_YT.                 0 :Phase B Comparator Period Yt
U-PHASE_A_COMP_PER_XT.                 0 :Phase A Comparator Period Xt
U-MAX_EXC_CUR_LIMIT.MA       240.00000   :Requested CM Current Limit
U-REQ_EXC_FQ.HZ              50          :Requested CM Frequency
U-TILT_Y_OFFSET.           0.19916       :WPTET Tilt Y Offset
U-TILT_Y_GAIN.           1.01796         :WPTET Tilt Y Gain
U-TILT_X_OFFSET.          -1.77103       :WPTET Tilt X Offset
U-TILT_X_GAIN.           1.00000         :WPTET Tilt X Gain
U-TILT_OFFSET_TOL.           0.00100     :WPTET Tilt Offset Calibration Tolerance
U-NO_TILT_CAL_ROTATIONS.                 3 :Number of Rotations for Tilt Calibration
HAZI .DEG        0.00000                 :Hole Azimuth
U-STD_TOL_TILT.           0.01000        :Tilt Standard Deviation Tolerance
U-GUN_POS_TOL.DEG        5.00000         :Gun Position Tolerance
ROT_ANGLE_THRESHOLD.DEG        5.00000   :Rotation Stop Angle Tolerance
STOP_ROT_ANGLE.DEG       80.00000        :Rotation Stop Angle
WITN .                                   :Witness's Name
ENGI .                                   :Engineer's Name
COUN .        HARRIS                     :County or Rig Name
FN   .        WILDCAT                    :Field Name
WN   .        WPP TEST 2                 :Well Name
CN   .        SHELL INTERNATIONAL E P    :Company Name
CLAB .        County                     :County/Rig Label
SLAB .        State                      :State/Province Label
RUN  .          1                        :RUN NUMBER
PDAT .        GROUND LEVEL               :Permanent Datum
EPD  .                                   :Elevation of Permanent Datum above Mean Sea Level
LMF  .                                   :Logging Measured From (Name of Logging Elevation Reference)
APD  .                                   :Elevation of Depth Reference (LMF) above Permanent Datum
#-----------------------------------------------------------------------------
~CURVE INFORMATION
#MNEM.UNIT   API CODE                                  DESCRIPTION
#---- -----  --------                                  -----------------------
TIME .S                                                :TIME {F10.1}
FREQ_EMF_SL.HZ                                         :Electromagnetic Field Frequency {F13.4}
PH_SH_WPPCM_SL.DEG                                     :WPPCM Phase Shift {F13.4}
FREQ_EXC_REQ_SL.HZ                                     :Requested Exciter Frequency {F13.4}
RB_SL.DEG                                              :Relative Bearing {F13.4}
SDEV_SL.DEG                                            :Sonde Deviation {F13.4}
TILX_SL.DEG                                            :X-axis Tilt {F13.4}
TILY_SL.DEG                                            :Y-axis Tilt {F13.4}
ROTA_SL.DEG                                            :Motor Rotation Angle {F13.4}
MSPE_SL.RPM                                            :Motor Speed {F13.4}
#-----------------------------------------------------------------------------
# 
#     TIME    FREQ_EMF_SL  PH_SH_WPPCM_ FREQ_EXC_REQ    RB_SL       SDEV_SL      TILX_SL      TILY_SL      ROTA_SL      MSPE_SL
#                          SL           _SL
~A  
# ...
    6127.0    1515.9624       0.0000      50.8611     131.3584       3.2165       2.4137       2.1247     194.5426       0.0005
    6128.0    1521.6115       0.0000      50.8611     131.9819       3.2328       2.4026       2.1618     194.5426       0.0005
    6129.0    1521.6115       0.0000      50.8611     132.9528       3.2936       2.4100       2.2436     194.5426       0.0005
    6130.0    1518.0244       0.0000      50.8611     132.5612       3.2577       2.3989       2.2027     194.5426       0.0005
    6131.0    1518.9326       0.0000      50.8611     131.3739       3.2659       2.4502       2.1580     194.5426       0.0005
    6132.0    1522.2209       0.0000      50.8611     131.6041       3.2626       2.4390       2.1656     194.5426       0.0005
    6133.0    1518.3258       0.0000      50.8611     132.6073       3.2550       2.3952       2.2027     194.5426       0.0005
    6134.0    1513.0050       0.0000      50.8611     132.1465       3.3446       2.4792       2.2436     194.5426       0.0005
    6135.0    1515.3556       0.0000      50.8611     132.2195       3.2011       2.3699       2.1504     194.5426       0.0005
    6136.0    1509.7563       0.0000      50.8611     130.8498       3.1868       2.4100       2.0838     194.5426       0.0005
    6137.0    1518.6285       0.0000      50.8611     132.3719       3.2580       2.4063       2.1951     194.5426       0.0005
    6138.0    1515.7342       0.0000      50.8611     133.5041       3.3236       2.4100       2.2873     194.5426       0.0005
    6139.0    1518.9326       0.0000      50.8611     130.9615       3.3229       2.5082       2.1769     194.5426       0.0005
    6140.0    1515.0542       0.0000      50.8611     133.9186       3.2299       2.3260       2.2398     194.5426       0.0005
    6141.0    1515.6583       0.0000      50.8611     132.5200       3.2657       2.4063       2.2065     194.5426       0.0005
    6142.0    1512.7010       0.0000      50.8611     131.7327       3.3718       2.5157       2.2436     194.5426       0.0005
    6143.0    1524.6075       0.0000      50.8611     132.1866       3.2979       2.4428       2.2140     194.5426       0.0005
    6144.0    1518.3258       0.0000      50.8611     131.4198       3.2296       2.4212       2.1360     194.5426       0.0005
    6145.0    1515.3556       0.0000      50.8611     132.1012       3.3915       2.5157       2.2731     194.5426       0.0005
    6146.0    1515.9624       0.0000      50.8611     133.4808       3.2669       2.3699       2.2473     194.5426       0.0005
    6147.0    1515.3556       0.0000      50.8611     132.2363       3.3392       2.4718       2.2436     194.5426       0.0005
    6148.0    1521.0073       0.0000      50.8611     132.4665       3.2578       2.4026       2.1989     194.5426       0.0005
    6149.0    1521.6115       0.0000      50.8611     131.8288       3.1811       2.3699       2.1209     194.5426       0.0005
    6150.0    1515.2218       0.0000      50.8611     133.2880       3.2866       2.3918       2.2528     194.5426       0.0005
    6151.0    1521.6115       0.0000      50.8611     132.8446       3.3176       2.4316       2.2549     194.5426       0.0005
    6152.0    1515.6583       0.0000      50.8611     131.9940       3.2876       2.4428       2.1989     194.5426       0.0005
    6153.0    1515.3556       0.0000      50.8611     131.5043       3.2575       2.4390       2.1580     194.5426       0.0005
    6154.0    1518.6285       0.0000      50.8611     133.1254       3.3375       2.4353       2.2807     194.5426       0.0005
    6155.0    1515.0542       0.0000      50.8611     133.4689       3.3216       2.4100       2.2844     194.5426       0.0005
    6156.0    1518.3258       0.0000      50.8611     132.1397       3.2953       2.4428       2.2102     194.5426       0.0005
    6157.0    1515.6583       0.0000      50.8611     130.6939       3.2658       2.4755       2.1285     194.5426       0.0005
    6158.0    1518.6285       0.0000      50.8611     132.7453       3.2783       2.4063       2.2246     194.5426       0.0005
    6159.0    1515.6583       0.0000      50.8611     132.4278       3.2658       2.4100       2.2027     194.5426       0.0005
    6160.0    1521.0073       0.0000      50.8611     132.2411       3.3498       2.4792       2.2511     194.5426       0.0005
    6161.0    1519.2380       0.0000      50.8611     133.4775       3.2616       2.3661       2.2436     194.5426       0.0005
    6162.0    1521.6115       0.0000      50.8611     132.2084       3.2299       2.3918       2.1693     194.5426       0.0005
    6163.0    1515.3556       0.0000      50.8611     131.5596       3.2654       2.4428       2.1656     194.5426       0.0005
    6164.0    1513.3104       0.0000      50.8611     132.4810       3.3231       2.4502       2.2436     194.5426       0.0005
    6165.0    1521.6115       0.0000      50.8611     132.9519       3.2336       2.3661       2.2027     194.5426       0.0005
    6166.0    1521.3087       0.0000      50.8611     132.4707       3.2137       2.3699       2.1693     194.5426       0.0005
    6167.0    1515.0542       0.0000      50.8611     132.0543       3.3448       2.4829       2.2398     194.5426       0.0005
    6168.0    1515.9624       0.0000      50.8611     132.8638       3.2390       2.3736       2.2027     194.5426       0.0005
    6169.0    1518.3258       0.0000      50.8611     133.3351       3.2592       2.3699       2.2360     194.5426       0.0005
    6170.0    1518.0244       0.0000      50.8611     132.8581       3.2337       2.3699       2.1989     194.5426       0.0005
    6171.0    1515.0542       0.0000      50.8611     131.9997       3.2929       2.4465       2.2027     194.5426       0.0005
    6172.0    1515.6583       0.0000      50.8611     132.0053       3.2982       2.4502       2.2065     194.5426       0.0005
    6173.0    1515.6583       0.0000      50.8611     133.1324       3.2828       2.3952       2.2436     194.5426       0.0005
    6174.0    1515.0542       0.0000      50.8611     132.1731       3.2380       2.3989       2.1731     194.5426       0.0005
    6175.0    1515.6583       0.0000      50.8611     130.2914       3.3616       2.5633       2.1731     194.5426       0.0005
    6176.0    1515.3556       0.0000      50.8611     131.9997       3.2929       2.4465       2.2027     194.5426       0.0005
    6177.0    1518.3258       0.0000      50.8611     132.8614       3.2938       2.4137       2.2398     194.5426       0.0005
    6178.0    1515.3556       0.0000      50.8611     133.3669       3.3112       2.4063       2.2731     194.5426       0.0005
    6179.0    1513.0050       0.0000      50.8611     131.4989       3.2188       2.4100       2.1322     194.5426       0.0005
    6180.0    1515.6583       0.0000      50.8611     131.2196       3.3553       2.5231       2.2102     194.5426       0.0005
    6181.0    1518.3258       0.0000      50.8611     133.2961       3.2019       2.3297       2.1951     194.5426       0.0005
    6182.0    1515.3556       0.0000      50.8611     131.5546       3.2601       2.4390       2.1618     194.5426       0.0005
    6183.0    1518.3258       0.0000      50.8611     133.0038       3.2415       2.3699       2.2102     194.5426       0.0005
    6184.0    1515.6583       0.0000      50.8611     132.1465       3.3446       2.4792       2.2436     194.5426       0.0005
    6185.0    1515.3556       0.0000      50.8611     130.9247       3.2387       2.4465       2.1209     194.5426       0.0005
    6186.0    1518.3258       0.0000      50.8611     132.8161       3.1817       2.3334       2.1618     194.5426       0.0005
    6187.0    1515.6583       0.0000      50.8611     133.5596       3.3215       2.4063       2.2882     194.5426       0.0005
    6188.0    1521.6115       0.0000      50.8611     131.1497       3.3034       2.4866       2.1731     194.5426       0.0005
    6189.0    1515.0542       0.0000      50.8611     133.7795       3.2328       2.3334       2.2360     194.5426       0.0005
