~VERSION INFORMATION
VERS.           2.0   :CWLS Log ASCII Standard - VERSION 2.0
WRAP.           NO    :One Line per depth step
PROD.  Schlumberger   :LAS Producer
PROG.  DLIS to ASCII 19C2-270                          :LAS Program name and version
CREA.        2017/09/16 17:42                          :LAS Creation date {YYYY/MM/DD hh:mm}
DLIS_CREA.  2017-Sep-15 13:07                          :DLIS Creation date and time {YYYY-MMM-DD hh:mm}
SOURCE.     LPC_S1-1_2AV.DLIS                          :DLIS File Name
FILE-ID.     PERFO_Perfo_WPGRT_022LTP                  :File Identification Number
#--------------------------------------------------
~WELL INFORMATION
#MNEM.UNIT      DATA             DESCRIPTION
#---- ------ --------------   -----------------------------
STRT .S         8392.0       :START TIME      
STOP .S         9264.0       :STOP TIME      
STEP .S            1.0       :STEP     
NULL .          -999.25      :NULL VALUE
COMP .        SHELL INTERNATIONAL E P                  :COMPANY
WELL .        WPP TEST 2                               :WELL
FLD  .        WILDCAT                                  :FIELD
LOC  .                                                 :LOCATION
CNTY .        HARRIS                                   :COUNTY
STAT .        TEXAS                                    :STATE
CTRY .                                                 :COUNTRY
API  .                                                 :API NUMBER
UWI  .                                                 :UNIQUE WELL ID
DATE .                                                 :LOG DATE
SRVC .        Schlumberger                             :SERVICE COMPANY
LATI .DEG                                              :LATITUDE
LONG .DEG                                              :LONGITUDE
GDAT .                                                 :GeoDetic Datum
#-----------------------------------------------------------------------------
~PARAMETER INFORMATION
#MNEM.UNIT    VALUE                      DESCRIPTION
#---- -----   --------------------       ------------------------
U-PHASE_B_COMP_PER_YT.                 0 :Phase B Comparator Period Yt
U-PHASE_A_COMP_PER_XT.                 0 :Phase A Comparator Period Xt
U-MAX_EXC_CUR_LIMIT.MA       240.00000   :Requested CM Current Limit
U-REQ_EXC_FQ.HZ              50          :Requested CM Frequency
U-TILT_Y_OFFSET.           0.19916       :WPTET Tilt Y Offset
U-TILT_Y_GAIN.           1.01796         :WPTET Tilt Y Gain
U-TILT_X_OFFSET.          -1.77103       :WPTET Tilt X Offset
U-TILT_X_GAIN.           1.00000         :WPTET Tilt X Gain
U-TILT_OFFSET_TOL.           0.00100     :WPTET Tilt Offset Calibration Tolerance
U-NO_TILT_CAL_ROTATIONS.                 3 :Number of Rotations for Tilt Calibration
HAZI .DEG        0.00000                 :Hole Azimuth
U-STD_TOL_TILT.           0.01000        :Tilt Standard Deviation Tolerance
U-GUN_POS_TOL.DEG        5.00000         :Gun Position Tolerance
ROT_ANGLE_THRESHOLD.DEG        5.00000   :Rotation Stop Angle Tolerance
STOP_ROT_ANGLE.DEG       80.00000        :Rotation Stop Angle
WITN .                                   :Witness's Name
ENGI .                                   :Engineer's Name
COUN .        HARRIS                     :County or Rig Name
FN   .        WILDCAT                    :Field Name
WN   .        WPP TEST 2                 :Well Name
CN   .        SHELL INTERNATIONAL E P    :Company Name
CLAB .        County                     :County/Rig Label
SLAB .        State                      :State/Province Label
RUN  .          1                        :RUN NUMBER
PDAT .        GROUND LEVEL               :Permanent Datum
EPD  .                                   :Elevation of Permanent Datum above Mean Sea Level
LMF  .                                   :Logging Measured From (Name of Logging Elevation Reference)
APD  .                                   :Elevation of Depth Reference (LMF) above Permanent Datum
#-----------------------------------------------------------------------------
~CURVE INFORMATION
#MNEM.UNIT   API CODE                                  DESCRIPTION
#---- -----  --------                                  -----------------------
TIME .S                                                :TIME {F10.1}
FREQ_EMF_SL.HZ                                         :Electromagnetic Field Frequency {F13.4}
PH_SH_WPPCM_SL.DEG                                     :WPPCM Phase Shift {F13.4}
FREQ_EXC_REQ_SL.HZ                                     :Requested Exciter Frequency {F13.4}
RB_SL.DEG                                              :Relative Bearing {F13.4}
SDEV_SL.DEG                                            :Sonde Deviation {F13.4}
TILX_SL.DEG                                            :X-axis Tilt {F13.4}
TILY_SL.DEG                                            :Y-axis Tilt {F13.4}
ROTA_SL.DEG                                            :Motor Rotation Angle {F13.4}
MSPE_SL.RPM                                            :Motor Speed {F13.4}
#-----------------------------------------------------------------------------
# 
#     TIME    FREQ_EMF_SL  PH_SH_WPPCM_ FREQ_EXC_REQ    RB_SL       SDEV_SL      TILX_SL      TILY_SL      ROTA_SL      MSPE_SL
#                          SL           _SL
~A  
# ...
    9022.0    1365.7428       0.0000      50.8611     -49.9526       0.9720      -0.7403      -0.6247     308.4047       1.0244
    9023.0    1366.6512       0.0000      50.8611     -51.4399       0.8283      -0.6464      -0.5168     314.4983       1.0138
    9024.0    1380.0090       0.0000      50.8611     -52.9289       0.9024      -0.7199      -0.5438     320.6131       1.0226
    9025.0    1375.1722       0.0000      50.8611     -62.3130       1.0320      -0.9139      -0.4790     326.7128       1.0226
    9026.0    1375.5216       0.0000      50.8611     -13.7759       0.5234      -0.1531      -0.4620     332.8124       1.0226
    9027.0    1373.2910       0.0000      50.8611     -44.2279       0.6211      -0.4327      -0.4411     338.9161       1.0226
    9028.0    1379.5992       0.0000      50.8611     -61.1475       1.0133      -0.8874      -0.4890     345.0198       1.0226
    9029.0    1385.9080       0.0000      50.8611     -58.5218       0.9867      -0.8404      -0.5160     351.1303       1.0244
    9030.0    1390.0429       0.0000      50.8611     -58.9715       0.9344      -0.8002      -0.4820     357.2322       1.0226
    9031.0    1392.3268       0.0000      50.8611     -55.8913       0.8125      -0.6729      -0.4551       3.3490       1.0226
    9032.0    1388.6451       0.0000      50.8611     -53.9115       0.9816      -0.7934      -0.5777       9.8588       1.0226
    9033.0    1390.5125       0.0000      50.8611     -55.9291       0.8855      -0.7335      -0.4959      15.9586       1.0226
    9034.0    1394.6196       0.0000      50.8611     -54.7417       0.9074      -0.7403      -0.5229      22.0625       1.0226
    9035.0    1392.7964       0.0000      50.8611     -58.9397       0.8954      -0.7669      -0.4620      28.1663       1.0226
    9036.0    1395.0892       0.0000      50.8611     -57.4454       0.8708      -0.7335      -0.4690      34.2661       1.0226
    9037.0    1402.4945       0.0000      50.8611     -55.6528       0.9873      -0.8139      -0.5569      40.3557       1.0138
    9038.0    1395.0892       0.0000      50.8611     -64.3738       0.9865      -0.8874      -0.4272      46.4574       0.1745
    9039.0    1395.0892       0.0000      50.8611     -68.8729       0.9047      -0.8404      -0.3263      46.6650       0.0005
    9040.0    1391.3931       0.0000      50.8611     -65.2624       0.9259      -0.8404      -0.3872      46.6650       0.0005
    9041.0    1388.7092       0.0000      50.8611     -64.9579       0.8490      -0.7669      -0.3602      46.6650       0.0005
    9042.0    1398.3362       0.0000      50.8611     -52.3886       0.8921      -0.7070      -0.5438      46.6650       0.0005
    9043.0    1394.1518       0.0000      50.8611     -61.4847       0.8372      -0.7335      -0.4011      46.6650       0.0005
    9044.0    1389.5751       0.0000      50.8611     -57.8987       0.9215      -0.7805      -0.4890      46.6650       0.0005
    9045.0    1390.9840       0.0000      50.8611     -56.2559       0.9788      -0.8139      -0.5438      46.6650       0.0005
    9046.0    1396.0341       0.0000      50.8611     -60.9674       0.9535      -0.8335      -0.4620      46.6650       0.0005
    9047.0    1393.2218       0.0000      50.8611     -62.2925       0.9198      -0.8139      -0.4281      46.6650       0.0005
    9048.0    1396.4539       0.0000      50.8611     -64.7481       0.7961      -0.7199      -0.3393      46.6650       0.0005
    9049.0    1388.7092       0.0000      50.8611     -58.1779       0.8633      -0.7335      -0.4551      46.6650       0.0005
    9050.0    1387.7681       0.0000      50.8611     -54.7417       0.9074      -0.7403      -0.5229      46.6650       0.0005
    9051.0    1394.6196       0.0000      50.8611     -58.8307       0.9590      -0.8207      -0.4959      46.6650       0.0005
    9052.0    1395.0892       0.0000      50.8611     -62.1342       0.8544      -0.7540      -0.4011      46.6650       0.0005
    9053.0    1392.7964       0.0000      50.8611     -63.1078       0.7789      -0.6934      -0.3532      46.6650       0.0005
    9054.0    1389.5751       0.0000      50.8611     -60.5825       0.9265      -0.8070      -0.4551      46.6650       0.0005
    9055.0    1392.7964       0.0000      50.8611     -56.4115       0.9812      -0.8139      -0.5430      46.6650       0.0005
    9056.0    1392.7964       0.0000      50.8611     -59.0156       1.0430      -0.8942      -0.5368      46.6650       0.0005
    9057.0    1394.1518       0.0000      50.8611     -63.4816       0.9698      -0.8669      -0.4342      46.6650       0.0005
    9058.0    1392.3268       0.0000      50.8611     -62.9172       0.9529      -0.8472      -0.4342      46.6650       0.0005
    9059.0    1395.0892       0.0000      50.8611     -64.8037       0.9731      -0.8805      -0.4142      46.6650       0.0005
    9060.0    1394.1518       0.0000      50.8611     -67.9994       0.9065      -0.8404      -0.3393      46.6650       0.0005
    9061.0    1391.8590       0.0000      50.8611     -65.6450       0.9226      -0.8404      -0.3802      46.6650       0.0005
    9062.0    1391.3931       0.0000      50.8611     -69.1035       0.8572      -0.8002      -0.3054      46.6650       0.0005
    9063.0    1387.7681       0.0000      50.8611     -67.2579       0.9474      -0.8737      -0.3663      46.6650       0.0005
    9064.0    1392.7964       0.0000      50.8611     -60.0845       1.0623      -0.9207      -0.5299      46.6650       0.0005
    9065.0    1394.6196       0.0000      50.8611     -59.7043       0.9589      -0.8275      -0.4820      46.6650       0.0005
    9066.0    1391.3931       0.0000      50.8611     -58.8307       0.9590      -0.8207      -0.4959      46.6650       0.0005
    9067.0    1383.7147       0.0000      50.8611     -61.1003       0.8002      -0.7002      -0.3872      46.6650       0.0005
    9068.0    1395.5607       0.0000      50.8611     -61.9406       0.9524      -0.8404      -0.4481      46.6650       0.0005
    9069.0    1397.3913       0.0000      50.8611     -65.4623       0.9319      -0.8472      -0.3872      46.6650       0.0005
    9070.0    1389.5751       0.0000      50.8611     -65.1822       0.8547      -0.7737      -0.3602      46.6650       0.0005
    9071.0    1392.3268       0.0000      50.8611     -60.9362       0.8546      -0.7472      -0.4142      46.6650       0.0005
    9072.0    1394.2166       0.0000      50.8611     -66.4450       0.9532      -0.8737      -0.3802      46.6650       0.0005
    9073.0    1395.0892       0.0000      50.8611     -57.2567       1.0329      -0.8677      -0.5569      46.6650       0.0005
    9074.0    1391.3931       0.0000      50.8611     -62.5166       0.9556      -0.8472      -0.4411      46.6650       0.0005
    9075.0    1392.3268       0.0000      50.8611     -66.6207       0.9747      -0.8942      -0.3872      46.6650       0.0005
    9076.0    1395.0892       0.0000      50.8611     -57.2424       1.0462      -0.8737      -0.5699      46.6650       0.0005
    9077.0    1394.1518       0.0000      50.8611     -74.3202       0.7674      -0.7335      -0.2105      46.6650       0.0005
    9078.0    1394.6196       0.0000      50.8611     -67.4780       0.8249      -0.7472      -0.3271      46.6650       0.0005
    9079.0    1392.7964       0.0000      50.8611     -61.3995       0.9216      -0.8070      -0.4420      46.6650       0.0005
    9080.0    1394.6196       0.0000      50.8611     -49.1884       0.9554      -0.6994      -0.6272      46.6650       0.0005
    9081.0    1389.5751       0.0000      50.8611     -55.1802       1.1304      -0.9275      -0.6456      46.6650       0.0005
    9082.0    1396.0341       0.0000      50.8611     -62.4223       1.0796      -0.9540      -0.5021      46.6650       0.0005
    9083.0    1395.5607       0.0000      50.8611     -56.3040       1.1779      -0.9669      -0.6648      46.6650       0.0005
    9084.0    1392.7964       0.0000      50.8611     -68.1029       0.8198      -0.7600      -0.3054      46.6650       0.0005
