~VERSION INFORMATION
VERS.           2.0   :CWLS Log ASCII Standard - VERSION 2.0
WRAP.           NO    :One Line per depth step
PROD.  Schlumberger   :LAS Producer
PROG.  DLIS to ASCII 19C2-270                          :LAS Program name and version
CREA.        2017/09/16 17:42                          :LAS Creation date {YYYY/MM/DD hh:mm}
DLIS_CREA.  2017-Sep-15 15:51                          :DLIS Creation date and time {YYYY-MMM-DD hh:mm}
SOURCE.     LPC_S3-1_AV.DLIS                           :DLIS File Name
FILE-ID.     PERFO_Perfo_WPGRT_037LTP                  :File Identification Number
#--------------------------------------------------
~WELL INFORMATION
#MNEM.UNIT      DATA             DESCRIPTION
#---- ------ --------------   -----------------------------
STRT .S         1283.0       :START TIME      
STOP .S         1755.0       :STOP TIME      
STEP .S            1.0       :STEP     
NULL .          -999.25      :NULL VALUE
COMP .        SHELL INTERNATIONAL E P                  :COMPANY
WELL .        WPP TEST 2                               :WELL
FLD  .        WILDCAT                                  :FIELD
LOC  .                                                 :LOCATION
CNTY .        HARRIS                                   :COUNTY
STAT .        TEXAS                                    :STATE
CTRY .                                                 :COUNTRY
API  .                                                 :API NUMBER
UWI  .                                                 :UNIQUE WELL ID
DATE .                                                 :LOG DATE
SRVC .        Schlumberger                             :SERVICE COMPANY
LATI .DEG                                              :LATITUDE
LONG .DEG                                              :LONGITUDE
GDAT .                                                 :GeoDetic Datum
#-----------------------------------------------------------------------------
~PARAMETER INFORMATION
#MNEM.UNIT    VALUE                      DESCRIPTION
#---- -----   --------------------       ------------------------
U-PHASE_B_COMP_PER_YT.                 0 :Phase B Comparator Period Yt
U-PHASE_A_COMP_PER_XT.                 0 :Phase A Comparator Period Xt
U-MAX_EXC_CUR_LIMIT.MA       240.00000   :Requested CM Current Limit
U-REQ_EXC_FQ.HZ              50          :Requested CM Frequency
U-TILT_Y_OFFSET.           0.19916       :WPTET Tilt Y Offset
U-TILT_Y_GAIN.           1.01796         :WPTET Tilt Y Gain
U-TILT_X_OFFSET.          -1.77103       :WPTET Tilt X Offset
U-TILT_X_GAIN.           1.00000         :WPTET Tilt X Gain
U-TILT_OFFSET_TOL.           0.00100     :WPTET Tilt Offset Calibration Tolerance
U-NO_TILT_CAL_ROTATIONS.                 3 :Number of Rotations for Tilt Calibration
HAZI .DEG        0.00000                 :Hole Azimuth
U-STD_TOL_TILT.           0.01000        :Tilt Standard Deviation Tolerance
U-GUN_POS_TOL.DEG        5.00000         :Gun Position Tolerance
ROT_ANGLE_THRESHOLD.DEG        5.00000   :Rotation Stop Angle Tolerance
STOP_ROT_ANGLE.DEG        0.00000        :Rotation Stop Angle
WITN .                                   :Witness's Name
ENGI .                                   :Engineer's Name
COUN .        HARRIS                     :County or Rig Name
FN   .        WILDCAT                    :Field Name
WN   .        WPP TEST 2                 :Well Name
CN   .        SHELL INTERNATIONAL E P    :Company Name
CLAB .        County                     :County/Rig Label
SLAB .        State                      :State/Province Label
RUN  .          1                        :RUN NUMBER
PDAT .        GROUND LEVEL               :Permanent Datum
EPD  .                                   :Elevation of Permanent Datum above Mean Sea Level
LMF  .                                   :Logging Measured From (Name of Logging Elevation Reference)
APD  .                                   :Elevation of Depth Reference (LMF) above Permanent Datum
#-----------------------------------------------------------------------------
~CURVE INFORMATION
#MNEM.UNIT   API CODE                                  DESCRIPTION
#---- -----  --------                                  -----------------------
TIME .S                                                :TIME {F10.1}
FREQ_EMF_SL.HZ                                         :Electromagnetic Field Frequency {F13.4}
PH_SH_WPPCM_SL.DEG                                     :WPPCM Phase Shift {F13.4}
FREQ_EXC_REQ_SL.HZ                                     :Requested Exciter Frequency {F13.4}
RB_SL.DEG                                              :Relative Bearing {F13.4}
SDEV_SL.DEG                                            :Sonde Deviation {F13.4}
TILX_SL.DEG                                            :X-axis Tilt {F13.4}
TILY_SL.DEG                                            :Y-axis Tilt {F13.4}
ROTA_SL.DEG                                            :Motor Rotation Angle {F13.4}
MSPE_SL.RPM                                            :Motor Speed {F13.4}
#-----------------------------------------------------------------------------
# 
#     TIME    FREQ_EMF_SL  PH_SH_WPPCM_ FREQ_EXC_REQ    RB_SL       SDEV_SL      TILX_SL      TILY_SL      ROTA_SL      MSPE_SL
#                          SL           _SL
~A  
# ...
    1409.0    1342.4173       0.0000      50.8611     -63.8663       1.0332      -0.9275      -0.4551     132.7577       1.0226
    1410.0    1327.5481       0.0000      50.8611     -76.4353       1.0688      -1.0390      -0.2506     139.2660       1.0226
    1411.0    1311.0080       0.0000      50.8611     -62.7264       1.0639      -0.9455      -0.4868     145.3672       1.0226
    1412.0    1291.2038       0.0000      50.8611     -64.5290       1.0645      -0.9587      -0.4592     151.4576       1.0226
    1413.0    1256.0843       0.0000      50.8611     -63.8464       1.0040      -0.9013      -0.4367     157.5595       1.0226
    1414.0    1222.1371       0.0000      50.8611     -61.7822       1.1387      -1.0037      -0.5368     163.6715       1.0309
    1415.0    1197.8279       0.0000      50.8611     -64.6408       1.1060      -0.9988      -0.4734     169.7763       1.0144
    1416.0    1155.4102       0.0000      50.8611     -70.3045       1.3022      -1.2259      -0.4325     175.8682       1.0226
    1417.0    1122.8673       0.0000      50.8611     -64.6002       1.2348      -1.1145      -0.5235     181.9701       1.0226
    1418.0    1100.1832       0.0000      50.8611     -61.3303       1.1386      -0.9988      -0.5460     188.0720       1.0226
    1419.0    1084.3203       0.0000      50.8611     -61.2981       1.1642      -1.0210      -0.5594     194.1739       1.0226
    1420.0    1070.5715       0.0000      50.8611     -58.2338       1.1094      -0.9448      -0.5777     200.2758       1.0226
    1421.0    1061.6020       0.0000      50.8611     -56.0549       1.1513      -0.9546      -0.6411     206.3786       1.0226
    1422.0    1062.1223       0.0000      50.8611     -57.7948       1.1178      -0.9455      -0.5961     212.8861       1.0226
    1423.0    1061.4045       0.0000      50.8611     -59.5565       1.1588      -0.9988      -0.5869     218.9880       1.0226
    1424.0    1064.4413       0.0000      50.8611     -57.4814       1.1853      -0.9988      -0.6370     225.1031       1.0226
    1425.0    1070.4149       0.0000      50.8611     -59.0946       1.2476      -1.0702      -0.6411     231.1928       1.0226
    1426.0    1091.9902       0.0000      50.8611     -54.5032       1.2342      -1.0037      -0.7137     237.2947       1.0226
    1427.0    1093.8850       0.0000      50.8611     -52.4073       1.0973      -0.8693      -0.6687     243.3974       1.0226
    1428.0    1112.7278       0.0000      50.8611     -51.9952       1.1622      -0.9144      -0.7137     249.5148       1.0226
    1429.0    1138.7605       0.0000      50.8611     -54.3547       1.0927      -0.8874      -0.6370     255.6297       1.0226
    1430.0    1178.4141       0.0000      50.8611     -51.1230       1.2315      -0.9587      -0.7730     261.7316       1.0226
    1431.0    1214.1384       0.0000      50.8611     -56.3710       1.2269      -1.0210      -0.6778     267.8246       1.0144
    1432.0    1246.9130       0.0000      50.8611     -54.3271       1.2565      -1.0210      -0.7321     273.9236       1.0226
    1433.0    1271.7211       0.0000      50.8611     -52.4496       1.1354      -0.9005      -0.6912     280.0262       1.0226
    1434.0    1309.0800       0.0000      50.8611     -51.0406       1.0409      -0.8070      -0.6553     286.5265       1.0144
    1435.0    1325.5319       0.0000      50.8611     -48.7664       1.0980      -0.8250      -0.7229     292.6231       1.0226
    1436.0    1343.2582       0.0000      50.8611     -47.9779       1.0325      -0.7669      -0.6912     298.7249       1.0226
    1437.0    1358.2492       0.0000      50.8611     -49.1693       1.0430      -0.7890      -0.6820     304.8326       1.0226
    1438.0    1374.1766       0.0000      50.8611     -50.5932       1.0168      -0.7849      -0.6461     310.9554       1.0226
    1439.0    1396.0032       0.0000      50.8611     -43.4555       0.9657      -0.6644      -0.7004     317.0572       1.0226
    1440.0    1409.7031       0.0000      50.8611     -52.0687       1.1413      -0.9005      -0.7004     323.1614       1.0226
    1441.0    1428.4654       0.0000      50.8611     -48.9352       0.7007      -0.5341      -0.4459     329.2632       1.0226
    1442.0    1444.7678       0.0000      50.8611     -53.3901       1.0062      -0.8070      -0.6003     335.3650       1.0226
    1443.0    1455.0705       0.0000      50.8611     -45.2614       1.0540      -0.7488      -0.7413     341.4704       1.0202
    1444.0    1465.5299       0.0000      50.8611     -47.0234       0.9684      -0.7087      -0.6595     347.5694       1.0226
    1445.0    1481.6675       0.0000      50.8611     -44.4838       0.9722      -0.6775      -0.6954     353.6721       1.0226
    1446.0    1488.9650       0.0000      50.8611     -50.8079       0.9503      -0.7357      -0.6003      80.9646       1.0309
    1447.0    1500.9693       0.0000      50.8611     -45.2763       0.9552      -0.6775      -0.6729       6.3075       1.0226
    1448.0    1509.5800       0.0000      50.8611     -25.5155       0.7256      -0.3127      -0.6228      12.4125       1.0226
    1449.0    1520.4436       0.0000      50.8611     -59.4435       1.0279      -0.8686      -0.4967      18.5120       1.0226
    1450.0    1519.3661       0.0000      50.8611     -52.6041       0.9375      -0.7447      -0.5685      20.4142       0.0005
    1451.0    1515.3556       0.0000      50.8611     -49.9352       1.0443      -0.7980      -0.6729      20.4142       0.0005
    1452.0    1523.0043       0.0000      50.8611     -50.6691       0.8896      -0.6865      -0.5643      20.4142       0.0005
    1453.0    1518.6285       0.0000      50.8611     -45.2733       0.9108      -0.6464      -0.6411      20.4142       0.0005
    1454.0    1520.4436       0.0000      50.8611     -50.4801       0.9429      -0.7267      -0.6003      20.4142       0.0005
    1455.0    1521.9155       0.0000      50.8611     -51.9708       0.9228      -0.7267      -0.5685      20.4142       0.0005
    1456.0    1524.4762       0.0000      50.8611     -52.5808       0.9658      -0.7669      -0.5869      20.4142       0.0005
    1457.0    1517.8942       0.0000      50.8611     -48.8719       0.9281      -0.6997      -0.6094      20.4142       0.0005
    1458.0    1518.6285       0.0000      50.8611     -51.1991       0.9725      -0.7578      -0.6094      20.4142       0.0005
    1459.0    1519.3661       0.0000      50.8611     -54.9210       0.9531      -0.7800      -0.5460      20.4142       0.0005
    1460.0    1521.1780       0.0000      50.8611     -55.3118       0.9435      -0.7759      -0.5368      20.4142       0.0005
    1461.0    1518.6285       0.0000      50.8611     -51.8728       0.8843      -0.6955      -0.5460      20.4142       0.0005
    1462.0    1513.5624       0.0000      50.8611     -51.9306       0.9392      -0.7398      -0.5777      20.4142       0.0005
    1463.0    1520.1068       0.0000      50.8611     -51.4416       0.8901      -0.6955      -0.5552      20.4142       0.0005
    1464.0    1521.1780       0.0000      50.8611     -48.9492       0.9766      -0.7357      -0.6411      20.4142       0.0005
    1465.0    1519.3661       0.0000      50.8611     -53.4718       0.8780      -0.7046      -0.5235      20.4142       0.0005
    1466.0    1516.8275       0.0000      50.8611     -53.0070       0.9601      -0.7669      -0.5777      20.4142       0.0005
    1467.0    1516.8275       0.0000      50.8611     -52.5287       1.0169      -0.8070      -0.6186      20.4142       0.0005
    1468.0    1523.7387       0.0000      50.8611     -66.7058       1.0503      -0.9136      -0.4157      20.4142       0.0005
    1469.0    1520.4436       0.0000      50.8611     -51.5116       1.1505      -0.8735      -0.7355      20.4142       0.0005
    1470.0    1517.5682       0.0000      50.8611     -55.3703       1.1279      -0.9275      -0.6411      20.4142       0.0005
    1471.0    1521.1780       0.0000      50.8611     -48.0974       0.7761      -0.5799      -0.5143      20.4142       0.0005
