~VERSION INFORMATION
VERS.           2.0   :CWLS Log ASCII Standard - VERSION 2.0
WRAP.           NO    :One Line per depth step
PROD.  Schlumberger   :LAS Producer
PROG.  DLIS to ASCII 19C2-270                          :LAS Program name and version
CREA.        2017/09/16 17:42                          :LAS Creation date {YYYY/MM/DD hh:mm}
DLIS_CREA.  2017-Sep-15 15:10                          :DLIS Creation date and time {YYYY-MMM-DD hh:mm}
SOURCE.     LPC_S2-1_2A5.DLIS                          :DLIS File Name
FILE-ID.     PERFO_Perfo_WPGRT_033LTP                  :File Identification Number
#--------------------------------------------------
~WELL INFORMATION
#MNEM.UNIT      DATA             DESCRIPTION
#---- ------ --------------   -----------------------------
STRT .S        15770.0       :START TIME      
STOP .S        16224.0       :STOP TIME      
STEP .S            1.0       :STEP     
NULL .          -999.25      :NULL VALUE
COMP .        SHELL INTERNATIONAL E P                  :COMPANY
WELL .        WPP TEST 2                               :WELL
FLD  .        WILDCAT                                  :FIELD
LOC  .                                                 :LOCATION
CNTY .        HARRIS                                   :COUNTY
STAT .        TEXAS                                    :STATE
CTRY .                                                 :COUNTRY
API  .                                                 :API NUMBER
UWI  .                                                 :UNIQUE WELL ID
DATE .                                                 :LOG DATE
SRVC .        Schlumberger                             :SERVICE COMPANY
LATI .DEG                                              :LATITUDE
LONG .DEG                                              :LONGITUDE
GDAT .                                                 :GeoDetic Datum
#-----------------------------------------------------------------------------
~PARAMETER INFORMATION
#MNEM.UNIT    VALUE                      DESCRIPTION
#---- -----   --------------------       ------------------------
U-PHASE_B_COMP_PER_YT.                 0 :Phase B Comparator Period Yt
U-PHASE_A_COMP_PER_XT.                 0 :Phase A Comparator Period Xt
U-MAX_EXC_CUR_LIMIT.MA       240.00000   :Requested CM Current Limit
U-REQ_EXC_FQ.HZ              50          :Requested CM Frequency
U-TILT_Y_OFFSET.           0.19916       :WPTET Tilt Y Offset
U-TILT_Y_GAIN.           1.01796         :WPTET Tilt Y Gain
U-TILT_X_OFFSET.          -1.77103       :WPTET Tilt X Offset
U-TILT_X_GAIN.           1.00000         :WPTET Tilt X Gain
U-TILT_OFFSET_TOL.           0.00100     :WPTET Tilt Offset Calibration Tolerance
U-NO_TILT_CAL_ROTATIONS.                 3 :Number of Rotations for Tilt Calibration
HAZI .DEG        0.00000                 :Hole Azimuth
U-STD_TOL_TILT.           0.01000        :Tilt Standard Deviation Tolerance
U-GUN_POS_TOL.DEG        5.00000         :Gun Position Tolerance
ROT_ANGLE_THRESHOLD.DEG        5.00000   :Rotation Stop Angle Tolerance
STOP_ROT_ANGLE.DEG       80.00000        :Rotation Stop Angle
WITN .                                   :Witness's Name
ENGI .                                   :Engineer's Name
COUN .        HARRIS                     :County or Rig Name
FN   .        WILDCAT                    :Field Name
WN   .        WPP TEST 2                 :Well Name
CN   .        SHELL INTERNATIONAL E P    :Company Name
CLAB .        County                     :County/Rig Label
SLAB .        State                      :State/Province Label
RUN  .          1                        :RUN NUMBER
PDAT .        GROUND LEVEL               :Permanent Datum
EPD  .                                   :Elevation of Permanent Datum above Mean Sea Level
LMF  .                                   :Logging Measured From (Name of Logging Elevation Reference)
APD  .                                   :Elevation of Depth Reference (LMF) above Permanent Datum
#-----------------------------------------------------------------------------
~CURVE INFORMATION
#MNEM.UNIT   API CODE                                  DESCRIPTION
#---- -----  --------                                  -----------------------
TIME .S                                                :TIME {F10.1}
FREQ_EMF_SL.HZ                                         :Electromagnetic Field Frequency {F13.4}
PH_SH_WPPCM_SL.DEG                                     :WPPCM Phase Shift {F13.4}
FREQ_EXC_REQ_SL.HZ                                     :Requested Exciter Frequency {F13.4}
RB_SL.DEG                                              :Relative Bearing {F13.4}
SDEV_SL.DEG                                            :Sonde Deviation {F13.4}
TILX_SL.DEG                                            :X-axis Tilt {F13.4}
TILY_SL.DEG                                            :Y-axis Tilt {F13.4}
ROTA_SL.DEG                                            :Motor Rotation Angle {F13.4}
MSPE_SL.RPM                                            :Motor Speed {F13.4}
#-----------------------------------------------------------------------------
# 
#     TIME    FREQ_EMF_SL  PH_SH_WPPCM_ FREQ_EXC_REQ    RB_SL       SDEV_SL      TILX_SL      TILY_SL      ROTA_SL      MSPE_SL
#                          SL           _SL
~A  
# ...
   15896.0    1346.9184       0.0000      50.8611     -97.3329       5.3881      -5.3439       0.6867     244.4729       1.0123
   15897.0    1324.0904       0.0000      50.8611     -92.5339       5.3913      -5.3860       0.2380     250.5716       1.0223
   15898.0    1287.7159       0.0000      50.8611     -87.7770       5.4685      -5.4643      -0.2118     256.6644       1.0226
   15899.0    1264.5001       0.0000      50.8611     -81.8103       5.5209      -5.4643      -0.7852     262.7690       1.0226
   15900.0    1233.2314       0.0000      50.8611     -79.2875       5.5988      -5.5005      -1.0387     268.8808       1.0226
   15901.0    1207.9636       0.0000      50.8611     -73.9881       5.5226      -5.3077      -1.5212     274.9792       1.0223
   15902.0    1187.8624       0.0000      50.8611     -66.6792       5.6009      -5.1420      -2.2143     281.0909       1.0226
   15903.0    1162.1421       0.0000      50.8611     -63.8442       5.5962      -5.0215      -2.4637     287.1892       1.0223
   15904.0    1158.0774       0.0000      50.8611     -57.4172       5.4900      -4.6239      -2.9533     293.2760       1.0226
   15905.0    1144.9694       0.0000      50.8611     -53.3981       5.5089      -4.4200      -3.2814     299.3807       1.0226
   15906.0    1123.4290       0.0000      50.8611     -47.6349       5.6560      -4.1760      -3.8079     305.4606       1.0226
   15907.0    1112.4956       0.0000      50.8611     -42.9927       5.5440      -3.7774      -4.0522     311.5592       1.0226
   15908.0    1096.7488       0.0000      50.8611     -37.5566       5.4757      -3.3345      -4.3384     318.0506       1.0226
   15909.0    1088.4288       0.0000      50.8611     -32.3874       5.4814      -2.9328      -4.6266     324.1552       1.0226
   15910.0    1082.0251       0.0000      50.8611     -28.5645       5.5504      -2.6507      -4.8730     330.2598       1.0226
   15911.0    1078.6209       0.0000      50.8611     -22.7638       5.5055      -2.1275      -5.0754     336.3716       1.0226
   15912.0    1096.7911       0.0000      50.8611     -19.8729       5.3110      -1.8032      -4.9936     342.4703       1.0226
   15913.0    1108.9428       0.0000      50.8611     -12.0137       5.2301      -1.0872      -5.1153     348.5686       1.0226
   15914.0    1121.3224       0.0000      50.8611      -7.1971       5.1581      -0.6454      -5.1173     354.6679       1.0226
   15915.0    1128.7024       0.0000      50.8611      -1.3592       5.1167      -0.1212      -5.1153       0.7666       1.0226
   15916.0    1130.6550       0.0000      50.8611       4.1824       5.0000       0.3638      -4.9865       6.8848       1.0226
   15917.0    1152.6168       0.0000      50.8611       9.8861       4.9030       0.8408      -4.8301      12.9892       1.0123
   15918.0    1169.9739       0.0000      50.8611      14.9208       4.8308       1.2425      -4.6675      19.0770       1.0123
   15919.0    1193.8623       0.0000      50.8611      19.9995       4.7034       1.6070      -4.4191      25.1891       1.0226
   15920.0    1220.8629       0.0000      50.8611      25.9072       4.5968       2.0066      -4.1339      31.7048       1.0226
   15921.0    1240.4109       0.0000      50.8611      31.9962       4.3948       2.3270      -3.7261      37.8167       1.0226
   15922.0    1292.7486       0.0000      50.8611      37.7992       4.4533       2.7276      -3.5176      43.9156       1.0223
   15923.0    1331.7393       0.0000      50.8611      43.6726       4.2984       2.9666      -3.1077      50.0021       1.0226
   15924.0    1357.5157       0.0000      50.8611      49.2319       4.1349       3.1303      -2.6988      56.1065       1.0123
   15925.0    1368.2157       0.0000      50.8611      56.6110       3.9461       3.2940      -2.1703      62.2118       1.0123
   15926.0    1394.9514       0.0000      50.8611      65.5692       3.9648       3.6093      -1.6388      68.3118       1.0226
   15927.0    1414.5262       0.0000      50.8611      70.5988       3.8280       3.6103      -1.2708      74.4166       1.0226
   15928.0    1423.4746       0.0000      50.8611      78.8107       3.8073       3.7348      -0.7382      80.5223       1.0226
   15929.0    1426.5824       0.0000      50.8611      85.3817       3.5859       3.5742      -0.2884      86.6210       1.0226
   15930.0    1449.8923       0.0000      50.8611      88.8477       3.4224       3.4195      -0.0666      92.7074       1.0226
   15931.0    1464.6163       0.0000      50.8611     101.3310       3.5183       3.4496       0.6908      98.8123       1.0226
   15932.0    1474.1341       0.0000      50.8611     109.7879       3.4978       3.2910       1.1835     105.3219       1.0226
   15933.0    1474.2899       0.0000      50.8611     117.8230       3.4923       3.0881       1.6292     111.4339       1.0226
   15934.0    1489.5929       0.0000      50.8611     124.8509       3.5717       2.9305       2.0401     117.5205       1.0226
   15935.0    1492.9138       0.0000      50.8611     133.7285       3.6049       2.6041       2.4909     123.6252       1.0226
   15936.0    1502.4038       0.0000      50.8611     140.0957       3.6226       2.3230       2.7782     129.7299       1.0226
   15937.0    1502.5650       0.0000      50.8611     148.6108       3.5460       1.8460       3.0266     135.8417       1.0226
   15938.0    1512.0968       0.0000      50.8611     150.5402       3.7514       1.8440       3.2658     138.6581       0.0005
   15939.0    1508.9331       0.0000      50.8611     153.2452       3.7460       1.6853       3.3445     138.6581       0.0005
   15940.0    1512.0157       0.0000      50.8611     152.1314       3.6913       1.7245       3.2627     138.6581       0.0005
   15941.0    1512.0157       0.0000      50.8611     151.5509       3.6218       1.7245       3.1840     138.6581       0.0005
   15942.0    1508.9331       0.0000      50.8611     150.8559       3.7843       1.8420       3.3046     138.6581       0.0005
   15943.0    1508.9331       0.0000      50.8611     151.6199       3.7125       1.7636       3.2658     138.6581       0.0005
   15944.0    1508.7712       0.0000      50.8611     150.2439       3.7153       1.8430       3.2249     138.6581       0.0005
   15945.0    1512.0968       0.0000      50.8611     152.4283       3.6409       1.6843       3.2269     138.6581       0.0005
   15946.0    1515.1122       0.0000      50.8611     152.6947       3.6758       1.6853       3.2658     138.6581       0.0005
   15947.0    1505.7829       0.0000      50.8611     152.7295       3.6758       1.6833       3.2668     138.6581       0.0005
   15948.0    1505.7829       0.0000      50.8611     151.9580       3.7471       1.7606       3.3066     138.6581       0.0005
   15949.0    1511.9349       0.0000      50.8611     151.0901       3.8189       1.8450       3.3424     138.6581       0.0005
   15950.0    1515.3556       0.0000      50.8611     150.7374       3.6058       1.7616       3.1451     138.6581       0.0005
   15951.0    1512.2601       0.0000      50.8611     150.2788       3.7152       1.8410       3.2259     138.6581       0.0005
   15952.0    1508.8519       0.0000      50.8611     152.1584       3.7829       1.7656       3.3445     138.6581       0.0005
   15953.0    1511.9349       0.0000      50.8611     150.0319       3.7658       1.8801       3.2617     138.6581       0.0005
   15954.0    1518.4652       0.0000      50.8611     151.6004       3.6213       1.7215       3.1850     138.6581       0.0005
   15955.0    1502.7276       0.0000      50.8611     151.1045       3.7308       1.8018       3.2658     138.6581       0.0005
   15956.0    1508.8519       0.0000      50.8611     151.3975       3.7658       1.8018       3.3056     138.6581       0.0005
   15957.0    1511.9349       0.0000      50.8611     150.9598       3.6413       1.7667       3.1830     138.6581       0.0005
   15958.0    1511.9349       0.0000      50.8611     153.2439       3.6521       1.6431       3.2606     138.6581       0.0005
