~VERSION INFORMATION
VERS.           2.0   :CWLS Log ASCII Standard - VERSION 2.0
WRAP.           NO    :One Line per depth step
PROD.  Schlumberger   :LAS Producer
PROG.  DLIS to ASCII 19C2-270                          :LAS Program name and version
CREA.        2017/09/16 17:42                          :LAS Creation date {YYYY/MM/DD hh:mm}
DLIS_CREA.  2017-Sep-15 13:45                          :DLIS Creation date and time {YYYY-MMM-DD hh:mm}
SOURCE.     LPC_S1-1_2B5.DLIS                          :DLIS File Name
FILE-ID.     PERFO_Perfo_WPGRT_026LTP                  :File Identification Number
#--------------------------------------------------
~WELL INFORMATION
#MNEM.UNIT      DATA             DESCRIPTION
#---- ------ --------------   -----------------------------
STRT .S        10666.0       :START TIME      
STOP .S        11234.0       :STOP TIME      
STEP .S            1.0       :STEP     
NULL .          -999.25      :NULL VALUE
COMP .        SHELL INTERNATIONAL E P                  :COMPANY
WELL .        WPP TEST 2                               :WELL
FLD  .        WILDCAT                                  :FIELD
LOC  .                                                 :LOCATION
CNTY .        HARRIS                                   :COUNTY
STAT .        TEXAS                                    :STATE
CTRY .                                                 :COUNTRY
API  .                                                 :API NUMBER
UWI  .                                                 :UNIQUE WELL ID
DATE .                                                 :LOG DATE
SRVC .        Schlumberger                             :SERVICE COMPANY
LATI .DEG                                              :LATITUDE
LONG .DEG                                              :LONGITUDE
GDAT .                                                 :GeoDetic Datum
#-----------------------------------------------------------------------------
~PARAMETER INFORMATION
#MNEM.UNIT    VALUE                      DESCRIPTION
#---- -----   --------------------       ------------------------
U-PHASE_B_COMP_PER_YT.                 0 :Phase B Comparator Period Yt
U-PHASE_A_COMP_PER_XT.                 0 :Phase A Comparator Period Xt
U-MAX_EXC_CUR_LIMIT.MA       240.00000   :Requested CM Current Limit
U-REQ_EXC_FQ.HZ              50          :Requested CM Frequency
U-TILT_Y_OFFSET.           0.19916       :WPTET Tilt Y Offset
U-TILT_Y_GAIN.           1.01796         :WPTET Tilt Y Gain
U-TILT_X_OFFSET.          -1.77103       :WPTET Tilt X Offset
U-TILT_X_GAIN.           1.00000         :WPTET Tilt X Gain
U-TILT_OFFSET_TOL.           0.00100     :WPTET Tilt Offset Calibration Tolerance
U-NO_TILT_CAL_ROTATIONS.                 3 :Number of Rotations for Tilt Calibration
HAZI .DEG        0.00000                 :Hole Azimuth
U-STD_TOL_TILT.           0.01000        :Tilt Standard Deviation Tolerance
U-GUN_POS_TOL.DEG        5.00000         :Gun Position Tolerance
ROT_ANGLE_THRESHOLD.DEG        5.00000   :Rotation Stop Angle Tolerance
STOP_ROT_ANGLE.DEG       80.00000        :Rotation Stop Angle
WITN .                                   :Witness's Name
ENGI .                                   :Engineer's Name
COUN .        HARRIS                     :County or Rig Name
FN   .        WILDCAT                    :Field Name
WN   .        WPP TEST 2                 :Well Name
CN   .        SHELL INTERNATIONAL E P    :Company Name
CLAB .        County                     :County/Rig Label
SLAB .        State                      :State/Province Label
RUN  .          1                        :RUN NUMBER
PDAT .        GROUND LEVEL               :Permanent Datum
EPD  .                                   :Elevation of Permanent Datum above Mean Sea Level
LMF  .                                   :Logging Measured From (Name of Logging Elevation Reference)
APD  .                                   :Elevation of Depth Reference (LMF) above Permanent Datum
#-----------------------------------------------------------------------------
~CURVE INFORMATION
#MNEM.UNIT   API CODE                                  DESCRIPTION
#---- -----  --------                                  -----------------------
TIME .S                                                :TIME {F10.1}
FREQ_EMF_SL.HZ                                         :Electromagnetic Field Frequency {F13.4}
PH_SH_WPPCM_SL.DEG                                     :WPPCM Phase Shift {F13.4}
FREQ_EXC_REQ_SL.HZ                                     :Requested Exciter Frequency {F13.4}
RB_SL.DEG                                              :Relative Bearing {F13.4}
SDEV_SL.DEG                                            :Sonde Deviation {F13.4}
TILX_SL.DEG                                            :X-axis Tilt {F13.4}
TILY_SL.DEG                                            :Y-axis Tilt {F13.4}
ROTA_SL.DEG                                            :Motor Rotation Angle {F13.4}
MSPE_SL.RPM                                            :Motor Speed {F13.4}
#-----------------------------------------------------------------------------
# 
#     TIME    FREQ_EMF_SL  PH_SH_WPPCM_ FREQ_EXC_REQ    RB_SL       SDEV_SL      TILX_SL      TILY_SL      ROTA_SL      MSPE_SL
#                          SL           _SL
~A  
# ...
   11170.0    1449.7422       0.0000      50.8611    -152.6157       3.7653      -1.7309       3.3428      79.9874       0.0005
   11171.0    1455.0550       0.0000      50.8611    -153.9875       3.7761      -1.6551       3.3931      79.9874       0.0005
   11172.0    1448.7173       0.0000      50.8611    -153.8675       3.7908      -1.6690       3.4025      79.9874       0.0005
   11173.0    1446.7593       0.0000      50.8611    -153.6183       3.7373      -1.6598       3.3475      79.9874       0.0005
   11174.0    1452.3932       0.0000      50.8611    -152.6789       3.8098      -1.7479       3.3837      79.9874       0.0005
   11175.0    1449.7422       0.0000      50.8611    -153.1441       3.8339      -1.7309       3.4199      79.9874       0.0005
   11176.0    1449.7422       0.0000      50.8611    -154.1944       3.8045      -1.6551       3.4246      79.9874       0.0005
   11177.0    1449.3992       0.0000      50.8611    -152.4239       3.7310      -1.7262       3.3066      79.9874       0.0005
   11178.0    1452.0502       0.0000      50.8611    -152.6130       3.8223      -1.7572       3.3931      79.9874       0.0005
   11179.0    1452.0502       0.0000      50.8611    -152.4888       3.8264      -1.7664       3.3931      79.9874       0.0005
   11180.0    1444.9041       0.0000      50.8611    -154.3261       3.8120      -1.6505       3.4352      79.9874       0.0005
   11181.0    1455.3995       0.0000      50.8611    -152.5253       3.7738      -1.7401       3.3475      79.9874       0.0005
   11182.0    1451.7085       0.0000      50.8611    -152.2668       3.7985      -1.7664       3.3616      79.9874       0.0005
   11183.0    1441.8548       0.0000      50.8611    -153.4805       3.8788      -1.7309       3.4702      79.9874       0.0005
   11184.0    1448.1400       0.0000      50.8611    -152.7678       3.8522      -1.7618       3.4246      79.9874       0.0005
   11185.0    1452.3932       0.0000      50.8611    -153.6168       3.6566      -1.6242       3.2752      79.9874       0.0005
   11186.0    1448.7173       0.0000      50.8611    -151.9454       3.7582      -1.7664       3.3160      79.9874       0.0005
   11187.0    1449.3992       0.0000      50.8611    -152.9648       3.8205      -1.7355       3.4025      79.9874       0.0005
   11188.0    1444.8177       0.0000      50.8611    -154.4138       3.7628      -1.6242       3.3931      79.9874       0.0005
   11189.0    1450.0867       0.0000      50.8611    -152.7115       3.7673      -1.7262       3.3475      79.9874       0.0005
   11190.0    1451.7085       0.0000      50.8611    -153.3373       3.7007      -1.6598       3.3066      79.9874       0.0005
   11191.0    1449.3992       0.0000      50.8611    -152.7750       3.7758      -1.7262       3.3569      79.9874       0.0005
   11192.0    1449.9143       0.0000      50.8611    -152.9179       3.8142      -1.7355       3.3955      79.9874       0.0005
   11193.0    1447.1023       0.0000      50.8611    -153.8068       3.7416      -1.6505       3.3569      79.9874       0.0005
   11194.0    1450.0867       0.0000      50.8611    -152.8129       3.7126      -1.6953       3.3019      79.9874       0.0005
   11195.0    1452.3932       0.0000      50.8611    -152.1743       3.7964      -1.7710       3.3569      79.9874       0.0005
   11196.0    1449.7422       0.0000      50.8611    -152.6106       3.9092      -1.7973       3.4702      79.9874       0.0005
   11197.0    1452.7377       0.0000      50.8611    -153.6214       3.7478      -1.6644       3.3569      79.9874       0.0005
   11198.0    1452.3932       0.0000      50.8611    -153.1921       3.7406      -1.6861       3.3381      79.9874       0.0005
   11199.0    1449.3992       0.0000      50.8611    -152.9936       3.8037      -1.7262       3.3884      79.9874       0.0005
   11200.0    1447.1023       0.0000      50.8611    -153.2085       3.8423      -1.7309       3.4293      79.9874       0.0005
   11201.0    1447.1023       0.0000      50.8611    -153.2882       3.7638      -1.6907       3.3616      79.9874       0.0005
   11202.0    1441.5117       0.0000      50.8611    -152.7748       3.7653      -1.7216       3.3475      79.9874       0.0005
   11203.0    1449.7422       0.0000      50.8611    -153.8913       3.7635      -1.6551       3.3790      79.9874       0.0005
   11204.0    1450.3817       0.0000      50.8611    -152.2313       3.8608      -1.7977       3.4156      79.9874       0.0005
   11205.0    1443.7886       0.0000      50.8611    -153.0250       3.8079      -1.7262       3.3931      79.9874       0.0005
   11206.0    1447.4468       0.0000      50.8611    -152.2401       3.8245      -1.7803       3.3837      79.9874       0.0005
   11207.0    1452.3932       0.0000      50.8611    -153.7458       3.8243      -1.6907       3.4293      79.9874       0.0005
   11208.0    1452.3932       0.0000      50.8611    -154.0469       3.8443      -1.6815       3.4561      79.9874       0.0005
   11209.0    1449.0575       0.0000      50.8611    -152.2708       3.8750      -1.8020       3.4293      79.9874       0.0005
   11210.0    1442.1992       0.0000      50.8611    -152.3914       3.8138      -1.7664       3.3790      79.9874       0.0005
   11211.0    1450.4326       0.0000      50.8611    -152.7357       3.8480      -1.7618       3.4199      79.9874       0.0005
   11212.0    1454.7120       0.0000      50.8611    -153.4786       3.8579      -1.7216       3.4514      79.9874       0.0005
   11213.0    1452.0502       0.0000      50.8611    -152.3624       3.8201      -1.7710       3.3837      79.9874       0.0005
   11214.0    1450.4326       0.0000      50.8611    -153.1020       3.7595      -1.6999       3.3522      79.9874       0.0005
   11215.0    1447.4468       0.0000      50.8611    -153.1020       3.7595      -1.6999       3.3522      79.9874       0.0005
   11216.0    1452.7146       0.0000      50.8611    -153.8370       3.8060      -1.6772       3.4156      79.9874       0.0005
   11217.0    1452.7377       0.0000      50.8611    -153.2259       3.7553      -1.6907       3.3522      79.9874       0.0005
   11218.0    1449.3992       0.0000      50.8611    -150.4989       3.8058      -1.8730       3.3113      79.9874       0.0005
   11219.0    1449.3992       0.0000      50.8611    -154.0145       3.8506      -1.6861       3.4608      79.9874       0.0005
   11220.0    1454.7120       0.0000      50.8611    -153.3630       3.8424      -1.7216       3.4340      79.9874       0.0005
   11221.0    1449.7422       0.0000      50.8611    -152.9245       3.8524      -1.7525       3.4293      79.9874       0.0005
   11222.0    1444.8177       0.0000      50.8611    -154.2259       3.8087      -1.6551       3.4293      79.9874       0.0005
   11223.0    1449.7422       0.0000      50.8611    -152.5586       3.7779      -1.7401       3.3522      79.9874       0.0005
   11224.0    1446.7593       0.0000      50.8611    -152.9544       3.8567      -1.7525       3.4340      79.9874       0.0005
   11225.0    1449.7422       0.0000      50.8611    -153.4126       3.7598      -1.6815       3.3616      79.9874       0.0005
   11226.0    1449.3992       0.0000      50.8611    -151.0590       3.8625      -1.8684       3.3790      79.9874       0.0005
   11227.0    1450.0867       0.0000      50.8611    -151.5406       3.8029      -1.8112       3.3428      79.9874       0.0005
   11228.0    1449.7422       0.0000      50.8611    -153.7063       3.8612      -1.7092       3.4608      79.9874       0.0005
   11229.0    1444.4732       0.0000      50.8611    -153.6214       3.7478      -1.6644       3.3569      79.9874       0.0005
   11230.0    1449.0575       0.0000      50.8611    -154.6148       3.6865      -1.5794       3.3302      79.9874       0.0005
   11231.0    1446.0774       0.0000      50.8611    -151.4472       3.7092      -1.7710       3.2578      79.9874       0.0005
   11232.0    1444.4732       0.0000      50.8611    -151.7249       3.6583      -1.7309       3.2216      79.9874       0.0005
