~VERSION INFORMATION
VERS.           2.0   :CWLS Log ASCII Standard - VERSION 2.0
WRAP.           NO    :One Line per depth step
PROD.  Schlumberger   :LAS Producer
PROG.  DLIS to ASCII 19C2-270                          :LAS Program name and version
CREA.        2017/09/16 17:42                          :LAS Creation date {YYYY/MM/DD hh:mm}
DLIS_CREA.  2017-Sep-15 11:15                          :DLIS Creation date and time {YYYY-MMM-DD hh:mm}
SOURCE.     LPC_S1-1_AV_1ST-LOG.DLIS                   :DLIS File Name
FILE-ID.     PERFO_Perfo_WPGRT_014LTP                  :File Identification Number
#--------------------------------------------------
~WELL INFORMATION
#MNEM.UNIT      DATA             DESCRIPTION
#---- ------ --------------   -----------------------------
STRT .S         1693.0       :START TIME      
STOP .S         2010.0       :STOP TIME      
STEP .S            1.0       :STEP     
NULL .          -999.25      :NULL VALUE
COMP .        SHELL INTERNATIONAL E P                  :COMPANY
WELL .        WPP TEST 2                               :WELL
FLD  .        WILDCAT                                  :FIELD
LOC  .                                                 :LOCATION
CNTY .        HARRIS                                   :COUNTY
STAT .        TEXAS                                    :STATE
CTRY .                                                 :COUNTRY
API  .                                                 :API NUMBER
UWI  .                                                 :UNIQUE WELL ID
DATE .                                                 :LOG DATE
SRVC .        Schlumberger                             :SERVICE COMPANY
LATI .DEG                                              :LATITUDE
LONG .DEG                                              :LONGITUDE
GDAT .                                                 :GeoDetic Datum
#-----------------------------------------------------------------------------
~PARAMETER INFORMATION
#MNEM.UNIT    VALUE                      DESCRIPTION
#---- -----   --------------------       ------------------------
U-PHASE_B_COMP_PER_YT.                 0 :Phase B Comparator Period Yt
U-PHASE_A_COMP_PER_XT.                 0 :Phase A Comparator Period Xt
U-MAX_EXC_CUR_LIMIT.MA       240.00000   :Requested CM Current Limit
U-REQ_EXC_FQ.HZ              50          :Requested CM Frequency
U-TILT_Y_OFFSET.           0.19916       :WPTET Tilt Y Offset
U-TILT_Y_GAIN.           1.01796         :WPTET Tilt Y Gain
U-TILT_X_OFFSET.          -1.77103       :WPTET Tilt X Offset
U-TILT_X_GAIN.           1.00000         :WPTET Tilt X Gain
U-TILT_OFFSET_TOL.           0.00100     :WPTET Tilt Offset Calibration Tolerance
U-NO_TILT_CAL_ROTATIONS.                 3 :Number of Rotations for Tilt Calibration
HAZI .DEG        0.00000                 :Hole Azimuth
U-STD_TOL_TILT.           0.01000        :Tilt Standard Deviation Tolerance
U-GUN_POS_TOL.DEG        5.00000         :Gun Position Tolerance
ROT_ANGLE_THRESHOLD.DEG        5.00000   :Rotation Stop Angle Tolerance
STOP_ROT_ANGLE.DEG        0.00000        :Rotation Stop Angle
WITN .                                   :Witness's Name
ENGI .                                   :Engineer's Name
COUN .        HARRIS                     :County or Rig Name
FN   .        WILDCAT                    :Field Name
WN   .        WPP TEST 2                 :Well Name
CN   .        SHELL INTERNATIONAL E P    :Company Name
CLAB .        County                     :County/Rig Label
SLAB .        State                      :State/Province Label
RUN  .          1                        :RUN NUMBER
PDAT .        GROUND LEVEL               :Permanent Datum
EPD  .                                   :Elevation of Permanent Datum above Mean Sea Level
LMF  .                                   :Logging Measured From (Name of Logging Elevation Reference)
APD  .                                   :Elevation of Depth Reference (LMF) above Permanent Datum
#-----------------------------------------------------------------------------
~CURVE INFORMATION
#MNEM.UNIT   API CODE                                  DESCRIPTION
#---- -----  --------                                  -----------------------
TIME .S                                                :TIME {F10.1}
FREQ_EMF_SL.HZ                                         :Electromagnetic Field Frequency {F13.4}
PH_SH_WPPCM_SL.DEG                                     :WPPCM Phase Shift {F13.4}
FREQ_EXC_REQ_SL.HZ                                     :Requested Exciter Frequency {F13.4}
RB_SL.DEG                                              :Relative Bearing {F13.4}
SDEV_SL.DEG                                            :Sonde Deviation {F13.4}
TILX_SL.DEG                                            :X-axis Tilt {F13.4}
TILY_SL.DEG                                            :Y-axis Tilt {F13.4}
ROTA_SL.DEG                                            :Motor Rotation Angle {F13.4}
MSPE_SL.RPM                                            :Motor Speed {F13.4}
#-----------------------------------------------------------------------------
# 
#     TIME    FREQ_EMF_SL  PH_SH_WPPCM_ FREQ_EXC_REQ    RB_SL       SDEV_SL      TILX_SL      TILY_SL      ROTA_SL      MSPE_SL
#                          SL           _SL
~A  
# ...
    1819.0     898.5053       0.0000      50.8611     -49.1386       1.0743      -0.8133      -0.7004     199.3321       1.0226
    1820.0     905.0814       0.0000      50.8611     -46.9942       1.0099      -0.7383      -0.6886     205.4340       1.0226
    1821.0     911.1247       0.0000      50.8611     -46.2556       0.9336      -0.6696      -0.6486     211.5498       1.0302
    1822.0     920.1625       0.0000      50.8611     -49.7416       0.9302      -0.7097      -0.6013     217.6539       1.0226
    1823.0     925.3585       0.0000      50.8611     -48.1714       1.0143      -0.7553      -0.6768     223.7536       1.0226
    1824.0     939.1140       0.0000      50.8611     -46.5527       1.0012      -0.7267      -0.6886     229.8555       1.0226
    1825.0     955.5399       0.0000      50.8611     -50.0931       1.0007      -0.7669      -0.6422     235.9574       1.0226
    1826.0     978.7084       0.0000      50.8611     -48.1535       0.9683      -0.7205      -0.6422     242.0724       1.0226
    1827.0     999.9913       0.0000      50.8611     -46.0133       0.9567      -0.6865      -0.6650     248.1583       1.0151
    1828.0    1023.2764       0.0000      50.8611     -54.9286       1.0066      -0.8240      -0.5777     254.2514       1.0226
    1829.0    1057.2014       0.0000      50.8611     -46.3319       0.8616      -0.6232      -0.5950     260.3533       1.0226
    1830.0    1135.0119       0.0000      50.8611     -50.2888       0.8402      -0.6464      -0.5368     266.8631       1.0226
    1831.0    1235.4372       0.0000      50.8611     -49.2972       0.8682      -0.6580      -0.5659     272.9649       1.0226
    1832.0    1282.4000       0.0000      50.8611     -46.4648       0.8433      -0.6124      -0.5777     279.0667       1.0226
    1833.0    1312.9109       0.0000      50.8611     -55.0691       0.8866      -0.7267      -0.5077     285.1527       1.0226
    1834.0    1343.0042       0.0000      50.8611     -48.1698       0.7440      -0.5544      -0.4959     291.2719       1.0226
    1835.0    1376.7576       0.0000      50.8611     -55.4933       0.9176      -0.7553      -0.5196     297.3737       1.0226
    1836.0    1409.8852       0.0000      50.8611     -60.0294       0.8524      -0.7383      -0.4260     303.4925       1.0302
    1837.0    1435.7963       0.0000      50.8611     -57.9711       0.8243      -0.6981      -0.4378     309.5912       1.0151
    1838.0    1462.2904       0.0000      50.8611     -60.3842       0.8165      -0.7097      -0.4024     315.6720       1.0226
    1839.0    1491.5020       0.0000      50.8611     -57.7034       0.8735      -0.7383      -0.4669     321.7840       1.0226
    1840.0    1522.8688       0.0000      50.8611     -57.9818       1.0128      -0.8588      -0.5368     327.8727       1.0226
    1841.0    1544.8894       0.0000      50.8611     -60.5639       0.8675      -0.7553      -0.4260     333.9745       1.0226
    1842.0    1563.5048       0.0000      50.8611     -65.3502       0.8251      -0.7499      -0.3442     340.4843       1.0257
    1843.0    1588.2265       0.0000      50.8611     -64.1705       0.8748      -0.7838      -0.3796     346.5992       1.0226
    1844.0    1607.4346       0.0000      50.8611     -59.4382       0.9063      -0.7785      -0.4605     352.7141       1.0257
    1845.0    1623.8453       0.0000      50.8611     -64.9323       0.9362      -0.8472      -0.3969     358.8166       1.0226
    1846.0    1633.5766       0.0000      50.8611     -69.8850       0.8630      -0.8070      -0.2978       4.9184       1.0226
    1847.0    1642.8153       0.0000      50.8611     -65.2025       0.9262      -0.8410      -0.3851      11.0334       1.0226
    1848.0    1645.0424       0.0000      50.8611     -62.2678       1.0669      -0.9445      -0.4959      17.1229       1.0226
    1849.0    1640.0917       0.0000      50.8611     -65.9132       0.9787      -0.8927      -0.3969      23.2122       1.0226
    1850.0    1639.5135       0.0000      50.8611     -66.3965       0.9624      -0.8820      -0.3851      29.3141       1.0226
    1851.0    1636.7899       0.0000      50.8611     -66.1947       1.0264      -0.9391      -0.4142      35.4159       1.0226
    1852.0    1620.1036       0.0000      50.8611     -64.1877       1.0176      -0.9159      -0.4432      41.5177       1.0226
    1853.0    1605.3082       0.0000      50.8611     -60.4686       1.0065      -0.8758      -0.4959      47.6195       1.0226
    1854.0    1594.8866       0.0000      50.8611     -64.7288       0.9288      -0.8401      -0.3960      54.1293       1.0226
    1855.0    1576.5134       0.0000      50.8611     -65.6905       1.1147      -1.0141      -0.4614      60.2312       1.0226
    1856.0    1552.1523       0.0000      50.8611     -66.2470       1.0574      -0.9677      -0.4260      66.3351       1.0226
    1857.0    1525.6729       0.0000      50.8611     -61.0854       1.0735      -0.9391      -0.5196      72.4347       1.0226
    1858.0    1494.1802       0.0000      50.8611     -61.5580       1.0416      -0.9159      -0.4959      78.5242       1.0226
    1859.0    1476.2592       0.0000      50.8611     -60.2345       1.1416      -0.9909      -0.5659      84.6260       1.0226
    1860.0    1446.7593       0.0000      50.8611     -56.3821       1.0774      -0.8980      -0.5923      90.7154       1.0226
    1861.0    1416.3530       0.0000      50.8611     -60.1763       1.2087      -1.0480      -0.6013      96.8179       1.0226
    1862.0    1394.6783       0.0000      50.8611     -61.5240       1.1011      -0.9677      -0.5250     102.9196       1.0226
    1863.0    1363.7662       0.0000      50.8611     -60.5068       1.1180      -0.9731      -0.5486     109.0214       1.0226
    1864.0    1327.3750       0.0000      50.8611     -61.6007       1.1790      -1.0364      -0.5604     115.1232       1.0226
    1865.0    1299.3189       0.0000      50.8611     -53.9511       1.1987      -0.9677      -0.7058     121.2127       1.0226
    1866.0    1231.1053       0.0000      50.8611     -54.9146       1.1476      -0.9391      -0.6595     127.4345       1.0226
    1867.0    1152.3813       0.0000      50.8611     -50.2043       1.1833      -0.9097      -0.7531     133.8244       1.0226
    1868.0    1075.8117       0.0000      50.8611     -58.5647       1.1406      -0.9731      -0.5950     139.9263       1.0226
    1869.0    1026.2348       0.0000      50.8611     -53.3139       1.1925      -0.9561      -0.7122     146.0386       1.0195
    1870.0    1002.4073       0.0000      50.8611     -53.5887       1.1313      -0.9106      -0.6713     152.1317       1.0257
    1871.0     975.3924       0.0000      50.8611     -54.1114       1.1451      -0.9275      -0.6713     158.2466       1.0195
    1872.0     954.4439       0.0000      50.8611     -51.2475       1.2058      -0.9374      -0.7567     164.3362       1.0226
    1873.0     938.5629       0.0000      50.8611     -50.0067       1.2014      -0.9213      -0.7703     170.4381       1.0226
    1874.0     925.6804       0.0000      50.8611     -52.4112       1.2242      -0.9677      -0.7476     176.5421       1.0226
    1875.0     915.3477       0.0000      50.8611     -48.0412       1.0441      -0.7731      -0.6940     182.6552       1.0226
    1876.0     907.4175       0.0000      50.8611     -51.3958       1.0648      -0.8302      -0.6658     188.7453       1.0226
    1877.0     901.4423       0.0000      50.8611     -48.3884       1.0804      -0.8070      -0.7177     194.8472       1.0226
    1878.0     899.8025       0.0000      50.8611     -49.8348       1.0412      -0.7954      -0.6713     201.0660       1.0226
    1879.0     903.7596       0.0000      50.8611     -44.8980       0.9890      -0.6981      -0.7004     207.4612       1.0226
    1880.0     910.2683       0.0000      50.8611     -46.5654       1.0792      -0.7838      -0.7413     213.5600       1.0226
    1881.0     911.6601       0.0000      50.8611     -48.8036       0.9296      -0.6981      -0.6131     219.6751       1.0226
