~VERSION INFORMATION
VERS.           2.0   :CWLS Log ASCII Standard - VERSION 2.0
WRAP.           NO    :One Line per depth step
PROD.  Schlumberger   :LAS Producer
PROG.  DLIS to ASCII 19C2-270                          :LAS Program name and version
CREA.        2017/09/16 17:42                          :LAS Creation date {YYYY/MM/DD hh:mm}
DLIS_CREA.  2017-Sep-15 18:10                          :DLIS Creation date and time {YYYY-MMM-DD hh:mm}
SOURCE.     LPC_S4-1_2A5.DLIS                          :DLIS File Name
FILE-ID.     PERFO_Perfo_WPGRT_053LTP                  :File Identification Number
#--------------------------------------------------
~WELL INFORMATION
#MNEM.UNIT      DATA             DESCRIPTION
#---- ------ --------------   -----------------------------
STRT .S         4226.0       :START TIME      
STOP .S         4689.0       :STOP TIME      
STEP .S            1.0       :STEP     
NULL .          -999.25      :NULL VALUE
COMP .        SHELL INTERNATIONAL E P                  :COMPANY
WELL .        WPP TEST 2                               :WELL
FLD  .        WILDCAT                                  :FIELD
LOC  .        NA                                       :LOCATION
CNTY .        HARRIS                                   :COUNTY
STAT .        TEXAS                                    :STATE
CTRY .                                                 :COUNTRY
API  .        NA                                       :API NUMBER
UWI  .                                                 :UNIQUE WELL ID
DATE .        15-Sep-2017                              :LOG DATE {DD-MMM-YYYY}
SRVC .        Schlumberger                             :SERVICE COMPANY
LATI .DEG                                              :LATITUDE
LONG .DEG                                              :LONGITUDE
GDAT .                                                 :GeoDetic Datum
SECT .        NA                                       :Section
RANG .        NA                                       :Range
TOWN .        NA                                       :Township
#-----------------------------------------------------------------------------
~PARAMETER INFORMATION
#MNEM.UNIT    VALUE                      DESCRIPTION
#---- -----   --------------------       ------------------------
U-PHASE_B_COMP_PER_YT.                 0 :Phase B Comparator Period Yt
U-PHASE_A_COMP_PER_XT.                 0 :Phase A Comparator Period Xt
U-MAX_EXC_CUR_LIMIT.MA       240.00000   :Requested CM Current Limit
U-REQ_EXC_FQ.HZ              50          :Requested CM Frequency
U-TILT_Y_OFFSET.           0.19916       :WPTET Tilt Y Offset
U-TILT_Y_GAIN.           1.01796         :WPTET Tilt Y Gain
U-TILT_X_OFFSET.          -1.77103       :WPTET Tilt X Offset
U-TILT_X_GAIN.           1.00000         :WPTET Tilt X Gain
U-TILT_OFFSET_TOL.           0.00100     :WPTET Tilt Offset Calibration Tolerance
U-NO_TILT_CAL_ROTATIONS.                 3 :Number of Rotations for Tilt Calibration
HAZI .DEG        0.00000                 :Hole Azimuth
U-STD_TOL_TILT.           0.01000        :Tilt Standard Deviation Tolerance
U-GUN_POS_TOL.DEG        5.00000         :Gun Position Tolerance
ROT_ANGLE_THRESHOLD.DEG        5.00000   :Rotation Stop Angle Tolerance
STOP_ROT_ANGLE.DEG        0.00000        :Rotation Stop Angle
WITN .        MR. DHRUA ARORA            :Witness's Name
ENGI .        MORRIS MOORE               :Engineer's Name
COUN .        HARRIS                     :County or Rig Name
FN   .        WILDCAT                    :Field Name
WN   .        WPP TEST 2                 :Well Name
CN   .        SHELL INTERNATIONAL E P    :Company Name
CLAB .        County                     :County/Rig Label
SLAB .        State                      :State/Province Label
RUN  .          1                        :RUN NUMBER
PDAT .        GROUND LEVEL               :Permanent Datum
EPD  .                                   :Elevation of Permanent Datum above Mean Sea Level
LMF  .          NA                       :Logging Measured From (Name of Logging Elevation Reference)
APD  .                                   :Elevation of Depth Reference (LMF) above Permanent Datum
#-----------------------------------------------------------------------------
~CURVE INFORMATION
#MNEM.UNIT   API CODE                                  DESCRIPTION
#---- -----  --------                                  -----------------------
TIME .S                                                :TIME {F10.1}
FREQ_EMF_SL.HZ                                         :Electromagnetic Field Frequency {F13.4}
PH_SH_WPPCM_SL.DEG                                     :WPPCM Phase Shift {F13.4}
FREQ_EXC_REQ_SL.HZ                                     :Requested Exciter Frequency {F13.4}
RB_SL.DEG                                              :Relative Bearing {F13.4}
SDEV_SL.DEG                                            :Sonde Deviation {F13.4}
TILX_SL.DEG                                            :X-axis Tilt {F13.4}
TILY_SL.DEG                                            :Y-axis Tilt {F13.4}
ROTA_SL.DEG                                            :Motor Rotation Angle {F13.4}
MSPE_SL.RPM                                            :Motor Speed {F13.4}
#-----------------------------------------------------------------------------
# 
#     TIME    FREQ_EMF_SL  PH_SH_WPPCM_ FREQ_EXC_REQ    RB_SL       SDEV_SL      TILX_SL      TILY_SL      ROTA_SL      MSPE_SL
#                          SL           _SL
~A  
# ...
    4352.0    1478.0707       0.0000      50.8611    -138.4317       5.3299      -3.5337       3.9850     293.3320       1.0302
    4353.0    1459.6602       0.0000      50.8611    -132.2228       5.1867      -3.8360       3.4843     299.4307       1.0226
    4354.0    1449.2249       0.0000      50.8611    -126.0578       5.3735      -4.3417       3.1599     305.5334       1.0226
    4355.0    1437.0178       0.0000      50.8611    -120.2464       5.5396      -4.7835       2.7872     311.6482       1.0226
    4356.0    1425.0368       0.0000      50.8611    -114.2869       5.5319      -5.0410       2.2724     317.7764       1.0302
    4357.0    1412.2343       0.0000      50.8611    -109.7719       5.6014      -5.2701       1.8923     323.8782       1.0195
    4358.0    1400.1638       0.0000      50.8611    -102.8746       5.7484      -5.6033       1.2790     329.9677       1.0226
    4359.0    1370.9311       0.0000      50.8611     -98.0411       5.7647      -5.7074       0.8051     336.0695       1.0226
    4360.0    1358.7876       0.0000      50.8611     -92.8560       5.8362      -5.8279       0.2903     342.1713       1.0226
    4361.0    1329.4567       0.0000      50.8611     -87.4053       5.9072      -5.9010      -0.2674     348.2731       1.0226
    4362.0    1302.7960       0.0000      50.8611     -83.4044       5.9644      -5.9247      -0.6836     354.3749       1.0226
    4363.0    1283.0748       0.0000      50.8611     -77.2401       5.9933      -5.8443      -1.3211       0.4645       1.0226
    4364.0    1251.3756       0.0000      50.8611     -71.2100       5.9025      -5.5869      -1.8982       6.9611       1.0226
    4365.0    1240.6115       0.0000      50.8611     -66.7555       6.0744      -5.5796      -2.3935      13.0629       1.0195
    4366.0    1218.8373       0.0000      50.8611     -61.8495       6.1485      -5.4190      -2.8963      19.1524       1.0226
    4367.0    1196.2846       0.0000      50.8611     -56.9680       6.1605      -5.1615      -3.3534      25.2427       1.0226
    4368.0    1176.6037       0.0000      50.8611     -52.1670       6.1026      -4.8165      -3.7382      31.3446       1.0226
    4369.0    1162.7577       0.0000      50.8611     -49.1349       6.2461      -4.7197      -4.0820      37.4340       1.0226
    4370.0    1155.6789       0.0000      50.8611     -41.9729       6.0003      -4.0085      -4.4574      43.5358       1.0226
    4371.0    1144.6054       0.0000      50.8611     -37.6073       6.1692      -3.7603      -4.8830      49.6376       1.0226
    4372.0    1126.2710       0.0000      50.8611     -31.2558       5.8668      -3.0399      -5.0130      55.7272       1.0226
    4373.0    1131.7093       0.0000      50.8611     -26.1719       5.8986      -2.5981      -5.2919      61.8422       1.0226
    4374.0    1128.4087       0.0000      50.8611     -22.2962       5.8229      -2.2056      -5.3857      67.9440       1.0226
    4375.0    1123.5355       0.0000      50.8611     -16.4865       5.8435      -1.6551      -5.6022      74.0589       1.0226
    4376.0    1132.6878       0.0000      50.8611     -11.5178       5.8754      -1.1705      -5.7537      80.5678       1.0195
    4377.0    1130.9630       0.0000      50.8611      -5.9204       5.6541      -0.5825      -5.6237      86.6536       1.0195
    4378.0    1139.9292       0.0000      50.8611      -1.1324       5.6825      -0.1123      -5.6814      92.7476       1.0226
    4379.0    1143.2927       0.0000      50.8611       5.9862       5.5122       0.5725      -5.4796      98.8457       1.0164
    4380.0    1158.8233       0.0000      50.8611       7.8901       5.4543       0.7476      -5.4025     104.9265       1.0226
    4381.0    1173.8313       0.0000      50.8611      16.0717       5.2622       1.4542      -5.0560     111.0283       1.0226
    4382.0    1184.8919       0.0000      50.8611      21.6674       5.1413       1.8960      -4.7771     117.1292       1.0226
    4383.0    1204.9797       0.0000      50.8611      27.7159       4.9959       2.3214      -4.4212     123.2072       1.0121
    4384.0    1230.7572       0.0000      50.8611      33.1656       4.9904       2.7276      -4.1759     129.3106       1.0152
    4385.0    1267.5665       0.0000      50.8611      38.9410       4.7188       2.9640      -3.6684     135.4001       1.0226
    4386.0    1300.1239       0.0000      50.8611      45.5231       4.7032       3.3538      -3.2931     141.5020       1.0226
    4387.0    1340.0397       0.0000      50.8611      51.7514       4.6155       3.6232      -2.8554     147.6039       1.0195
    4388.0    1365.7858       0.0000      50.8611      57.8052       4.4731       3.7838      -2.3815     154.1016       1.0226
    4389.0    1374.8797       0.0000      50.8611      65.4859       4.3230       3.9326      -1.7923     160.2035       1.0226
    4390.0    1398.3817       0.0000      50.8611      71.8222       4.1770       3.9682      -1.3016     166.3054       1.0226
    4391.0    1416.7494       0.0000      50.8611      79.8544       4.1712       4.1052      -0.7339     172.4073       1.0226
    4392.0    1429.9745       0.0000      50.8611      87.0472       4.0750       4.0696      -0.2097     178.5092       1.0226
    4393.0    1434.9490       0.0000      50.8611      93.3450       4.0321       4.0248       0.2353     184.6241       1.0226
    4394.0    1447.9859       0.0000      50.8611     102.8387       4.0050       3.9043       0.8896     190.7355       1.0195
    4395.0    1463.9454       0.0000      50.8611     109.8868       3.9391       3.7035       1.3393     196.8287       1.0226
    4396.0    1474.6348       0.0000      50.8611     117.4666       3.9725       3.5237       1.8300     202.9306       1.0226
    4397.0    1479.9171       0.0000      50.8611     125.2868       3.9481       3.2215       2.2797     209.0456       1.0226
    4398.0    1484.3112       0.0000      50.8611     133.3765       3.9758       2.8883       2.7295     215.1475       1.0226
    4399.0    1497.7187       0.0000      50.8611     141.4151       4.0164       2.5031       3.1384     221.2494       1.0226
    4400.0    1502.4038       0.0000      50.8611     148.2732       4.2127       2.2147       3.5808     227.7585       1.0226
    4401.0    1502.0476       0.0000      50.8611     149.8083       4.2050       2.1133       3.6337     229.8381       0.0005
    4402.0    1501.4588       0.0000      50.8611     150.5059       4.1897       2.0613       3.6458     229.8381       0.0005
    4403.0    1506.0047       0.0000      50.8611     150.5059       4.1564       2.0448       3.6170     229.8381       0.0005
    4404.0    1505.6210       0.0000      50.8611     150.2018       4.1744       2.0731       3.6217     229.8381       0.0005
    4405.0    1505.6210       0.0000      50.8611     149.2868       4.0848       2.0850       3.5111     229.8381       0.0005
    4406.0    1504.6719       0.0000      50.8611     150.8434       4.1757       2.0330       3.6458     229.8381       0.0005
    4407.0    1504.6719       0.0000      50.8611     151.5046       4.1547       1.9809       3.6505     229.8381       0.0005
    4408.0    1508.8519       0.0000      50.8611     150.4452       4.2305       2.0850       3.6793     229.8381       0.0005
    4409.0    1504.3060       0.0000      50.8611     148.5236       4.1038       2.1416       3.4990     229.8381       0.0005
    4410.0    1502.4038       0.0000      50.8611     149.2141       4.1550       2.1251       3.5687     229.8381       0.0005
    4411.0    1504.6719       0.0000      50.8611     151.4341       4.1853       2.0000       3.6746     229.8381       0.0005
    4412.0    1504.6719       0.0000      50.8611     150.0045       4.2300       2.1133       3.6626     229.8381       0.0005
    4413.0    1505.6210       0.0000      50.8611     149.6326       4.1202       2.0824       3.5520     229.8381       0.0005
    4414.0    1501.4588       0.0000      50.8611     151.2022       4.0243       1.9388       3.5231     229.8381       0.0005
