~VERSION INFORMATION
VERS.           2.0   :CWLS Log ASCII Standard - VERSION 2.0
WRAP.           NO    :One Line per depth step
PROD.  Schlumberger   :LAS Producer
PROG.  DLIS to ASCII 19C2-270                          :LAS Program name and version
CREA.        2017/09/16 17:42                          :LAS Creation date {YYYY/MM/DD hh:mm}
DLIS_CREA.  2017-Sep-15 11:15                          :DLIS Creation date and time {YYYY-MMM-DD hh:mm}
SOURCE.     LPC_S1-1_AV_1ST-LOG.DLIS                   :DLIS File Name
FILE-ID.     PERFO_Perfo_WPGRT_014LTP                  :File Identification Number
#--------------------------------------------------
~WELL INFORMATION
#MNEM.UNIT      DATA             DESCRIPTION
#---- ------ --------------   -----------------------------
STRT .S         1693.0       :START TIME      
STOP .S         2010.0       :STOP TIME      
STEP .S            1.0       :STEP     
NULL .          -999.25      :NULL VALUE
COMP .        SHELL INTERNATIONAL E P                  :COMPANY
WELL .        WPP TEST 2                               :WELL
FLD  .        WILDCAT                                  :FIELD
LOC  .                                                 :LOCATION
CNTY .        HARRIS                                   :COUNTY
STAT .        TEXAS                                    :STATE
CTRY .                                                 :COUNTRY
API  .                                                 :API NUMBER
UWI  .                                                 :UNIQUE WELL ID
DATE .                                                 :LOG DATE
SRVC .        Schlumberger                             :SERVICE COMPANY
LATI .DEG                                              :LATITUDE
LONG .DEG                                              :LONGITUDE
GDAT .                                                 :GeoDetic Datum
#-----------------------------------------------------------------------------
~PARAMETER INFORMATION
#MNEM.UNIT    VALUE                      DESCRIPTION
#---- -----   --------------------       ------------------------
U-PHASE_B_COMP_PER_YT.                 0 :Phase B Comparator Period Yt
U-PHASE_A_COMP_PER_XT.                 0 :Phase A Comparator Period Xt
U-MAX_EXC_CUR_LIMIT.MA       240.00000   :Requested CM Current Limit
U-REQ_EXC_FQ.HZ              50          :Requested CM Frequency
U-TILT_Y_OFFSET.           0.19916       :WPTET Tilt Y Offset
U-TILT_Y_GAIN.           1.01796         :WPTET Tilt Y Gain
U-TILT_X_OFFSET.          -1.77103       :WPTET Tilt X Offset
U-TILT_X_GAIN.           1.00000         :WPTET Tilt X Gain
U-TILT_OFFSET_TOL.           0.00100     :WPTET Tilt Offset Calibration Tolerance
U-NO_TILT_CAL_ROTATIONS.                 3 :Number of Rotations for Tilt Calibration
HAZI .DEG        0.00000                 :Hole Azimuth
U-STD_TOL_TILT.           0.01000        :Tilt Standard Deviation Tolerance
U-GUN_POS_TOL.DEG        5.00000         :Gun Position Tolerance
ROT_ANGLE_THRESHOLD.DEG        5.00000   :Rotation Stop Angle Tolerance
STOP_ROT_ANGLE.DEG        0.00000        :Rotation Stop Angle
WITN .                                   :Witness's Name
ENGI .                                   :Engineer's Name
COUN .        HARRIS                     :County or Rig Name
FN   .        WILDCAT                    :Field Name
WN   .        WPP TEST 2                 :Well Name
CN   .        SHELL INTERNATIONAL E P    :Company Name
CLAB .        County                     :County/Rig Label
SLAB .        State                      :State/Province Label
RUN  .          1                        :RUN NUMBER
PDAT .        GROUND LEVEL               :Permanent Datum
EPD  .                                   :Elevation of Permanent Datum above Mean Sea Level
LMF  .                                   :Logging Measured From (Name of Logging Elevation Reference)
APD  .                                   :Elevation of Depth Reference (LMF) above Permanent Datum
#-----------------------------------------------------------------------------
~CURVE INFORMATION
#MNEM.UNIT   API CODE                                  DESCRIPTION
#---- -----  --------                                  -----------------------
TIME .S                                                :TIME {F10.1}
FREQ_EMF_SL.HZ                                         :Electromagnetic Field Frequency {F13.4}
PH_SH_WPPCM_SL.DEG                                     :WPPCM Phase Shift {F13.4}
FREQ_EXC_REQ_SL.HZ                                     :Requested Exciter Frequency {F13.4}
RB_SL.DEG                                              :Relative Bearing {F13.4}
SDEV_SL.DEG                                            :Sonde Deviation {F13.4}
TILX_SL.DEG                                            :X-axis Tilt {F13.4}
TILY_SL.DEG                                            :Y-axis Tilt {F13.4}
ROTA_SL.DEG                                            :Motor Rotation Angle {F13.4}
MSPE_SL.RPM                                            :Motor Speed {F13.4}
#-----------------------------------------------------------------------------
# 
#     TIME    FREQ_EMF_SL  PH_SH_WPPCM_ FREQ_EXC_REQ    RB_SL       SDEV_SL      TILX_SL      TILY_SL      ROTA_SL      MSPE_SL
#                          SL           _SL
~A  
# ...
    1756.0     912.3070       0.0000      50.8611     -47.0251       1.2148      -0.8874      -0.8285     172.5023       1.0226
    1757.0     907.9175       0.0000      50.8611     -50.0462       1.0172      -0.7785      -0.6540     178.6064       1.0226
    1758.0     902.5995       0.0000      50.8611     -45.6767       1.0530      -0.7499      -0.7349     185.1017       1.0226
    1759.0     897.9885       0.0000      50.8611     -47.7000       1.1694      -0.8642      -0.7876     191.2036       1.0226
    1760.0     899.9557       0.0000      50.8611     -47.8981       1.0880      -0.8070      -0.7295     197.2931       1.0226
    1761.0     905.2595       0.0000      50.8611     -47.5941       1.0386      -0.7669      -0.7004     203.3950       1.0226
    1762.0     911.6601       0.0000      50.8611     -49.3664       1.0493      -0.7954      -0.6831     209.4969       1.0226
    1763.0     919.0471       0.0000      50.8611     -49.3651       1.0296      -0.7809      -0.6709     215.5865       1.0226
    1764.0     932.5266       0.0000      50.8611     -49.6763       0.9757      -0.7437      -0.6304     221.6856       1.0151
    1765.0     947.9771       0.0000      50.8611     -48.8553       0.9661      -0.7267      -0.6359     227.7926       1.0226
    1766.0     962.8455       0.0000      50.8611     -50.9356       0.8912      -0.6928      -0.5604     233.8936       1.0226
    1767.0     982.4689       0.0000      50.8611     -51.2927       0.9613      -0.7499      -0.6013     240.0087       1.0226
    1768.0    1008.9851       0.0000      50.8611     -45.8124       0.8457      -0.6062      -0.5895     246.1114       1.0226
    1769.0    1040.7781       0.0000      50.8611     -45.0214       0.8005      -0.5660      -0.5659     252.2132       1.0226
    1770.0    1085.4294       0.0000      50.8611     -50.9661       0.8991      -0.6981      -0.5659     258.7240       1.0226
    1771.0    1167.6169       0.0000      50.8611     -53.0070       0.9601      -0.7669      -0.5777     264.8223       1.0195
    1772.0    1249.8954       0.0000      50.8611     -54.0046       0.9207      -0.7437      -0.5423     270.9153       1.0226
    1773.0    1296.2718       0.0000      50.8611     -52.7793       0.7908      -0.6294      -0.4787     277.0171       1.0195
    1774.0    1329.5640       0.0000      50.8611     -51.2291       0.7923      -0.6178      -0.4959     283.1066       1.0226
    1775.0    1355.1901       0.0000      50.8611     -57.5758       0.8273      -0.6981      -0.4432     289.2223       1.0226
    1776.0    1388.4203       0.0000      50.8611     -56.2557       0.8941      -0.7437      -0.4959     295.3241       1.0195
    1777.0    1420.0816       0.0000      50.8611     -62.7761       0.9182      -0.8178      -0.4142     301.4137       1.0195
    1778.0    1446.3726       0.0000      50.8611     -57.9069       0.8115      -0.6865      -0.4314     307.5041       1.0226
    1779.0    1477.1533       0.0000      50.8611     -60.9504       0.9170      -0.8017      -0.4432     313.6050       1.0226
    1780.0    1506.5539       0.0000      50.8611     -56.8233       0.9370      -0.7838      -0.5132     319.7199       1.0226
    1781.0    1540.5195       0.0000      50.8611     -65.5926       0.9047      -0.8240      -0.3733     325.8347       1.0302
    1782.0    1557.5825       0.0000      50.8611     -67.6871       0.7982      -0.7383      -0.3033     332.3446       1.0226
    1783.0    1582.5873       0.0000      50.8611     -66.8998       0.9415      -0.8642      -0.3678     338.4464       1.0226
    1784.0    1603.7681       0.0000      50.8611     -62.6428       1.0010      -0.8874      -0.4605     344.5482       1.0226
    1785.0    1618.5351       0.0000      50.8611     -71.0542       0.9111      -0.8588      -0.2978     350.6500       1.0226
    1786.0    1627.6041       0.0000      50.8611     -67.8970       0.9146      -0.8472      -0.3442     356.7518       1.0226
    1787.0    1636.7899       0.0000      50.8611     -65.3626       0.9948      -0.9043      -0.4142       2.8536       1.0226
    1788.0    1648.3011       0.0000      50.8611     -61.4809       0.9775      -0.8588      -0.4669       8.9685       1.0226
    1789.0    1643.9263       0.0000      50.8611     -65.0458       1.0104      -0.9159      -0.4260      15.0712       1.0121
    1790.0    1638.9860       0.0000      50.8611     -68.1117       1.0060      -0.9338      -0.3733      21.1913       1.0226
    1791.0    1636.2750       0.0000      50.8611     -68.7144       0.9956      -0.9275      -0.3615      27.2888       1.0226
    1792.0    1634.0789       0.0000      50.8611     -63.1238       1.0336      -0.9222      -0.4669      33.4038       1.0226
    1793.0    1618.5351       0.0000      50.8611     -63.5728       1.0228      -0.9159      -0.4551      39.5078       1.0226
    1794.0    1603.2013       0.0000      50.8611     -65.5215       0.9828      -0.8936      -0.4087      46.0154       1.0226
    1795.0    1584.1068       0.0000      50.8611     -71.4785       1.0085      -0.9561      -0.3206      52.1267       1.0195
    1796.0    1570.4893       0.0000      50.8611     -65.3198       1.0468      -0.9507      -0.4378      58.2197       1.0226
    1797.0    1536.6310       0.0000      50.8611     -56.9300       1.0388      -0.8704      -0.5659      64.3216       1.0226
    1798.0    1520.0213       0.0000      50.8611     -60.6791       1.0966      -0.9561      -0.5368      70.4365       1.0226
    1799.0    1497.3622       0.0000      50.8611     -65.9590       1.1735      -1.0712      -0.4787      76.5260       1.0151
    1800.0    1467.0188       0.0000      50.8611     -62.1561       1.1990      -1.0596      -0.5604      82.6155       1.0151
    1801.0    1439.1317       0.0000      50.8611     -61.2324       0.9935      -0.8704      -0.4787      88.7050       1.0121
    1802.0    1412.2874       0.0000      50.8611     -57.7907       1.2245      -1.0302      -0.6586      94.7954       1.0226
    1803.0    1379.4586       0.0000      50.8611     -62.4598       1.1244      -0.9963      -0.5196     100.8963       1.0226
    1804.0    1349.5681       0.0000      50.8611     -54.2839       1.2203      -0.9909      -0.7122     106.9989       1.0226
    1805.0    1319.8805       0.0000      50.8611     -59.4213       1.2056      -1.0364      -0.6131     113.0998       1.0226
    1806.0    1283.0679       0.0000      50.8611     -62.8022       1.0277      -0.8990      -0.4715     119.6096       1.0226
    1807.0    1194.3283       0.0000      50.8611     -55.0803       1.1314      -0.9275      -0.6477     125.7114       1.0226
    1808.0    1114.8342       0.0000      50.8611     -54.8825       1.1975      -0.9793      -0.6886     131.8133       1.0226
    1809.0    1051.2337       0.0000      50.8611     -57.7780       1.2269      -1.0364      -0.6540     137.9160       1.0226
    1810.0    1010.6568       0.0000      50.8611     -51.9080       1.1443      -0.8990      -0.7058     144.0171       1.0226
    1811.0     983.7893       0.0000      50.8611     -54.4553       1.0346      -0.8418      -0.6013     150.1189       1.0226
    1812.0     964.3071       0.0000      50.8611     -52.8177       1.2566      -1.0016      -0.7585     156.2208       1.0226
    1813.0     947.5979       0.0000      50.8611     -34.8626       0.8918      -0.4919      -0.7286     162.3227       1.0226
    1814.0     934.1235       0.0000      50.8611     -51.1520       1.0887      -0.8472      -0.6831     168.4211       1.0151
    1815.0     919.4650       0.0000      50.8611     -53.3795       1.1056      -0.8874      -0.6595     174.5071       1.0109
    1816.0     909.4280       0.0000      50.8611     -46.7291       0.8955      -0.6526      -0.6131     180.6047       1.0226
    1817.0     906.2479       0.0000      50.8611     -45.5500       1.1206      -0.8008      -0.7822     186.7212       1.0302
    1818.0     903.2704       0.0000      50.8611     -47.0172       1.0984      -0.8017      -0.7467     193.2324       1.0226
