~VERSION INFORMATION
VERS.           2.0   :CWLS Log ASCII Standard - VERSION 2.0
WRAP.           NO    :One Line per depth step
PROD.  Schlumberger   :LAS Producer
PROG.  DLIS to ASCII 19C2-270                          :LAS Program name and version
CREA.        2017/09/16 17:42                          :LAS Creation date {YYYY/MM/DD hh:mm}
DLIS_CREA.  2017-Sep-15 12:22                          :DLIS Creation date and time {YYYY-MMM-DD hh:mm}
SOURCE.     LPC_S1-1_B5.DLIS                           :DLIS File Name
FILE-ID.     PERFO_Perfo_WPGRT_020LTP                  :File Identification Number
#--------------------------------------------------
~WELL INFORMATION
#MNEM.UNIT      DATA             DESCRIPTION
#---- ------ --------------   -----------------------------
STRT .S         5686.0       :START TIME      
STOP .S         6834.0       :STOP TIME      
STEP .S            1.0       :STEP     
NULL .          -999.25      :NULL VALUE
COMP .        SHELL INTERNATIONAL E P                  :COMPANY
WELL .        WPP TEST 2                               :WELL
FLD  .        WILDCAT                                  :FIELD
LOC  .                                                 :LOCATION
CNTY .        HARRIS                                   :COUNTY
STAT .        TEXAS                                    :STATE
CTRY .                                                 :COUNTRY
API  .                                                 :API NUMBER
UWI  .                                                 :UNIQUE WELL ID
DATE .                                                 :LOG DATE
SRVC .        Schlumberger                             :SERVICE COMPANY
LATI .DEG                                              :LATITUDE
LONG .DEG                                              :LONGITUDE
GDAT .                                                 :GeoDetic Datum
#-----------------------------------------------------------------------------
~PARAMETER INFORMATION
#MNEM.UNIT    VALUE                      DESCRIPTION
#---- -----   --------------------       ------------------------
U-PHASE_B_COMP_PER_YT.                 0 :Phase B Comparator Period Yt
U-PHASE_A_COMP_PER_XT.                 0 :Phase A Comparator Period Xt
U-MAX_EXC_CUR_LIMIT.MA       240.00000   :Requested CM Current Limit
U-REQ_EXC_FQ.HZ              50          :Requested CM Frequency
U-TILT_Y_OFFSET.           0.19916       :WPTET Tilt Y Offset
U-TILT_Y_GAIN.           1.01796         :WPTET Tilt Y Gain
U-TILT_X_OFFSET.          -1.77103       :WPTET Tilt X Offset
U-TILT_X_GAIN.           1.00000         :WPTET Tilt X Gain
U-TILT_OFFSET_TOL.           0.00100     :WPTET Tilt Offset Calibration Tolerance
U-NO_TILT_CAL_ROTATIONS.                 3 :Number of Rotations for Tilt Calibration
HAZI .DEG        0.00000                 :Hole Azimuth
U-STD_TOL_TILT.           0.01000        :Tilt Standard Deviation Tolerance
U-GUN_POS_TOL.DEG        5.00000         :Gun Position Tolerance
ROT_ANGLE_THRESHOLD.DEG        5.00000   :Rotation Stop Angle Tolerance
STOP_ROT_ANGLE.DEG       80.00000        :Rotation Stop Angle
WITN .                                   :Witness's Name
ENGI .                                   :Engineer's Name
COUN .        HARRIS                     :County or Rig Name
FN   .        WILDCAT                    :Field Name
WN   .        WPP TEST 2                 :Well Name
CN   .        SHELL INTERNATIONAL E P    :Company Name
CLAB .        County                     :County/Rig Label
SLAB .        State                      :State/Province Label
RUN  .          1                        :RUN NUMBER
PDAT .        GROUND LEVEL               :Permanent Datum
EPD  .                                   :Elevation of Permanent Datum above Mean Sea Level
LMF  .                                   :Logging Measured From (Name of Logging Elevation Reference)
APD  .                                   :Elevation of Depth Reference (LMF) above Permanent Datum
#-----------------------------------------------------------------------------
~CURVE INFORMATION
#MNEM.UNIT   API CODE                                  DESCRIPTION
#---- -----  --------                                  -----------------------
TIME .S                                                :TIME {F10.1}
FREQ_EMF_SL.HZ                                         :Electromagnetic Field Frequency {F13.4}
PH_SH_WPPCM_SL.DEG                                     :WPPCM Phase Shift {F13.4}
FREQ_EXC_REQ_SL.HZ                                     :Requested Exciter Frequency {F13.4}
RB_SL.DEG                                              :Relative Bearing {F13.4}
SDEV_SL.DEG                                            :Sonde Deviation {F13.4}
TILX_SL.DEG                                            :X-axis Tilt {F13.4}
TILY_SL.DEG                                            :Y-axis Tilt {F13.4}
ROTA_SL.DEG                                            :Motor Rotation Angle {F13.4}
MSPE_SL.RPM                                            :Motor Speed {F13.4}
#-----------------------------------------------------------------------------
# 
#     TIME    FREQ_EMF_SL  PH_SH_WPPCM_ FREQ_EXC_REQ    RB_SL       SDEV_SL      TILX_SL      TILY_SL      ROTA_SL      MSPE_SL
#                          SL           _SL
~A  
# ...
    6316.0    1509.1521       0.0000      50.8611     132.2363       3.3392       2.4718       2.2436     194.5426       0.0005
    6317.0    1512.3982       0.0000      50.8611     132.4673       3.1643       2.3334       2.1360     194.5426       0.0005
    6318.0    1506.8242       0.0000      50.8611     130.9977       3.1943       2.4100       2.0951     194.5426       0.0005
    6319.0    1518.3258       0.0000      50.8611     134.3466       3.2638       2.3334       2.2807     194.5426       0.0005
    6320.0    1515.3556       0.0000      50.8611     133.0825       3.0701       2.2426       2.0951     194.5426       0.0005
    6321.0    1512.0968       0.0000      50.8611     130.3646       3.0910       2.3564       1.9989     194.5426       0.0005
    6322.0    1515.3556       0.0000      50.8611     130.8599       3.0569       2.3118       1.9982     194.5426       0.0005
    6323.0    1518.3258       0.0000      50.8611     128.1566       3.3863       2.6622       2.0914     194.5426       0.0005
    6324.0    1509.7563       0.0000      50.8611     129.7313       3.2621       2.5082       2.0838     194.5426       0.0005
    6325.0    1515.0542       0.0000      50.8611     132.3284       3.2608       2.4100       2.1951     194.5426       0.0005
    6326.0    1518.3258       0.0000      50.8611     131.6278       3.3226       2.4829       2.2065     194.5426       0.0005
    6327.0    1512.0968       0.0000      50.8611     132.9965       3.2909       2.4063       2.2436     194.5426       0.0005
    6328.0    1509.4535       0.0000      50.8611     133.7102       3.2851       2.3736       2.2693     194.5426       0.0005
    6329.0    1515.0542       0.0000      50.8611     134.7908       3.2273       2.2895       2.2731     194.5426       0.0005
    6330.0    1518.3258       0.0000      50.8611     131.8288       3.1811       2.3699       2.1209     194.5426       0.0005
    6331.0    1518.0244       0.0000      50.8611     131.0848       3.2850       2.4755       2.1580     194.5426       0.0005
    6332.0    1512.0968       0.0000      50.8611     132.0919       3.2927       2.4428       2.2065     194.5426       0.0005
    6333.0    1515.0542       0.0000      50.8611     133.0005       3.2361       2.3661       2.2065     194.5426       0.0005
    6334.0    1515.0542       0.0000      50.8611     132.6098       3.2603       2.3989       2.2065     194.5426       0.0005
    6335.0    1512.0968       0.0000      50.8611     132.6122       3.3149       2.4390       2.2436     194.5426       0.0005
    6336.0    1512.7010       0.0000      50.8611     132.3016       3.2742       2.4212       2.2027     194.5426       0.0005
    6337.0    1515.3556       0.0000      50.8611     131.6082       3.2679       2.4428       2.1693     194.5426       0.0005
    6338.0    1514.7540       0.0000      50.8611     133.8814       3.2432       2.3371       2.2473     194.5426       0.0005
    6339.0    1512.3982       0.0000      50.8611     132.3292       3.2113       2.3736       2.1618     194.5426       0.0005
    6340.0    1515.6583       0.0000      50.8611     132.3785       3.2633       2.4100       2.1989     194.5426       0.0005
    6341.0    1521.3087       0.0000      50.8611     131.4989       3.2188       2.4100       2.1322     194.5426       0.0005
    6342.0    1521.0073       0.0000      50.8611     133.3794       3.2564       2.3661       2.2360     194.5426       0.0005
    6343.0    1515.0542       0.0000      50.8611     132.2865       3.2141       2.3773       2.1618     194.5426       0.0005
    6344.0    1518.3258       0.0000      50.8611     133.2306       3.3143       2.4137       2.2693     194.5426       0.0005
    6345.0    1515.3556       0.0000      50.8611     132.1027       3.3474       2.4829       2.2436     194.5426       0.0005
    6346.0    1515.3556       0.0000      50.8611     132.4722       3.3673       2.4829       2.2731     194.5426       0.0005
    6347.0    1512.7010       0.0000      50.8611     130.6058       3.2713       2.4829       2.1285     194.5426       0.0005
    6348.0    1515.3556       0.0000      50.8611     133.0356       3.3429       2.4428       2.2807     194.5426       0.0005
    6349.0    1509.4535       0.0000      50.8611     132.4278       3.2658       2.4100       2.2027     194.5426       0.0005
    6350.0    1509.7563       0.0000      50.8611     132.0395       3.2460       2.4100       2.1731     194.5426       0.0005
    6351.0    1515.6583       0.0000      50.8611     131.9438       3.2850       2.4428       2.1951     194.5426       0.0005
    6352.0    1518.0244       0.0000      50.8611     132.4171       3.2058       2.3661       2.1618     194.5426       0.0005
    6353.0    1515.3556       0.0000      50.8611     131.0908       3.2903       2.4792       2.1618     194.5426       0.0005
    6354.0    1515.3556       0.0000      50.8611     134.3091       3.3080       2.3661       2.3102     194.5426       0.0005
    6355.0    1509.1521       0.0000      50.8611     135.7574       3.2882       2.2932       2.3549     198.4035       0.6570
    6356.0    1521.3087       0.0000      50.8611     142.7744       3.2615       1.9719       2.5964     203.1592       0.9144
    6357.0    1518.3258       0.0000      50.8611     148.6293       3.4067       1.7711       2.9084     209.1066       1.0226
    6358.0    1515.9624       0.0000      50.8611     156.2038       3.4677       1.3984       3.1726     215.2085       1.0226
    6359.0    1515.6583       0.0000      50.8611     165.4240       3.5745       0.8986       3.4588     221.3234       1.0226
    6360.0    1515.0542       0.0000      50.8611     169.7958       3.6091       0.6390       3.5520     227.4262       1.0226
    6361.0    1499.4968       0.0000      50.8611     178.5429       3.5723       0.0915       3.5709     233.5281       1.0226
    6362.0    1487.3998       0.0000      50.8611    -175.7589       3.8040      -0.2811       3.7935     240.0380       1.0226
    6363.0    1489.6716       0.0000      50.8611    -166.9877       3.8938      -0.8762       3.7935     246.1279       1.0216
    6364.0    1479.9755       0.0000      50.8611    -162.9895       4.0101      -1.1722       3.8344     252.2295       1.0226
    6365.0    1467.6190       0.0000      50.8611    -155.0580       4.0539      -1.7086       3.6746     258.3314       1.0226
    6366.0    1456.3053       0.0000      50.8611    -149.4571       4.1772      -2.1214       3.5966     264.4332       1.0226
    6367.0    1438.9804       0.0000      50.8611    -143.1986       4.3359      -2.5959       3.4702     270.5350       1.0226
    6368.0    1429.1158       0.0000      50.8611    -137.8912       4.3644      -2.9247       3.2362     276.6371       1.0226
    6369.0    1412.4242       0.0000      50.8611    -132.8048       4.4965      -3.2974       3.0538     282.7386       1.0226
    6370.0    1403.7028       0.0000      50.8611    -125.9011       4.4378      -3.5934       2.6002     288.8432       1.0226
    6371.0    1386.8344       0.0000      50.8611    -120.6972       4.5880      -3.9437       2.3405     294.9430       1.0226
    6372.0    1371.1102       0.0000      50.8611    -114.4991       4.6804      -4.2576       1.9391     301.0448       1.0226
    6373.0    1355.4974       0.0000      50.8611    -109.9037       4.8048      -4.5172       1.6340     307.1466       1.0226
    6374.0    1346.9828       0.0000      50.8611    -103.8777       4.8037      -4.6630       1.1509     313.6565       1.0226
    6375.0    1327.1157       0.0000      50.8611     -98.0074       4.8275      -4.7798       0.6716     319.7583       1.0226
    6376.0    1314.2523       0.0000      50.8611     -94.1837       5.1403      -5.1264       0.3741     325.8731       1.0226
    6377.0    1296.8374       0.0000      50.8611     -88.6575       5.1428      -5.1413      -0.1204     331.9880       1.0226
    6378.0    1281.1708       0.0000      50.8611     -83.2601       5.1811      -5.1450      -0.6073     338.0898       1.0226
