~VERSION INFORMATION
VERS.           2.0   :CWLS Log ASCII Standard - VERSION 2.0
WRAP.           NO    :One Line per depth step
PROD.  Schlumberger   :LAS Producer
PROG.  DLIS to ASCII 19C2-270                          :LAS Program name and version
CREA.        2017/09/16 17:42                          :LAS Creation date {YYYY/MM/DD hh:mm}
DLIS_CREA.  2017-Sep-15 17:53                          :DLIS Creation date and time {YYYY-MMM-DD hh:mm}
SOURCE.     LPC_S4-1_BV.DLIS                           :DLIS File Name
FILE-ID.     PERFO_Perfo_WPGRT_051LTP                  :File Identification Number
#--------------------------------------------------
~WELL INFORMATION
#MNEM.UNIT      DATA             DESCRIPTION
#---- ------ --------------   -----------------------------
STRT .S         3166.0       :START TIME      
STOP .S         3598.0       :STOP TIME      
STEP .S            1.0       :STEP     
NULL .          -999.25      :NULL VALUE
COMP .        SHELL INTERNATIONAL E P                  :COMPANY
WELL .        WPP TEST 2                               :WELL
FLD  .        WILDCAT                                  :FIELD
LOC  .        NA                                       :LOCATION
CNTY .        HARRIS                                   :COUNTY
STAT .        TEXAS                                    :STATE
CTRY .                                                 :COUNTRY
API  .        NA                                       :API NUMBER
UWI  .                                                 :UNIQUE WELL ID
DATE .        15-Sep-2017                              :LOG DATE {DD-MMM-YYYY}
SRVC .        Schlumberger                             :SERVICE COMPANY
LATI .DEG                                              :LATITUDE
LONG .DEG                                              :LONGITUDE
GDAT .                                                 :GeoDetic Datum
SECT .        NA                                       :Section
RANG .        NA                                       :Range
TOWN .        NA                                       :Township
#-----------------------------------------------------------------------------
~PARAMETER INFORMATION
#MNEM.UNIT    VALUE                      DESCRIPTION
#---- -----   --------------------       ------------------------
U-PHASE_B_COMP_PER_YT.                 0 :Phase B Comparator Period Yt
U-PHASE_A_COMP_PER_XT.                 0 :Phase A Comparator Period Xt
U-MAX_EXC_CUR_LIMIT.MA       240.00000   :Requested CM Current Limit
U-REQ_EXC_FQ.HZ              50          :Requested CM Frequency
U-TILT_Y_OFFSET.           0.19916       :WPTET Tilt Y Offset
U-TILT_Y_GAIN.           1.01796         :WPTET Tilt Y Gain
U-TILT_X_OFFSET.          -1.77103       :WPTET Tilt X Offset
U-TILT_X_GAIN.           1.00000         :WPTET Tilt X Gain
U-TILT_OFFSET_TOL.           0.00100     :WPTET Tilt Offset Calibration Tolerance
U-NO_TILT_CAL_ROTATIONS.                 3 :Number of Rotations for Tilt Calibration
HAZI .DEG        0.00000                 :Hole Azimuth
U-STD_TOL_TILT.           0.01000        :Tilt Standard Deviation Tolerance
U-GUN_POS_TOL.DEG        5.00000         :Gun Position Tolerance
ROT_ANGLE_THRESHOLD.DEG        5.00000   :Rotation Stop Angle Tolerance
STOP_ROT_ANGLE.DEG        0.00000        :Rotation Stop Angle
WITN .        MR. DHRUA ARORA            :Witness's Name
ENGI .        MORRIS MOORE               :Engineer's Name
COUN .        HARRIS                     :County or Rig Name
FN   .        WILDCAT                    :Field Name
WN   .        WPP TEST 2                 :Well Name
CN   .        SHELL INTERNATIONAL E P    :Company Name
CLAB .        County                     :County/Rig Label
SLAB .        State                      :State/Province Label
RUN  .          1                        :RUN NUMBER
PDAT .        GROUND LEVEL               :Permanent Datum
EPD  .                                   :Elevation of Permanent Datum above Mean Sea Level
LMF  .          NA                       :Logging Measured From (Name of Logging Elevation Reference)
APD  .                                   :Elevation of Depth Reference (LMF) above Permanent Datum
#-----------------------------------------------------------------------------
~CURVE INFORMATION
#MNEM.UNIT   API CODE                                  DESCRIPTION
#---- -----  --------                                  -----------------------
TIME .S                                                :TIME {F10.1}
FREQ_EMF_SL.HZ                                         :Electromagnetic Field Frequency {F13.4}
PH_SH_WPPCM_SL.DEG                                     :WPPCM Phase Shift {F13.4}
FREQ_EXC_REQ_SL.HZ                                     :Requested Exciter Frequency {F13.4}
RB_SL.DEG                                              :Relative Bearing {F13.4}
SDEV_SL.DEG                                            :Sonde Deviation {F13.4}
TILX_SL.DEG                                            :X-axis Tilt {F13.4}
TILY_SL.DEG                                            :Y-axis Tilt {F13.4}
ROTA_SL.DEG                                            :Motor Rotation Angle {F13.4}
MSPE_SL.RPM                                            :Motor Speed {F13.4}
#-----------------------------------------------------------------------------
# 
#     TIME    FREQ_EMF_SL  PH_SH_WPPCM_ FREQ_EXC_REQ    RB_SL       SDEV_SL      TILX_SL      TILY_SL      ROTA_SL      MSPE_SL
#                          SL           _SL
~A  
    3166.0    1775.5518       0.0000      50.8606    -131.2162       1.2331      -0.9275       0.8125     200.4462       1.0226
    3167.0    1779.4058       0.0000      50.8611    -105.2690       1.1749      -1.1333       0.3099     205.9634       1.0226
    3168.0    1766.6456       0.0000      50.8611     -81.7371       0.9254      -0.9109      -0.1270     212.0783       1.0242
    3169.0    1753.4288       0.0000      50.8611     -64.3245       1.2244      -1.0647      -0.5397     218.1730       1.0136
    3170.0    1741.0400       0.0000      50.8611     -77.2346       1.0069      -0.9794      -0.2207     224.2718       1.0226
    3171.0    1712.6062       0.0000      50.8611     -84.0661       1.0222      -1.0147      -0.0980     230.3849       1.0242
    3172.0    1698.3695       0.0000      50.8611     -73.5182       1.3585      -1.3008      -0.3843     236.4763       1.0226
    3173.0    1662.8101       0.0000      50.8611     -73.4876       1.1925      -1.1401      -0.3374     242.5782       1.0226
    3174.0    1624.9474       0.0000      50.8611     -71.5590       1.3903      -1.3184      -0.4371     248.6801       1.0226
    3175.0    1595.4500       0.0000      50.8611     -62.4756       1.3061      -1.1577      -0.6007     255.1896       1.0226
    3176.0    1560.0511       0.0000      50.8611     -65.7091       1.4189      -1.2900      -0.5767     261.2914       1.0226
    3177.0    1513.5328       0.0000      50.8611     -70.8441       1.4737      -1.3919      -0.4840     267.3932       1.0226
    3178.0    1484.7679       0.0000      50.8611     -68.6737       1.4461      -1.3468      -0.5249     273.4950       1.0226
    3179.0    1444.6593       0.0000      50.8611     -62.1136       1.6472      -1.4556      -0.7702     279.5976       1.0226
    3180.0    1409.8975       0.0000      50.8611     -62.7863       1.4296      -1.2714      -0.6535     285.6999       1.0226
    3181.0    1369.9127       0.0000      50.8611     -58.4710       1.4859      -1.2665      -0.7762     291.8279       1.0226
    3182.0    1327.1148       0.0000      50.8611     -60.5086       1.4945      -1.3008      -0.7353     297.9297       1.0226
    3183.0    1302.7913       0.0000      50.8611     -59.6635       1.4213      -1.2263      -0.7183     304.0315       1.0226
    3184.0    1226.5307       0.0000      50.8611     -53.9327       1.7148      -1.3860      -1.0095     310.1211       1.0226
    3185.0    1147.6461       0.0000      50.8611     -61.0355       1.4474      -1.2665      -0.7004     316.2218       1.0226
    3186.0    1069.8517       0.0000      50.8611     -51.1770       1.4517      -1.1293      -0.9118     322.3255       1.0226
    3187.0    1009.8537       0.0000      50.8611     -44.5579       1.3811      -0.9628      -0.9796     328.8349       1.0226
    3188.0     982.4204       0.0000      50.8611     -48.8745       1.5817      -1.1911      -1.0394     334.9376       1.0226
    3189.0     949.8294       0.0000      50.8611     -44.6751       1.4942      -1.0480      -1.0634     341.0394       1.0226
    3190.0     927.6055       0.0000      50.8611     -48.8306       1.3564      -1.0196      -0.8938     347.1289       1.0211
    3191.0     914.8605       0.0000      50.8611     -43.4878       1.5584      -1.0755      -1.1262     353.2443       1.0226
    3192.0     903.7596       0.0000      50.8611     -24.2910       1.3124      -0.5327      -1.1901     359.3457       1.0226
    3193.0     894.2290       0.0000      50.8611     -39.6980       1.3207      -0.8413      -1.0165       5.4607       1.0136
    3194.0     881.4328       0.0000      50.8611     -37.6155       1.3417      -0.8188      -1.0624      11.5506       1.0226
    3195.0     876.1029       0.0000      50.8611     -33.3678       1.1775      -0.6562      -0.9687      17.6524       1.0226
    3196.0     870.6784       0.0000      50.8611     -29.8917       1.2729      -0.6346      -1.1033      23.7445       1.0226
    3197.0     876.5548       0.0000      50.8611     -37.5396       1.1927      -0.7267      -0.9457      29.8471       1.0226
    3198.0     875.1460       0.0000      50.8611     -33.7625       1.0752      -0.5944      -0.8938      35.9490       1.0226
    3199.0     877.8090       0.0000      50.8611     -46.3401       1.0868      -0.7777      -0.7482      42.4443       1.0226
    3200.0     889.0710       0.0000      50.8611     -29.7290       1.0490      -0.5200      -0.9108      48.5356       1.0211
    3201.0     905.0722       0.0000      50.8611       0.9116       0.7864      -0.0056      -0.7652      54.6233       1.0136
    3202.0     917.7265       0.0000      50.8611     -33.0824       0.9549      -0.5200      -0.8001      60.7021       1.0211
    3203.0     933.0714       0.0000      50.8611     -26.9740       0.7927      -0.3593      -0.7064      66.7898       1.0211
    3204.0     958.5109       0.0000      50.8611     -18.8215       0.8418      -0.2741      -0.7941      72.8916       1.0226
    3205.0     996.5175       0.0000      50.8611     -28.1199       0.8342      -0.3936      -0.7353      78.9938       1.0226
    3206.0    1046.9612       0.0000      50.8611     -18.3705       0.5868      -0.1879      -0.5548      85.0956       1.0136
    3207.0    1138.5081       0.0000      50.8611     -35.2556       0.7508      -0.4338      -0.6126      91.1989       1.0152
    3208.0    1231.3640       0.0000      50.8611     -16.7149       0.6101      -0.1761      -0.5837      97.3015       1.0226
    3209.0    1285.0775       0.0000      50.8611     -37.5541       0.5444      -0.3309      -0.4321     103.4059       1.0226
    3210.0    1335.2641       0.0000      50.8611     -35.7271       0.4818      -0.2790      -0.3912     109.5207       1.0226
    3211.0    1377.1074       0.0000      50.8611     -47.8406       0.5471      -0.4054      -0.3673     116.0274       1.0226
    3212.0    1416.7582       0.0000      50.8611     -55.7422       0.5479      -0.4514      -0.3094     122.1170       1.0211
    3213.0    1454.8674       0.0000      50.8611     -61.1408       0.4497      -0.3936      -0.2157     128.2214       1.0226
    3214.0    1494.6229       0.0000      50.8611     -38.2780       0.5504      -0.3368      -0.4311     134.3206       1.0226
    3215.0    1538.5668       0.0000      50.8611     -61.8966       0.5232      -0.4622      -0.2446     140.4360       1.0226
    3216.0    1592.8122       0.0000      50.8611     -65.3172       0.6033      -0.5484      -0.2506     146.5257       1.0226
    3217.0    1629.1866       0.0000      50.8611     -78.0815       0.6195      -0.6062      -0.1279     152.6276       1.0226
    3218.0    1661.0900       0.0000      50.8611     -90.0699       0.5662      -0.5660       0.0007     158.7321       1.0226
    3219.0    1698.3695       0.0000      50.8611     -82.6565       0.6282      -0.6229      -0.0811     164.8444       1.0226
    3220.0    1731.2128       0.0000      50.8611     -88.6452       0.7275      -0.7267      -0.0172     170.9489       1.0226
    3221.0    1751.5246       0.0000      50.8611     -85.1595       0.6144      -0.6121      -0.0522     177.0385       1.0226
    3222.0    1769.7974       0.0000      50.8611     -94.1439       0.8103      -0.8070       0.0586     183.1404       1.0226
    3223.0    1768.6080       0.0000      50.8611     -85.2989       0.8687      -0.8648      -0.0691     189.6585       1.0242
    3224.0    1789.7897       0.0000      50.8611     -83.2983       0.9416      -0.9334      -0.1110     195.7755       1.0226
    3225.0    1787.7973       0.0000      50.8611     -87.6727       0.8542      -0.8531      -0.0342     201.8778       1.0226
    3226.0    1780.7240       0.0000      50.8611     -84.7992       0.8970      -0.8932      -0.0811     207.9797       1.0226
    3227.0    1780.7240       0.0000      50.8611     -84.9419       0.9892      -0.9853      -0.0871     214.0943       1.0226
    3228.0    1772.4073       0.0000      50.8611     -87.6032       1.2667      -1.2655      -0.0522     220.1861       1.0226
