~VERSION INFORMATION
VERS.           2.0   :CWLS Log ASCII Standard - VERSION 2.0
WRAP.           NO    :One Line per depth step
PROD.  Schlumberger   :LAS Producer
PROG.  DLIS to ASCII 19C2-270                          :LAS Program name and version
CREA.        2017/09/16 17:42                          :LAS Creation date {YYYY/MM/DD hh:mm}
DLIS_CREA.  2017-Sep-15 13:58                          :DLIS Creation date and time {YYYY-MMM-DD hh:mm}
SOURCE.     LPC_S1-1_2BV.DLIS                          :DLIS File Name
FILE-ID.     PERFO_Perfo_WPGRT_027LTP                  :File Identification Number
#--------------------------------------------------
~WELL INFORMATION
#MNEM.UNIT      DATA             DESCRIPTION
#---- ------ --------------   -----------------------------
STRT .S        11467.0       :START TIME      
STOP .S        11862.0       :STOP TIME      
STEP .S            1.0       :STEP     
NULL .          -999.25      :NULL VALUE
COMP .        SHELL INTERNATIONAL E P                  :COMPANY
WELL .        WPP TEST 2                               :WELL
FLD  .        WILDCAT                                  :FIELD
LOC  .                                                 :LOCATION
CNTY .        HARRIS                                   :COUNTY
STAT .        TEXAS                                    :STATE
CTRY .                                                 :COUNTRY
API  .                                                 :API NUMBER
UWI  .                                                 :UNIQUE WELL ID
DATE .                                                 :LOG DATE
SRVC .        Schlumberger                             :SERVICE COMPANY
LATI .DEG                                              :LATITUDE
LONG .DEG                                              :LONGITUDE
GDAT .                                                 :GeoDetic Datum
#-----------------------------------------------------------------------------
~PARAMETER INFORMATION
#MNEM.UNIT    VALUE                      DESCRIPTION
#---- -----   --------------------       ------------------------
U-PHASE_B_COMP_PER_YT.                 0 :Phase B Comparator Period Yt
U-PHASE_A_COMP_PER_XT.                 0 :Phase A Comparator Period Xt
U-MAX_EXC_CUR_LIMIT.MA       240.00000   :Requested CM Current Limit
U-REQ_EXC_FQ.HZ              50          :Requested CM Frequency
U-TILT_Y_OFFSET.           0.19916       :WPTET Tilt Y Offset
U-TILT_Y_GAIN.           1.01796         :WPTET Tilt Y Gain
U-TILT_X_OFFSET.          -1.77103       :WPTET Tilt X Offset
U-TILT_X_GAIN.           1.00000         :WPTET Tilt X Gain
U-TILT_OFFSET_TOL.           0.00100     :WPTET Tilt Offset Calibration Tolerance
U-NO_TILT_CAL_ROTATIONS.                 3 :Number of Rotations for Tilt Calibration
HAZI .DEG        0.00000                 :Hole Azimuth
U-STD_TOL_TILT.           0.01000        :Tilt Standard Deviation Tolerance
U-GUN_POS_TOL.DEG        5.00000         :Gun Position Tolerance
ROT_ANGLE_THRESHOLD.DEG        5.00000   :Rotation Stop Angle Tolerance
STOP_ROT_ANGLE.DEG       80.00000        :Rotation Stop Angle
WITN .                                   :Witness's Name
ENGI .                                   :Engineer's Name
COUN .        HARRIS                     :County or Rig Name
FN   .        WILDCAT                    :Field Name
WN   .        WPP TEST 2                 :Well Name
CN   .        SHELL INTERNATIONAL E P    :Company Name
CLAB .        County                     :County/Rig Label
SLAB .        State                      :State/Province Label
RUN  .          1                        :RUN NUMBER
PDAT .        GROUND LEVEL               :Permanent Datum
EPD  .                                   :Elevation of Permanent Datum above Mean Sea Level
LMF  .                                   :Logging Measured From (Name of Logging Elevation Reference)
APD  .                                   :Elevation of Depth Reference (LMF) above Permanent Datum
#-----------------------------------------------------------------------------
~CURVE INFORMATION
#MNEM.UNIT   API CODE                                  DESCRIPTION
#---- -----  --------                                  -----------------------
TIME .S                                                :TIME {F10.1}
FREQ_EMF_SL.HZ                                         :Electromagnetic Field Frequency {F13.4}
PH_SH_WPPCM_SL.DEG                                     :WPPCM Phase Shift {F13.4}
FREQ_EXC_REQ_SL.HZ                                     :Requested Exciter Frequency {F13.4}
RB_SL.DEG                                              :Relative Bearing {F13.4}
SDEV_SL.DEG                                            :Sonde Deviation {F13.4}
TILX_SL.DEG                                            :X-axis Tilt {F13.4}
TILY_SL.DEG                                            :Y-axis Tilt {F13.4}
ROTA_SL.DEG                                            :Motor Rotation Angle {F13.4}
MSPE_SL.RPM                                            :Motor Speed {F13.4}
#-----------------------------------------------------------------------------
# 
#     TIME    FREQ_EMF_SL  PH_SH_WPPCM_ FREQ_EXC_REQ    RB_SL       SDEV_SL      TILX_SL      TILY_SL      ROTA_SL      MSPE_SL
#                          SL           _SL
~A  
# ...
   11593.0    1399.3915       0.0000      50.8611     -64.3000       1.0480      -0.9446      -0.4538     169.6624       1.0175
   11594.0    1395.0892       0.0000      50.8611     -59.3281       1.1019      -0.9458      -0.5591     175.7724       1.0226
   11595.0    1371.9124       0.0000      50.8611     -59.8816       1.0475      -0.9044      -0.5182     182.2730       1.0226
   11596.0    1371.9124       0.0000      50.8611     -63.3502       1.0611      -0.9482      -0.4761     188.3819       1.0175
   11597.0    1343.2497       0.0000      50.8611     -65.7842       1.1044      -1.0067      -0.4538     194.4773       1.0226
   11598.0    1318.0691       0.0000      50.8611     -69.1185       1.1633      -1.0870      -0.4142     200.5825       1.0226
   11599.0    1286.8000       0.0000      50.8611     -62.5052       1.0315      -0.9092      -0.4724     206.6813       1.0226
   11600.0    1265.9481       0.0000      50.8611     -70.9181       1.1166      -1.0456      -0.3571     212.7708       1.0172
   11601.0    1245.6054       0.0000      50.8611     -59.7051       1.0987      -0.9470      -0.5554     218.8889       1.0226
   11602.0    1223.8593       0.0000      50.8611     -61.0611       1.0621      -0.9275      -0.5145     225.0041       1.0226
   11603.0    1200.0878       0.0000      50.8611     -61.3573       1.0793      -0.9470      -0.5170     231.1059       1.0226
   11604.0    1192.8468       0.0000      50.8611     -62.8429       1.2704      -1.1308      -0.5777     237.1953       1.0226
   11605.0    1177.7079       0.0000      50.8611     -59.3425       0.9395      -0.8058      -0.4773     243.2973       1.0226
   11606.0    1160.2180       0.0000      50.8611     -55.4717       1.1984      -0.9872      -0.6793     249.3992       1.0226
   11607.0    1154.6828       0.0000      50.8611     -57.3854       1.2970      -1.0894      -0.6979     255.9060       1.0226
   11608.0    1148.1189       0.0000      50.8611     -55.9591       1.1452      -0.9470      -0.6409     262.0076       1.0226
   11609.0    1146.0607       0.0000      50.8611     -55.9994       1.1865      -0.9848      -0.6595     268.1125       1.0226
   11610.0    1141.3841       0.0000      50.8611     -55.8145       1.0747      -0.8910      -0.5988     274.2174       1.0278
   11611.0    1138.6370       0.0000      50.8611     -53.7460       1.0503      -0.8460      -0.6198     280.3257       1.0226
   11612.0    1146.3215       0.0000      50.8611     -52.7575       1.0910      -0.8679      -0.6607     286.4435       1.0226
   11613.0    1154.5566       0.0000      50.8611     -53.6945       1.0749      -0.8655      -0.6372     292.5453       1.0226
   11614.0    1152.6103       0.0000      50.8611     -53.3795       1.1056      -0.8874      -0.6595     298.6599       1.0226
   11615.0    1167.9268       0.0000      50.8611     -54.8828       1.1104      -0.9080      -0.6384     304.7615       1.0278
   11616.0    1175.7943       0.0000      50.8611     -51.9143       1.1012      -0.8667      -0.6793     310.8703       1.0224
   11617.0    1190.6452       0.0000      50.8611     -52.7594       1.0901      -0.8679      -0.6595     316.9664       1.0226
   11618.0    1196.7247       0.0000      50.8611     -50.5768       1.0716      -0.8277      -0.6805     323.0813       1.0226
   11619.0    1221.7327       0.0000      50.8611     -50.9206       1.0146      -0.7875      -0.6397     329.5878       1.0226
   11620.0    1235.6592       0.0000      50.8611     -55.1310       0.9899      -0.8106      -0.5554     335.7121       1.0278
   11621.0    1258.9198       0.0000      50.8611     -53.6996       0.9741      -0.7851      -0.5765     341.8246       1.0278
   11622.0    1288.9207       0.0000      50.8611     -51.5273       1.0585      -0.8277      -0.6583     347.9359       1.0226
   11623.0    1324.0824       0.0000      50.8611     -51.8495       1.0050      -0.7863      -0.6211     354.0507       1.0226
   11624.0    1331.6052       0.0000      50.8611     -49.2982       1.0127      -0.7669      -0.6607     185.5525       1.0226
   11625.0    1354.2990       0.0000      50.8611     -50.9736       0.9513      -0.7370      -0.6000       6.2520       1.0226
   11626.0    1363.9286       0.0000      50.8611     -51.0943       0.9573      -0.7450      -0.5988      12.3668       1.0226
   11627.0    1384.1914       0.0000      50.8611     -60.7938       1.0178      -0.8886      -0.4959      18.4725       1.0226
   11628.0    1389.4982       0.0000      50.8611     -56.7203       0.9152      -0.7644      -0.4972      24.5684       1.0278
   11629.0    1396.3011       0.0000      50.8611     -51.2824       0.9594      -0.7462      -0.6000      30.6769       1.0226
   11630.0    1411.9884       0.0000      50.8611     -50.7491       0.9142      -0.7072      -0.5789      36.7786       1.0226
   11631.0    1420.4546       0.0000      50.8611     -60.8624       1.0371      -0.8910      -0.4910      43.0646       1.0226
   11632.0    1433.3681       0.0000      50.8611     -49.4032       0.9850      -0.7486      -0.6397      49.3751       1.0226
   11633.0    1428.9652       0.0000      50.8611     -54.9377       0.9788      -0.8034      -0.5567      55.4768       1.0175
   11634.0    1437.8834       0.0000      50.8611     -59.0764       0.9190      -0.7863      -0.4737      61.5508       1.0175
   11635.0    1445.4197       0.0000      50.8611     -56.4192       0.8970      -0.7474      -0.4959      67.6463       1.0226
   11636.0    1446.6761       0.0000      50.8611     -53.5986       0.9018      -0.7255      -0.5356      73.7524       1.0224
   11637.0    1450.2248       0.0000      50.8611     -53.7762       0.8755      -0.7060      -0.5170      79.8608       1.0226
   11638.0    1449.6588       0.0000      50.8611     -51.5893       1.0281      -0.8058      -0.6384      85.9538       1.0277
   11639.0    1455.7454       0.0000      50.8611     -61.0218       0.9016      -0.7863      -0.4364      92.0569       1.0226
   11640.0    1454.2866       0.0000      50.8611     -68.5486       0.9606      -0.8886      -0.3559      98.1713       1.0387
   11641.0    1461.8958       0.0000      50.8611     -79.0311       0.8919      -0.8643      -0.1850     102.8823       0.0005
   11642.0    1458.6811       0.0000      50.8611     -64.5940       0.8705      -0.7863      -0.3733     102.8823       0.0005
   11643.0    1460.2364       0.0000      50.8611     -62.6643       0.9082      -0.8058      -0.4154     102.8823       0.0005
   11644.0    1458.7655       0.0000      50.8611     -62.8110       0.9084      -0.8070      -0.4154     102.8823       0.0005
   11645.0    1455.7454       0.0000      50.8611     -62.8218       0.9084      -0.8082      -0.4142     102.8823       0.0005
   11646.0    1457.3007       0.0000      50.8611     -63.4555       0.8806      -0.7875      -0.3931     102.8823       0.0005
   11647.0    1460.2364       0.0000      50.8611     -60.8755       0.8098      -0.7072      -0.3943     102.8823       0.0005
   11648.0    1460.3274       0.0000      50.8611     -63.3731       0.9245      -0.8265      -0.4142     102.8823       0.0005
   11649.0    1457.3007       0.0000      50.8611     -63.2174       0.9049      -0.8070      -0.4080     102.8823       0.0005
   11650.0    1461.7983       0.0000      50.8611     -56.6656       0.9415      -0.7863      -0.5170     102.8823       0.0005
   11651.0    1458.6811       0.0000      50.8611     -57.6435       0.8130      -0.6865      -0.4352     102.8823       0.0005
   11652.0    1458.8626       0.0000      50.8611     -63.5319       0.9011      -0.8046      -0.3956     102.8823       0.0005
   11653.0    1458.8626       0.0000      50.8611     -64.5437       0.9169      -0.8277      -0.3943     102.8823       0.0005
   11654.0    1461.7135       0.0000      50.8611     -62.1582       0.8905      -0.7863      -0.4154     102.8823       0.0005
   11655.0    1460.1581       0.0000      50.8611     -63.4096       0.8344      -0.7462      -0.3733     102.8823       0.0005
