~VERSION INFORMATION
VERS.           2.0   :CWLS Log ASCII Standard - VERSION 2.0
WRAP.           NO    :One Line per depth step
PROD.  Schlumberger   :LAS Producer
PROG.  DLIS to ASCII 19C2-270                          :LAS Program name and version
CREA.        2017/09/16 17:42                          :LAS Creation date {YYYY/MM/DD hh:mm}
DLIS_CREA.  2017-Sep-15 16:10                          :DLIS Creation date and time {YYYY-MMM-DD hh:mm}
SOURCE.     LPC_S3-1_B5.DLIS                           :DLIS File Name
FILE-ID.     PERFO_Perfo_WPGRT_039LTP                  :File Identification Number
#--------------------------------------------------
~WELL INFORMATION
#MNEM.UNIT      DATA             DESCRIPTION
#---- ------ --------------   -----------------------------
STRT .S         2439.0       :START TIME      
STOP .S         2874.0       :STOP TIME      
STEP .S            1.0       :STEP     
NULL .          -999.25      :NULL VALUE
COMP .        SHELL INTERNATIONAL E P                  :COMPANY
WELL .        WPP TEST 2                               :WELL
FLD  .        WILDCAT                                  :FIELD
LOC  .                                                 :LOCATION
CNTY .        HARRIS                                   :COUNTY
STAT .        TEXAS                                    :STATE
CTRY .                                                 :COUNTRY
API  .                                                 :API NUMBER
UWI  .                                                 :UNIQUE WELL ID
DATE .                                                 :LOG DATE
SRVC .        Schlumberger                             :SERVICE COMPANY
LATI .DEG                                              :LATITUDE
LONG .DEG                                              :LONGITUDE
GDAT .                                                 :GeoDetic Datum
#-----------------------------------------------------------------------------
~PARAMETER INFORMATION
#MNEM.UNIT    VALUE                      DESCRIPTION
#---- -----   --------------------       ------------------------
U-PHASE_B_COMP_PER_YT.                 0 :Phase B Comparator Period Yt
U-PHASE_A_COMP_PER_XT.                 0 :Phase A Comparator Period Xt
U-MAX_EXC_CUR_LIMIT.MA       240.00000   :Requested CM Current Limit
U-REQ_EXC_FQ.HZ              50          :Requested CM Frequency
U-TILT_Y_OFFSET.           0.19916       :WPTET Tilt Y Offset
U-TILT_Y_GAIN.           1.01796         :WPTET Tilt Y Gain
U-TILT_X_OFFSET.          -1.77103       :WPTET Tilt X Offset
U-TILT_X_GAIN.           1.00000         :WPTET Tilt X Gain
U-TILT_OFFSET_TOL.           0.00100     :WPTET Tilt Offset Calibration Tolerance
U-NO_TILT_CAL_ROTATIONS.                 3 :Number of Rotations for Tilt Calibration
HAZI .DEG        0.00000                 :Hole Azimuth
U-STD_TOL_TILT.           0.01000        :Tilt Standard Deviation Tolerance
U-GUN_POS_TOL.DEG        5.00000         :Gun Position Tolerance
ROT_ANGLE_THRESHOLD.DEG        5.00000   :Rotation Stop Angle Tolerance
STOP_ROT_ANGLE.DEG        0.00000        :Rotation Stop Angle
WITN .                                   :Witness's Name
ENGI .                                   :Engineer's Name
COUN .        HARRIS                     :County or Rig Name
FN   .        WILDCAT                    :Field Name
WN   .        WPP TEST 2                 :Well Name
CN   .        SHELL INTERNATIONAL E P    :Company Name
CLAB .        County                     :County/Rig Label
SLAB .        State                      :State/Province Label
RUN  .          1                        :RUN NUMBER
PDAT .        GROUND LEVEL               :Permanent Datum
EPD  .                                   :Elevation of Permanent Datum above Mean Sea Level
LMF  .                                   :Logging Measured From (Name of Logging Elevation Reference)
APD  .                                   :Elevation of Depth Reference (LMF) above Permanent Datum
#-----------------------------------------------------------------------------
~CURVE INFORMATION
#MNEM.UNIT   API CODE                                  DESCRIPTION
#---- -----  --------                                  -----------------------
TIME .S                                                :TIME {F10.1}
FREQ_EMF_SL.HZ                                         :Electromagnetic Field Frequency {F13.4}
PH_SH_WPPCM_SL.DEG                                     :WPPCM Phase Shift {F13.4}
FREQ_EXC_REQ_SL.HZ                                     :Requested Exciter Frequency {F13.4}
RB_SL.DEG                                              :Relative Bearing {F13.4}
SDEV_SL.DEG                                            :Sonde Deviation {F13.4}
TILX_SL.DEG                                            :X-axis Tilt {F13.4}
TILY_SL.DEG                                            :Y-axis Tilt {F13.4}
ROTA_SL.DEG                                            :Motor Rotation Angle {F13.4}
MSPE_SL.RPM                                            :Motor Speed {F13.4}
#-----------------------------------------------------------------------------
# 
#     TIME    FREQ_EMF_SL  PH_SH_WPPCM_ FREQ_EXC_REQ    RB_SL       SDEV_SL      TILX_SL      TILY_SL      ROTA_SL      MSPE_SL
#                          SL           _SL
~A  
# ...
    2628.0    1619.9873       0.0000      50.8611     148.8607       3.1954       1.6519       2.7342      71.4171       0.0005
    2629.0    1620.1036       0.0000      50.8611     156.1580       3.4886       1.4097       3.1904      71.4171       0.0005
    2630.0    1619.9873       0.0000      50.8611     151.8286       3.4280       1.6180       3.0204      71.4171       0.0005
    2631.0    1619.9873       0.0000      50.8611     152.3060       3.7251       1.7298       3.2977      71.4171       0.0005
    2632.0    1620.1036       0.0000      50.8611     149.2261       3.6083       1.8452       3.0996      71.4171       0.0005
    2633.0    1612.9044       0.0000      50.8611     150.1025       3.6232       1.8051       3.1405      71.4171       0.0005
    2634.0    1620.3380       0.0000      50.8611     147.5367       3.5821       1.9218       3.0217      71.4171       0.0005
    2635.0    1627.3697       0.0000      50.8611     149.1850       3.5205       1.8026       3.0230      71.4171       0.0005
    2636.0    1620.1036       0.0000      50.8611     147.8396       3.6169       1.9243       3.0613      71.4171       0.0005
    2637.0    1616.4957       0.0000      50.8611     148.6165       3.5402       1.8427       3.0217      71.4171       0.0005
    2638.0    1616.6126       0.0000      50.8611     147.6902       3.5290       1.8854       2.9821      71.4171       0.0005
    2639.0    1623.6120       0.0000      50.8611     148.2216       3.6485       1.9205       3.1009      71.4171       0.0005
    2640.0    1623.7284       0.0000      50.8611     149.1165       3.5231       1.8076       3.0230      71.4171       0.0005
    2641.0    1613.1387       0.0000      50.8611     148.4777       3.6849       1.9256       3.1405      71.4171       0.0005
    2642.0    1623.8453       0.0000      50.8611     148.0607       3.5584       1.8816       3.0191      71.4171       0.0005
    2643.0    1623.7284       0.0000      50.8611     149.5637       3.4134       1.7285       2.9425      72.8551       0.5464
    2644.0    1620.0745       0.0000      50.8611     154.1130       3.5843       1.5641       3.2242      77.1247       0.8518
    2645.0    1620.2206       0.0000      50.8611     162.4665       3.5980       1.0833       3.4306      82.7924       1.0223
    2646.0    1627.4867       0.0000      50.8611     168.8625       3.7401       0.7218       3.6695      88.9069       1.0226
    2647.0    1612.9044       0.0000      50.8611     176.2309       3.6866       0.2423       3.6785      95.0116       1.0226
    2648.0    1612.9044       0.0000      50.8611    -178.7834       3.9605      -0.0840       3.9596     101.1134       1.0226
    2649.0    1608.8669       0.0000      50.8611    -171.3919       4.0448      -0.6049       3.9992     107.2283       1.0226
    2650.0    1598.0114       0.0000      50.8611    -164.2711       4.1564      -1.1258       4.0005     113.7350       1.0226
    2651.0    1573.0968       0.0000      50.8611    -157.0013       4.2147      -1.6455       3.8791     119.8376       1.0223
    2652.0    1566.1988       0.0000      50.8611    -150.9084       4.3041      -2.0911       3.7602     125.9301       1.0226
    2653.0    1548.7335       0.0000      50.8611    -144.6516       4.3138      -2.4940       3.5175     132.0291       1.0226
    2654.0    1528.2232       0.0000      50.8611    -140.0934       4.5792      -2.9359       3.5111     138.1441       1.0226
    2655.0    1509.0552       0.0000      50.8611    -134.0098       4.5852      -3.2961       3.1840     144.2489       1.0226
    2656.0    1483.6072       0.0000      50.8611    -127.9264       4.7903      -3.7768       2.9422     150.3509       1.0226
    2657.0    1467.8063       0.0000      50.8611    -123.2163       4.8508      -4.0568       2.6550     156.4528       1.0226
    2658.0    1443.6040       0.0000      50.8611    -118.6384       4.7708      -4.1860       2.2844     162.5547       1.0226
    2659.0    1406.6939       0.0000      50.8611    -109.7974       4.9581      -4.6643       1.6775     168.6536       1.0330
    2660.0    1384.5343       0.0000      50.8611    -105.4930       5.0517      -4.8676       1.3479     174.7593       1.0223
    2661.0    1365.2913       0.0000      50.8611    -100.0872       5.1420      -5.0622       0.8994     180.8460       1.0226
    2662.0    1334.2030       0.0000      50.8611     -95.8326       5.2110      -5.1839       0.5288     187.3310       1.0226
    2663.0    1283.6688       0.0000      50.8611     -90.4368       5.1841      -5.1839       0.0394     193.4586       1.0226
    2664.0    1235.9940       0.0000      50.8611     -85.9558       5.2825      -5.2693      -0.3720     199.5635       1.0226
    2665.0    1185.5837       0.0000      50.8611     -79.9629       5.4266      -5.3433      -0.9444     205.6625       1.0226
    2666.0    1127.2602       0.0000      50.8611     -74.3316       5.4681      -5.2643      -1.4747     211.7644       1.0226
    2667.0    1083.7667       0.0000      50.8611     -69.8023       5.4446      -5.1086      -1.8772     217.8663       1.0226
    2668.0    1051.0581       0.0000      50.8611     -65.3160       5.5315      -5.0245      -2.3071     223.9592       1.0223
    2669.0    1021.7994       0.0000      50.8611     -59.7972       5.5414      -4.7873      -2.7844     230.0769       1.0226
    2670.0     996.1051       0.0000      50.8611     -55.6756       5.5944      -4.6178      -3.1511     236.1759       1.0226
    2671.0     982.1905       0.0000      50.8611     -48.6814       5.4585      -4.0969      -3.6009     242.2747       1.0226
    2672.0     972.4684       0.0000      50.8611     -45.3962       5.5400      -3.9413      -3.8871     248.3673       1.0330
    2673.0     964.5062       0.0000      50.8611     -41.1615       5.4416      -3.5785      -4.0941     254.4699       1.0330
    2674.0     960.5943       0.0000      50.8611     -34.3647       5.5028      -3.1028      -4.5400     260.9647       1.0327
    2675.0     961.7853       0.0000      50.8611     -31.2199       5.4548      -2.8241      -4.6627     267.0931       1.0229
    2676.0     957.8952       0.0000      50.8611     -25.8819       5.2794      -2.3020      -4.7483     273.1949       1.0226
    2677.0     961.7445       0.0000      50.8611     -20.7638       5.3387      -1.8903      -4.9911     279.2972       1.0334
    2678.0     965.7071       0.0000      50.8611     -16.6032       5.3796      -1.5350      -5.1546     285.4002       1.0226
    2679.0     979.1554       0.0000      50.8611     -10.4514       5.1197      -0.9275      -5.0345     291.5050       1.0226
    2680.0     987.8278       0.0000      50.8611      -5.4047       5.0995      -0.4797      -5.0767     297.6199       1.0226
    2681.0     995.9719       0.0000      50.8611       0.8511       4.9124       0.0729      -4.9118     303.7217       1.0226
    2682.0    1023.2405       0.0000      50.8611       7.4196       4.9161       0.6340      -4.8748     309.8111       1.0226
    2683.0    1042.8771       0.0000      50.8611      12.1756       4.8973       1.0319      -4.7866     315.9129       1.0330
    2684.0    1088.1158       0.0000      50.8611      19.0857       4.5168       1.4749      -4.2679     322.0155       1.0226
    2685.0    1139.4716       0.0000      50.8611      21.3217       4.5300       1.6457      -4.2193     328.1173       1.0330
    2686.0    1213.9891       0.0000      50.8611      27.2499       4.4667       2.0436      -3.9701     334.2450       1.0330
    2687.0    1273.4199       0.0000      50.8611      33.6050       4.2802       2.3674      -3.5638     340.7522       1.0124
    2688.0    1308.9801       0.0000      50.8611      39.9886       4.1176       2.6448      -3.1537     346.8549       1.0226
    2689.0    1326.6509       0.0000      50.8611      44.4238       3.9630       2.7728      -2.8291     352.9694       1.0330
    2690.0    1365.1262       0.0000      50.8611      51.2954       4.0564       3.1645      -2.5352     359.0746       1.0226
