~VERSION INFORMATION
VERS.           2.0   :CWLS Log ASCII Standard - VERSION 2.0
WRAP.           NO    :One Line per depth step
PROD.  Schlumberger   :LAS Producer
PROG.  DLIS to ASCII 19C2-270                          :LAS Program name and version
CREA.        2017/09/16 17:42                          :LAS Creation date {YYYY/MM/DD hh:mm}
DLIS_CREA.  2017-Sep-15 15:10                          :DLIS Creation date and time {YYYY-MMM-DD hh:mm}
SOURCE.     LPC_S2-1_2A5.DLIS                          :DLIS File Name
FILE-ID.     PERFO_Perfo_WPGRT_033LTP                  :File Identification Number
#--------------------------------------------------
~WELL INFORMATION
#MNEM.UNIT      DATA             DESCRIPTION
#---- ------ --------------   -----------------------------
STRT .S        15770.0       :START TIME      
STOP .S        16224.0       :STOP TIME      
STEP .S            1.0       :STEP     
NULL .          -999.25      :NULL VALUE
COMP .        SHELL INTERNATIONAL E P                  :COMPANY
WELL .        WPP TEST 2                               :WELL
FLD  .        WILDCAT                                  :FIELD
LOC  .                                                 :LOCATION
CNTY .        HARRIS                                   :COUNTY
STAT .        TEXAS                                    :STATE
CTRY .                                                 :COUNTRY
API  .                                                 :API NUMBER
UWI  .                                                 :UNIQUE WELL ID
DATE .                                                 :LOG DATE
SRVC .        Schlumberger                             :SERVICE COMPANY
LATI .DEG                                              :LATITUDE
LONG .DEG                                              :LONGITUDE
GDAT .                                                 :GeoDetic Datum
#-----------------------------------------------------------------------------
~PARAMETER INFORMATION
#MNEM.UNIT    VALUE                      DESCRIPTION
#---- -----   --------------------       ------------------------
U-PHASE_B_COMP_PER_YT.                 0 :Phase B Comparator Period Yt
U-PHASE_A_COMP_PER_XT.                 0 :Phase A Comparator Period Xt
U-MAX_EXC_CUR_LIMIT.MA       240.00000   :Requested CM Current Limit
U-REQ_EXC_FQ.HZ              50          :Requested CM Frequency
U-TILT_Y_OFFSET.           0.19916       :WPTET Tilt Y Offset
U-TILT_Y_GAIN.           1.01796         :WPTET Tilt Y Gain
U-TILT_X_OFFSET.          -1.77103       :WPTET Tilt X Offset
U-TILT_X_GAIN.           1.00000         :WPTET Tilt X Gain
U-TILT_OFFSET_TOL.           0.00100     :WPTET Tilt Offset Calibration Tolerance
U-NO_TILT_CAL_ROTATIONS.                 3 :Number of Rotations for Tilt Calibration
HAZI .DEG        0.00000                 :Hole Azimuth
U-STD_TOL_TILT.           0.01000        :Tilt Standard Deviation Tolerance
U-GUN_POS_TOL.DEG        5.00000         :Gun Position Tolerance
ROT_ANGLE_THRESHOLD.DEG        5.00000   :Rotation Stop Angle Tolerance
STOP_ROT_ANGLE.DEG       80.00000        :Rotation Stop Angle
WITN .                                   :Witness's Name
ENGI .                                   :Engineer's Name
COUN .        HARRIS                     :County or Rig Name
FN   .        WILDCAT                    :Field Name
WN   .        WPP TEST 2                 :Well Name
CN   .        SHELL INTERNATIONAL E P    :Company Name
CLAB .        County                     :County/Rig Label
SLAB .        State                      :State/Province Label
RUN  .          1                        :RUN NUMBER
PDAT .        GROUND LEVEL               :Permanent Datum
EPD  .                                   :Elevation of Permanent Datum above Mean Sea Level
LMF  .                                   :Logging Measured From (Name of Logging Elevation Reference)
APD  .                                   :Elevation of Depth Reference (LMF) above Permanent Datum
#-----------------------------------------------------------------------------
~CURVE INFORMATION
#MNEM.UNIT   API CODE                                  DESCRIPTION
#---- -----  --------                                  -----------------------
TIME .S                                                :TIME {F10.1}
FREQ_EMF_SL.HZ                                         :Electromagnetic Field Frequency {F13.4}
PH_SH_WPPCM_SL.DEG                                     :WPPCM Phase Shift {F13.4}
FREQ_EXC_REQ_SL.HZ                                     :Requested Exciter Frequency {F13.4}
RB_SL.DEG                                              :Relative Bearing {F13.4}
SDEV_SL.DEG                                            :Sonde Deviation {F13.4}
TILX_SL.DEG                                            :X-axis Tilt {F13.4}
TILY_SL.DEG                                            :Y-axis Tilt {F13.4}
ROTA_SL.DEG                                            :Motor Rotation Angle {F13.4}
MSPE_SL.RPM                                            :Motor Speed {F13.4}
#-----------------------------------------------------------------------------
# 
#     TIME    FREQ_EMF_SL  PH_SH_WPPCM_ FREQ_EXC_REQ    RB_SL       SDEV_SL      TILX_SL      TILY_SL      ROTA_SL      MSPE_SL
#                          SL           _SL
~A  
# ...
   16085.0    1515.4374       0.0000      50.8611     159.0776       3.8021       1.3570       3.5509     155.0719       1.0226
   16086.0    1518.5467       0.0000      50.8611     165.8716       3.7527       0.9151       3.6389     161.1767       1.0226
   16087.0    1515.2741       0.0000      50.8611     172.3802       3.8767       0.5135       3.8423     167.2815       1.0226
   16088.0    1515.2741       0.0000      50.8611     170.5205       4.0019       0.0335       4.0017     173.3813       1.0331
   16089.0    1499.6861       0.0000      50.8611    -173.2943       4.1900      -0.4887       4.1612     179.8912       1.0226
   16090.0    1502.2440       0.0000      50.8611    -165.9773       4.1670      -1.0089       4.0426     185.9960       1.0226
   16091.0    1489.4364       0.0000      50.8611    -159.2766       4.3217      -1.5280       4.0416     192.1089       1.0226
   16092.0    1477.3875       0.0000      50.8611    -154.6403       4.4271      -1.8945       3.9997     198.2078       1.0229
   16093.0    1480.2632       0.0000      50.8611    -147.5339       4.3554      -2.3364       3.6736     204.3257       1.0226
   16094.0    1470.5922       0.0000      50.8611    -142.2799       4.5440      -2.7782       3.5929     210.4435       1.0223
   16095.0    1464.4662       0.0000      50.8611    -136.1987       4.6988      -3.2504       3.3894     216.5305       1.0223
   16096.0    1443.6409       0.0000      50.8611    -130.9862       4.8549      -3.6629       3.1819     222.6170       1.0226
   16097.0    1412.1115       0.0000      50.8611    -124.8366       4.8549      -3.9832       2.7710     228.7351       1.0226
   16098.0    1414.3165       0.0000      50.8611    -119.9690       5.0610      -4.3829       2.5257     234.8276       1.0226
   16099.0    1405.7646       0.0000      50.8611    -113.2151       5.0749      -4.6630       1.9982     240.9266       1.0226
   16100.0    1381.4530       0.0000      50.8611    -108.0972       5.2414      -4.9813       1.6261     247.0256       1.0226
   16101.0    1352.3596       0.0000      50.8611    -103.3314       5.2859      -5.1430       1.2173     253.1405       1.0226
   16102.0    1346.6001       0.0000      50.8611     -97.4084       5.3495      -5.3047       0.6888     259.6402       1.0226
   16103.0    1309.1757       0.0000      50.8611     -92.1302       5.3114      -5.3077       0.1971     265.7520       1.0226
   16104.0    1269.2361       0.0000      50.8611     -86.8766       5.3579      -5.3499      -0.2915     271.8566       1.0226
   16105.0    1244.3594       0.0000      50.8611     -83.3182       5.3847      -5.3479      -0.6258     277.9490       1.0123
   16106.0    1218.5348       0.0000      50.8611     -77.1882       5.4015      -5.2665      -1.1961     284.0607       1.0226
   16107.0    1197.2291       0.0000      50.8611     -71.5608       5.4884      -5.2058      -1.7336     290.1595       1.0223
   16108.0    1177.5192       0.0000      50.8611     -66.9064       5.5509      -5.1049      -2.1744     296.2393       1.0226
   16109.0    1156.4556       0.0000      50.8611     -61.8230       5.5642      -4.9030      -2.6242     302.3439       1.0226
   16110.0    1132.2920       0.0000      50.8611     -56.1376       5.6644      -4.7012      -3.1526     308.4427       1.0226
   16111.0    1117.8013       0.0000      50.8611     -52.1740       5.5495      -4.3809      -3.4000     314.5424       1.0226
   16112.0    1114.1709       0.0000      50.8611     -47.4021       5.5748      -4.1007      -3.7700     320.6346       1.0226
   16113.0    1100.3092       0.0000      50.8611     -42.3617       5.4975      -3.7010      -4.0593     326.7371       1.0226
   16114.0    1093.3801       0.0000      50.8611     -37.8648       5.5051      -3.3757      -4.3435     333.2307       1.0226
   16115.0    1078.4956       0.0000      50.8611     -31.9227       5.4099      -2.8575      -4.5898     339.3353       1.0226
   16116.0    1079.9452       0.0000      50.8611     -26.7207       5.4573      -2.4508      -4.8730     345.4529       1.0223
   16117.0    1078.4540       0.0000      50.8611     -22.5896       5.4541      -2.0924      -5.0345     351.5400       1.0226
   16118.0    1075.2385       0.0000      50.8611     -17.0866       5.3479      -1.5692      -5.1112     357.6521       1.0226
   16119.0    1086.7991       0.0000      50.8611     -12.4440       5.2410      -1.1279      -5.1176       3.7567       1.0226
   16120.0    1108.7272       0.0000      50.8611      -7.1559       5.1546      -0.6413      -5.1142       9.8615       1.0226
   16121.0    1114.2587       0.0000      50.8611      -1.8639       4.9993      -0.1624      -4.9967      15.9609       1.0022
   16122.0    1125.2268       0.0000      50.8611       4.1507       4.9637       0.3588      -4.9507      22.0478       1.0226
   16123.0    1141.5764       0.0000      50.8611      10.4324       4.8709       0.8810      -4.7902      28.1525       1.0223
   16124.0    1169.8282       0.0000      50.8611      16.5000       4.6552       1.3208      -4.4631      34.2450       1.0226
   16125.0    1193.6094       0.0000      50.8611      20.9332       4.6062       1.6441      -4.3016      40.3440       1.0226
   16126.0    1212.5481       0.0000      50.8611      27.6770       4.5791       2.1251      -4.0542      46.8293       1.0334
   16127.0    1249.2262       0.0000      50.8611      32.1633       4.4499       2.3671      -3.7660      52.9476       1.0229
   16128.0    1281.1512       0.0000      50.8611      38.6654       4.3024       2.6865      -3.3581      59.0726       1.0223
   16129.0    1331.8664       0.0000      50.8611      43.3119       4.2757       2.9315      -3.1097      65.1469       1.0226
   16130.0    1360.1418       0.0000      50.8611      50.0092       4.1411       3.1715      -2.6599      71.2647       1.0226
   16131.0    1378.7782       0.0000      50.8611      56.6397       3.9455       3.2945      -2.1683      77.3694       1.0226
   16132.0    1398.0023       0.0000      50.8611      64.3225       3.8740       3.4908      -1.6776      83.4813       1.0226
   16133.0    1412.0399       0.0000      50.8611      72.1726       3.7526       3.5721      -1.1481      89.5802       1.0229
   16134.0    1426.3623       0.0000      50.8611      80.8571       4.1664       4.1134      -0.6605      95.6857       1.0226
   16135.0    1443.7886       0.0000      50.8611      86.7071       3.6183       3.6123      -0.2077     101.7904       1.0226
   16136.0    1461.8745       0.0000      50.8611      95.1557       3.5836       3.5691       0.3218     107.9023       1.0226
   16137.0    1462.0277       0.0000      50.8611     100.8733       3.4700       3.4075       0.6540     113.9889       1.0123
   16138.0    1477.2311       0.0000      50.8611     108.5971       3.4696       3.2880       1.1058     120.5047       1.0226
   16139.0    1495.7734       0.0000      50.8611     117.6275       3.4421       3.0490       1.5955     126.6034       1.0226
   16140.0    1505.5405       0.0000      50.8611     123.4510       3.4132       2.8471       1.8807     132.7031       1.0226
   16141.0    1502.6461       0.0000      50.8611     133.1807       3.4664       2.5268       2.3713     138.7964       1.0226
   16142.0    1509.0963       0.0000      50.8611     140.9767       3.6270       2.2828       2.8170     144.9274       1.0226
   16143.0    1521.7515       0.0000      50.8611     139.2550       3.9804       2.5971       3.0143     148.9780       0.0005
   16144.0    1518.7107       0.0000      50.8611     147.6751       3.6719       1.9625       3.1022     148.9780       0.0005
   16145.0    1515.5196       0.0000      50.8611     147.7910       3.6177       1.9273       3.0603     148.9780       0.0005
   16146.0    1515.4374       0.0000      50.8611     146.9487       3.6018       1.9635       3.0184     148.9780       0.0005
   16147.0    1521.7515       0.0000      50.8611     147.1045       3.6929       2.0046       3.1002     148.9780       0.0005
