~VERSION INFORMATION
VERS.           2.0   :CWLS Log ASCII Standard - VERSION 2.0
WRAP.           NO    :One Line per depth step
PROD.  Schlumberger   :LAS Producer
PROG.  DLIS to ASCII 19C2-270                          :LAS Program name and version
CREA.        2017/09/16 17:42                          :LAS Creation date {YYYY/MM/DD hh:mm}
DLIS_CREA.  2017-Sep-15 15:51                          :DLIS Creation date and time {YYYY-MMM-DD hh:mm}
SOURCE.     LPC_S3-1_AV.DLIS                           :DLIS File Name
FILE-ID.     PERFO_Perfo_WPGRT_037LTP                  :File Identification Number
#--------------------------------------------------
~WELL INFORMATION
#MNEM.UNIT      DATA             DESCRIPTION
#---- ------ --------------   -----------------------------
STRT .S         1283.0       :START TIME      
STOP .S         1755.0       :STOP TIME      
STEP .S            1.0       :STEP     
NULL .          -999.25      :NULL VALUE
COMP .        SHELL INTERNATIONAL E P                  :COMPANY
WELL .        WPP TEST 2                               :WELL
FLD  .        WILDCAT                                  :FIELD
LOC  .                                                 :LOCATION
CNTY .        HARRIS                                   :COUNTY
STAT .        TEXAS                                    :STATE
CTRY .                                                 :COUNTRY
API  .                                                 :API NUMBER
UWI  .                                                 :UNIQUE WELL ID
DATE .                                                 :LOG DATE
SRVC .        Schlumberger                             :SERVICE COMPANY
LATI .DEG                                              :LATITUDE
LONG .DEG                                              :LONGITUDE
GDAT .                                                 :GeoDetic Datum
#-----------------------------------------------------------------------------
~PARAMETER INFORMATION
#MNEM.UNIT    VALUE                      DESCRIPTION
#---- -----   --------------------       ------------------------
U-PHASE_B_COMP_PER_YT.                 0 :Phase B Comparator Period Yt
U-PHASE_A_COMP_PER_XT.                 0 :Phase A Comparator Period Xt
U-MAX_EXC_CUR_LIMIT.MA       240.00000   :Requested CM Current Limit
U-REQ_EXC_FQ.HZ              50          :Requested CM Frequency
U-TILT_Y_OFFSET.           0.19916       :WPTET Tilt Y Offset
U-TILT_Y_GAIN.           1.01796         :WPTET Tilt Y Gain
U-TILT_X_OFFSET.          -1.77103       :WPTET Tilt X Offset
U-TILT_X_GAIN.           1.00000         :WPTET Tilt X Gain
U-TILT_OFFSET_TOL.           0.00100     :WPTET Tilt Offset Calibration Tolerance
U-NO_TILT_CAL_ROTATIONS.                 3 :Number of Rotations for Tilt Calibration
HAZI .DEG        0.00000                 :Hole Azimuth
U-STD_TOL_TILT.           0.01000        :Tilt Standard Deviation Tolerance
U-GUN_POS_TOL.DEG        5.00000         :Gun Position Tolerance
ROT_ANGLE_THRESHOLD.DEG        5.00000   :Rotation Stop Angle Tolerance
STOP_ROT_ANGLE.DEG        0.00000        :Rotation Stop Angle
WITN .                                   :Witness's Name
ENGI .                                   :Engineer's Name
COUN .        HARRIS                     :County or Rig Name
FN   .        WILDCAT                    :Field Name
WN   .        WPP TEST 2                 :Well Name
CN   .        SHELL INTERNATIONAL E P    :Company Name
CLAB .        County                     :County/Rig Label
SLAB .        State                      :State/Province Label
RUN  .          1                        :RUN NUMBER
PDAT .        GROUND LEVEL               :Permanent Datum
EPD  .                                   :Elevation of Permanent Datum above Mean Sea Level
LMF  .                                   :Logging Measured From (Name of Logging Elevation Reference)
APD  .                                   :Elevation of Depth Reference (LMF) above Permanent Datum
#-----------------------------------------------------------------------------
~CURVE INFORMATION
#MNEM.UNIT   API CODE                                  DESCRIPTION
#---- -----  --------                                  -----------------------
TIME .S                                                :TIME {F10.1}
FREQ_EMF_SL.HZ                                         :Electromagnetic Field Frequency {F13.4}
PH_SH_WPPCM_SL.DEG                                     :WPPCM Phase Shift {F13.4}
FREQ_EXC_REQ_SL.HZ                                     :Requested Exciter Frequency {F13.4}
RB_SL.DEG                                              :Relative Bearing {F13.4}
SDEV_SL.DEG                                            :Sonde Deviation {F13.4}
TILX_SL.DEG                                            :X-axis Tilt {F13.4}
TILY_SL.DEG                                            :Y-axis Tilt {F13.4}
ROTA_SL.DEG                                            :Motor Rotation Angle {F13.4}
MSPE_SL.RPM                                            :Motor Speed {F13.4}
#-----------------------------------------------------------------------------
# 
#     TIME    FREQ_EMF_SL  PH_SH_WPPCM_ FREQ_EXC_REQ    RB_SL       SDEV_SL      TILX_SL      TILY_SL      ROTA_SL      MSPE_SL
#                          SL           _SL
~A  
# ...
    1724.0    1516.0900       0.0000      50.8611     -44.3681       0.9929      -0.6914      -0.7046      34.6395       1.0144
    1725.0    1530.3716       0.0000      50.8611     -49.9409       1.1507      -0.8644      -0.7538      38.1656       0.0005
    1726.0    1521.1780       0.0000      50.8611     -51.0432       1.0212      -0.7890      -0.6453      38.1656       0.0005
    1727.0    1517.5682       0.0000      50.8611     -51.5002       0.8491      -0.6644      -0.5277      38.1656       0.0005
    1728.0    1525.9609       0.0000      50.8611     -47.8521       1.0769      -0.7980      -0.7229      38.1656       0.0005
    1729.0    1525.2169       0.0000      50.8611     -48.7013       1.0337      -0.7759      -0.6820      38.1656       0.0005
    1730.0    1521.9155       0.0000      50.8611     -49.5934       0.9544      -0.7267      -0.6186      38.1656       0.0005
    1731.0    1524.4762       0.0000      50.8611     -56.7942       0.9384      -0.7849      -0.5143      38.1656       0.0005
    1732.0    1523.7387       0.0000      50.8611     -52.9154       0.9900      -0.7890      -0.5961      38.1656       0.0005
    1733.0    1526.3105       0.0000      50.8611     -50.8259       1.0295      -0.7980      -0.6503      38.1656       0.0005
    1734.0    1523.7387       0.0000      50.8611     -50.2520       0.9684      -0.7447      -0.6186      38.1656       0.0005
    1735.0    1520.1068       0.0000      50.8611     -49.2823       1.0483      -0.7939      -0.6820      38.1656       0.0005
    1736.0    1520.1068       0.0000      50.8611     -50.6090       1.0272      -0.7939      -0.6503      38.1656       0.0005
    1737.0    1522.6563       0.0000      50.8611     -74.0637       0.6508      -0.5938      -0.2247      38.1656       0.0005
    1738.0    1525.9609       0.0000      50.8611     -38.9358       0.9649      -0.6209      -0.7329      38.1656       0.0005
    1739.0    1523.4003       0.0000      50.8611     -49.1908       0.9649      -0.7316      -0.6278      38.1656       0.0005
    1740.0    1521.9155       0.0000      50.8611     -52.7779       1.0755      -0.8562      -0.6503      38.1656       0.0005
    1741.0    1525.2169       0.0000      50.8611     -49.2860       0.8878      -0.6734      -0.5777      38.1656       0.0005
    1742.0    1525.5885       0.0000      50.8611     -47.6454       1.0831      -0.8003      -0.7298      38.1656       0.0005
    1743.0    1525.2169       0.0000      50.8611     -54.2100       0.9725      -0.7890      -0.5685      38.1656       0.0005
    1744.0    1524.4762       0.0000      50.8611     -56.4913       0.8530      -0.7094      -0.4592      38.1656       0.0005
    1745.0    1521.5980       0.0000      50.8611     -54.1367       1.0729      -0.8693      -0.6278      38.1656       0.0005
    1746.0    1526.7081       0.0000      50.8611     -48.3398       1.0810      -0.8070      -0.7187      38.1656       0.0005
    1747.0    1527.0480       0.0000      50.8611     -57.6797       0.9286      -0.7849      -0.4959      38.1656       0.0005
    1748.0    1527.7887       0.0000      50.8611     -50.0981       1.0500      -0.7980      -0.6770      38.1656       0.0005
    1749.0    1525.2169       0.0000      50.8611     -54.0501       1.0750      -0.8693      -0.6320      38.1656       0.0005
    1750.0    1522.6563       0.0000      50.8611     -49.0735       0.9096      -0.6865      -0.5961      38.1656       0.0005
    1751.0    1527.7887       0.0000      50.8611     -49.1693       1.0430      -0.7890      -0.6820      38.1656       0.0005
    1752.0    1527.7887       0.0000      50.8611     -51.8332       0.9649      -0.7578      -0.5961      38.1656       0.0005
    1753.0    1522.6563       0.0000      50.8611     -51.8500       0.9355      -0.7357      -0.5777      38.1656       0.0005
    1754.0    1525.5885       0.0000      50.8611     -48.7254       0.9315      -0.7000      -0.6140      38.1656       0.0005
    1755.0       0.0000       0.0000      50.8611     -51.0193       0.9470      -0.7357      -0.5961      38.1656       0.0005
