~VERSION INFORMATION
VERS.           2.0   :CWLS Log ASCII Standard - VERSION 2.0
WRAP.           NO    :One Line per depth step
PROD.  Schlumberger   :LAS Producer
PROG.  DLIS to ASCII 19C2-270                          :LAS Program name and version
CREA.        2017/09/16 17:42                          :LAS Creation date {YYYY/MM/DD hh:mm}
DLIS_CREA.  2017-Sep-15 13:45                          :DLIS Creation date and time {YYYY-MMM-DD hh:mm}
SOURCE.     LPC_S1-1_2B5.DLIS                          :DLIS File Name
FILE-ID.     PERFO_Perfo_WPGRT_026LTP                  :File Identification Number
#--------------------------------------------------
~WELL INFORMATION
#MNEM.UNIT      DATA             DESCRIPTION
#---- ------ --------------   -----------------------------
STRT .S        10666.0       :START TIME      
STOP .S        11234.0       :STOP TIME      
STEP .S            1.0       :STEP     
NULL .          -999.25      :NULL VALUE
COMP .        SHELL INTERNATIONAL E P                  :COMPANY
WELL .        WPP TEST 2                               :WELL
FLD  .        WILDCAT                                  :FIELD
LOC  .                                                 :LOCATION
CNTY .        HARRIS                                   :COUNTY
STAT .        TEXAS                                    :STATE
CTRY .                                                 :COUNTRY
API  .                                                 :API NUMBER
UWI  .                                                 :UNIQUE WELL ID
DATE .                                                 :LOG DATE
SRVC .        Schlumberger                             :SERVICE COMPANY
LATI .DEG                                              :LATITUDE
LONG .DEG                                              :LONGITUDE
GDAT .                                                 :GeoDetic Datum
#-----------------------------------------------------------------------------
~PARAMETER INFORMATION
#MNEM.UNIT    VALUE                      DESCRIPTION
#---- -----   --------------------       ------------------------
U-PHASE_B_COMP_PER_YT.                 0 :Phase B Comparator Period Yt
U-PHASE_A_COMP_PER_XT.                 0 :Phase A Comparator Period Xt
U-MAX_EXC_CUR_LIMIT.MA       240.00000   :Requested CM Current Limit
U-REQ_EXC_FQ.HZ              50          :Requested CM Frequency
U-TILT_Y_OFFSET.           0.19916       :WPTET Tilt Y Offset
U-TILT_Y_GAIN.           1.01796         :WPTET Tilt Y Gain
U-TILT_X_OFFSET.          -1.77103       :WPTET Tilt X Offset
U-TILT_X_GAIN.           1.00000         :WPTET Tilt X Gain
U-TILT_OFFSET_TOL.           0.00100     :WPTET Tilt Offset Calibration Tolerance
U-NO_TILT_CAL_ROTATIONS.                 3 :Number of Rotations for Tilt Calibration
HAZI .DEG        0.00000                 :Hole Azimuth
U-STD_TOL_TILT.           0.01000        :Tilt Standard Deviation Tolerance
U-GUN_POS_TOL.DEG        5.00000         :Gun Position Tolerance
ROT_ANGLE_THRESHOLD.DEG        5.00000   :Rotation Stop Angle Tolerance
STOP_ROT_ANGLE.DEG       80.00000        :Rotation Stop Angle
WITN .                                   :Witness's Name
ENGI .                                   :Engineer's Name
COUN .        HARRIS                     :County or Rig Name
FN   .        WILDCAT                    :Field Name
WN   .        WPP TEST 2                 :Well Name
CN   .        SHELL INTERNATIONAL E P    :Company Name
CLAB .        County                     :County/Rig Label
SLAB .        State                      :State/Province Label
RUN  .          1                        :RUN NUMBER
PDAT .        GROUND LEVEL               :Permanent Datum
EPD  .                                   :Elevation of Permanent Datum above Mean Sea Level
LMF  .                                   :Logging Measured From (Name of Logging Elevation Reference)
APD  .                                   :Elevation of Depth Reference (LMF) above Permanent Datum
#-----------------------------------------------------------------------------
~CURVE INFORMATION
#MNEM.UNIT   API CODE                                  DESCRIPTION
#---- -----  --------                                  -----------------------
TIME .S                                                :TIME {F10.1}
FREQ_EMF_SL.HZ                                         :Electromagnetic Field Frequency {F13.4}
PH_SH_WPPCM_SL.DEG                                     :WPPCM Phase Shift {F13.4}
FREQ_EXC_REQ_SL.HZ                                     :Requested Exciter Frequency {F13.4}
RB_SL.DEG                                              :Relative Bearing {F13.4}
SDEV_SL.DEG                                            :Sonde Deviation {F13.4}
TILX_SL.DEG                                            :X-axis Tilt {F13.4}
TILY_SL.DEG                                            :Y-axis Tilt {F13.4}
ROTA_SL.DEG                                            :Motor Rotation Angle {F13.4}
MSPE_SL.RPM                                            :Motor Speed {F13.4}
#-----------------------------------------------------------------------------
# 
#     TIME    FREQ_EMF_SL  PH_SH_WPPCM_ FREQ_EXC_REQ    RB_SL       SDEV_SL      TILX_SL      TILY_SL      ROTA_SL      MSPE_SL
#                          SL           _SL
~A  
# ...
   10855.0    1450.0867       0.0000      50.8611    -157.7912       3.7197      -1.4049       3.4434      62.0732       0.0005
   10856.0    1447.4468       0.0000      50.8611    -158.3482       3.6171      -1.3338       3.3616      62.0732       0.0005
   10857.0    1452.3932       0.0000      50.8611    -159.0395       3.6188      -1.2936       3.3790      62.0732       0.0005
   10858.0    1460.4119       0.0000      50.8611    -159.2742       3.7729      -1.3338       3.5285      62.0732       0.0005
   10859.0    1449.3992       0.0000      50.8611    -159.1562       3.8247      -1.3601       3.5741      62.0732       0.0005
   10860.0    1444.1302       0.0000      50.8611    -158.3436       3.7968      -1.4003       3.5285      62.0732       0.0005
   10861.0    1447.7927       0.0000      50.8611    -158.1954       3.6888      -1.3694       3.4246      62.0732       0.0005
   10862.0    1452.3932       0.0000      50.8611    -156.8233       3.7414      -1.4714       3.4387      62.0732       0.0005
   10863.0    1447.1023       0.0000      50.8611    -157.8563       3.7181      -1.4003       3.4434      62.0732       0.0005
   10864.0    1447.1023       0.0000      50.8611    -156.7047       3.7343      -1.4760       3.4293      62.0732       0.0005
   10865.0    1455.3995       0.0000      50.8611    -159.4926       3.6953      -1.2936       3.4608      62.0732       0.0005
   10866.0    1450.0867       0.0000      50.8611    -159.9424       3.7616      -1.2890       3.5332      62.0732       0.0005
   10867.0    1447.4468       0.0000      50.8611    -159.2631       3.7834      -1.3384       3.5379      62.0732       0.0005
   10868.0    1452.0502       0.0000      50.8611    -159.3695       3.7756      -1.3292       3.5332      62.0732       0.0005
   10869.0    1449.7422       0.0000      50.8611    -158.7500       3.6697      -1.3292       3.4199      62.0732       0.0005
   10870.0    1446.7593       0.0000      50.8611    -158.8950       3.7926      -1.3647       3.5379      62.0732       0.0005
   10871.0    1447.7927       0.0000      50.8611    -158.9466       3.6901      -1.3246       3.4434      62.0732       0.0005
   10872.0    1449.7422       0.0000      50.8611    -156.3796       3.7983      -1.5208       3.4796      62.0732       0.0005
   10873.0    1452.0502       0.0000      50.8611    -157.8723       3.7076      -1.3957       3.4340      62.0732       0.0005
   10874.0    1447.4468       0.0000      50.8611    -157.3267       3.7511      -1.4451       3.4608      62.0732       0.0005
   10875.0    1452.7377       0.0000      50.8611    -158.4746       3.8188      -1.4003       3.5520      62.0732       0.0005
   10876.0    1452.0502       0.0000      50.8611    -157.9736       3.6657      -1.3740       3.3978      62.0732       0.0005
   10877.0    1449.3992       0.0000      50.8611    -157.8286       3.7375      -1.4095       3.4608      62.0732       0.0005
   10878.0    1450.0867       0.0000      50.8611    -159.9209       3.7436      -1.2844       3.5158      62.0732       0.0005
   10879.0    1447.7927       0.0000      50.8611    -160.2516       3.7259      -1.2581       3.5064      62.0732       0.0005
   10880.0    1452.0502       0.0000      50.8611    -157.3663       3.7214      -1.4312       3.4340      62.0732       0.0005
   10881.0    1454.7120       0.0000      50.8611    -157.0838       3.7133      -1.4451       3.4199      62.0732       0.0005
   10882.0    1447.1023       0.0000      50.8611    -157.8312       3.7137      -1.4003       3.4387      62.0732       0.0005
   10883.0    1444.4732       0.0000      50.8611    -158.6558       3.7263      -1.3555       3.4702      62.0732       0.0005
   10884.0    1450.0867       0.0000      50.8611    -157.1675       3.7264      -1.4451       3.4340      62.0732       0.0005
   10885.0    1454.7120       0.0000      50.8611    -157.2205       3.7351      -1.4451       3.4434      62.0732       0.0005
   10886.0    1444.8177       0.0000      50.8611    -158.9264       3.7244      -1.3384       3.4749      62.0732       0.0005
   10887.0    1450.0867       0.0000      50.8611    -159.0546       3.6336      -1.2983       3.3931      62.0732       0.0005
   10888.0    1458.4182       0.0000      50.8611    -161.4716       3.7083      -1.1778       3.5158      62.0732       0.0005
   10889.0    1449.7422       0.0000      50.8611    -159.2958       3.7488      -1.3246       3.5064      62.0732       0.0005
   10890.0    1449.7422       0.0000      50.8611    -158.2218       3.7763      -1.4003       3.5064      62.0732       0.0005
   10891.0    1454.7120       0.0000      50.8611    -159.6721       3.7397      -1.2983       3.5064      62.0732       0.0005
   10892.0    1449.7422       0.0000      50.8611    -159.0467       3.7062      -1.3246       3.4608      62.0732       0.0005
   10893.0    1450.0867       0.0000      50.8611    -157.8954       3.7357      -1.4049       3.4608      62.0732       0.0005
   10894.0    1452.3932       0.0000      50.8611    -157.2889       3.7572      -1.4497       3.4655      62.0732       0.0005
   10895.0    1457.7278       0.0000      50.8611    -157.9105       3.7505      -1.4095       3.4749      62.0732       0.0005
   10896.0    1449.7422       0.0000      50.8611    -158.8996       3.7200      -1.3384       3.4702      62.0732       0.0005
   10897.0    1450.0867       0.0000      50.8611    -158.8040       3.6785      -1.3292       3.4293      62.0732       0.0005
   10898.0    1449.7422       0.0000      50.8611    -159.1889       3.7565      -1.3338       3.5111      62.0732       0.0005
   10899.0    1451.7085       0.0000      50.8611    -158.1076       3.7456      -1.3957       3.4749      62.0732       0.0005
   10900.0    1446.7593       0.0000      50.8611    -159.3294       3.7816      -1.3338       3.5379      62.0732       0.0005
   10901.0    1450.4326       0.0000      50.8611    -159.5339       3.6892      -1.2890       3.4561      62.0732       0.0005
   10902.0    1452.7377       0.0000      50.8611    -158.6708       3.6819      -1.3384       3.4293      62.0732       0.0005
   10903.0    1447.1023       0.0000      50.8611    -157.9896       3.7384      -1.4003       3.4655      62.0732       0.0005
   10904.0    1444.4732       0.0000      50.8611    -158.3744       3.6215      -1.3338       3.3663      62.0732       0.0005
   10905.0    1447.4468       0.0000      50.8611    -159.0728       3.7106      -1.3246       3.4655      62.0732       0.0005
   10906.0    1452.7377       0.0000      50.8611    -158.5101       3.7147      -1.3601       3.4561      62.0732       0.0005
   10907.0    1451.7085       0.0000      50.8611    -157.5146       3.8737      -1.4806       3.5788      62.0732       0.0005
   10908.0    1449.0575       0.0000      50.8611    -159.4375       3.7739      -1.3246       3.5332      62.0732       0.0005
   10909.0    1449.7422       0.0000      50.8611    -159.3898       3.6641      -1.2890       3.4293      62.0732       0.0005
   10910.0    1452.0502       0.0000      50.8611    -159.4827       3.6669      -1.2844       3.4340      62.0732       0.0005
   10911.0    1452.0502       0.0000      50.8611    -156.9326       3.6696      -1.4358       3.3757      62.0732       0.0005
   10912.0    1452.3932       0.0000      50.8611    -158.0003       3.6701      -1.3740       3.4025      62.0732       0.0005
   10913.0    1449.7422       0.0000      50.8611    -158.9834       3.5965      -1.2890       3.3569      62.0732       0.0005
   10914.0    1445.1636       0.0000      50.8611    -159.8241       3.7297      -1.2856       3.5005      62.0732       0.0005
   10915.0    1450.4326       0.0000      50.8611    -158.3624       3.7286      -1.3740       3.4655      62.0732       0.0005
   10916.0    1452.3932       0.0000      50.8611    -158.5629       3.7235      -1.3601       3.4655      62.0732       0.0005
   10917.0    1452.7377       0.0000      50.8611    -157.2851       3.7334      -1.4405       3.4434      62.0732       0.0005
