~VERSION INFORMATION
VERS.           2.0   :CWLS Log ASCII Standard - VERSION 2.0
WRAP.           NO    :One Line per depth step
PROD.  Schlumberger   :LAS Producer
PROG.  DLIS to ASCII 19C2-270                          :LAS Program name and version
CREA.        2017/09/16 17:42                          :LAS Creation date {YYYY/MM/DD hh:mm}
DLIS_CREA.  2017-Sep-15 14:28                          :DLIS Creation date and time {YYYY-MMM-DD hh:mm}
SOURCE.     LPC_S2-1_A5.DLIS                           :DLIS File Name
FILE-ID.     PERFO_Perfo_WPGRT_029LTP                  :File Identification Number
#--------------------------------------------------
~WELL INFORMATION
#MNEM.UNIT      DATA             DESCRIPTION
#---- ------ --------------   -----------------------------
STRT .S        13288.0       :START TIME      
STOP .S        13773.0       :STOP TIME      
STEP .S            1.0       :STEP     
NULL .          -999.25      :NULL VALUE
COMP .        SHELL INTERNATIONAL E P                  :COMPANY
WELL .        WPP TEST 2                               :WELL
FLD  .        WILDCAT                                  :FIELD
LOC  .                                                 :LOCATION
CNTY .        HARRIS                                   :COUNTY
STAT .        TEXAS                                    :STATE
CTRY .                                                 :COUNTRY
API  .                                                 :API NUMBER
UWI  .                                                 :UNIQUE WELL ID
DATE .                                                 :LOG DATE
SRVC .        Schlumberger                             :SERVICE COMPANY
LATI .DEG                                              :LATITUDE
LONG .DEG                                              :LONGITUDE
GDAT .                                                 :GeoDetic Datum
#-----------------------------------------------------------------------------
~PARAMETER INFORMATION
#MNEM.UNIT    VALUE                      DESCRIPTION
#---- -----   --------------------       ------------------------
U-PHASE_B_COMP_PER_YT.                 0 :Phase B Comparator Period Yt
U-PHASE_A_COMP_PER_XT.                 0 :Phase A Comparator Period Xt
U-MAX_EXC_CUR_LIMIT.MA       240.00000   :Requested CM Current Limit
U-REQ_EXC_FQ.HZ              50          :Requested CM Frequency
U-TILT_Y_OFFSET.           0.19916       :WPTET Tilt Y Offset
U-TILT_Y_GAIN.           1.01796         :WPTET Tilt Y Gain
U-TILT_X_OFFSET.          -1.77103       :WPTET Tilt X Offset
U-TILT_X_GAIN.           1.00000         :WPTET Tilt X Gain
U-TILT_OFFSET_TOL.           0.00100     :WPTET Tilt Offset Calibration Tolerance
U-NO_TILT_CAL_ROTATIONS.                 3 :Number of Rotations for Tilt Calibration
HAZI .DEG        0.00000                 :Hole Azimuth
U-STD_TOL_TILT.           0.01000        :Tilt Standard Deviation Tolerance
U-GUN_POS_TOL.DEG        5.00000         :Gun Position Tolerance
ROT_ANGLE_THRESHOLD.DEG        5.00000   :Rotation Stop Angle Tolerance
STOP_ROT_ANGLE.DEG       80.00000        :Rotation Stop Angle
WITN .                                   :Witness's Name
ENGI .                                   :Engineer's Name
COUN .        HARRIS                     :County or Rig Name
FN   .        WILDCAT                    :Field Name
WN   .        WPP TEST 2                 :Well Name
CN   .        SHELL INTERNATIONAL E P    :Company Name
CLAB .        County                     :County/Rig Label
SLAB .        State                      :State/Province Label
RUN  .          1                        :RUN NUMBER
PDAT .        GROUND LEVEL               :Permanent Datum
EPD  .                                   :Elevation of Permanent Datum above Mean Sea Level
LMF  .                                   :Logging Measured From (Name of Logging Elevation Reference)
APD  .                                   :Elevation of Depth Reference (LMF) above Permanent Datum
#-----------------------------------------------------------------------------
~CURVE INFORMATION
#MNEM.UNIT   API CODE                                  DESCRIPTION
#---- -----  --------                                  -----------------------
TIME .S                                                :TIME {F10.1}
FREQ_EMF_SL.HZ                                         :Electromagnetic Field Frequency {F13.4}
PH_SH_WPPCM_SL.DEG                                     :WPPCM Phase Shift {F13.4}
FREQ_EXC_REQ_SL.HZ                                     :Requested Exciter Frequency {F13.4}
RB_SL.DEG                                              :Relative Bearing {F13.4}
SDEV_SL.DEG                                            :Sonde Deviation {F13.4}
TILX_SL.DEG                                            :X-axis Tilt {F13.4}
TILY_SL.DEG                                            :Y-axis Tilt {F13.4}
ROTA_SL.DEG                                            :Motor Rotation Angle {F13.4}
MSPE_SL.RPM                                            :Motor Speed {F13.4}
#-----------------------------------------------------------------------------
# 
#     TIME    FREQ_EMF_SL  PH_SH_WPPCM_ FREQ_EXC_REQ    RB_SL       SDEV_SL      TILX_SL      TILY_SL      ROTA_SL      MSPE_SL
#                          SL           _SL
~A  
# ...
   13351.0    1597.7944       0.0000      50.8611    -157.4319       3.6751      -1.4095       3.3933     104.4497       1.0226
   13352.0    1586.9756       0.0000      50.8611    -153.3531       3.7906      -1.6991       3.3872     110.5617       1.0226
   13353.0    1562.2926       0.0000      50.8611    -144.0369       4.1220      -2.4185       3.3353     116.6794       1.0226
   13354.0    1534.9077       0.0000      50.8611    -137.4626       3.9914      -2.6973       2.9399     122.7783       1.0226
   13355.0    1499.0095       0.0000      50.8611    -135.3498       4.0735      -2.8616       2.8965     128.8832       1.0226
   13356.0    1486.0556       0.0000      50.8611    -129.2450       4.2577      -3.2962       2.6921     135.4062       1.0226
   13357.0    1449.6527       0.0000      50.8611    -122.2794       4.2827      -3.6199       2.2857     141.4933       1.0127
   13358.0    1414.8240       0.0000      50.8611    -117.0888       4.2964      -3.8243       1.9549     147.6050       1.0226
   13359.0    1397.6142       0.0000      50.8611    -112.0718       4.3454      -4.0264       1.6315     153.7098       1.0226
   13360.0    1365.1328       0.0000      50.8611    -108.4523       4.6187      -4.3807       1.4606     159.8023       1.0124
   13361.0    1334.3555       0.0000      50.8611    -101.8285       4.7607      -4.6594       0.9748     165.9013       1.0226
   13362.0    1314.1055       0.0000      50.8611     -95.4210       4.6840      -4.6630       0.4420     171.9877       1.0124
   13363.0    1280.7377       0.0000      50.8611     -89.4756       4.7862      -4.7859      -0.0437     178.0803       1.0226
   13364.0    1244.0122       0.0000      50.8611     -85.6359       4.8793      -4.8651      -0.3708     184.1732       1.0226
   13365.0    1165.7571       0.0000      50.8611     -82.2246       4.9079      -4.8627      -0.6632     190.2719       1.0226
   13366.0    1100.0451       0.0000      50.8611     -74.7802       4.9958      -4.8201      -1.3100     196.3768       1.0226
   13367.0    1044.4854       0.0000      50.8611     -70.8632       4.9004      -4.6289      -1.6048     202.4826       1.0226
   13368.0    1018.9334       0.0000      50.8611     -66.2819       5.0026      -4.5791      -2.0100     208.9998       1.0226
   13369.0     990.3588       0.0000      50.8611     -74.3619       5.3818      -5.1816      -1.4486     215.0988       1.0226
   13370.0     979.2419       0.0000      50.8611     -56.5756       4.9151      -4.1007      -2.7051     221.2040       1.0330
   13371.0     973.7766       0.0000      50.8611     -51.4221       4.9397      -3.8597      -3.0780     227.3218       1.0226
   13372.0     965.7516       0.0000      50.8611     -45.4595       4.9674      -3.5384      -3.4820     233.4084       1.0226
   13373.0     961.8279       0.0000      50.8611     -41.2859       5.0622      -3.3375      -3.8017     239.5074       1.0226
   13374.0     954.8211       0.0000      50.8611     -38.0238       4.9320      -3.0357      -3.8834     245.5999       1.0226
   13375.0     952.8997       0.0000      50.8611     -33.5954       4.7291      -2.6145      -3.9379     251.7053       1.0226
   13376.0     960.4357       0.0000      50.8611     -25.9370       4.8721      -2.1289      -4.3803     257.8171       1.0127
   13377.0     968.3722       0.0000      50.8611     -23.7205       4.7922      -1.9257      -4.3864     263.9230       1.0229
   13378.0     968.6932       0.0000      50.8611     -17.8412       4.8560      -1.4862      -4.6219     270.0407       1.0226
   13379.0     982.2671       0.0000      50.8611     -12.4922       4.6530      -1.0054      -4.5426     276.1401       1.0232
   13380.0     991.8401       0.0000      50.8611      -4.7486       4.4438      -0.3676      -4.4285     282.6581       1.0226
   13381.0    1016.0765       0.0000      50.8611      -1.0431       4.4232      -0.0804      -4.4224     288.7626       1.0226
   13382.0    1046.4107       0.0000      50.8611       3.6414       4.4302       0.2811      -4.4212     294.8802       1.0226
   13383.0    1087.4675       0.0000      50.8611       8.6202       4.2588       0.6378      -4.2106     300.9667       1.0226
   13384.0    1166.8156       0.0000      50.8611      13.6479       4.2541       1.0029      -4.1337     307.0655       1.0226
   13385.0    1231.5874       0.0000      50.8611      19.2045       4.1588       1.3668      -3.9268     313.1701       1.0226
   13386.0    1268.7613       0.0000      50.8611      26.5073       4.0607       1.8111      -3.6332     319.2624       1.0226
   13387.0    1295.1778       0.0000      50.8611      31.6162       3.9910       2.0910      -3.3978     325.3742       1.0226
   13388.0    1324.2275       0.0000      50.8611      37.0178       3.7399       2.2505      -2.9852     331.4793       1.0229
   13389.0    1357.7011       0.0000      50.8611      43.9760       3.6949       2.5646      -2.6581     337.5966       1.0226
   13390.0    1381.7961       0.0000      50.8611      50.0087       3.5087       2.6875      -2.2541     343.6958       1.0330
   13391.0    1409.3239       0.0000      50.8611      58.1288       3.4963       2.9686      -1.8452     349.7947       1.0226
   13392.0    1438.0606       0.0000      50.8611      61.7737       3.3713       2.9698      -1.5938     355.9114       1.0226
   13393.0    1468.1794       0.0000      50.8611      70.9017       3.1417       2.9686      -1.0275       2.3841       1.0226
   13394.0    1499.4900       0.0000      50.8611      77.7256       3.0806       3.0100      -0.6546       8.4831       1.0226
   13395.0    1532.0639       0.0000      50.8611      84.7389       3.1390       3.1257      -0.2878      14.5820       1.0226
   13396.0    1555.8980       0.0000      50.8611      93.1466       2.9305       2.9261       0.1607      20.6867       1.0226
   13397.0    1583.7221       0.0000      50.8611      99.5357       3.1708       3.1269       0.5250      26.7916       1.0226
   13398.0    1602.0099       0.0000      50.8611     112.2002       2.9058       2.6902       1.0975      32.8903       1.0226
   13399.0    1631.3805       0.0000      50.8611     119.8380       2.8739       2.4927       1.4295      39.0083       1.0226
   13400.0    1646.6628       0.0000      50.8611     127.0016       2.9175       2.3296       1.7554      45.1129       1.0226
   13401.0    1654.5288       0.0000      50.8611     134.4348       2.9752       2.1239       2.0825      51.2117       1.0226
   13402.0    1662.4709       0.0000      50.8611     143.6944       3.0458       1.8026       2.4541      57.3106       1.0226
   13403.0    1670.0120       0.0000      50.8611     150.0977       3.2047       1.5969       2.7776      63.4285       1.0226
   13404.0    1678.1025       0.0000      50.8611     159.1413       3.1463       1.1198       2.9399      69.5584       1.0226
   13405.0    1678.2230       0.0000      50.8611     164.3226       3.1012       0.8374       2.9857      76.0377       1.0226
   13406.0    1670.0120       0.0000      50.8611     173.1606       3.3341       0.3968       3.3103      82.1366       1.0226
   13407.0    1658.3137       0.0000      50.8611    -179.8266       3.4319      -0.0085       3.4318      88.2290       1.0226
   13408.0    1646.4325       0.0000      50.8611    -172.7588       3.5369      -0.4455       3.5086      94.3469       1.0226
   13409.0    1638.8716       0.0000      50.8611    -164.0911       3.5236      -0.9653       3.3884     100.4591       1.0226
   13410.0    1609.0370       0.0000      50.8611    -159.6059       3.7039      -1.2899       3.4714     106.5643       1.0330
   13411.0    1597.6867       0.0000      50.8611    -153.9664       3.8627      -1.6943       3.4702     112.6947       1.0226
   13412.0    1566.0847       0.0000      50.8611    -147.6228       3.9163      -2.0960       3.3066     118.7934       1.0226
   13413.0    1538.4660       0.0000      50.8611    -139.5775       3.9721      -2.5744       3.0229     124.8925       1.0226
