~VERSION INFORMATION
VERS.           2.0   :CWLS Log ASCII Standard - VERSION 2.0
WRAP.           NO    :One Line per depth step
PROD.  Schlumberger   :LAS Producer
PROG.  DLIS to ASCII 19C2-270                          :LAS Program name and version
CREA.        2017/09/16 17:42                          :LAS Creation date {YYYY/MM/DD hh:mm}
DLIS_CREA.  2017-Sep-15 12:22                          :DLIS Creation date and time {YYYY-MMM-DD hh:mm}
SOURCE.     LPC_S1-1_B5.DLIS                           :DLIS File Name
FILE-ID.     PERFO_Perfo_WPGRT_020LTP                  :File Identification Number
#--------------------------------------------------
~WELL INFORMATION
#MNEM.UNIT      DATA             DESCRIPTION
#---- ------ --------------   -----------------------------
STRT .S         5686.0       :START TIME      
STOP .S         6834.0       :STOP TIME      
STEP .S            1.0       :STEP     
NULL .          -999.25      :NULL VALUE
COMP .        SHELL INTERNATIONAL E P                  :COMPANY
WELL .        WPP TEST 2                               :WELL
FLD  .        WILDCAT                                  :FIELD
LOC  .                                                 :LOCATION
CNTY .        HARRIS                                   :COUNTY
STAT .        TEXAS                                    :STATE
CTRY .                                                 :COUNTRY
API  .                                                 :API NUMBER
UWI  .                                                 :UNIQUE WELL ID
DATE .                                                 :LOG DATE
SRVC .        Schlumberger                             :SERVICE COMPANY
LATI .DEG                                              :LATITUDE
LONG .DEG                                              :LONGITUDE
GDAT .                                                 :GeoDetic Datum
#-----------------------------------------------------------------------------
~PARAMETER INFORMATION
#MNEM.UNIT    VALUE                      DESCRIPTION
#---- -----   --------------------       ------------------------
U-PHASE_B_COMP_PER_YT.                 0 :Phase B Comparator Period Yt
U-PHASE_A_COMP_PER_XT.                 0 :Phase A Comparator Period Xt
U-MAX_EXC_CUR_LIMIT.MA       240.00000   :Requested CM Current Limit
U-REQ_EXC_FQ.HZ              50          :Requested CM Frequency
U-TILT_Y_OFFSET.           0.19916       :WPTET Tilt Y Offset
U-TILT_Y_GAIN.           1.01796         :WPTET Tilt Y Gain
U-TILT_X_OFFSET.          -1.77103       :WPTET Tilt X Offset
U-TILT_X_GAIN.           1.00000         :WPTET Tilt X Gain
U-TILT_OFFSET_TOL.           0.00100     :WPTET Tilt Offset Calibration Tolerance
U-NO_TILT_CAL_ROTATIONS.                 3 :Number of Rotations for Tilt Calibration
HAZI .DEG        0.00000                 :Hole Azimuth
U-STD_TOL_TILT.           0.01000        :Tilt Standard Deviation Tolerance
U-GUN_POS_TOL.DEG        5.00000         :Gun Position Tolerance
ROT_ANGLE_THRESHOLD.DEG        5.00000   :Rotation Stop Angle Tolerance
STOP_ROT_ANGLE.DEG       80.00000        :Rotation Stop Angle
WITN .                                   :Witness's Name
ENGI .                                   :Engineer's Name
COUN .        HARRIS                     :County or Rig Name
FN   .        WILDCAT                    :Field Name
WN   .        WPP TEST 2                 :Well Name
CN   .        SHELL INTERNATIONAL E P    :Company Name
CLAB .        County                     :County/Rig Label
SLAB .        State                      :State/Province Label
RUN  .          1                        :RUN NUMBER
PDAT .        GROUND LEVEL               :Permanent Datum
EPD  .                                   :Elevation of Permanent Datum above Mean Sea Level
LMF  .                                   :Logging Measured From (Name of Logging Elevation Reference)
APD  .                                   :Elevation of Depth Reference (LMF) above Permanent Datum
#-----------------------------------------------------------------------------
~CURVE INFORMATION
#MNEM.UNIT   API CODE                                  DESCRIPTION
#---- -----  --------                                  -----------------------
TIME .S                                                :TIME {F10.1}
FREQ_EMF_SL.HZ                                         :Electromagnetic Field Frequency {F13.4}
PH_SH_WPPCM_SL.DEG                                     :WPPCM Phase Shift {F13.4}
FREQ_EXC_REQ_SL.HZ                                     :Requested Exciter Frequency {F13.4}
RB_SL.DEG                                              :Relative Bearing {F13.4}
SDEV_SL.DEG                                            :Sonde Deviation {F13.4}
TILX_SL.DEG                                            :X-axis Tilt {F13.4}
TILY_SL.DEG                                            :Y-axis Tilt {F13.4}
ROTA_SL.DEG                                            :Motor Rotation Angle {F13.4}
MSPE_SL.RPM                                            :Motor Speed {F13.4}
#-----------------------------------------------------------------------------
# 
#     TIME    FREQ_EMF_SL  PH_SH_WPPCM_ FREQ_EXC_REQ    RB_SL       SDEV_SL      TILX_SL      TILY_SL      ROTA_SL      MSPE_SL
#                          SL           _SL
~A  
# ...
    6190.0    1512.7010       0.0000      50.8611     133.2619       3.1498       2.2932       2.1580     194.5426       0.0005
    6191.0    1518.0244       0.0000      50.8611     132.2296       3.2899       2.4353       2.2102     194.5426       0.0005
    6192.0    1518.0244       0.0000      50.8611     132.7134       3.2316       2.3736       2.1913     194.5426       0.0005
    6193.0    1521.3087       0.0000      50.8611     130.9813       3.2464       2.4502       2.1285     194.5426       0.0005
    6194.0    1509.7563       0.0000      50.8611     132.5612       3.2577       2.3989       2.2027     194.5426       0.0005
    6195.0    1518.6285       0.0000      50.8611     130.9878       3.1837       2.4026       2.0876     194.5426       0.0005
    6196.0    1515.3556       0.0000      50.8611     132.5612       3.2577       2.3989       2.2027     194.5426       0.0005
    6197.0    1515.3556       0.0000      50.8611     131.7193       3.3225       2.4792       2.2102     194.5426       0.0005
    6198.0    1512.7010       0.0000      50.8611     131.5233       3.3122       2.4792       2.1951     194.5426       0.0005
    6199.0    1515.6583       0.0000      50.8611     132.7644       3.2340       2.3736       2.1951     194.5426       0.0005
    6200.0    1518.3258       0.0000      50.8611     131.1664       3.3475       2.5194       2.2027     194.5426       0.0005
    6201.0    1512.3982       0.0000      50.8611     132.1278       3.2406       2.4026       2.1731     194.5426       0.0005
    6202.0    1515.9624       0.0000      50.8611     133.3408       3.2645       2.3736       2.2398     194.5426       0.0005
    6203.0    1518.3258       0.0000      50.8611     132.9075       3.2363       2.3699       2.2027     194.5426       0.0005
    6204.0    1515.3556       0.0000      50.8611     132.5152       3.2110       2.3661       2.1693     194.5426       0.0005
    6205.0    1518.6285       0.0000      50.8611     131.9997       3.2929       2.4465       2.2027     194.5426       0.0005
    6206.0    1515.3556       0.0000      50.8611     132.4697       3.3125       2.4428       2.2360     194.5426       0.0005
    6207.0    1515.0542       0.0000      50.8611     131.9375       3.2356       2.4063       2.1618     194.5426       0.0005
    6208.0    1518.0244       0.0000      50.8611     132.8985       3.2858       2.4063       2.2360     194.5426       0.0005
    6209.0    1515.3556       0.0000      50.8611     133.7795       3.2328       2.3334       2.2360     194.5426       0.0005
    6210.0    1515.3556       0.0000      50.8611     131.5546       3.2601       2.4390       2.1618     194.5426       0.0005
    6211.0    1514.7540       0.0000      50.8611     131.9869       3.2381       2.4063       2.1656     194.5426       0.0005
    6212.0    1515.6583       0.0000      50.8611     132.8638       3.2390       2.3736       2.2027     194.5426       0.0005
    6213.0    1518.3258       0.0000      50.8611     132.4707       3.2137       2.3699       2.1693     194.5426       0.0005
    6214.0    1521.0073       0.0000      50.8611     132.9528       3.2936       2.4100       2.2436     194.5426       0.0005
    6215.0    1518.3258       0.0000      50.8611     132.4697       3.3125       2.4428       2.2360     194.5426       0.0005
    6216.0    1515.6583       0.0000      50.8611     131.4981       3.2522       2.4353       2.1542     194.5426       0.0005
    6217.0    1515.6583       0.0000      50.8611     132.4222       3.2111       2.3699       2.1656     194.5426       0.0005
    6218.0    1521.0073       0.0000      50.8611     132.5141       3.3098       2.4390       2.2360     194.5426       0.0005
    6219.0    1515.0542       0.0000      50.8611     132.9820       3.3350       2.4390       2.2731     194.5426       0.0005
    6220.0    1518.3258       0.0000      50.8611     132.5579       3.2030       2.3587       2.1656     194.5426       0.0005
    6221.0    1515.9624       0.0000      50.8611     133.2488       3.2647       2.3773       2.2360     194.5426       0.0005
    6222.0    1521.6115       0.0000      50.8611     132.5200       3.2657       2.4063       2.2065     194.5426       0.0005
    6223.0    1518.3258       0.0000      50.8611     131.6674       3.3146       2.4755       2.2027     194.5426       0.0005
    6224.0    1513.0050       0.0000      50.8611     132.0331       3.2795       2.4353       2.1951     194.5426       0.0005
    6225.0    1518.9326       0.0000      50.8611     131.9375       3.2356       2.4063       2.1618     194.5426       0.0005
    6226.0    1515.6583       0.0000      50.8611     132.8985       3.2858       2.4063       2.2360     194.5426       0.0005
    6227.0    1518.3258       0.0000      50.8611     132.8704       3.1896       2.3371       2.1693     194.5426       0.0005
    6228.0    1518.6285       0.0000      50.8611     133.3845       3.2617       2.3699       2.2398     194.5426       0.0005
    6229.0    1518.9326       0.0000      50.8611     132.4612       3.2525       2.3989       2.1951     194.5426       0.0005
    6230.0    1515.3556       0.0000      50.8611     131.4667       3.2656       2.4465       2.1618     194.5426       0.0005
    6231.0    1512.3982       0.0000      50.8611     132.7644       3.2340       2.3736       2.1951     194.5426       0.0005
    6232.0    1515.3556       0.0000      50.8611     133.4212       3.3190       2.4100       2.2807     194.5426       0.0005
    6233.0    1518.6285       0.0000      50.8611     132.0313       3.2354       2.4026       2.1656     194.5426       0.0005
    6234.0    1515.3556       0.0000      50.8611     132.8483       3.2832       2.4063       2.2322     194.5426       0.0005
    6235.0    1512.7010       0.0000      50.8611     132.8638       3.2390       2.3736       2.2027     194.5426       0.0005
    6236.0    1524.6075       0.0000      50.8611     132.8985       3.2858       2.4063       2.2360     194.5426       0.0005
    6237.0    1521.3087       0.0000      50.8611     133.3563       3.2150       2.3371       2.2065     194.5426       0.0005
    6238.0    1512.7010       0.0000      50.8611     131.9940       3.2876       2.4428       2.1989     194.5426       0.0005
    6239.0    1515.6583       0.0000      50.8611     132.4763       3.2684       2.4100       2.2065     194.5426       0.0005
    6240.0    1521.3087       0.0000      50.8611     132.9429       3.2830       2.4026       2.2360     194.5426       0.0005
    6241.0    1518.0244       0.0000      50.8611     131.0908       3.2903       2.4792       2.1618     194.5426       0.0005
    6242.0    1515.3556       0.0000      50.8611     132.9820       3.3350       2.4390       2.2731     194.5426       0.0005
    6243.0    1515.9624       0.0000      50.8611     131.6527       3.2652       2.4390       2.1693     194.5426       0.0005
    6244.0    1521.3087       0.0000      50.8611     132.1027       3.3474       2.4829       2.2436     194.5426       0.0005
    6245.0    1520.7071       0.0000      50.8611     132.9965       3.2909       2.4063       2.2436     194.5426       0.0005
    6246.0    1515.0542       0.0000      50.8611     133.8337       3.2407       2.3371       2.2436     194.5426       0.0005
    6247.0    1518.6285       0.0000      50.8611     132.8161       3.1817       2.3334       2.1618     194.5426       0.0005
    6248.0    1518.3258       0.0000      50.8611     132.8655       3.1843       2.3334       2.1656     194.5426       0.0005
    6249.0    1518.0244       0.0000      50.8611     132.2757       3.2873       2.4316       2.2102     194.5426       0.0005
    6250.0    1515.6583       0.0000      50.8611     132.5159       3.2604       2.4026       2.2027     194.5426       0.0005
    6251.0    1517.7242       0.0000      50.8611     132.0482       3.2954       2.4465       2.2065     194.5426       0.0005
    6252.0    1515.3556       0.0000      50.8611     131.4504       3.2162       2.4100       2.1285     194.5426       0.0005
