~VERSION INFORMATION
VERS.           2.0   :CWLS Log ASCII Standard - VERSION 2.0
WRAP.           NO    :One Line per depth step
PROD.  Schlumberger   :LAS Producer
PROG.  DLIS to ASCII 19C2-270                          :LAS Program name and version
CREA.        2017/09/16 17:42                          :LAS Creation date {YYYY/MM/DD hh:mm}
DLIS_CREA.  2017-Sep-15 19:35                          :DLIS Creation date and time {YYYY-MMM-DD hh:mm}
SOURCE.     LPC_S5-1_2AV.DLIS                          :DLIS File Name
FILE-ID.     PERFO_Perfo_WPGRT_062LTP                  :File Identification Number
#--------------------------------------------------
~WELL INFORMATION
#MNEM.UNIT      DATA             DESCRIPTION
#---- ------ --------------   -----------------------------
STRT .S          757.0       :START TIME      
STOP .S         1169.0       :STOP TIME      
STEP .S            1.0       :STEP     
NULL .          -999.25      :NULL VALUE
COMP .        SHELL INTERNATIONAL E P                  :COMPANY
WELL .        WPP TEST 2                               :WELL
FLD  .        WILDCAT                                  :FIELD
LOC  .        NA                                       :LOCATION
CNTY .        HARRIS                                   :COUNTY
STAT .        TEXAS                                    :STATE
CTRY .                                                 :COUNTRY
API  .        NA                                       :API NUMBER
UWI  .                                                 :UNIQUE WELL ID
DATE .        15-Sep-2017                              :LOG DATE {DD-MMM-YYYY}
SRVC .        Schlumberger                             :SERVICE COMPANY
LATI .DEG                                              :LATITUDE
LONG .DEG                                              :LONGITUDE
GDAT .                                                 :GeoDetic Datum
SECT .        NA                                       :Section
RANG .        NA                                       :Range
TOWN .        NA                                       :Township
#-----------------------------------------------------------------------------
~PARAMETER INFORMATION
#MNEM.UNIT    VALUE                      DESCRIPTION
#---- -----   --------------------       ------------------------
U-PHASE_B_COMP_PER_YT.                 0 :Phase B Comparator Period Yt
U-PHASE_A_COMP_PER_XT.                 0 :Phase A Comparator Period Xt
U-MAX_EXC_CUR_LIMIT.MA       240.00000   :Requested CM Current Limit
U-REQ_EXC_FQ.HZ              50          :Requested CM Frequency
U-TILT_Y_OFFSET.           0.19916       :WPTET Tilt Y Offset
U-TILT_Y_GAIN.           1.01796         :WPTET Tilt Y Gain
U-TILT_X_OFFSET.          -1.77103       :WPTET Tilt X Offset
U-TILT_X_GAIN.           1.00000         :WPTET Tilt X Gain
U-TILT_OFFSET_TOL.           0.00100     :WPTET Tilt Offset Calibration Tolerance
U-NO_TILT_CAL_ROTATIONS.                 3 :Number of Rotations for Tilt Calibration
HAZI .DEG        0.00000                 :Hole Azimuth
U-STD_TOL_TILT.           0.01000        :Tilt Standard Deviation Tolerance
U-GUN_POS_TOL.DEG        5.00000         :Gun Position Tolerance
ROT_ANGLE_THRESHOLD.DEG        5.00000   :Rotation Stop Angle Tolerance
STOP_ROT_ANGLE.DEG        0.00000        :Rotation Stop Angle
WITN .        MR. DHRUA ARORA            :Witness's Name
ENGI .        MORRIS MOORE               :Engineer's Name
COUN .        HARRIS                     :County or Rig Name
FN   .        WILDCAT                    :Field Name
WN   .        WPP TEST 2                 :Well Name
CN   .        SHELL INTERNATIONAL E P    :Company Name
CLAB .        County                     :County/Rig Label
SLAB .        State                      :State/Province Label
RUN  .          1                        :RUN NUMBER
PDAT .        GROUND LEVEL               :Permanent Datum
EPD  .                                   :Elevation of Permanent Datum above Mean Sea Level
LMF  .          NA                       :Logging Measured From (Name of Logging Elevation Reference)
APD  .                                   :Elevation of Depth Reference (LMF) above Permanent Datum
#-----------------------------------------------------------------------------
~CURVE INFORMATION
#MNEM.UNIT   API CODE                                  DESCRIPTION
#---- -----  --------                                  -----------------------
TIME .S                                                :TIME {F10.1}
FREQ_EMF_SL.HZ                                         :Electromagnetic Field Frequency {F13.4}
PH_SH_WPPCM_SL.DEG                                     :WPPCM Phase Shift {F13.4}
FREQ_EXC_REQ_SL.HZ                                     :Requested Exciter Frequency {F13.4}
RB_SL.DEG                                              :Relative Bearing {F13.4}
SDEV_SL.DEG                                            :Sonde Deviation {F13.4}
TILX_SL.DEG                                            :X-axis Tilt {F13.4}
TILY_SL.DEG                                            :Y-axis Tilt {F13.4}
ROTA_SL.DEG                                            :Motor Rotation Angle {F13.4}
MSPE_SL.RPM                                            :Motor Speed {F13.4}
#-----------------------------------------------------------------------------
# 
#     TIME    FREQ_EMF_SL  PH_SH_WPPCM_ FREQ_EXC_REQ    RB_SL       SDEV_SL      TILX_SL      TILY_SL      ROTA_SL      MSPE_SL
#                          SL           _SL
~A  
# ...
     883.0    1258.9736       0.0000      50.8611     -44.2762       1.2137      -0.8472      -0.8690     293.5280       1.0226
     884.0    1248.6166       0.0000      50.8611     -50.4733       1.1570      -0.8923      -0.7362     299.6298       1.0226
     885.0    1232.0621       0.0000      50.8611     -46.5390       1.1055      -0.8021      -0.7603     305.7316       1.0226
     886.0    1231.1266       0.0000      50.8611     -50.5126       1.1831      -0.9127      -0.7514     311.8195       1.0134
     887.0    1209.1765       0.0000      50.8611     -47.7353       1.1261      -0.8323      -0.7564     317.9104       1.0226
     888.0    1203.7270       0.0000      50.8611     -49.1678       1.2453      -0.9429      -0.8129     324.0150       1.0226
     889.0    1187.2043       0.0000      50.8611     -46.3230       1.0739      -0.7768      -0.7413     330.1071       1.0226
     890.0    1185.4619       0.0000      50.8611     -35.6518       0.9188      -0.5358      -0.7463     336.2035       1.0226
     891.0    1175.3105       0.0000      50.8611     -38.4645       0.9196      -0.5710      -0.7206     342.3584       1.0226
     892.0    1169.6853       0.0000      50.8611     -43.1955       1.0173      -0.6964      -0.7413     348.8151       1.0226
     893.0    1165.0722       0.0000      50.8611     -40.6280       0.9772      -0.6364      -0.7413     354.9301       1.0226
     894.0    1167.9817       0.0000      50.8611     -50.4275       0.9314      -0.7168      -0.5929       1.0196       1.0226
     895.0    1172.3943       0.0000      50.8611     -41.5841       1.0730      -0.7118      -0.8029       7.1214       1.0226
     896.0    1170.1659       0.0000      50.8611     -44.1496       0.7552      -0.5259      -0.5419      13.2363       1.0226
     897.0    1166.9455       0.0000      50.8611     -37.7115       0.8747      -0.5345      -0.6915      19.3259       1.0226
     898.0    1173.0906       0.0000      50.8611     -43.9193       0.8594      -0.5963      -0.6186      25.4304       1.0226
     899.0    1188.4579       0.0000      50.8611     -47.7120       0.8062      -0.5963      -0.5419      31.5322       1.0226
     900.0    1190.2195       0.0000      50.8611     -45.8965       0.7604      -0.5457      -0.5267      37.6217       1.0226
     901.0    1191.4884       0.0000      50.8611     -58.1831       0.7964      -0.6766      -0.4192      43.7243       1.0226
     902.0    1202.4321       0.0000      50.8611     -52.7576       0.7681      -0.6111      -0.4651      49.8227       1.0226
     903.0    1213.8487       0.0000      50.8611     -46.2105       0.9084      -0.6513      -0.6292      55.9892       1.0213
     904.0    1227.0942       0.0000      50.8611     -53.5362       0.7481      -0.6012      -0.4450      62.4468       1.0213
     905.0    1237.8961       0.0000      50.8611     -61.7492       0.6377      -0.5611      -0.3016      68.5363       1.0213
     906.0    1256.4151       0.0000      50.8611     -57.4762       0.7608      -0.6414      -0.4091      74.6279       1.0134
     907.0    1269.1790       0.0000      50.8611     -71.6045       0.7815      -0.7416      -0.2456      80.7429       1.0226
     908.0    1290.1376       0.0000      50.8611     -65.7947       0.8359      -0.7619      -0.3425      86.8447       1.0226
     909.0    1322.2020       0.0000      50.8611     -69.9632       0.7691      -0.7217      -0.2632      92.9368       1.0134
     910.0    1351.2061       0.0000      50.8611     -66.1054       0.7071      -0.6464      -0.2865      99.0517       1.0226
     911.0    1352.8079       0.0000      50.8611     -67.5994       0.7534      -0.6964      -0.2865     105.1412       1.0226
     912.0    1376.3115       0.0000      50.8611     -68.4916       0.7812      -0.7267      -0.2865     111.2562       1.0226
     913.0    1382.0577       0.0000      50.8611     -73.8108       0.9565      -0.9176      -0.2658     117.3580       1.0226
     914.0    1401.7313       0.0000      50.8611     -77.2586       0.9509      -0.9275      -0.2097     123.4598       1.0226
     915.0    1409.4175       0.0000      50.8611     -74.2285       0.9221      -0.8874      -0.2506     129.5879       1.0226
     916.0    1408.0034       0.0000      50.8611     -71.0272       0.8392      -0.7916      -0.2758     136.0978       1.0226
     917.0    1424.4495       0.0000      50.8611     -43.4297       0.8215      -0.5606      -0.5883     142.1847       1.0134
     918.0    1426.2170       0.0000      50.8611     -71.3648       0.9149      -0.8670      -0.2915     148.2866       1.0226
     919.0    1427.6571       0.0000      50.8611     -70.2383       1.0559      -0.9930      -0.3581     154.3885       1.0213
     920.0    1432.3872       0.0000      50.8611     -67.8689       0.8977      -0.8318      -0.3374     160.4780       1.0226
     921.0    1432.4777       0.0000      50.8611     -74.9513       1.0426      -1.0054      -0.2708     166.5803       1.0226
     922.0    1444.1553       0.0000      50.8611     -69.6378       1.1611      -1.0882      -0.4041     172.6818       1.0226
     923.0    1435.3112       0.0000      50.8611     -69.0010       1.1283      -1.0530      -0.4041     178.7822       1.0134
     924.0    1440.4661       0.0000      50.8611     -65.8021       1.1104      -1.0128      -0.4551     183.0966       0.0005
     925.0    1440.4661       0.0000      50.8611     -68.1578       1.1019      -1.0227      -0.4091     183.0966       0.0005
     926.0    1438.6123       0.0000      50.8611     -73.1916       1.1684      -1.1184      -0.3374     183.0966       0.0005
     927.0    1440.8298       0.0000      50.8611     -67.6189       1.1823      -1.0931      -0.4500     183.0966       0.0005
     928.0    1445.6637       0.0000      50.8611     -70.1087       1.0986      -1.0332      -0.3733     183.0966       0.0005
     929.0    1441.1951       0.0000      50.8611     -66.6291       1.2241      -1.1234      -0.4858     183.0966       0.0005
     930.0    1438.6123       0.0000      50.8611     -67.5201       1.0962      -1.0128      -0.4192     183.0966       0.0005
     931.0    1440.8298       0.0000      50.8611     -69.8158       1.1549      -1.0832      -0.3990     183.0966       0.0005
     932.0    1445.3014       0.0000      50.8611     -67.0851       1.0507      -0.9677      -0.4091     183.0966       0.0005
     933.0    1438.6123       0.0000      50.8611     -74.9768       1.0832      -1.0431      -0.2809     183.0966       0.0005
     934.0    1438.9790       0.0000      50.8611     -70.3948       1.1125      -1.0480      -0.3733     183.0966       0.0005
     935.0    1438.2471       0.0000      50.8611     -65.2613       1.0765      -0.9776      -0.4500     183.0966       0.0005
     936.0    1440.4661       0.0000      50.8611     -69.2878       1.0831      -1.0128      -0.3834     183.0966       0.0005
     937.0    1441.1951       0.0000      50.8611     -68.3634       1.0137      -0.9424      -0.3733     183.0966       0.0005
     938.0    1433.8451       0.0000      50.8611     -65.9418       1.1038      -1.0079      -0.4500     183.0966       0.0005
     939.0    1435.3112       0.0000      50.8611     -68.6777       1.1251      -1.0480      -0.4091     183.0966       0.0005
     940.0    1445.6637       0.0000      50.8611     -66.6455       1.1749      -1.0783      -0.4651     183.0966       0.0005
     941.0    1446.0274       0.0000      50.8611     -76.9007       1.1960      -1.1636      -0.2708     183.0966       0.0005
     942.0    1443.7886       0.0000      50.8611     -62.1777       1.1508      -1.0178      -0.5368     183.0966       0.0005
     943.0    1446.3926       0.0000      50.8611     -83.3322       1.0130      -1.0029      -0.1173     183.0966       0.0005
     944.0    1440.4661       0.0000      50.8611     -72.5034       1.0315      -0.9826      -0.3117     183.0966       0.0005
     945.0    1443.4234       0.0000      50.8611     -61.5061       1.0321      -0.9072      -0.4909     183.0966       0.0005
