~VERSION INFORMATION
VERS.           2.0   :CWLS Log ASCII Standard - VERSION 2.0
WRAP.           NO    :One Line per depth step
PROD.  Schlumberger   :LAS Producer
PROG.  DLIS to ASCII 19C2-270                          :LAS Program name and version
CREA.        2017/09/16 17:42                          :LAS Creation date {YYYY/MM/DD hh:mm}
DLIS_CREA.  2017-Sep-15 16:38                          :DLIS Creation date and time {YYYY-MMM-DD hh:mm}
SOURCE.     LPC_S3-1_2A5.DLIS                          :DLIS File Name
FILE-ID.     PERFO_Perfo_WPGRT_042LTP                  :File Identification Number
#--------------------------------------------------
~WELL INFORMATION
#MNEM.UNIT      DATA             DESCRIPTION
#---- ------ --------------   -----------------------------
STRT .S         4115.0       :START TIME      
STOP .S         4682.0       :STOP TIME      
STEP .S            1.0       :STEP     
NULL .          -999.25      :NULL VALUE
COMP .        SHELL INTERNATIONAL E P                  :COMPANY
WELL .        WPP TEST 2                               :WELL
FLD  .        WILDCAT                                  :FIELD
LOC  .                                                 :LOCATION
CNTY .        HARRIS                                   :COUNTY
STAT .        TEXAS                                    :STATE
CTRY .                                                 :COUNTRY
API  .                                                 :API NUMBER
UWI  .                                                 :UNIQUE WELL ID
DATE .                                                 :LOG DATE
SRVC .        Schlumberger                             :SERVICE COMPANY
LATI .DEG                                              :LATITUDE
LONG .DEG                                              :LONGITUDE
GDAT .                                                 :GeoDetic Datum
#-----------------------------------------------------------------------------
~PARAMETER INFORMATION
#MNEM.UNIT    VALUE                      DESCRIPTION
#---- -----   --------------------       ------------------------
U-PHASE_B_COMP_PER_YT.                 0 :Phase B Comparator Period Yt
U-PHASE_A_COMP_PER_XT.                 0 :Phase A Comparator Period Xt
U-MAX_EXC_CUR_LIMIT.MA       240.00000   :Requested CM Current Limit
U-REQ_EXC_FQ.HZ              50          :Requested CM Frequency
U-TILT_Y_OFFSET.           0.19916       :WPTET Tilt Y Offset
U-TILT_Y_GAIN.           1.01796         :WPTET Tilt Y Gain
U-TILT_X_OFFSET.          -1.77103       :WPTET Tilt X Offset
U-TILT_X_GAIN.           1.00000         :WPTET Tilt X Gain
U-TILT_OFFSET_TOL.           0.00100     :WPTET Tilt Offset Calibration Tolerance
U-NO_TILT_CAL_ROTATIONS.                 3 :Number of Rotations for Tilt Calibration
HAZI .DEG        0.00000                 :Hole Azimuth
U-STD_TOL_TILT.           0.01000        :Tilt Standard Deviation Tolerance
U-GUN_POS_TOL.DEG        5.00000         :Gun Position Tolerance
ROT_ANGLE_THRESHOLD.DEG        5.00000   :Rotation Stop Angle Tolerance
STOP_ROT_ANGLE.DEG        0.00000        :Rotation Stop Angle
WITN .                                   :Witness's Name
ENGI .                                   :Engineer's Name
COUN .        HARRIS                     :County or Rig Name
FN   .        WILDCAT                    :Field Name
WN   .        WPP TEST 2                 :Well Name
CN   .        SHELL INTERNATIONAL E P    :Company Name
CLAB .        County                     :County/Rig Label
SLAB .        State                      :State/Province Label
RUN  .          1                        :RUN NUMBER
PDAT .        GROUND LEVEL               :Permanent Datum
EPD  .                                   :Elevation of Permanent Datum above Mean Sea Level
LMF  .                                   :Logging Measured From (Name of Logging Elevation Reference)
APD  .                                   :Elevation of Depth Reference (LMF) above Permanent Datum
#-----------------------------------------------------------------------------
~CURVE INFORMATION
#MNEM.UNIT   API CODE                                  DESCRIPTION
#---- -----  --------                                  -----------------------
TIME .S                                                :TIME {F10.1}
FREQ_EMF_SL.HZ                                         :Electromagnetic Field Frequency {F13.4}
PH_SH_WPPCM_SL.DEG                                     :WPPCM Phase Shift {F13.4}
FREQ_EXC_REQ_SL.HZ                                     :Requested Exciter Frequency {F13.4}
RB_SL.DEG                                              :Relative Bearing {F13.4}
SDEV_SL.DEG                                            :Sonde Deviation {F13.4}
TILX_SL.DEG                                            :X-axis Tilt {F13.4}
TILY_SL.DEG                                            :Y-axis Tilt {F13.4}
ROTA_SL.DEG                                            :Motor Rotation Angle {F13.4}
MSPE_SL.RPM                                            :Motor Speed {F13.4}
#-----------------------------------------------------------------------------
# 
#     TIME    FREQ_EMF_SL  PH_SH_WPPCM_ FREQ_EXC_REQ    RB_SL       SDEV_SL      TILX_SL      TILY_SL      ROTA_SL      MSPE_SL
#                          SL           _SL
~A  
# ...
    4556.0    1237.9616       0.0000      50.8611       4.2005       5.9104       0.4321      -5.8944     354.9285       1.0226
    4557.0    1239.8835       0.0000      50.8611      10.4801       6.1611       1.1186      -6.0579      11.8303       1.0226
    4558.0    1248.6256       0.0000      50.8611      14.0053       6.1166       1.4777      -5.9340       7.1452       1.0226
    4559.0    1260.0131       0.0000      50.8611      20.8759       5.6136       1.9974      -5.2439      13.2470       1.0226
    4560.0    1264.6818       0.0000      50.8611      26.0762       5.4729       2.4027      -4.9143      19.3488       1.0226
    4561.0    1282.9349       0.0000      50.8611      31.8250       5.6362       2.9686      -4.7867      25.8313       1.0226
    4562.0    1299.4615       0.0000      50.8611      38.1444       5.5272       3.4105      -4.3443      31.9459       1.0226
    4563.0    1309.2118       0.0000      50.8611      43.4550       5.1960       3.5711      -3.7694      38.0609       1.0226
    4564.0    1326.8774       0.0000      50.8611      50.6663       4.9831       3.8523      -3.1561      44.1626       1.0226
    4565.0    1349.4906       0.0000      50.8611      57.6175       5.1344       4.3343      -2.7472      50.2645       1.0226
    4566.0    1362.4091       0.0000      50.8611      63.3370       5.1198       4.5741      -2.2950      56.3664       1.0226
    4567.0    1362.7646       0.0000      50.8611      69.9105       4.7897       4.4977      -1.6436      62.4712       1.0226
    4568.0    1368.0275       0.0000      50.8611      79.6967       4.6482       4.5729      -0.8304      68.5729       1.0226
    4569.0    1389.3294       0.0000      50.8611      86.8591       4.6664       4.6593      -0.2555      74.6747       1.0226
    4570.0    1400.2331       0.0000      50.8611      93.3405       4.8269       4.8187       0.2809      80.7765       1.0226
    4571.0    1397.7796       0.0000      50.8611      99.8050       4.5210       4.4548       0.7691      86.8783       1.0226
    4572.0    1411.8976       0.0000      50.8611     107.8170       4.3844       4.1736       1.3403      92.9686       1.0226
    4573.0    1417.5052       0.0000      50.8611     116.4428       4.6611       4.1724       2.0739      99.4385       1.0226
    4574.0    1425.9583       0.0000      50.8611     126.5307       4.5128       3.6246       2.6835     105.5524       1.0226
    4575.0    1423.3300       0.0000      50.8611     127.6133       4.6130       3.6527       2.8135     111.6674       1.0226
    4576.0    1426.3913       0.0000      50.8611     137.6542       4.4676       3.0076       3.3005     117.7570       1.0226
    4577.0    1434.9490       0.0000      50.8611     143.0040       4.6027       2.7678       3.6746     121.8776       0.0005
    4578.0    1434.9490       0.0000      50.8611     144.1706       4.7359       2.7702       3.8382     121.8776       0.0005
    4579.0    1437.8174       0.0000      50.8611     142.9928       4.6065       2.7708       3.6771     121.8776       0.0005
    4580.0    1440.5657       0.0000      50.8611     141.4963       4.4409       2.7630       3.4739     121.8776       0.0005
    4581.0    1429.2032       0.0000      50.8611     142.2310       4.6474       2.8445       3.6722     121.8776       0.0005
    4582.0    1432.2906       0.0000      50.8611     143.2726       4.8358       2.8895       3.8742     121.8776       0.0005
    4583.0    1440.6534       0.0000      50.8611     143.0227       4.8035       2.8871       3.8357     121.8776       0.0005
    4584.0    1443.5234       0.0000      50.8611     142.8685       4.4569       2.6887       3.5520     121.8776       0.0005
    4585.0    1429.3789       0.0000      50.8611     142.4660       4.4840       2.7301       3.5544     121.8776       0.0005
    4586.0    1438.0606       0.0000      50.8611     142.5264       4.6867       2.8493       3.7180     121.8776       0.0005
    4587.0    1437.9718       0.0000      50.8611     143.9885       4.6487       2.7313       3.7589     121.8776       0.0005
    4588.0    1440.4784       0.0000      50.8611     143.5379       4.4676       2.6533       3.5916     121.8776       0.0005
    4589.0    1437.7954       0.0000      50.8611     143.2983       4.5775       2.7337       3.6685     121.8776       0.0005
    4590.0    1435.0370       0.0000      50.8611     143.8798       4.7089       2.7738       3.8022     121.8776       0.0005
    4591.0    1431.5837       0.0000      50.8611     147.6972       4.7241       2.5218       3.9907     121.8776       0.0005
    4592.0    1434.8613       0.0000      50.8611     140.2093       4.5731       2.9249       3.5123     121.8776       0.0005
    4593.0    1440.6534       0.0000      50.8611     140.2335       4.5716       2.9224       3.5123     121.8776       0.0005
    4594.0    1429.2908       0.0000      50.8611     143.6492       4.6152       2.7337       3.7155     121.8776       0.0005
    4595.0    1434.9490       0.0000      50.8611     142.5352       4.6877       2.8493       3.7192     121.8776       0.0005
    4596.0    1440.7414       0.0000      50.8611     143.1014       4.5441       2.7264       3.6325     121.8776       0.0005
    4597.0    1429.3789       0.0000      50.8611     140.4031       4.4024       2.8044       3.3909     121.8776       0.0005
    4598.0    1429.3789       0.0000      50.8611     141.4402       4.7013       2.9285       3.6746     121.8776       0.0005
    4599.0    1437.8834       0.0000      50.8611     141.9656       4.8217       2.9686       3.7961     121.8776       0.0005
    4600.0    1437.8834       0.0000      50.8611     139.1659       4.8131       3.1454       3.6374     121.8776       0.0005
    4601.0    1434.8613       0.0000      50.8611     142.2433       4.5949       2.8116       3.6313     121.8776       0.0005
    4602.0    1435.0370       0.0000      50.8611     144.3802       4.5637       2.6557       3.7082     121.8776       0.0005
    4603.0    1433.7065       0.0000      50.8611     141.5594       4.7647       2.9601       3.7303     121.8776       0.0005
    4604.0    1429.3789       0.0000      50.8611     144.5079       4.5711       2.6521       3.7204     121.8776       0.0005
    4605.0    1437.9718       0.0000      50.8611     139.5231       4.5706       2.9650       3.4751     121.8776       0.0005
    4606.0    1446.3173       0.0000      50.8611     141.0893       4.7277       2.9674       3.6771     121.8776       0.0005
    4607.0    1437.7954       0.0000      50.8611     142.3429       4.5934       2.8044       3.6350     121.8776       0.0005
    4608.0    1429.3789       0.0000      50.8611     142.0294       4.5610       2.8044       3.5941     121.8776       0.0005
    4609.0    1435.1254       0.0000      50.8611     143.7268       4.6074       2.7240       3.7131     121.8776       0.0005
    4610.0    1440.7414       0.0000      50.8611     142.7655       4.5129       2.7288       3.5916     121.8776       0.0005
    4611.0    1434.8613       0.0000      50.8611     140.1698       4.6322       2.9650       3.5557     121.8776       0.0005
    4612.0    1432.2022       0.0000      50.8611     143.3230       4.6330       2.7654       3.7143     121.8776       0.0005
    4613.0    1435.1254       0.0000      50.8611     142.8179       4.5144       2.7264       3.5953     121.8776       0.0005
    4614.0    1437.7954       0.0000      50.8611     143.9643       4.6440       2.7301       3.7540     121.8776       0.0005
    4615.0    1437.7077       0.0000      50.8611     140.8888       4.6358       2.9224       3.5953     121.8776       0.0005
    4616.0    1434.9490       0.0000      50.8611     142.4660       4.4840       2.7301       3.5544     121.8776       0.0005
    4617.0    1432.2022       0.0000      50.8611     143.5956       4.6691       2.7690       3.7564     121.8776       0.0005
    4618.0    1443.4357       0.0000      50.8611     143.9762       4.6433       2.7288       3.7540     121.8776       0.0005
