~VERSION INFORMATION
VERS.           2.0   :CWLS Log ASCII Standard - VERSION 2.0
WRAP.           NO    :One Line per depth step
PROD.  Schlumberger   :LAS Producer
PROG.  DLIS to ASCII 19C2-270                          :LAS Program name and version
CREA.        2017/09/16 17:42                          :LAS Creation date {YYYY/MM/DD hh:mm}
DLIS_CREA.  2017-Sep-15 19:08                          :DLIS Creation date and time {YYYY-MMM-DD hh:mm}
SOURCE.     LPC_S5-1_B5.DLIS                           :DLIS File Name
FILE-ID.     PERFO_Perfo_WPGRT_059LTP                  :File Identification Number
#--------------------------------------------------
~WELL INFORMATION
#MNEM.UNIT      DATA             DESCRIPTION
#---- ------ --------------   -----------------------------
STRT .S         7683.0       :START TIME      
STOP .S         8122.0       :STOP TIME      
STEP .S            1.0       :STEP     
NULL .          -999.25      :NULL VALUE
COMP .        SHELL INTERNATIONAL E P                  :COMPANY
WELL .        WPP TEST 2                               :WELL
FLD  .        WILDCAT                                  :FIELD
LOC  .        NA                                       :LOCATION
CNTY .        HARRIS                                   :COUNTY
STAT .        TEXAS                                    :STATE
CTRY .                                                 :COUNTRY
API  .        NA                                       :API NUMBER
UWI  .                                                 :UNIQUE WELL ID
DATE .        15-Sep-2017                              :LOG DATE {DD-MMM-YYYY}
SRVC .        Schlumberger                             :SERVICE COMPANY
LATI .DEG                                              :LATITUDE
LONG .DEG                                              :LONGITUDE
GDAT .                                                 :GeoDetic Datum
SECT .        NA                                       :Section
RANG .        NA                                       :Range
TOWN .        NA                                       :Township
#-----------------------------------------------------------------------------
~PARAMETER INFORMATION
#MNEM.UNIT    VALUE                      DESCRIPTION
#---- -----   --------------------       ------------------------
U-PHASE_B_COMP_PER_YT.                 0 :Phase B Comparator Period Yt
U-PHASE_A_COMP_PER_XT.                 0 :Phase A Comparator Period Xt
U-MAX_EXC_CUR_LIMIT.MA       240.00000   :Requested CM Current Limit
U-REQ_EXC_FQ.HZ              50          :Requested CM Frequency
U-TILT_Y_OFFSET.           0.19916       :WPTET Tilt Y Offset
U-TILT_Y_GAIN.           1.01796         :WPTET Tilt Y Gain
U-TILT_X_OFFSET.          -1.77103       :WPTET Tilt X Offset
U-TILT_X_GAIN.           1.00000         :WPTET Tilt X Gain
U-TILT_OFFSET_TOL.           0.00100     :WPTET Tilt Offset Calibration Tolerance
U-NO_TILT_CAL_ROTATIONS.                 3 :Number of Rotations for Tilt Calibration
HAZI .DEG        0.00000                 :Hole Azimuth
U-STD_TOL_TILT.           0.01000        :Tilt Standard Deviation Tolerance
U-GUN_POS_TOL.DEG        5.00000         :Gun Position Tolerance
ROT_ANGLE_THRESHOLD.DEG        5.00000   :Rotation Stop Angle Tolerance
STOP_ROT_ANGLE.DEG        0.00000        :Rotation Stop Angle
WITN .        MR. DHRUA ARORA            :Witness's Name
ENGI .        MORRIS MOORE               :Engineer's Name
COUN .        HARRIS                     :County or Rig Name
FN   .        WILDCAT                    :Field Name
WN   .        WPP TEST 2                 :Well Name
CN   .        SHELL INTERNATIONAL E P    :Company Name
CLAB .        County                     :County/Rig Label
SLAB .        State                      :State/Province Label
RUN  .          1                        :RUN NUMBER
PDAT .        GROUND LEVEL               :Permanent Datum
EPD  .                                   :Elevation of Permanent Datum above Mean Sea Level
LMF  .          NA                       :Logging Measured From (Name of Logging Elevation Reference)
APD  .                                   :Elevation of Depth Reference (LMF) above Permanent Datum
#-----------------------------------------------------------------------------
~CURVE INFORMATION
#MNEM.UNIT   API CODE                                  DESCRIPTION
#---- -----  --------                                  -----------------------
TIME .S                                                :TIME {F10.1}
FREQ_EMF_SL.HZ                                         :Electromagnetic Field Frequency {F13.4}
PH_SH_WPPCM_SL.DEG                                     :WPPCM Phase Shift {F13.4}
FREQ_EXC_REQ_SL.HZ                                     :Requested Exciter Frequency {F13.4}
RB_SL.DEG                                              :Relative Bearing {F13.4}
SDEV_SL.DEG                                            :Sonde Deviation {F13.4}
TILX_SL.DEG                                            :X-axis Tilt {F13.4}
TILY_SL.DEG                                            :Y-axis Tilt {F13.4}
ROTA_SL.DEG                                            :Motor Rotation Angle {F13.4}
MSPE_SL.RPM                                            :Motor Speed {F13.4}
#-----------------------------------------------------------------------------
# 
#     TIME    FREQ_EMF_SL  PH_SH_WPPCM_ FREQ_EXC_REQ    RB_SL       SDEV_SL      TILX_SL      TILY_SL      ROTA_SL      MSPE_SL
#                          SL           _SL
~A  
# ...
    7872.0    1443.7886       0.0000      50.8611    -148.4344       4.3141      -2.2568       3.6746      44.4115       0.0005
    7873.0    1443.7886       0.0000      50.8611    -149.9018       4.3431      -2.1765       3.7564      44.4115       0.0005
    7874.0    1445.4150       0.0000      50.8611    -149.5529       4.4059      -2.2310       3.7973      44.4115       0.0005
    7875.0    1445.4150       0.0000      50.8611    -150.7974       4.3001      -2.0962       3.7525      44.4115       0.0005
    7876.0    1443.5129       0.0000      50.8611    -149.0571       4.2639      -2.1909       3.6561      44.4115       0.0005
    7877.0    1443.2495       0.0000      50.8611    -148.3989       4.3373      -2.2712       3.6931      44.4115       0.0005
    7878.0    1443.7886       0.0000      50.8611    -149.5940       4.4470      -2.2492       3.8343      44.4115       0.0005
    7879.0    1442.4497       0.0000      50.8611    -150.5602       4.6497      -2.2741       4.0435      44.4115       0.0005
    7880.0    1440.8298       0.0000      50.8611    -150.8167       4.5201      -2.1985       3.9453      44.4115       0.0005
    7881.0    1440.5555       0.0000      50.8611    -148.3605       4.5813      -2.4022       3.8976      44.4115       0.0005
    7882.0    1447.0482       0.0000      50.8611    -147.1513       4.3827      -2.3735       3.6815      44.4115       0.0005
    7883.0    1444.0762       0.0000      50.8611    -148.8912       4.2932      -2.2167       3.6746      44.4115       0.0005
    7884.0    1444.0762       0.0000      50.8611    -148.0319       4.3764      -2.3152       3.7116      44.4115       0.0005
    7885.0    1443.5129       0.0000      50.8611    -149.0377       4.2692      -2.1947       3.6600      44.4115       0.0005
    7886.0    1442.1687       0.0000      50.8611    -149.4755       4.3884      -2.2272       3.7788      44.4115       0.0005
    7887.0    1445.4150       0.0000      50.8611    -150.0827       4.4766      -2.2310       3.8791      44.4115       0.0005
    7888.0    1443.7886       0.0000      50.8611    -148.7856       4.2954      -2.2243       3.6708      44.4115       0.0005
    7889.0    1443.7886       0.0000      50.8611    -147.7710       4.2753      -2.2788       3.6152      44.4115       0.0005
    7890.0    1445.4150       0.0000      50.8611    -150.1299       4.4103      -2.1947       3.8236      44.4115       0.0005
    7891.0    1445.4150       0.0000      50.8611    -149.9646       4.4180      -2.2090       3.8236      44.4115       0.0005
    7892.0    1444.0762       0.0000      50.8611    -149.3361       4.3421      -2.2129       3.7340      44.4115       0.0005
    7893.0    1442.1687       0.0000      50.8611    -139.2111       4.4370      -2.8957       3.3583      44.4115       0.0005
    7894.0    1443.7886       0.0000      50.8611    -150.7553       4.5809      -2.1783       3.9697      44.4115       0.0005
    7895.0    1442.4497       0.0000      50.8611    -149.1143       4.7193      -2.4204       4.0465      44.4115       0.0005
    7896.0    1442.4497       0.0000      50.8611    -157.4916       4.4948      -1.7203       4.1507      44.4115       0.0005
    7897.0    1445.4150       0.0000      50.8611    -152.3416       4.3471      -2.0158       3.8498      44.4115       0.0005
    7898.0    1440.8298       0.0000      50.8611    -149.8542       4.2464      -2.1296       3.6669      44.4115       0.0005
    7899.0    1443.5129       0.0000      50.8611    -147.7946       4.3629      -2.3228       3.6893      44.4115       0.0005
    7900.0    1445.4150       0.0000      50.8611    -149.0100       4.3541      -2.2416       3.7301      44.4115       0.0005
    7901.0    1445.4150       0.0000      50.8611    -148.8917       4.3367      -2.2387       3.7116      44.4115       0.0005
    7902.0    1442.1687       0.0000      50.8611    -149.8566       4.3837      -2.1985       3.7895      44.4115       0.0005
    7903.0    1443.5129       0.0000      50.8611    -148.7183       4.3926      -2.2788       3.7525      44.4115       0.0005
    7904.0    1445.1328       0.0000      50.8611    -149.2546       4.3673      -2.2310       3.7525      44.4115       0.0005
    7905.0    1444.3761       0.0000      50.8611    -149.8514       4.2933      -2.1545       3.7116      44.4115       0.0005
    7906.0    1439.4966       0.0000      50.8611    -149.6711       4.3057      -2.1727       3.7155      44.4115       0.0005
    7907.0    1441.8997       0.0000      50.8611    -149.8032       4.3736      -2.1985       3.7788      44.4115       0.0005
    7908.0    1445.4150       0.0000      50.8611    -149.4813       4.4046      -2.2348       3.7934      44.4115       0.0005
    7909.0    1442.4497       0.0000      50.8611    -149.6931       4.3522      -2.1947       3.7564      44.4115       0.0005
    7910.0    1442.4497       0.0000      50.8611    -149.7871       4.2490      -2.1363       3.6708      44.4115       0.0005
    7911.0    1445.4150       0.0000      50.8611    -148.4754       4.3120      -2.2530       3.6746      44.4115       0.0005
    7912.0    1443.7886       0.0000      50.8611    -149.5752       4.4094      -2.2310       3.8012      44.4115       0.0005
    7913.0    1441.1165       0.0000      50.8611    -149.6949       4.3091      -2.1727       3.7194      44.4115       0.0005
    7914.0    1448.1090       0.0000      50.8611    -149.5294       4.3683      -2.2129       3.7642      44.4115       0.0005
    7915.0    1445.1328       0.0000      50.8611    -149.2046       4.4046      -2.2530       3.7827      44.4115       0.0005
    7916.0    1443.7886       0.0000      50.8611    -149.2387       4.3726      -2.2348       3.7564      44.4115       0.0005
    7917.0    1442.4497       0.0000      50.8611    -149.2668       4.2977      -2.1947       3.6931      44.4115       0.0005
    7918.0    1442.4497       0.0000      50.8611    -149.9154       4.3377      -2.1727       3.7525      44.4115       0.0005
    7919.0    1442.1687       0.0000      50.8611    -148.9760       4.2680      -2.1985       3.6561      44.4115       0.0005
    7920.0    1444.0762       0.0000      50.8611    -149.4499       4.3935      -2.2310       3.7827      44.4115       0.0005
    7921.0    1443.7886       0.0000      50.8611    -149.1018       4.3481      -2.2310       3.7301      44.7911       0.2654
    7922.0    1446.7593       0.0000      50.8611    -144.7524       4.3907      -2.5327       3.5836      48.6229       0.8019
    7923.0    1445.4150       0.0000      50.8611    -140.0843       4.4246      -2.8373       3.3923      54.0826       1.0074
    7924.0    1445.4150       0.0000      50.8611    -133.2608       4.7108      -3.4293       3.2249      60.1864       1.0226
    7925.0    1449.4645       0.0000      50.8611    -129.3240       4.8932      -3.7832       3.0983      66.2758       1.0178
    7926.0    1449.4645       0.0000      50.8611    -122.5747       4.8202      -4.0605       2.5930      72.3670       1.0285
    7927.0    1454.6825       0.0000      50.8611    -118.2500       4.7278      -4.1628       2.2358      78.4933       1.0226
    7928.0    1453.0289       0.0000      50.8611    -111.2495       4.9236      -4.5865       1.7821      84.8184       1.0226
    7929.0    1441.8997       0.0000      50.8611    -104.9847       5.2485      -5.0685       1.3548      91.1032       1.0226
    7930.0    1443.5129       0.0000      50.8611     -97.5166       5.1087      -5.0647       0.6674      97.2066       1.0226
    7931.0    1442.4497       0.0000      50.8611     -95.6994       5.0784      -5.0532       0.5039     103.3084       1.0226
    7932.0    1430.7094       0.0000      50.8611     -90.8393       5.2297      -5.2292       0.0765     109.4102       1.0226
    7933.0    1427.0133       0.0000      50.8611     -84.9482       5.4292      -5.4080      -0.4774     115.5251       1.0226
    7934.0    1424.5848       0.0000      50.8611     -79.7677       5.4015      -5.3148      -0.9581     121.6277       1.0262
