~VERSION INFORMATION
VERS.           2.0   :CWLS Log ASCII Standard - VERSION 2.0
WRAP.           NO    :One Line per depth step
PROD.  Schlumberger   :LAS Producer
PROG.  DLIS to ASCII 19C2-270                          :LAS Program name and version
CREA.        2017/09/16 17:42                          :LAS Creation date {YYYY/MM/DD hh:mm}
DLIS_CREA.  2017-Sep-15 19:44                          :DLIS Creation date and time {YYYY-MMM-DD hh:mm}
SOURCE.     LPC_S5-1_2A5.DLIS                          :DLIS File Name
FILE-ID.     PERFO_Perfo_WPGRT_063LTP                  :File Identification Number
#--------------------------------------------------
~WELL INFORMATION
#MNEM.UNIT      DATA             DESCRIPTION
#---- ------ --------------   -----------------------------
STRT .S         1302.0       :START TIME      
STOP .S         1712.0       :STOP TIME      
STEP .S            1.0       :STEP     
NULL .          -999.25      :NULL VALUE
COMP .        SHELL INTERNATIONAL E P                  :COMPANY
WELL .        WPP TEST 2                               :WELL
FLD  .        WILDCAT                                  :FIELD
LOC  .        NA                                       :LOCATION
CNTY .        HARRIS                                   :COUNTY
STAT .        TEXAS                                    :STATE
CTRY .                                                 :COUNTRY
API  .        NA                                       :API NUMBER
UWI  .                                                 :UNIQUE WELL ID
DATE .        15-Sep-2017                              :LOG DATE {DD-MMM-YYYY}
SRVC .        Schlumberger                             :SERVICE COMPANY
LATI .DEG                                              :LATITUDE
LONG .DEG                                              :LONGITUDE
GDAT .                                                 :GeoDetic Datum
SECT .        NA                                       :Section
RANG .        NA                                       :Range
TOWN .        NA                                       :Township
#-----------------------------------------------------------------------------
~PARAMETER INFORMATION
#MNEM.UNIT    VALUE                      DESCRIPTION
#---- -----   --------------------       ------------------------
U-PHASE_B_COMP_PER_YT.                 0 :Phase B Comparator Period Yt
U-PHASE_A_COMP_PER_XT.                 0 :Phase A Comparator Period Xt
U-MAX_EXC_CUR_LIMIT.MA       240.00000   :Requested CM Current Limit
U-REQ_EXC_FQ.HZ              50          :Requested CM Frequency
U-TILT_Y_OFFSET.           0.19916       :WPTET Tilt Y Offset
U-TILT_Y_GAIN.           1.01796         :WPTET Tilt Y Gain
U-TILT_X_OFFSET.          -1.77103       :WPTET Tilt X Offset
U-TILT_X_GAIN.           1.00000         :WPTET Tilt X Gain
U-TILT_OFFSET_TOL.           0.00100     :WPTET Tilt Offset Calibration Tolerance
U-NO_TILT_CAL_ROTATIONS.                 3 :Number of Rotations for Tilt Calibration
HAZI .DEG        0.00000                 :Hole Azimuth
U-STD_TOL_TILT.           0.01000        :Tilt Standard Deviation Tolerance
U-GUN_POS_TOL.DEG        5.00000         :Gun Position Tolerance
ROT_ANGLE_THRESHOLD.DEG        5.00000   :Rotation Stop Angle Tolerance
STOP_ROT_ANGLE.DEG        0.00000        :Rotation Stop Angle
WITN .        MR. DHRUA ARORA            :Witness's Name
ENGI .        MORRIS MOORE               :Engineer's Name
COUN .        HARRIS                     :County or Rig Name
FN   .        WILDCAT                    :Field Name
WN   .        WPP TEST 2                 :Well Name
CN   .        SHELL INTERNATIONAL E P    :Company Name
CLAB .        County                     :County/Rig Label
SLAB .        State                      :State/Province Label
RUN  .          1                        :RUN NUMBER
PDAT .        GROUND LEVEL               :Permanent Datum
EPD  .                                   :Elevation of Permanent Datum above Mean Sea Level
LMF  .          NA                       :Logging Measured From (Name of Logging Elevation Reference)
APD  .                                   :Elevation of Depth Reference (LMF) above Permanent Datum
#-----------------------------------------------------------------------------
~CURVE INFORMATION
#MNEM.UNIT   API CODE                                  DESCRIPTION
#---- -----  --------                                  -----------------------
TIME .S                                                :TIME {F10.1}
FREQ_EMF_SL.HZ                                         :Electromagnetic Field Frequency {F13.4}
PH_SH_WPPCM_SL.DEG                                     :WPPCM Phase Shift {F13.4}
FREQ_EXC_REQ_SL.HZ                                     :Requested Exciter Frequency {F13.4}
RB_SL.DEG                                              :Relative Bearing {F13.4}
SDEV_SL.DEG                                            :Sonde Deviation {F13.4}
TILX_SL.DEG                                            :X-axis Tilt {F13.4}
TILY_SL.DEG                                            :Y-axis Tilt {F13.4}
ROTA_SL.DEG                                            :Motor Rotation Angle {F13.4}
MSPE_SL.RPM                                            :Motor Speed {F13.4}
#-----------------------------------------------------------------------------
# 
#     TIME    FREQ_EMF_SL  PH_SH_WPPCM_ FREQ_EXC_REQ    RB_SL       SDEV_SL      TILX_SL      TILY_SL      ROTA_SL      MSPE_SL
#                          SL           _SL
~A  
    1302.0    1437.4047       0.0000      50.8442    -151.5439       5.2467      -2.4932       4.6135     225.6813       1.0223
    1303.0    1440.3345       0.0000      50.8611    -142.5853       5.4537      -3.3105       4.3288     228.8036       1.0226
    1304.0    1436.8987       0.0000      50.8611    -132.0928       5.5586      -4.1206       3.7228     235.3130       1.0226
    1305.0    1422.8465       0.0000      50.8611    -122.3212       5.6562      -4.7768       3.0208     241.4149       1.0226
    1306.0    1412.8548       0.0000      50.8611    -119.6578       5.6841      -4.9374       2.8091     247.5045       1.0208
    1307.0    1397.9151       0.0000      50.8611    -117.5073       5.8260      -5.1649       2.6868     253.6174       1.0315
    1308.0    1391.8642       0.0000      50.8611    -110.5650       5.9699      -5.5869       2.0941     259.7214       1.0226
    1309.0    1364.8464       0.0000      50.8611    -101.0588       5.9519      -5.8410       1.1396     265.8232       1.0226
    1310.0    1333.3852       0.0000      50.8611     -95.8534       5.9729      -5.9416       0.6080     271.9251       1.0226
    1311.0    1324.9943       0.0000      50.8611     -94.8641       6.0577      -6.0354       0.5129     278.0400       1.0226
    1312.0    1302.4895       0.0000      50.8611     -90.5868       6.1299      -6.1293       0.0631     284.1418       1.0226
    1313.0    1293.3111       0.0000      50.8611     -81.1770       6.0000      -5.9285      -0.9182     290.2339       1.0208
    1314.0    1269.1787       0.0000      50.8611     -73.9636       6.1972      -5.9551      -1.7088     296.3363       1.0226
    1315.0    1257.0990       0.0000      50.8611     -72.8291       6.4018      -6.1154      -1.8861     302.4355       1.0226
    1316.0    1236.0863       0.0000      50.8611     -69.1056       6.3691      -5.9484      -2.2675     308.9455       1.0226
    1317.0    1223.1842       0.0000      50.8611     -60.0185       6.1151      -5.2925      -3.0509     315.0473       1.0226
    1318.0    1197.2270       0.0000      50.8611     -53.5931       6.2394      -5.0178      -3.6986     321.1368       1.0226
    1319.0    1184.7224       0.0000      50.8611     -50.5893       6.4568      -4.9844      -4.0941     327.2283       1.0138
    1320.0    1181.3894       0.0000      50.8611     -48.5593       6.4406      -4.8237      -4.2576     333.3280       1.0226
    1321.0    1170.5819       0.0000      50.8611     -43.8121       6.1133      -4.2279      -4.4074     339.4180       1.0208
    1322.0    1160.7563       0.0000      50.8611     -33.6234       6.0212      -3.3294      -5.0104     345.5323       1.0226
    1323.0    1134.9996       0.0000      50.8611     -29.2984       6.5028      -3.1769      -5.6681     351.6327       1.0244
    1324.0    1134.9996       0.0000      50.8611     -27.2441       6.2481      -2.8555      -5.5527     357.7372       1.0226
    1325.0    1140.5228       0.0000      50.8611     -21.0688       5.7544      -2.0657      -5.3685       3.8390       1.0226
    1326.0    1130.4260       0.0000      50.8611     -13.3269       5.7490      -1.3228      -5.5932       9.9394       1.0244
    1327.0    1125.2969       0.0000      50.8611      -6.1860       6.0794      -0.6535      -6.0430      16.0430       1.0226
    1328.0    1117.8756       0.0000      50.8611      -4.7582       6.1942      -0.5127      -6.1725      22.5426       1.0138
    1329.0    1128.9166       0.0000      50.8611      -2.2664       5.6934      -0.2248      -5.6887      28.6449       1.0226
    1330.0    1135.2896       0.0000      50.8611       4.9541       5.5398       0.4780      -5.5183      34.7318       1.0226
    1331.0    1135.5966       0.0000      50.8611      15.0052       5.7562       1.4889      -5.5588      40.8212       1.0226
    1332.0    1145.1865       0.0000      50.8611      19.6152       5.6207       1.8841      -5.2936      46.9231       1.0226
    1333.0    1157.7213       0.0000      50.8611      19.6957       5.3991       1.8173      -5.0823      53.0249       1.0226
    1334.0    1165.3160       0.0000      50.8611      24.2546       5.0242       2.0617      -4.5796      59.1267       1.0226
    1335.0    1175.1354       0.0000      50.8611      36.5105       5.2074       3.0955      -4.1827      65.2272       1.0244
    1336.0    1184.0478       0.0000      50.8611      42.7783       5.3216       3.6113      -3.9034      71.3312       1.0226
    1337.0    1200.9101       0.0000      50.8611      46.8249       5.0011       3.6447      -3.4196      77.4391       1.0226
    1338.0    1214.3780       0.0000      50.8611      49.1407       4.5734       3.4574      -2.9901      83.5353       1.0226
    1339.0    1233.5527       0.0000      50.8611      60.2482       4.6855       4.0663      -2.3225      89.6370       1.0226
    1340.0    1248.5176       0.0000      50.8611      71.0437       4.9164       4.6485      -1.5934      96.0782       1.0226
    1341.0    1271.4738       0.0000      50.8611      76.8045       4.5359       4.4146      -1.0347     102.2481       1.0226
    1342.0    1291.7133       0.0000      50.8611      78.5854       4.1967       4.1136      -0.8299     108.3499       1.0315
    1343.0    1324.9802       0.0000      50.8611      85.2330       4.2555       4.2405      -0.3530     114.4648       1.0226
    1344.0    1350.8595       0.0000      50.8611      97.1732       4.7131       4.6759       0.5874     120.5666       1.0226
    1345.0    1372.3926       0.0000      50.8611     105.8786       4.3188       4.1537       1.1805     126.6684       1.0226
    1346.0    1391.6456       0.0000      50.8611     108.7382       4.1179       3.8992       1.3218     132.7580       1.0226
    1347.0    1409.0682       0.0000      50.8611     114.7014       4.1307       3.7517       1.7254     138.8599       1.0226
    1348.0    1425.7316       0.0000      50.8611     125.6391       4.4373       3.6046       2.5841     144.9626       1.0244
    1349.0    1428.1431       0.0000      50.8611     135.3087       4.3184       3.0358       3.0682     151.0645       1.0226
    1350.0    1434.9490       0.0000      50.8611     143.5711       4.0094       2.3796       3.2249     157.1669       1.0226
    1351.0    1439.3757       0.0000      50.8611     145.4443       4.1982       2.3796       3.4564     163.2688       1.0226
    1352.0    1446.2598       0.0000      50.8611     153.2969       4.5715       2.0516       4.0832     169.7210       1.0315
    1353.0    1456.7470       0.0000      50.8611     164.0175       4.7089       1.2951       4.5264     175.8808       1.0226
    1354.0    1456.2531       0.0000      50.8611     170.1664       4.4905       0.7662       4.4244     181.9961       1.0315
    1355.0    1452.2811       0.0000      50.8611     175.1123       4.4473       0.3781       4.4309     188.0976       1.0226
    1356.0    1455.2397       0.0000      50.8611    -118.7193       4.7858      -0.0638       4.7851     194.2127       1.0226
    1357.0    1465.3524       0.0000      50.8611    -170.8840       4.9301      -0.7800       4.8673     200.3146       1.0226
    1358.0    1455.7454       0.0000      50.8611    -161.6308       4.8998      -1.5416       4.6494     206.4165       1.0226
    1359.0    1457.2750       0.0000      50.8611    -157.5100       4.9149      -1.8780       4.5402     212.5298       1.0244
    1360.0    1453.7511       0.0000      50.8611    -154.5058       5.0991      -2.1926       4.6013     218.6334       1.0226
    1361.0    1451.7326       0.0000      50.8611    -145.7978       5.3116      -2.9824       4.3904     224.7353       1.0226
    1362.0    1432.5178       0.0000      50.8611    -138.2945       5.4736      -3.6386       4.0835     230.8372       1.0226
    1363.0    1426.2170       0.0000      50.8611    -134.5338       5.4185      -3.8597       3.7973     236.9391       1.0226
    1364.0    1429.1158       0.0000      50.8611    -130.9923       5.5340      -4.1743       3.6269     243.0415       1.0226
