~VERSION INFORMATION
VERS.           2.0   :CWLS Log ASCII Standard - VERSION 2.0
WRAP.           NO    :One Line per depth step
PROD.  Schlumberger   :LAS Producer
PROG.  DLIS to ASCII 19C2-270                          :LAS Program name and version
CREA.        2017/09/16 17:42                          :LAS Creation date {YYYY/MM/DD hh:mm}
DLIS_CREA.  2017-Sep-15 12:22                          :DLIS Creation date and time {YYYY-MMM-DD hh:mm}
SOURCE.     LPC_S1-1_B5.DLIS                           :DLIS File Name
FILE-ID.     PERFO_Perfo_WPGRT_020LTP                  :File Identification Number
#--------------------------------------------------
~WELL INFORMATION
#MNEM.UNIT      DATA             DESCRIPTION
#---- ------ --------------   -----------------------------
STRT .S         5686.0       :START TIME      
STOP .S         6834.0       :STOP TIME      
STEP .S            1.0       :STEP     
NULL .          -999.25      :NULL VALUE
COMP .        SHELL INTERNATIONAL E P                  :COMPANY
WELL .        WPP TEST 2                               :WELL
FLD  .        WILDCAT                                  :FIELD
LOC  .                                                 :LOCATION
CNTY .        HARRIS                                   :COUNTY
STAT .        TEXAS                                    :STATE
CTRY .                                                 :COUNTRY
API  .                                                 :API NUMBER
UWI  .                                                 :UNIQUE WELL ID
DATE .                                                 :LOG DATE
SRVC .        Schlumberger                             :SERVICE COMPANY
LATI .DEG                                              :LATITUDE
LONG .DEG                                              :LONGITUDE
GDAT .                                                 :GeoDetic Datum
#-----------------------------------------------------------------------------
~PARAMETER INFORMATION
#MNEM.UNIT    VALUE                      DESCRIPTION
#---- -----   --------------------       ------------------------
U-PHASE_B_COMP_PER_YT.                 0 :Phase B Comparator Period Yt
U-PHASE_A_COMP_PER_XT.                 0 :Phase A Comparator Period Xt
U-MAX_EXC_CUR_LIMIT.MA       240.00000   :Requested CM Current Limit
U-REQ_EXC_FQ.HZ              50          :Requested CM Frequency
U-TILT_Y_OFFSET.           0.19916       :WPTET Tilt Y Offset
U-TILT_Y_GAIN.           1.01796         :WPTET Tilt Y Gain
U-TILT_X_OFFSET.          -1.77103       :WPTET Tilt X Offset
U-TILT_X_GAIN.           1.00000         :WPTET Tilt X Gain
U-TILT_OFFSET_TOL.           0.00100     :WPTET Tilt Offset Calibration Tolerance
U-NO_TILT_CAL_ROTATIONS.                 3 :Number of Rotations for Tilt Calibration
HAZI .DEG        0.00000                 :Hole Azimuth
U-STD_TOL_TILT.           0.01000        :Tilt Standard Deviation Tolerance
U-GUN_POS_TOL.DEG        5.00000         :Gun Position Tolerance
ROT_ANGLE_THRESHOLD.DEG        5.00000   :Rotation Stop Angle Tolerance
STOP_ROT_ANGLE.DEG       80.00000        :Rotation Stop Angle
WITN .                                   :Witness's Name
ENGI .                                   :Engineer's Name
COUN .        HARRIS                     :County or Rig Name
FN   .        WILDCAT                    :Field Name
WN   .        WPP TEST 2                 :Well Name
CN   .        SHELL INTERNATIONAL E P    :Company Name
CLAB .        County                     :County/Rig Label
SLAB .        State                      :State/Province Label
RUN  .          1                        :RUN NUMBER
PDAT .        GROUND LEVEL               :Permanent Datum
EPD  .                                   :Elevation of Permanent Datum above Mean Sea Level
LMF  .                                   :Logging Measured From (Name of Logging Elevation Reference)
APD  .                                   :Elevation of Depth Reference (LMF) above Permanent Datum
#-----------------------------------------------------------------------------
~CURVE INFORMATION
#MNEM.UNIT   API CODE                                  DESCRIPTION
#---- -----  --------                                  -----------------------
TIME .S                                                :TIME {F10.1}
FREQ_EMF_SL.HZ                                         :Electromagnetic Field Frequency {F13.4}
PH_SH_WPPCM_SL.DEG                                     :WPPCM Phase Shift {F13.4}
FREQ_EXC_REQ_SL.HZ                                     :Requested Exciter Frequency {F13.4}
RB_SL.DEG                                              :Relative Bearing {F13.4}
SDEV_SL.DEG                                            :Sonde Deviation {F13.4}
TILX_SL.DEG                                            :X-axis Tilt {F13.4}
TILY_SL.DEG                                            :Y-axis Tilt {F13.4}
ROTA_SL.DEG                                            :Motor Rotation Angle {F13.4}
MSPE_SL.RPM                                            :Motor Speed {F13.4}
#-----------------------------------------------------------------------------
# 
#     TIME    FREQ_EMF_SL  PH_SH_WPPCM_ FREQ_EXC_REQ    RB_SL       SDEV_SL      TILX_SL      TILY_SL      ROTA_SL      MSPE_SL
#                          SL           _SL
~A  
# ...
    6064.0    1518.6285       0.0000      50.8611     128.8921       3.1956       2.4866       2.0058     194.5426       0.0005
    6065.0    1518.6285       0.0000      50.8611     129.0422       3.2030       2.4866       2.0171     194.5426       0.0005
    6066.0    1512.3982       0.0000      50.8611     135.4444       3.3630       2.3587       2.3958     194.5426       0.0005
    6067.0    1510.0603       0.0000      50.8611     133.4330       3.2643       2.3699       2.2436     194.5426       0.0005
    6068.0    1515.6583       0.0000      50.8611     131.8250       3.3717       2.5119       2.2473     194.5426       0.0005
    6069.0    1518.0244       0.0000      50.8611     131.3265       3.1565       2.3699       2.0838     194.5426       0.0005
    6070.0    1515.9624       0.0000      50.8611     132.2435       3.3552       2.4829       2.2549     194.5426       0.0005
    6071.0    1516.2678       0.0000      50.8611     133.7091       3.2696       2.3624       2.2587     194.5426       0.0005
    6072.0    1521.6115       0.0000      50.8611     134.0442       3.3031       2.3736       2.2958     194.5426       0.0005
    6073.0    1521.3087       0.0000      50.8611     131.0628       3.2356       2.4390       2.1247     194.5426       0.0005
    6074.0    1515.0542       0.0000      50.8611     132.2791       3.2089       2.3736       2.1580     194.5426       0.0005
    6075.0    1515.6583       0.0000      50.8611     132.0176       3.3529       2.4904       2.2436     194.5426       0.0005
    6076.0    1518.3258       0.0000      50.8611     135.8024       3.3534       2.3371       2.4033     194.5426       0.0005
    6077.0    1524.3047       0.0000      50.8611     131.9004       3.2437       2.4137       2.1656     194.5426       0.0005
    6078.0    1518.6285       0.0000      50.8611     130.4988       3.2610       2.4792       2.1171     194.5426       0.0005
    6079.0    1512.3982       0.0000      50.8611     132.5677       3.3176       2.4428       2.2436     194.5426       0.0005
    6080.0    1521.6115       0.0000      50.8611     133.4727       3.3269       2.4137       2.2882     194.5426       0.0005
    6081.0    1521.0073       0.0000      50.8611     133.5547       3.3109       2.3989       2.2807     194.5426       0.0005
    6082.0    1513.0050       0.0000      50.8611     131.7344       3.1815       2.3736       2.1171     194.5426       0.0005
    6083.0    1518.9326       0.0000      50.8611     131.1269       3.3891       2.5521       2.2284     194.5426       0.0005
    6084.0    1521.0073       0.0000      50.8611     133.9732       3.3446       2.4063       2.3216     194.5426       0.0005
    6085.0    1518.3258       0.0000      50.8611     133.5466       3.3762       2.4465       2.3253     194.5426       0.0005
    6086.0    1515.3556       0.0000      50.8611     132.8874       3.3352       2.4428       2.2693     194.5426       0.0005
    6087.0    1515.9624       0.0000      50.8611     130.8821       3.2415       2.4502       2.1209     194.5426       0.0005
    6088.0    1521.3087       0.0000      50.8611     131.6076       3.4242       2.5595       2.2731     194.5426       0.0005
    6089.0    1515.6583       0.0000      50.8611     133.3845       3.2617       2.3699       2.2398     194.5426       0.0005
    6090.0    1521.9155       0.0000      50.8611     131.8419       3.1917       2.3773       2.1285     194.5426       0.0005
    6091.0    1518.6285       0.0000      50.8611     131.3584       3.2165       2.4137       2.1247     194.5426       0.0005
    6092.0    1512.3982       0.0000      50.8611     131.9217       3.3037       2.4576       2.2065     194.5426       0.0005
    6093.0    1515.6583       0.0000      50.8611     133.0849       3.4108       2.4904       2.3291     194.5426       0.0005
    6094.0    1518.6285       0.0000      50.8611     134.8075       3.2900       2.3334       2.3178     194.5426       0.0005
    6095.0    1518.6285       0.0000      50.8611     132.8638       3.2390       2.3736       2.2027     194.5426       0.0005
    6096.0    1515.3556       0.0000      50.8611     130.6419       3.3260       2.5231       2.1656     194.5426       0.0005
    6097.0    1513.0050       0.0000      50.8611     133.8933       3.1779       2.2895       2.2027     194.5426       0.0005
    6098.0    1518.6285       0.0000      50.8611     132.6614       3.3722       2.4792       2.2844     194.5426       0.0005
    6099.0    1518.3258       0.0000      50.8611     133.4000       3.2123       2.3334       2.2065     194.5426       0.0005
    6100.0    1515.3556       0.0000      50.8611     131.8577       3.2907       2.4502       2.1951     194.5426       0.0005
    6101.0    1518.3258       0.0000      50.8611     131.5793       3.3201       2.4829       2.2027     194.5426       0.0005
    6102.0    1518.6285       0.0000      50.8611     133.6495       3.3162       2.3989       2.2882     194.5426       0.0005
    6103.0    1518.0244       0.0000      50.8611     133.4212       3.3190       2.4100       2.2807     194.5426       0.0005
    6104.0    1515.3556       0.0000      50.8611     131.2665       3.2169       2.4175       2.1209     194.5426       0.0005
    6105.0    1518.3258       0.0000      50.8611     131.1664       3.3475       2.5194       2.2027     194.5426       0.0005
    6106.0    1515.3556       0.0000      50.8611     132.3684       3.3075       2.4428       2.2284     194.5426       0.0005
    6107.0    1515.3556       0.0000      50.8611     132.1227       3.2300       2.3952       2.1656     194.5426       0.0005
    6108.0    1515.6583       0.0000      50.8611     131.5160       3.2681       2.4465       2.1656     194.5426       0.0005
    6109.0    1512.3982       0.0000      50.8611     131.4387       3.2056       2.4026       2.1209     194.5426       0.0005
    6110.0    1521.6115       0.0000      50.8611     132.1278       3.2406       2.4026       2.1731     194.5426       0.0005
    6111.0    1524.0033       0.0000      50.8611     133.4035       3.3685       2.4465       2.3140     194.5426       0.0005
    6112.0    1515.6583       0.0000      50.8611     133.8977       3.2847       2.3661       2.2769     194.5426       0.0005
    6113.0    1515.6583       0.0000      50.8611     132.3850       3.2686       2.4137       2.2027     194.5426       0.0005
    6114.0    1521.6115       0.0000      50.8611     131.0848       3.2850       2.4755       2.1580     194.5426       0.0005
    6115.0    1515.3556       0.0000      50.8611     132.9965       3.2909       2.4063       2.2436     194.5426       0.0005
    6116.0    1515.6583       0.0000      50.8611     132.9965       3.2909       2.4063       2.2436     194.5426       0.0005
    6117.0    1518.6285       0.0000      50.8611     133.0005       3.2962       2.4100       2.2473     194.5426       0.0005
    6118.0    1515.0542       0.0000      50.8611     130.9171       3.2334       2.4428       2.1171     194.5426       0.0005
    6119.0    1513.0050       0.0000      50.8611     132.0434       3.2901       2.4428       2.2027     194.5426       0.0005
    6120.0    1515.9624       0.0000      50.8611     132.6154       3.3202       2.4428       2.2473     194.5426       0.0005
    6121.0    1524.0033       0.0000      50.8611     131.1846       3.2901       2.4755       2.1656     194.5426       0.0005
    6122.0    1521.0073       0.0000      50.8611     130.9878       3.1837       2.4026       2.0876     194.5426       0.0005
    6123.0    1515.3556       0.0000      50.8611     133.0442       3.2935       2.4063       2.2473     194.5426       0.0005
    6124.0    1515.6583       0.0000      50.8611     132.5240       3.3204       2.4465       2.2436     194.5426       0.0005
    6125.0    1518.6285       0.0000      50.8611     133.5723       3.2668       2.3661       2.2511     194.5426       0.0005
    6126.0    1515.5068       0.0000      50.8611     133.4672       3.2636       2.3680       2.2445     194.5426       0.0005
