~VERSION INFORMATION
VERS.           2.0   :CWLS Log ASCII Standard - VERSION 2.0
WRAP.           NO    :One Line per depth step
PROD.  Schlumberger   :LAS Producer
PROG.  DLIS to ASCII 19C2-270                          :LAS Program name and version
CREA.        2017/09/16 17:42                          :LAS Creation date {YYYY/MM/DD hh:mm}
DLIS_CREA.  2017-Sep-15 12:00                          :DLIS Creation date and time {YYYY-MMM-DD hh:mm}
SOURCE.     LPC_S1-1_A5.DLIS                           :DLIS File Name
FILE-ID.     PERFO_Perfo_WPGRT_019LTP                  :File Identification Number
#--------------------------------------------------
~WELL INFORMATION
#MNEM.UNIT      DATA             DESCRIPTION
#---- ------ --------------   -----------------------------
STRT .S         4414.0       :START TIME      
STOP .S         5447.0       :STOP TIME      
STEP .S            1.0       :STEP     
NULL .          -999.25      :NULL VALUE
COMP .        SHELL INTERNATIONAL E P                  :COMPANY
WELL .        WPP TEST 2                               :WELL
FLD  .        WILDCAT                                  :FIELD
LOC  .                                                 :LOCATION
CNTY .        HARRIS                                   :COUNTY
STAT .        TEXAS                                    :STATE
CTRY .                                                 :COUNTRY
API  .                                                 :API NUMBER
UWI  .                                                 :UNIQUE WELL ID
DATE .                                                 :LOG DATE
SRVC .        Schlumberger                             :SERVICE COMPANY
LATI .DEG                                              :LATITUDE
LONG .DEG                                              :LONGITUDE
GDAT .                                                 :GeoDetic Datum
#-----------------------------------------------------------------------------
~PARAMETER INFORMATION
#MNEM.UNIT    VALUE                      DESCRIPTION
#---- -----   --------------------       ------------------------
U-PHASE_B_COMP_PER_YT.                 0 :Phase B Comparator Period Yt
U-PHASE_A_COMP_PER_XT.                 0 :Phase A Comparator Period Xt
U-MAX_EXC_CUR_LIMIT.MA       240.00000   :Requested CM Current Limit
U-REQ_EXC_FQ.HZ              50          :Requested CM Frequency
U-TILT_Y_OFFSET.           0.19916       :WPTET Tilt Y Offset
U-TILT_Y_GAIN.           1.01796         :WPTET Tilt Y Gain
U-TILT_X_OFFSET.          -1.77103       :WPTET Tilt X Offset
U-TILT_X_GAIN.           1.00000         :WPTET Tilt X Gain
U-TILT_OFFSET_TOL.           0.00100     :WPTET Tilt Offset Calibration Tolerance
U-NO_TILT_CAL_ROTATIONS.                 3 :Number of Rotations for Tilt Calibration
HAZI .DEG        0.00000                 :Hole Azimuth
U-STD_TOL_TILT.           0.01000        :Tilt Standard Deviation Tolerance
U-GUN_POS_TOL.DEG        5.00000         :Gun Position Tolerance
ROT_ANGLE_THRESHOLD.DEG        5.00000   :Rotation Stop Angle Tolerance
STOP_ROT_ANGLE.DEG       80.00000        :Rotation Stop Angle
WITN .                                   :Witness's Name
ENGI .                                   :Engineer's Name
COUN .        HARRIS                     :County or Rig Name
FN   .        WILDCAT                    :Field Name
WN   .        WPP TEST 2                 :Well Name
CN   .        SHELL INTERNATIONAL E P    :Company Name
CLAB .        County                     :County/Rig Label
SLAB .        State                      :State/Province Label
RUN  .          1                        :RUN NUMBER
PDAT .        GROUND LEVEL               :Permanent Datum
EPD  .                                   :Elevation of Permanent Datum above Mean Sea Level
LMF  .                                   :Logging Measured From (Name of Logging Elevation Reference)
APD  .                                   :Elevation of Depth Reference (LMF) above Permanent Datum
#-----------------------------------------------------------------------------
~CURVE INFORMATION
#MNEM.UNIT   API CODE                                  DESCRIPTION
#---- -----  --------                                  -----------------------
TIME .S                                                :TIME {F10.1}
FREQ_EMF_SL.HZ                                         :Electromagnetic Field Frequency {F13.4}
PH_SH_WPPCM_SL.DEG                                     :WPPCM Phase Shift {F13.4}
FREQ_EXC_REQ_SL.HZ                                     :Requested Exciter Frequency {F13.4}
RB_SL.DEG                                              :Relative Bearing {F13.4}
SDEV_SL.DEG                                            :Sonde Deviation {F13.4}
TILX_SL.DEG                                            :X-axis Tilt {F13.4}
TILY_SL.DEG                                            :Y-axis Tilt {F13.4}
ROTA_SL.DEG                                            :Motor Rotation Angle {F13.4}
MSPE_SL.RPM                                            :Motor Speed {F13.4}
#-----------------------------------------------------------------------------
# 
#     TIME    FREQ_EMF_SL  PH_SH_WPPCM_ FREQ_EXC_REQ    RB_SL       SDEV_SL      TILX_SL      TILY_SL      ROTA_SL      MSPE_SL
#                          SL           _SL
~A  
    4414.0    1630.5214       0.0000      50.8611    -173.8240       3.8560      -0.4145       3.8335     152.6575       1.0226
    4415.0    1619.2563       0.0000      50.8611    -168.9096       3.8280      -0.7358       3.7564     158.7725       1.0226
    4416.0    1599.8061       0.0000      50.8611    -162.5831       3.9372      -1.1777       3.7564     164.8744       1.0226
    4417.0    1583.6149       0.0000      50.8611    -154.3227       4.0992      -1.7746       3.6932     170.9763       1.0226
    4418.0    1567.8885       0.0000      50.8611    -149.4808       4.2451      -2.1544       3.6560     177.0782       1.0226
    4419.0    1540.1053       0.0000      50.8611    -143.1893       4.3874      -2.6273       3.5111     183.1824       1.0226
    4420.0    1514.3306       0.0000      50.8611    -135.4631       4.3831      -3.0727       3.1208     189.2720       1.0226
    4421.0    1492.1148       0.0000      50.8611    -132.4349       4.3905      -3.2389       2.9609     195.3869       1.0226
    4422.0    1464.8438       0.0000      50.8611    -126.2979       4.5528      -3.6680       2.6933     201.4793       1.0202
    4423.0    1439.9027       0.0000      50.8611    -120.0095       4.6083      -3.9893       2.3030     207.9943       1.0309
    4424.0    1415.1553       0.0000      50.8611    -117.5301       4.5057      -3.9949       2.0800     214.0984       1.0226
    4425.0    1384.7254       0.0000      50.8611    -108.2165       4.8578      -4.6137       1.5169     220.2058       1.0226
    4426.0    1354.7688       0.0000      50.8611    -105.4036       4.9813      -4.8018       1.3217     226.2935       1.0144
    4427.0    1320.8826       0.0000      50.8611     -98.3517       4.9441      -4.8913       0.7177     232.4188       1.0226
    4428.0    1277.4992       0.0000      50.8611     -93.2858       5.0153      -5.0062       0.2866     238.5083       1.0226
    4429.0    1191.4126       0.0000      50.8611     -89.0234       5.1147      -5.1140      -0.0871     244.6102       1.0226
    4430.0    1129.2917       0.0000      50.8611     -83.6926       5.0957      -5.0647      -0.5591     250.7145       1.0226
    4431.0    1057.9268       0.0000      50.8611     -77.5056       5.2582      -5.1323      -1.1352     256.8040       1.0202
    4432.0    1014.8211       0.0000      50.8611     -73.5782       5.3777      -5.1578      -1.5181     262.9058       1.0226
    4433.0     985.6035       0.0000      50.8611     -68.5832       5.2928      -4.9259      -1.9307     269.0076       1.0309
    4434.0     959.4307       0.0000      50.8611     -63.3592       5.1735      -4.6229      -2.3173     275.1102       1.0285
    4435.0     949.0704       0.0000      50.8611     -57.9764       5.3603      -4.5425      -2.8395     281.6178       1.0202
    4436.0     937.5000       0.0000      50.8611     -52.9031       5.2074      -4.1519      -3.1351     287.7203       1.0226
    4437.0     930.9025       0.0000      50.8611     -48.6259       5.2366      -3.9273      -3.4585     293.8214       1.0226
    4438.0     921.8020       0.0000      50.8611     -43.8972       5.2626      -3.6461      -3.7893     299.9371       1.0334
    4439.0     914.3368       0.0000      50.8611     -39.8018       5.2958      -3.3868      -4.0662     306.0520       1.0226
    4440.0     913.7972       0.0000      50.8611     -33.6541       5.1671      -2.8610      -4.2985     312.1539       1.0226
    4441.0     912.4067       0.0000      50.8611     -29.4488       5.1152      -2.5123      -4.4528     318.2434       1.0226
    4442.0     919.1177       0.0000      50.8611     -23.8939       5.0949      -2.0613      -4.6572     324.3500       1.0226
    4443.0     927.7202       0.0000      50.8611     -19.1554       5.1479      -1.6871      -4.8617     330.4595       1.0250
    4444.0     933.2022       0.0000      50.8611     -13.0949       4.9732      -1.1247      -4.8430     336.5519       1.0226
    4445.0     945.3498       0.0000      50.8611      -7.3603       4.8835      -0.6245      -4.8430     342.6537       1.0226
    4446.0     966.3876       0.0000      50.8611      -2.9006       4.7642      -0.2411      -4.7576     348.7533       1.0309
    4447.0     981.8380       0.0000      50.8611       1.3744       4.7337       0.1113      -4.7316     355.2631       1.0226
    4448.0    1001.0948       0.0000      50.8611       6.7818       4.6583       0.5495      -4.6256       1.3649       1.0226
    4449.0    1019.8288       0.0000      50.8611      12.4659       4.5569       0.9822      -4.4491       7.4674       1.0226
    4450.0    1056.6095       0.0000      50.8611      19.6476       4.4781       1.5044      -4.2167      13.5700       1.0226
    4451.0    1133.2161       0.0000      50.8611      24.1102       4.3230       1.7636      -3.9455      19.6595       1.0226
    4452.0    1220.6544       0.0000      50.8611      29.9703       4.2039       2.0977      -3.6406      25.7613       1.0226
    4453.0    1279.6801       0.0000      50.8611      35.6722       4.0298       2.3479      -3.2726      31.8608       1.0250
    4454.0    1307.7027       0.0000      50.8611      42.3543       3.9501       2.6601      -2.9176      37.9680       1.0226
    4455.0    1333.6281       0.0000      50.8611      50.1720       3.8549       2.9595      -2.4679      44.0674       1.0226
    4456.0    1362.0458       0.0000      50.8611      54.9804       3.7252       3.0490      -2.1371      50.1716       1.0226
    4457.0    1392.3268       0.0000      50.8611      60.0804       3.6006       3.1202      -1.7951      56.2734       1.0226
    4458.0    1424.9061       0.0000      50.8611      70.1699       3.3800       3.1786      -1.1465      62.3731       1.0250
    4459.0    1447.7146       0.0000      50.8611      75.6716       3.4015       3.2955      -0.8416      68.8829       1.0226
    4460.0    1475.7473       0.0000      50.8611      83.3274       3.3453       3.3210      -0.3882      74.9948       1.0250
    4461.0    1499.9292       0.0000      50.8611      90.6073       3.3614       3.3612       0.0356      81.0996       1.0226
    4462.0    1533.6889       0.0000      50.8611      99.2324       3.2969       3.2534       0.5299      87.2151       1.0226
    4463.0    1559.3681       0.0000      50.8611     107.9378       3.2011       3.0454       0.9853      93.3169       1.0226
    4464.0    1574.9123       0.0000      50.8611     115.5688       3.3090       2.9850       1.4258      99.3969       1.0144
    4465.0    1593.5671       0.0000      50.8611     123.6765       3.1888       2.6528       1.7659     105.5123       1.0226
    4466.0    1611.8325       0.0000      50.8611     133.8136       3.2751       2.3625       2.2658     111.5993       1.0226
    4467.0    1620.1036       0.0000      50.8611     138.9888       3.2868       2.1562       2.4796     117.7011       1.0226
    4468.0    1635.1744       0.0000      50.8611     147.9433       3.4418       1.8257       2.9164     123.8053       1.0226
    4469.0    1645.7875       0.0000      50.8611     154.8751       3.3676       1.4296       3.0483     129.9078       1.0144
    4470.0    1641.9441       0.0000      50.8611     159.9920       3.4224       1.1703       3.2156     136.0229       1.0226
    4471.0    1644.0492       0.0000      50.8611     170.1529       3.5326       0.6043       3.4795     142.5175       1.0226
    4472.0    1633.1107       0.0000      50.8611     176.9844       3.6804       0.1935       3.6746     148.6194       1.0226
    4473.0    1629.3264       0.0000      50.8611    -176.6878       3.7630      -0.2173       3.7564     154.7213       1.0226
    4474.0    1620.1036       0.0000      50.8611    -170.9834       3.8129      -0.5971       3.7657     160.8232       1.0226
    4475.0    1608.1460       0.0000      50.8611    -164.0930       3.9064      -1.0699       3.7564     166.9267       1.0226
    4476.0    1589.6515       0.0000      50.8611    -156.5021       4.0288      -1.6048       3.6932     173.0340       1.0226
