~VERSION INFORMATION
VERS.           2.0   :CWLS Log ASCII Standard - VERSION 2.0
WRAP.           NO    :One Line per depth step
PROD.  Schlumberger   :LAS Producer
PROG.  DLIS to ASCII 19C2-270                          :LAS Program name and version
CREA.        2017/09/16 17:42                          :LAS Creation date {YYYY/MM/DD hh:mm}
DLIS_CREA.  2017-Sep-15 11:37                          :DLIS Creation date and time {YYYY-MMM-DD hh:mm}
SOURCE.     LPC_S1-1_AV_3RD-LOG.DLIS                   :DLIS File Name
FILE-ID.     PERFO_Perfo_WPGRT_016LTP                  :File Identification Number
#--------------------------------------------------
~WELL INFORMATION
#MNEM.UNIT      DATA             DESCRIPTION
#---- ------ --------------   -----------------------------
STRT .S         2984.0       :START TIME      
STOP .S         3331.0       :STOP TIME      
STEP .S            1.0       :STEP     
NULL .          -999.25      :NULL VALUE
COMP .        SHELL INTERNATIONAL E P                  :COMPANY
WELL .        WPP TEST 2                               :WELL
FLD  .        WILDCAT                                  :FIELD
LOC  .                                                 :LOCATION
CNTY .        HARRIS                                   :COUNTY
STAT .        TEXAS                                    :STATE
CTRY .                                                 :COUNTRY
API  .                                                 :API NUMBER
UWI  .                                                 :UNIQUE WELL ID
DATE .                                                 :LOG DATE
SRVC .        Schlumberger                             :SERVICE COMPANY
LATI .DEG                                              :LATITUDE
LONG .DEG                                              :LONGITUDE
GDAT .                                                 :GeoDetic Datum
#-----------------------------------------------------------------------------
~PARAMETER INFORMATION
#MNEM.UNIT    VALUE                      DESCRIPTION
#---- -----   --------------------       ------------------------
U-PHASE_B_COMP_PER_YT.                 0 :Phase B Comparator Period Yt
U-PHASE_A_COMP_PER_XT.                 0 :Phase A Comparator Period Xt
U-MAX_EXC_CUR_LIMIT.MA       240.00000   :Requested CM Current Limit
U-REQ_EXC_FQ.HZ              50          :Requested CM Frequency
U-TILT_Y_OFFSET.           0.19916       :WPTET Tilt Y Offset
U-TILT_Y_GAIN.           1.01796         :WPTET Tilt Y Gain
U-TILT_X_OFFSET.          -1.77103       :WPTET Tilt X Offset
U-TILT_X_GAIN.           1.00000         :WPTET Tilt X Gain
U-TILT_OFFSET_TOL.           0.00100     :WPTET Tilt Offset Calibration Tolerance
U-NO_TILT_CAL_ROTATIONS.                 3 :Number of Rotations for Tilt Calibration
HAZI .DEG        0.00000                 :Hole Azimuth
U-STD_TOL_TILT.           0.01000        :Tilt Standard Deviation Tolerance
U-GUN_POS_TOL.DEG        5.00000         :Gun Position Tolerance
ROT_ANGLE_THRESHOLD.DEG        5.00000   :Rotation Stop Angle Tolerance
STOP_ROT_ANGLE.DEG       52.00000        :Rotation Stop Angle
WITN .                                   :Witness's Name
ENGI .                                   :Engineer's Name
COUN .        HARRIS                     :County or Rig Name
FN   .        WILDCAT                    :Field Name
WN   .        WPP TEST 2                 :Well Name
CN   .        SHELL INTERNATIONAL E P    :Company Name
CLAB .        County                     :County/Rig Label
SLAB .        State                      :State/Province Label
RUN  .          1                        :RUN NUMBER
PDAT .        GROUND LEVEL               :Permanent Datum
EPD  .                                   :Elevation of Permanent Datum above Mean Sea Level
LMF  .                                   :Logging Measured From (Name of Logging Elevation Reference)
APD  .                                   :Elevation of Depth Reference (LMF) above Permanent Datum
#-----------------------------------------------------------------------------
~CURVE INFORMATION
#MNEM.UNIT   API CODE                                  DESCRIPTION
#---- -----  --------                                  -----------------------
TIME .S                                                :TIME {F10.1}
FREQ_EMF_SL.HZ                                         :Electromagnetic Field Frequency {F13.4}
PH_SH_WPPCM_SL.DEG                                     :WPPCM Phase Shift {F13.4}
FREQ_EXC_REQ_SL.HZ                                     :Requested Exciter Frequency {F13.4}
RB_SL.DEG                                              :Relative Bearing {F13.4}
SDEV_SL.DEG                                            :Sonde Deviation {F13.4}
TILX_SL.DEG                                            :X-axis Tilt {F13.4}
TILY_SL.DEG                                            :Y-axis Tilt {F13.4}
ROTA_SL.DEG                                            :Motor Rotation Angle {F13.4}
MSPE_SL.RPM                                            :Motor Speed {F13.4}
#-----------------------------------------------------------------------------
# 
#     TIME    FREQ_EMF_SL  PH_SH_WPPCM_ FREQ_EXC_REQ    RB_SL       SDEV_SL      TILX_SL      TILY_SL      ROTA_SL      MSPE_SL
#                          SL           _SL
~A  
    2984.0    1634.9750       0.0000      50.8611     -63.1869       1.0799      -0.9635      -0.4874      75.7349       1.0226
    2985.0    1628.3990       0.0000      50.8611     -65.1569       1.0621      -0.9635      -0.4465      81.8247       1.0226
    2986.0    1620.4965       0.0000      50.8611     -65.6998       1.1058      -1.0079      -0.4551      87.9268       1.0226
    2987.0    1612.2846       0.0000      50.8611     -60.2643       1.0175      -0.8831      -0.5045      94.0159       1.0226
    2988.0    1594.7682       0.0000      50.8611     -62.6118       0.9898      -0.8789      -0.4551     100.4828       1.0226
    2989.0    1580.8053       0.0000      50.8611     -69.7882       1.2181      -1.1432      -0.4185     106.6152       1.0226
    2990.0    1557.0446       0.0000      50.8611     -63.1516       1.1795      -1.0522      -0.5325     112.7166       1.0226
    2991.0    1538.5668       0.0000      50.8611     -59.4555       1.1286      -0.9719      -0.5734     118.8184       1.0226
    2992.0    1503.4216       0.0000      50.8611     -61.6638       1.0539      -0.9275      -0.5002     124.9334       1.0226
    2993.0    1483.3861       0.0000      50.8611     -61.1175       1.1873      -1.0396      -0.5734     131.0229       1.0226
    2994.0    1462.7984       0.0000      50.8611     -57.5827       1.2149      -1.0253      -0.6509     137.1379       1.0226
    2995.0    1426.8270       0.0000      50.8611     -65.0433       1.1175      -1.0121      -0.4722     143.2533       1.0226
    2996.0    1402.1270       0.0000      50.8611     -55.6557       1.0466      -0.8641      -0.5906     149.3426       1.0226
    2997.0    1378.9609       0.0000      50.8611     -53.8894       1.1602      -0.9360      -0.6832     155.4324       1.0226
    2998.0    1339.8235       0.0000      50.8611     -59.4321       1.0728      -0.9233      -0.5454     161.5340       1.0226
    2999.0    1300.6930       0.0000      50.8611     -55.8485       1.3049      -1.0798      -0.7327     167.6494       1.0226
    3000.0    1252.7690       0.0000      50.8611     -57.1780       1.1196      -0.9402      -0.6057     174.1164       1.0226
    3001.0    1180.5769       0.0000      50.8611     -54.6246       1.0836      -0.8831      -0.6272     180.2608       1.0226
    3002.0    1109.1437       0.0000      50.8611     -53.7892       1.1726      -0.9466      -0.6918     186.3627       1.0226
    3003.0    1050.6037       0.0000      50.8611     -46.9704       1.2443      -0.9084      -0.8468     192.4646       1.0226
    3004.0    1007.9520       0.0000      50.8611     -49.9369       1.1078      -0.8472      -0.7133     198.5797       1.0226
    3005.0     983.2474       0.0000      50.8611     -54.7247       0.8693      -0.7098      -0.5002     204.6825       1.0226
    3006.0     956.1715       0.0000      50.8611     -54.3800       1.2027      -0.9772      -0.6998     210.7847       1.0226
    3007.0     940.9391       0.0000      50.8611     -49.9879       1.1531      -0.8831      -0.7413     216.8752       1.0215
    3008.0     932.7870       0.0000      50.8611     -45.4809       1.0846      -0.7711      -0.7607     222.9702       1.0215
    3009.0     918.8660       0.0000      50.8611     -58.5089       1.1308      -0.9635      -0.5906     229.0542       1.0215
    3010.0     912.2140       0.0000      50.8611     -52.3071       1.0255      -0.8112      -0.6272     235.1810       1.0237
    3011.0     910.1023       0.0000      50.8611     -50.1223       1.0929      -0.8388      -0.7004     241.2832       1.0226
    3012.0     908.3072       0.0000      50.8611     -51.9628       0.9245      -0.7225      -0.5712     247.3878       1.0226
    3013.0     907.9398       0.0000      50.8611     -45.9810       1.0606      -0.7626      -0.7370     253.9085       1.0226
    3014.0     909.7292       0.0000      50.8611     -51.4725       0.9343      -0.7309      -0.5820     259.9974       1.0215
    3015.0     914.7128       0.0000      50.8611     -54.2041       1.0348      -0.8388      -0.6057     266.1000       1.0226
    3016.0     928.7023       0.0000      50.8611     -47.8210       0.9693      -0.7183      -0.6509     272.2018       1.0226
    3017.0     939.2213       0.0000      50.8611     -44.9622       0.9782      -0.6865      -0.6938     278.3170       1.0226
    3018.0     953.3410       0.0000      50.8611     -52.5979       0.9045      -0.7177      -0.5497     284.4446       1.0226
    3019.0     972.8754       0.0000      50.8611     -54.4023       0.9925      -0.8070      -0.5777     290.5340       1.0226
    3020.0     991.4208       0.0000      50.8611     -52.7801       0.9026      -0.7183      -0.5454     296.6125       1.0132
    3021.0    1014.6104       0.0000      50.8611     -51.9762       0.8715      -0.6865      -0.5368     302.7130       1.0226
    3022.0    1047.0624       0.0000      50.8611     -50.0463       0.8490      -0.6506      -0.5454     308.8042       1.0132
    3023.0    1111.5860       0.0000      50.8611     -53.4376       0.9552      -0.7669      -0.5691     314.8934       1.0132
    3024.0    1201.4358       0.0000      50.8611     -56.7615       0.8308      -0.6950      -0.4551     321.0074       1.0226
    3025.0    1261.6328       0.0000      50.8611     -58.2265       0.8031      -0.6823      -0.4227     327.5169       1.0226
    3026.0    1295.1404       0.0000      50.8611     -50.6960       0.7379      -0.5702      -0.4679     333.6187       1.0226
    3027.0    1333.1477       0.0000      50.8611     -57.4830       0.8623      -0.7267      -0.4636     339.7205       1.0226
    3028.0    1368.9503       0.0000      50.8611     -57.0305       0.9191      -0.7711      -0.5002     345.8223       1.0226
    3029.0    1390.8935       0.0000      50.8611     -63.1143       0.7716      -0.6865      -0.3496     351.9250       1.0215
    3030.0    1414.7384       0.0000      50.8611     -60.5812       0.8344      -0.7267      -0.4099     358.0268       1.0226
    3031.0    1446.4474       0.0000      50.8611     -54.1074       0.8928      -0.7225      -0.5239       4.1286       1.0226
    3032.0    1473.7328       0.0000      50.8611     -59.5827       0.9085      -0.7837      -0.4593      10.2570       1.0226
    3033.0    1502.0675       0.0000      50.8611     -62.1449       0.8177      -0.7225      -0.3819      16.3585       1.0226
    3034.0    1534.8562       0.0000      50.8611     -65.2759       0.8048      -0.7309      -0.3367      22.4603       1.0226
    3035.0    1555.2256       0.0000      50.8611     -65.8449       0.8147      -0.7436      -0.3324      28.5627       1.0226
    3036.0    1579.6843       0.0000      50.8611     -60.9094       0.8553      -0.7478      -0.4142      34.6642       1.0226
    3037.0    1591.5399       0.0000      50.8611     -65.8575       1.0025      -0.9149      -0.4099      41.1737       1.0226
    3038.0    1612.6721       0.0000      50.8611     -68.8766       0.9566      -0.8916      -0.3453      47.2873       1.0322
    3039.0    1623.8453       0.0000      50.8611     -68.3002       0.9212      -0.8556      -0.3410      53.3783       1.0226
    3040.0    1634.3796       0.0000      50.8611     -61.6755       1.0682      -0.9422      -0.5002      59.4811       1.0215
    3041.0    1642.8153       0.0000      50.8611     -67.9344       1.0314      -0.9550      -0.3862      65.5837       1.0237
    3042.0    1642.8153       0.0000      50.8611     -67.4465       0.9745      -0.9000      -0.3733      71.6854       1.0226
    3043.0    1638.9860       0.0000      50.8611     -69.5504       0.9515      -0.8916      -0.3324      77.7762       1.0215
    3044.0    1632.5811       0.0000      50.8611     -64.8552       0.9944      -0.9000      -0.4227      83.8794       1.0226
    3045.0    1632.1791       0.0000      50.8611     -63.8663       1.0332      -0.9275      -0.4551      89.9916       1.0322
    3046.0    1623.4525       0.0000      50.8611     -67.4789       1.0819      -0.9994      -0.4142      96.1069       1.0226
