~VERSION INFORMATION
VERS.           2.0   :CWLS Log ASCII Standard - VERSION 2.0
WRAP.           NO    :One Line per depth step
PROD.  Schlumberger   :LAS Producer
PROG.  DLIS to ASCII 19C2-270                          :LAS Program name and version
CREA.        2017/09/16 17:42                          :LAS Creation date {YYYY/MM/DD hh:mm}
DLIS_CREA.  2017-Sep-15 14:18                          :DLIS Creation date and time {YYYY-MMM-DD hh:mm}
SOURCE.     LPC_S2-1_AV.DLIS                           :DLIS File Name
FILE-ID.     PERFO_Perfo_WPGRT_028LTP                  :File Identification Number
#--------------------------------------------------
~WELL INFORMATION
#MNEM.UNIT      DATA             DESCRIPTION
#---- ------ --------------   -----------------------------
STRT .S        12646.0       :START TIME      
STOP .S        13087.0       :STOP TIME      
STEP .S            1.0       :STEP     
NULL .          -999.25      :NULL VALUE
COMP .        SHELL INTERNATIONAL E P                  :COMPANY
WELL .        WPP TEST 2                               :WELL
FLD  .        WILDCAT                                  :FIELD
LOC  .                                                 :LOCATION
CNTY .        HARRIS                                   :COUNTY
STAT .        TEXAS                                    :STATE
CTRY .                                                 :COUNTRY
API  .                                                 :API NUMBER
UWI  .                                                 :UNIQUE WELL ID
DATE .                                                 :LOG DATE
SRVC .        Schlumberger                             :SERVICE COMPANY
LATI .DEG                                              :LATITUDE
LONG .DEG                                              :LONGITUDE
GDAT .                                                 :GeoDetic Datum
#-----------------------------------------------------------------------------
~PARAMETER INFORMATION
#MNEM.UNIT    VALUE                      DESCRIPTION
#---- -----   --------------------       ------------------------
U-PHASE_B_COMP_PER_YT.                 0 :Phase B Comparator Period Yt
U-PHASE_A_COMP_PER_XT.                 0 :Phase A Comparator Period Xt
U-MAX_EXC_CUR_LIMIT.MA       240.00000   :Requested CM Current Limit
U-REQ_EXC_FQ.HZ              50          :Requested CM Frequency
U-TILT_Y_OFFSET.           0.19916       :WPTET Tilt Y Offset
U-TILT_Y_GAIN.           1.01796         :WPTET Tilt Y Gain
U-TILT_X_OFFSET.          -1.77103       :WPTET Tilt X Offset
U-TILT_X_GAIN.           1.00000         :WPTET Tilt X Gain
U-TILT_OFFSET_TOL.           0.00100     :WPTET Tilt Offset Calibration Tolerance
U-NO_TILT_CAL_ROTATIONS.                 3 :Number of Rotations for Tilt Calibration
HAZI .DEG        0.00000                 :Hole Azimuth
U-STD_TOL_TILT.           0.01000        :Tilt Standard Deviation Tolerance
U-GUN_POS_TOL.DEG        5.00000         :Gun Position Tolerance
ROT_ANGLE_THRESHOLD.DEG        5.00000   :Rotation Stop Angle Tolerance
STOP_ROT_ANGLE.DEG       80.00000        :Rotation Stop Angle
WITN .                                   :Witness's Name
ENGI .                                   :Engineer's Name
COUN .        HARRIS                     :County or Rig Name
FN   .        WILDCAT                    :Field Name
WN   .        WPP TEST 2                 :Well Name
CN   .        SHELL INTERNATIONAL E P    :Company Name
CLAB .        County                     :County/Rig Label
SLAB .        State                      :State/Province Label
RUN  .          1                        :RUN NUMBER
PDAT .        GROUND LEVEL               :Permanent Datum
EPD  .                                   :Elevation of Permanent Datum above Mean Sea Level
LMF  .                                   :Logging Measured From (Name of Logging Elevation Reference)
APD  .                                   :Elevation of Depth Reference (LMF) above Permanent Datum
#-----------------------------------------------------------------------------
~CURVE INFORMATION
#MNEM.UNIT   API CODE                                  DESCRIPTION
#---- -----  --------                                  -----------------------
TIME .S                                                :TIME {F10.1}
FREQ_EMF_SL.HZ                                         :Electromagnetic Field Frequency {F13.4}
PH_SH_WPPCM_SL.DEG                                     :WPPCM Phase Shift {F13.4}
FREQ_EXC_REQ_SL.HZ                                     :Requested Exciter Frequency {F13.4}
RB_SL.DEG                                              :Relative Bearing {F13.4}
SDEV_SL.DEG                                            :Sonde Deviation {F13.4}
TILX_SL.DEG                                            :X-axis Tilt {F13.4}
TILY_SL.DEG                                            :Y-axis Tilt {F13.4}
ROTA_SL.DEG                                            :Motor Rotation Angle {F13.4}
MSPE_SL.RPM                                            :Motor Speed {F13.4}
#-----------------------------------------------------------------------------
# 
#     TIME    FREQ_EMF_SL  PH_SH_WPPCM_ FREQ_EXC_REQ    RB_SL       SDEV_SL      TILX_SL      TILY_SL      ROTA_SL      MSPE_SL
#                          SL           _SL
~A  
# ...
   12898.0    1642.8153       0.0000      50.8611     -58.9547       0.9629      -0.8251      -0.4959      53.3631       0.9858
   12899.0    1646.0043       0.0000      50.8611     -62.7898       0.8977      -0.7990      -0.3958      59.4501       1.0226
   12900.0    1636.2226       0.0000      50.8611     -56.4676       1.0312      -0.8582      -0.5706      65.5505       1.0226
   12901.0    1619.0794       0.0000      50.8611     -54.1403       0.9370      -0.7598      -0.5481      71.6537       1.0226
   12902.0    1606.3184       0.0000      50.8611     -55.5899       0.9594      -0.7930      -0.5368      77.7569       1.0226
   12903.0    1589.1691       0.0000      50.8611     -59.9089       0.8916      -0.7709      -0.4479      83.8573       1.0226
   12904.0    1569.4755       0.0000      50.8611     -51.2470       0.9999      -0.7779      -0.6258      89.9452       1.0226
   12905.0    1549.0987       0.0000      50.8611     -52.0228       0.9524      -0.7488      -0.5849      96.0484       1.0226
   12906.0    1523.7353       0.0000      50.8611     -61.1360       0.9258      -0.8110      -0.4438     102.1516       1.0226
   12907.0    1500.9661       0.0000      50.8611     -59.0708       0.9070      -0.7779      -0.4663     108.2520       1.0226
   12908.0    1472.6725       0.0000      50.8611     -57.8558       0.9876      -0.8361      -0.5256     114.3524       1.0226
   12909.0    1454.3953       0.0000      50.8611     -61.7877       0.9865      -0.8693      -0.4663     120.4555       1.0226
   12910.0    1430.7200       0.0000      50.8611     -62.3139       1.0273      -0.9054      -0.4806     126.9531       1.0226
   12911.0    1403.4431       0.0000      50.8611     -56.9149       0.9846      -0.8251      -0.5368     133.0535       1.0226
   12912.0    1374.0301       0.0000      50.8611     -62.8568       0.9297      -0.8141      -0.4223     139.1568       1.0226
   12913.0    1351.7175       0.0000      50.8611     -68.5481       0.9719      -0.8984      -0.3590     145.2601       1.0226
   12914.0    1329.8511       0.0000      50.8611     -59.3690       1.0315      -0.8874      -0.5256     151.3516       1.0197
   12915.0    1295.5465       0.0000      50.8611     -55.9332       1.0848      -0.8984      -0.6074     157.4362       1.0226
   12916.0    1249.0412       0.0000      50.8611     -56.1491       0.9886      -0.8221      -0.5481     163.5395       1.0304
   12917.0    1191.6195       0.0000      50.8611     -60.5337       0.9860      -0.8582      -0.4847     169.6558       1.0226
   12918.0    1140.9280       0.0000      50.8611     -61.4377       1.0632      -0.9275      -0.5102     175.7563       1.0226
   12919.0    1089.5439       0.0000      50.8611     -61.7607       1.0068      -0.8833      -0.4806     181.8569       1.0226
   12920.0    1043.5513       0.0000      50.8611     -62.2522       1.2703      -1.1243      -0.5890     187.9615       1.0256
   12921.0    1020.8247       0.0000      50.8611     -58.2694       1.0832      -0.9205      -0.5706     194.0744       1.0304
   12922.0    1006.5509       0.0000      50.8611     -61.5879       1.0563      -0.9275      -0.5031     200.5858       1.0179
   12923.0     988.5421       0.0000      50.8611     -58.3540       1.0031      -0.8542      -0.5256     206.6893       1.0226
   12924.0     978.5980       0.0000      50.8611     -62.1471       1.1155      -0.9888      -0.5143     212.8056       1.0226
   12925.0     977.9207       0.0000      50.8611     -63.1733       1.0128      -0.9024      -0.4591     218.9061       1.0226
   12926.0     972.5104       0.0000      50.8611     -60.0040       1.0965      -0.9496      -0.5481     225.0066       1.0226
   12927.0     970.7988       0.0000      50.8611     -54.5609       1.1279      -0.9165      -0.6554     231.1099       1.0226
   12928.0     974.8366       0.0000      50.8611     -55.7385       1.1156      -0.9205      -0.6258     237.2132       1.0226
   12929.0     978.6709       0.0000      50.8611     -54.8710       1.0793      -0.8833      -0.6186     243.3137       1.0150
   12930.0     985.3915       0.0000      50.8611     -57.6099       1.0249      -0.8653      -0.5481     249.4025       1.0226
   12931.0     994.0018       0.0000      50.8611     -62.0182       0.9749      -0.8582      -0.4591     255.4935       1.0226
   12932.0    1003.1810       0.0000      50.8611     -57.4938       1.1445      -0.9637      -0.6114     261.6099       1.0150
   12933.0    1024.9635       0.0000      50.8611     -54.4653       0.8969      -0.7297      -0.5215     267.7110       1.0226
   12934.0    1043.9110       0.0000      50.8611     -59.6325       1.0622      -0.9165      -0.5368     274.2206       1.0226
   12935.0    1084.3161       0.0000      50.8611     -54.2540       1.1292      -0.9165      -0.6595     280.3237       1.0226
   12936.0    1142.9593       0.0000      50.8611     -60.1134       1.0271      -0.8763      -0.5154     286.4370       1.0226
   12937.0    1220.8978       0.0000      50.8611     -57.8067       1.0494      -0.8874      -0.5593     292.5373       1.0226
   12938.0    1255.3690       0.0000      50.8611     -60.2632       1.0010      -0.8693      -0.4959     298.6404       1.0226
   12939.0    1284.3673       0.0000      50.8611     -61.0664       1.1029      -0.9637      -0.5297     304.7478       1.0150
   12940.0    1317.1534       0.0000      50.8611     -54.4528       1.0326      -0.8402      -0.6002     310.8447       1.0150
   12941.0    1341.6012       0.0000      50.8611     -50.2382       1.0788      -0.8291      -0.6891     316.9327       1.0226
   12942.0    1369.1503       0.0000      50.8611     -56.3176       1.0749      -0.8944      -0.5961     323.0358       1.0226
   12943.0    1391.0915       0.0000      50.8611     -58.5044       0.9131      -0.7779      -0.4775     329.1388       1.0226
   12944.0    1417.5908       0.0000      50.8611     -53.8871       0.9992      -0.8070      -0.5890     335.2522       1.0226
   12945.0    1446.4810       0.0000      50.8611     -49.0071       1.0844      -0.8141      -0.7147     341.3525       1.0226
   12946.0    1469.2874       0.0000      50.8611     -54.5991       1.0170      -0.8291      -0.5890     347.8691       1.0150
   12947.0    1498.3232       0.0000      50.8611     -57.7150       0.9073      -0.7669      -0.4847     353.9660       1.0226
   12948.0    1532.4600       0.0000      50.8611     -57.2174       1.0069      -0.8432      -0.5409      99.0663       1.0226
   12949.0    1555.2664       0.0000      50.8611     -56.0242       1.0002      -0.8291      -0.5593       6.1825       1.0226
   12950.0    1576.5134       0.0000      50.8611     -53.0944       1.0502      -0.8402      -0.6298      12.2867       1.0226
   12951.0    1592.7691       0.0000      50.8611     -56.5662       1.0287      -0.8582      -0.5665      18.3783       1.0150
   12952.0    1617.5519       0.0000      50.8611     -58.4555       0.9414      -0.8030      -0.4903      24.4926       1.0204
   12953.0    1624.8790       0.0000      50.8611     -55.7220       1.0473      -0.8653      -0.5890      30.5924       1.0226
   12954.0    1644.5517       0.0000      50.8611     -53.2098       0.8583      -0.6865      -0.5143      36.6867       1.0150
   12955.0    1647.3541       0.0000      50.8611     -55.5702       0.9174      -0.7558      -0.5184      42.7837       1.0226
   12956.0    1650.5282       0.0000      50.8611     -53.5334       0.9077      -0.7307      -0.5368      48.8972       1.0226
   12957.0    1649.4652       0.0000      50.8611     -59.2141       1.2121      -1.0259      -0.6288      55.0004       1.0226
   12958.0    1649.4652       0.0000      50.8611     -54.7724       0.9116      -0.7448      -0.5256      61.5241       1.0226
   12959.0    1642.8153       0.0000      50.8611     -52.3792       0.9332      -0.7377      -0.5706      67.6245       1.0304
   12960.0    1623.8453       0.0000      50.8611     -58.7431       1.0929      -0.9346      -0.5665      73.7407       1.0226
