~VERSION INFORMATION
VERS.           2.0   :CWLS Log ASCII Standard - VERSION 2.0
WRAP.           NO    :One Line per depth step
PROD.  Schlumberger   :LAS Producer
PROG.  DLIS to ASCII 19C2-270                          :LAS Program name and version
CREA.        2017/09/16 17:42                          :LAS Creation date {YYYY/MM/DD hh:mm}
DLIS_CREA.  2017-Sep-15 14:39                          :DLIS Creation date and time {YYYY-MMM-DD hh:mm}
SOURCE.     LPC_S2-1_B5.DLIS                           :DLIS File Name
FILE-ID.     PERFO_Perfo_WPGRT_030LTP                  :File Identification Number
#--------------------------------------------------
~WELL INFORMATION
#MNEM.UNIT      DATA             DESCRIPTION
#---- ------ --------------   -----------------------------
STRT .S        13946.0       :START TIME      
STOP .S        14402.0       :STOP TIME      
STEP .S            1.0       :STEP     
NULL .          -999.25      :NULL VALUE
COMP .        SHELL INTERNATIONAL E P                  :COMPANY
WELL .        WPP TEST 2                               :WELL
FLD  .        WILDCAT                                  :FIELD
LOC  .                                                 :LOCATION
CNTY .        HARRIS                                   :COUNTY
STAT .        TEXAS                                    :STATE
CTRY .                                                 :COUNTRY
API  .                                                 :API NUMBER
UWI  .                                                 :UNIQUE WELL ID
DATE .                                                 :LOG DATE
SRVC .        Schlumberger                             :SERVICE COMPANY
LATI .DEG                                              :LATITUDE
LONG .DEG                                              :LONGITUDE
GDAT .                                                 :GeoDetic Datum
#-----------------------------------------------------------------------------
~PARAMETER INFORMATION
#MNEM.UNIT    VALUE                      DESCRIPTION
#---- -----   --------------------       ------------------------
U-PHASE_B_COMP_PER_YT.                 0 :Phase B Comparator Period Yt
U-PHASE_A_COMP_PER_XT.                 0 :Phase A Comparator Period Xt
U-MAX_EXC_CUR_LIMIT.MA       240.00000   :Requested CM Current Limit
U-REQ_EXC_FQ.HZ              50          :Requested CM Frequency
U-TILT_Y_OFFSET.           0.19916       :WPTET Tilt Y Offset
U-TILT_Y_GAIN.           1.01796         :WPTET Tilt Y Gain
U-TILT_X_OFFSET.          -1.77103       :WPTET Tilt X Offset
U-TILT_X_GAIN.           1.00000         :WPTET Tilt X Gain
U-TILT_OFFSET_TOL.           0.00100     :WPTET Tilt Offset Calibration Tolerance
U-NO_TILT_CAL_ROTATIONS.                 3 :Number of Rotations for Tilt Calibration
HAZI .DEG        0.00000                 :Hole Azimuth
U-STD_TOL_TILT.           0.01000        :Tilt Standard Deviation Tolerance
U-GUN_POS_TOL.DEG        5.00000         :Gun Position Tolerance
ROT_ANGLE_THRESHOLD.DEG        5.00000   :Rotation Stop Angle Tolerance
STOP_ROT_ANGLE.DEG       80.00000        :Rotation Stop Angle
WITN .                                   :Witness's Name
ENGI .                                   :Engineer's Name
COUN .        HARRIS                     :County or Rig Name
FN   .        WILDCAT                    :Field Name
WN   .        WPP TEST 2                 :Well Name
CN   .        SHELL INTERNATIONAL E P    :Company Name
CLAB .        County                     :County/Rig Label
SLAB .        State                      :State/Province Label
RUN  .          1                        :RUN NUMBER
PDAT .        GROUND LEVEL               :Permanent Datum
EPD  .                                   :Elevation of Permanent Datum above Mean Sea Level
LMF  .                                   :Logging Measured From (Name of Logging Elevation Reference)
APD  .                                   :Elevation of Depth Reference (LMF) above Permanent Datum
#-----------------------------------------------------------------------------
~CURVE INFORMATION
#MNEM.UNIT   API CODE                                  DESCRIPTION
#---- -----  --------                                  -----------------------
TIME .S                                                :TIME {F10.1}
FREQ_EMF_SL.HZ                                         :Electromagnetic Field Frequency {F13.4}
PH_SH_WPPCM_SL.DEG                                     :WPPCM Phase Shift {F13.4}
FREQ_EXC_REQ_SL.HZ                                     :Requested Exciter Frequency {F13.4}
RB_SL.DEG                                              :Relative Bearing {F13.4}
SDEV_SL.DEG                                            :Sonde Deviation {F13.4}
TILX_SL.DEG                                            :X-axis Tilt {F13.4}
TILY_SL.DEG                                            :Y-axis Tilt {F13.4}
ROTA_SL.DEG                                            :Motor Rotation Angle {F13.4}
MSPE_SL.RPM                                            :Motor Speed {F13.4}
#-----------------------------------------------------------------------------
# 
#     TIME    FREQ_EMF_SL  PH_SH_WPPCM_ FREQ_EXC_REQ    RB_SL       SDEV_SL      TILX_SL      TILY_SL      ROTA_SL      MSPE_SL
#                          SL           _SL
~A  
# ...
   14324.0    1496.0106       0.0000      50.8611    -136.3388       4.1204      -2.8435       2.9795     174.7062       1.0317
   14325.0    1474.0566       0.0000      50.8611    -130.3904       4.0513      -3.0845       2.6238     180.8272       1.0242
   14326.0    1448.5602       0.0000      50.8611    -125.0706       4.1920      -3.4299       2.4071     186.9269       1.0226
   14327.0    1433.3470       0.0000      50.8611    -118.2508       4.3371      -3.8195       2.0514     193.0135       1.0226
   14328.0    1416.3124       0.0000      50.8611    -113.1853       4.3677      -4.0143       1.7181     199.1306       1.0242
   14329.0    1381.7929       0.0000      50.8611    -107.8516       4.5428      -4.3236       1.3910     205.5919       1.0226
   14330.0    1367.2990       0.0000      50.8611    -103.3078       4.6269      -4.5024       1.0639     211.7541       1.0226
   14331.0    1345.9616       0.0000      50.8611     -97.4480       4.7433      -4.7032       0.6142     217.8581       1.0226
   14332.0    1324.9035       0.0000      50.8611     -93.0482       4.7502      -4.7434       0.2523     223.9622       1.0226
   14333.0    1302.0834       0.0000      50.8611     -88.7575       4.8873      -4.8860      -0.1055     230.0619       1.0226
   14334.0    1271.2631       0.0000      50.8611     -82.8151       4.9842      -4.9442      -0.6227     236.1388       1.0210
   14335.0    1212.9736       0.0000      50.8611     -77.2677       4.8462      -4.7268      -1.0668     242.2287       1.0226
   14336.0    1168.8591       0.0000      50.8611     -71.2845       4.9728      -4.7092      -1.5938     248.3354       1.0136
   14337.0    1129.1568       0.0000      50.8611     -65.6626       5.0484      -4.5988      -2.0783     254.4333       1.0226
   14338.0    1095.4666       0.0000      50.8611     -63.6916       4.9992      -4.4803      -2.2132     260.5329       1.0226
   14339.0    1067.0540       0.0000      50.8611     -56.4293       4.8304      -4.0224      -2.6671     266.6355       1.0242
   14340.0    1036.8284       0.0000      50.8611     -52.0624       4.9905      -3.9340      -3.0657     272.7403       1.0242
   14341.0    1010.6738       0.0000      50.8611     -49.4096       5.0116      -3.8035      -3.2579     279.1860       1.0226
   14342.0     996.1397       0.0000      50.8611     -43.6958       5.0180      -3.4641      -3.6259     285.3444       1.0210
   14343.0     982.0181       0.0000      50.8611     -39.3952       5.0729      -3.2170      -3.9183     291.4325       1.0226
   14344.0     984.3563       0.0000      50.8611     -33.8467       4.8750      -2.7129      -4.0471     297.5185       1.0210
   14345.0     976.9705       0.0000      50.8611     -27.5321       4.9064      -2.2651      -4.3496     303.6180       1.0226
   14346.0     976.5625       0.0000      50.8611     -24.7256       4.8437      -2.0241      -4.3987     309.7218       1.0226
   14347.0     977.4281       0.0000      50.8611     -20.0164       4.6958      -1.6053      -4.4115     315.8262       1.0226
   14348.0     986.2314       0.0000      50.8611     -14.9293       4.6966      -1.2087      -4.5377     321.9135       1.0226
   14349.0    1000.3293       0.0000      50.8611      -7.8282       4.6158      -0.6283      -4.5725     328.0130       1.0226
   14350.0    1019.3979       0.0000      50.8611      -4.5688       4.3782      -0.3491      -4.3639     334.1176       1.0334
   14351.0    1057.5008       0.0000      50.8611       0.4027       4.3293       0.0304      -4.3292     340.2345       1.0317
   14352.0    1086.4949       0.0000      50.8611       6.1535       4.3177       0.4622      -4.2924     346.3471       1.0226
   14353.0    1121.6034       0.0000      50.8611      11.6186       4.1153       0.8278      -4.0307     352.4466       1.0226
   14354.0    1175.7164       0.0000      50.8611      18.3981       4.2176       1.3298      -4.0000     358.9736       1.0242
   14355.0    1226.6963       0.0000      50.8611      21.3704       3.8831       1.4142      -3.6157       5.0733       1.0226
   14356.0    1260.0807       0.0000      50.8611      28.5602       3.9311       1.8781      -3.4521      11.1860       1.0226
   14357.0    1287.7748       0.0000      50.8611      37.0304       3.7108       2.2336      -2.9615      17.2900       1.0226
   14358.0    1316.6188       0.0000      50.8611      41.1704       3.7180       2.4465      -2.7979      23.3939       1.0226
   14359.0    1338.6443       0.0000      50.8611      48.6922       3.5627       2.6754      -2.3507      29.5197       1.0242
   14360.0    1364.4990       0.0000      50.8611      54.6207       3.4322       2.7979      -1.9863      35.6324       1.0226
   14361.0    1383.2902       0.0000      50.8611      61.8933       3.2755       2.8883      -1.5427      41.7495       1.0226
   14362.0    1406.2500       0.0000      50.8611      68.9283       3.2683       3.0490      -1.1747      47.8524       1.0242
   14363.0    1432.0265       0.0000      50.8611      75.3031       3.0410       2.9405      -0.7719      53.9293       1.0226
   14364.0    1455.2942       0.0000      50.8611      83.0688       3.0035       2.9807      -0.3631      60.0167       1.0226
   14365.0    1474.5211       0.0000      50.8611      92.7746       2.8860       2.8823       0.1399      66.1207       1.0226
   14366.0    1498.2455       0.0000      50.8611      98.6167       2.8869       2.8542       0.4322      72.6305       1.0226
   14367.0    1512.5856       0.0000      50.8611     108.6206       2.9996       2.8421       0.9576      78.7432       1.0226
   14368.0    1534.7057       0.0000      50.8611     115.9670       2.8556       2.5670       1.2500      84.8602       1.0242
   14369.0    1553.5394       0.0000      50.8611     123.8952       2.9769       2.4706       1.6589      90.9771       1.0226
   14370.0    1558.5181       0.0000      50.8611     134.4987       2.9332       2.0910       2.0555      97.0768       1.0226
   14371.0    1570.5312       0.0000      50.8611     138.3265       3.0346       2.0167       2.2660     103.1764       1.0226
   14372.0    1583.0811       0.0000      50.8611     149.3687       3.1711       1.6150       2.7281     109.2942       1.0226
   14373.0    1586.1196       0.0000      50.8611     154.3421       3.0021       1.2997       2.7056     114.6922       0.0006
   14374.0    1584.6897       0.0000      50.8611     156.0417       3.1578       1.2816       2.8855     114.7539       0.0005
   14375.0    1588.8128       0.0000      50.8611     154.2425       3.0429       1.3218       2.7403     114.7539       0.0005
   14376.0    1594.3877       0.0000      50.8611     155.4229       3.1353       1.3037       2.8507     114.7539       0.0005
   14377.0    1596.3881       0.0000      50.8611     154.6494       3.1684       1.3559       2.8630     114.7539       0.0005
   14378.0    1590.2420       0.0000      50.8611     153.4626       3.0496       1.3620       2.7281     114.7539       0.0005
   14379.0    1588.2693       0.0000      50.8611     155.2176       3.1402       1.3158       2.8507     114.7539       0.0005
   14380.0    1590.7806       0.0000      50.8611     153.7018       3.0115       1.3339       2.6995     114.7539       0.0005
   14381.0    1593.8466       0.0000      50.8611     156.2567       3.1148       1.2535       2.8507     114.7539       0.0005
   14382.0    1590.7806       0.0000      50.8611     154.3742       3.0851       1.3339       2.7812     114.7539       0.0005
   14383.0    1585.2308       0.0000      50.8611     156.6557       3.1497       1.2475       2.8916     114.7539       0.0005
   14384.0    1593.8466       0.0000      50.8611     153.8522       3.0918       1.3620       2.7751     114.7539       0.0005
   14385.0    1587.7282       0.0000      50.8611     154.2946       3.1009       1.3439       2.7935     114.7539       0.0005
   14386.0    1590.7806       0.0000      50.8611     153.3522       3.1900       1.4303       2.8507     114.7539       0.0005
