~VERSION INFORMATION
VERS.           2.0   :CWLS Log ASCII Standard - VERSION 2.0
WRAP.           NO    :One Line per depth step
PROD.  Schlumberger   :LAS Producer
PROG.  DLIS to ASCII 19C2-270                          :LAS Program name and version
CREA.        2017/09/16 17:42                          :LAS Creation date {YYYY/MM/DD hh:mm}
DLIS_CREA.  2017-Sep-15 13:07                          :DLIS Creation date and time {YYYY-MMM-DD hh:mm}
SOURCE.     LPC_S1-1_2AV.DLIS                          :DLIS File Name
FILE-ID.     PERFO_Perfo_WPGRT_022LTP                  :File Identification Number
#--------------------------------------------------
~WELL INFORMATION
#MNEM.UNIT      DATA             DESCRIPTION
#---- ------ --------------   -----------------------------
STRT .S         8392.0       :START TIME      
STOP .S         9264.0       :STOP TIME      
STEP .S            1.0       :STEP     
NULL .          -999.25      :NULL VALUE
COMP .        SHELL INTERNATIONAL E P                  :COMPANY
WELL .        WPP TEST 2                               :WELL
FLD  .        WILDCAT                                  :FIELD
LOC  .                                                 :LOCATION
CNTY .        HARRIS                                   :COUNTY
STAT .        TEXAS                                    :STATE
CTRY .                                                 :COUNTRY
API  .                                                 :API NUMBER
UWI  .                                                 :UNIQUE WELL ID
DATE .                                                 :LOG DATE
SRVC .        Schlumberger                             :SERVICE COMPANY
LATI .DEG                                              :LATITUDE
LONG .DEG                                              :LONGITUDE
GDAT .                                                 :GeoDetic Datum
#-----------------------------------------------------------------------------
~PARAMETER INFORMATION
#MNEM.UNIT    VALUE                      DESCRIPTION
#---- -----   --------------------       ------------------------
U-PHASE_B_COMP_PER_YT.                 0 :Phase B Comparator Period Yt
U-PHASE_A_COMP_PER_XT.                 0 :Phase A Comparator Period Xt
U-MAX_EXC_CUR_LIMIT.MA       240.00000   :Requested CM Current Limit
U-REQ_EXC_FQ.HZ              50          :Requested CM Frequency
U-TILT_Y_OFFSET.           0.19916       :WPTET Tilt Y Offset
U-TILT_Y_GAIN.           1.01796         :WPTET Tilt Y Gain
U-TILT_X_OFFSET.          -1.77103       :WPTET Tilt X Offset
U-TILT_X_GAIN.           1.00000         :WPTET Tilt X Gain
U-TILT_OFFSET_TOL.           0.00100     :WPTET Tilt Offset Calibration Tolerance
U-NO_TILT_CAL_ROTATIONS.                 3 :Number of Rotations for Tilt Calibration
HAZI .DEG        0.00000                 :Hole Azimuth
U-STD_TOL_TILT.           0.01000        :Tilt Standard Deviation Tolerance
U-GUN_POS_TOL.DEG        5.00000         :Gun Position Tolerance
ROT_ANGLE_THRESHOLD.DEG        5.00000   :Rotation Stop Angle Tolerance
STOP_ROT_ANGLE.DEG       80.00000        :Rotation Stop Angle
WITN .                                   :Witness's Name
ENGI .                                   :Engineer's Name
COUN .        HARRIS                     :County or Rig Name
FN   .        WILDCAT                    :Field Name
WN   .        WPP TEST 2                 :Well Name
CN   .        SHELL INTERNATIONAL E P    :Company Name
CLAB .        County                     :County/Rig Label
SLAB .        State                      :State/Province Label
RUN  .          1                        :RUN NUMBER
PDAT .        GROUND LEVEL               :Permanent Datum
EPD  .                                   :Elevation of Permanent Datum above Mean Sea Level
LMF  .                                   :Logging Measured From (Name of Logging Elevation Reference)
APD  .                                   :Elevation of Depth Reference (LMF) above Permanent Datum
#-----------------------------------------------------------------------------
~CURVE INFORMATION
#MNEM.UNIT   API CODE                                  DESCRIPTION
#---- -----  --------                                  -----------------------
TIME .S                                                :TIME {F10.1}
FREQ_EMF_SL.HZ                                         :Electromagnetic Field Frequency {F13.4}
PH_SH_WPPCM_SL.DEG                                     :WPPCM Phase Shift {F13.4}
FREQ_EXC_REQ_SL.HZ                                     :Requested Exciter Frequency {F13.4}
RB_SL.DEG                                              :Relative Bearing {F13.4}
SDEV_SL.DEG                                            :Sonde Deviation {F13.4}
TILX_SL.DEG                                            :X-axis Tilt {F13.4}
TILY_SL.DEG                                            :Y-axis Tilt {F13.4}
ROTA_SL.DEG                                            :Motor Rotation Angle {F13.4}
MSPE_SL.RPM                                            :Motor Speed {F13.4}
#-----------------------------------------------------------------------------
# 
#     TIME    FREQ_EMF_SL  PH_SH_WPPCM_ FREQ_EXC_REQ    RB_SL       SDEV_SL      TILX_SL      TILY_SL      ROTA_SL      MSPE_SL
#                          SL           _SL
~A  
# ...
    8581.0    1375.9785       0.0000      50.8611     -52.9521       1.0464      -0.8335      -0.6317     301.3646       1.0226
    8582.0    1375.9785       0.0000      50.8611     -53.3679       0.8884      -0.7130      -0.5299     307.4813       1.0226
    8583.0    1383.6421       0.0000      50.8611     -59.0819       0.8859      -0.7600      -0.4551     313.5708       1.0208
    8584.0    1378.6491       0.0000      50.8611     -56.5025       0.9116      -0.7600      -0.5029     320.0813       1.0208
    8585.0    1380.4659       0.0000      50.8611     -56.9303       0.8598      -0.7199      -0.4690     326.1959       1.0226
    8586.0    1388.1828       0.0000      50.8611     -55.8033       0.8950      -0.7403      -0.5029     332.2852       1.0208
    8587.0    1385.0344       0.0000      50.8611     -56.4938       0.9598      -0.8002      -0.5299     338.3828       1.0226
    8588.0    1386.8344       0.0000      50.8611     -59.3768       0.7843      -0.6737      -0.4011     344.4865       1.0226
    8589.0    1386.8344       0.0000      50.8611     -57.3623       0.8471      -0.7138      -0.4551     350.5910       1.0138
    8590.0    1390.9840       0.0000      50.8611     -57.1083       0.8752      -0.7335      -0.4751     356.6538       1.0226
    8591.0    1397.8628       0.0000      50.8611     -62.4055       0.8951      -0.7934      -0.4142       2.7535       1.0226
    8592.0    1399.2329       0.0000      50.8611     -65.0469       0.9200      -0.8335      -0.3872       8.8573       1.0226
    8593.0    1389.1092       0.0000      50.8611     -58.3456       0.9320      -0.7934      -0.4890      14.9612       1.0226
    8594.0    1388.2377       0.0000      50.8611     -74.0366       0.6341      -0.6010      -0.1905      21.0620       1.0226
    8595.0    1392.7964       0.0000      50.8611     -63.0213       0.8231      -0.7335      -0.3733      27.1608       1.0226
    8596.0    1390.9290       0.0000      50.8611     -69.3068       0.9318      -0.8677      -0.3332      33.6624       1.0208
    8597.0    1391.3931       0.0000      50.8611     -62.7335       0.9408      -0.8343      -0.4272      39.7752       1.0226
    8598.0    1382.7773       0.0000      50.8611     -63.0926       1.0091      -0.9002      -0.4551      45.8756       1.0226
    8599.0    1383.2451       0.0000      50.8611     -58.1256       1.0392      -0.8805      -0.5499      51.9794       1.0226
    8600.0    1388.6451       0.0000      50.8611     -60.9560       0.5160      -0.4540      -0.2445      58.0720       1.0138
    8601.0    1382.2661       0.0000      50.8611     -68.6713       0.9906      -0.9207      -0.3602      64.1585       1.0226
    8602.0    1376.4372       0.0000      50.8611     -61.7870       1.0211      -0.8993      -0.4820      70.2583       1.0226
    8603.0    1373.2910       0.0000      50.8611     -58.5248       1.0020      -0.8540      -0.5229      76.3621       1.0138
    8604.0    1366.1961       0.0000      50.8611     -59.1187       1.0734      -0.9207      -0.5507      82.4536       1.0226
    8605.0    1367.9475       0.0000      50.8611     -66.3878       1.1363      -1.0412      -0.4551      88.5534       1.0315
    8606.0    1364.8415       0.0000      50.8611     -56.4642       1.0686      -0.8882      -0.5838      94.6662       1.0226
    8607.0    1356.9395       0.0000      50.8611     -63.3756       1.0456      -0.9344      -0.4690     100.7628       1.0226
    8608.0    1350.4522       0.0000      50.8611     -63.7986       1.1233      -1.0079      -0.4959     107.1977       1.0226
    8609.0    1350.0093       0.0000      50.8611     -57.9469       1.1097      -0.9420      -0.5847     113.3673       1.0226
    8610.0    1347.3873       0.0000      50.8611     -57.6212       1.0670      -0.9010      -0.5708     119.4711       1.0226
    8611.0    1342.2777       0.0000      50.8611     -54.8625       1.1424      -0.9352      -0.6525     125.5749       1.0226
    8612.0    1339.2858       0.0000      50.8611     -64.2095       1.0979      -0.9874      -0.4759     131.6878       1.0226
    8613.0    1335.5016       0.0000      50.8611     -56.7283       1.1017      -0.9207      -0.6047     137.7877       1.0226
    8614.0    1335.8788       0.0000      50.8611     -56.7240       1.1217      -0.9378      -0.6151     143.8916       1.0226
    8615.0    1328.7325       0.0000      50.8611     -58.4385       1.1045      -0.9412      -0.5777     149.9955       1.0226
    8616.0    1329.1588       0.0000      50.8611     -59.4710       1.1236      -0.9677      -0.5708     156.0954       1.0315
    8617.0    1327.0772       0.0000      50.8611     -55.4490       1.1751      -0.9677      -0.6664     162.1981       1.0208
    8618.0    1333.7734       0.0000      50.8611     -56.4875       1.1206      -0.9344      -0.6186     168.3130       1.0226
    8619.0    1328.3078       0.0000      50.8611     -55.8166       1.2689      -1.0480      -0.7135     174.4170       1.0138
    8620.0    1327.5052       0.0000      50.8611     -57.9681       0.9853      -0.8343      -0.5237     180.8390       1.0315
    8621.0    1332.5369       0.0000      50.8611     -55.9374       1.0800      -0.8942      -0.6047     187.0049       1.0208
    8622.0    1329.1588       0.0000      50.8611     -50.7049       1.0949      -0.8472      -0.6934     193.1077       1.0226
    8623.0    1332.9191       0.0000      50.8611     -56.2218       1.1402      -0.9472      -0.6325     199.2104       1.0138
    8624.0    1327.9347       0.0000      50.8611     -51.8332       1.1886      -0.9344      -0.7343     205.3213       1.0226
    8625.0    1330.8804       0.0000      50.8611     -54.1798       1.0698      -0.8677      -0.6256     211.4129       1.0208
    8626.0    1334.5420       0.0000      50.8611     -53.1522       1.0882      -0.8707      -0.6525     217.5168       1.0226
    8627.0    1335.5016       0.0000      50.8611     -52.4005       1.0695      -0.8472      -0.6525     223.6167       1.0226
    8628.0    1342.2777       0.0000      50.8611     -51.5423       1.0825      -0.8472      -0.6734     229.7274       1.0244
    8629.0    1344.4073       0.0000      50.8611     -47.1053       1.0961      -0.8002      -0.7474     235.8336       1.0226
    8630.0    1342.2777       0.0000      50.8611     -49.9387       1.0889      -0.8335      -0.7004     241.9505       1.0244
    8631.0    1348.6908       0.0000      50.8611     -38.2063       0.9739      -0.6010      -0.7474     248.0392       1.0226
    8632.0    1346.5450       0.0000      50.8611     -47.1566       1.0106      -0.7403      -0.6865     254.1380       1.0226
    8633.0    1353.8847       0.0000      50.8611     -65.8156       1.1595      -1.0532      -0.4559     260.6649       1.0244
    8634.0    1356.1078       0.0000      50.8611     -53.8978       1.0015      -0.8070      -0.5908     266.7400       1.0226
    8635.0    1355.2134       0.0000      50.8611     -50.3193       0.9704      -0.7472      -0.6186     272.8396       1.0226
    8636.0    1364.8415       0.0000      50.8611     -47.7170       1.0008      -0.7403      -0.6734     278.9433       1.0226
    8637.0    1366.5981       0.0000      50.8611     -56.3648       1.0641      -0.8866      -0.5847     285.0470       1.0226
    8638.0    1364.8415       0.0000      50.8611     -52.5874       0.8394      -0.6668      -0.5098     291.1473       1.0138
    8639.0    1368.8559       0.0000      50.8611     -55.4065       0.9377      -0.7729      -0.5299     297.2345       1.0226
    8640.0    1377.7610       0.0000      50.8611     -52.6071       0.8729      -0.6934      -0.5299     303.3382       1.0226
    8641.0    1377.7610       0.0000      50.8611     -14.7881       0.4211      -0.1463      -0.3671     309.4529       1.0334
    8642.0    1371.5260       0.0000      50.8611     -53.9612       1.2138      -0.9813      -0.7143     315.5678       1.0226
    8643.0    1373.7479       0.0000      50.8611     -54.1511       0.9052      -0.7335      -0.5299     321.6675       1.0226
