~VERSION INFORMATION
VERS.           2.0   :CWLS Log ASCII Standard - VERSION 2.0
WRAP.           NO    :One Line per depth step
PROD.  Schlumberger   :LAS Producer
PROG.  DLIS to ASCII 19C2-270                          :LAS Program name and version
CREA.        2017/09/16 17:42                          :LAS Creation date {YYYY/MM/DD hh:mm}
DLIS_CREA.  2017-Sep-15 18:24                          :DLIS Creation date and time {YYYY-MMM-DD hh:mm}
SOURCE.     LPC_S4-1_2B5.DLIS                          :DLIS File Name
FILE-ID.     PERFO_Perfo_WPGRT_055LTP                  :File Identification Number
#--------------------------------------------------
~WELL INFORMATION
#MNEM.UNIT      DATA             DESCRIPTION
#---- ------ --------------   -----------------------------
STRT .S         5021.0       :START TIME      
STOP .S         5478.0       :STOP TIME      
STEP .S            1.0       :STEP     
NULL .          -999.25      :NULL VALUE
COMP .        SHELL INTERNATIONAL E P                  :COMPANY
WELL .        WPP TEST 2                               :WELL
FLD  .        WILDCAT                                  :FIELD
LOC  .        NA                                       :LOCATION
CNTY .        HARRIS                                   :COUNTY
STAT .        TEXAS                                    :STATE
CTRY .                                                 :COUNTRY
API  .        NA                                       :API NUMBER
UWI  .                                                 :UNIQUE WELL ID
DATE .        15-Sep-2017                              :LOG DATE {DD-MMM-YYYY}
SRVC .        Schlumberger                             :SERVICE COMPANY
LATI .DEG                                              :LATITUDE
LONG .DEG                                              :LONGITUDE
GDAT .                                                 :GeoDetic Datum
SECT .        NA                                       :Section
RANG .        NA                                       :Range
TOWN .        NA                                       :Township
#-----------------------------------------------------------------------------
~PARAMETER INFORMATION
#MNEM.UNIT    VALUE                      DESCRIPTION
#---- -----   --------------------       ------------------------
U-PHASE_B_COMP_PER_YT.                 0 :Phase B Comparator Period Yt
U-PHASE_A_COMP_PER_XT.                 0 :Phase A Comparator Period Xt
U-MAX_EXC_CUR_LIMIT.MA       240.00000   :Requested CM Current Limit
U-REQ_EXC_FQ.HZ              50          :Requested CM Frequency
U-TILT_Y_OFFSET.           0.19916       :WPTET Tilt Y Offset
U-TILT_Y_GAIN.           1.01796         :WPTET Tilt Y Gain
U-TILT_X_OFFSET.          -1.77103       :WPTET Tilt X Offset
U-TILT_X_GAIN.           1.00000         :WPTET Tilt X Gain
U-TILT_OFFSET_TOL.           0.00100     :WPTET Tilt Offset Calibration Tolerance
U-NO_TILT_CAL_ROTATIONS.                 3 :Number of Rotations for Tilt Calibration
HAZI .DEG        0.00000                 :Hole Azimuth
U-STD_TOL_TILT.           0.01000        :Tilt Standard Deviation Tolerance
U-GUN_POS_TOL.DEG        5.00000         :Gun Position Tolerance
ROT_ANGLE_THRESHOLD.DEG        5.00000   :Rotation Stop Angle Tolerance
STOP_ROT_ANGLE.DEG        0.00000        :Rotation Stop Angle
WITN .        MR. DHRUA ARORA            :Witness's Name
ENGI .        MORRIS MOORE               :Engineer's Name
COUN .        HARRIS                     :County or Rig Name
FN   .        WILDCAT                    :Field Name
WN   .        WPP TEST 2                 :Well Name
CN   .        SHELL INTERNATIONAL E P    :Company Name
CLAB .        County                     :County/Rig Label
SLAB .        State                      :State/Province Label
RUN  .          1                        :RUN NUMBER
PDAT .        GROUND LEVEL               :Permanent Datum
EPD  .                                   :Elevation of Permanent Datum above Mean Sea Level
LMF  .          NA                       :Logging Measured From (Name of Logging Elevation Reference)
APD  .                                   :Elevation of Depth Reference (LMF) above Permanent Datum
#-----------------------------------------------------------------------------
~CURVE INFORMATION
#MNEM.UNIT   API CODE                                  DESCRIPTION
#---- -----  --------                                  -----------------------
TIME .S                                                :TIME {F10.1}
FREQ_EMF_SL.HZ                                         :Electromagnetic Field Frequency {F13.4}
PH_SH_WPPCM_SL.DEG                                     :WPPCM Phase Shift {F13.4}
FREQ_EXC_REQ_SL.HZ                                     :Requested Exciter Frequency {F13.4}
RB_SL.DEG                                              :Relative Bearing {F13.4}
SDEV_SL.DEG                                            :Sonde Deviation {F13.4}
TILX_SL.DEG                                            :X-axis Tilt {F13.4}
TILY_SL.DEG                                            :Y-axis Tilt {F13.4}
ROTA_SL.DEG                                            :Motor Rotation Angle {F13.4}
MSPE_SL.RPM                                            :Motor Speed {F13.4}
#-----------------------------------------------------------------------------
# 
#     TIME    FREQ_EMF_SL  PH_SH_WPPCM_ FREQ_EXC_REQ    RB_SL       SDEV_SL      TILX_SL      TILY_SL      ROTA_SL      MSPE_SL
#                          SL           _SL
~A  
# ...
    5399.0    1373.2158       0.0000      50.8611      62.6812       4.4244       3.9302      -2.0286     197.5395       1.0226
    5400.0    1375.8379       0.0000      50.8611      70.7620       4.4362       4.1883      -1.4574     203.6545       1.0226
    5401.0    1385.5103       0.0000      50.8611      77.6804       4.1689       4.0714      -0.8874     209.7441       1.0226
    5402.0    1396.5176       0.0000      50.8611      85.3302       4.0862       4.0726      -0.3324     215.8658       1.0277
    5403.0    1406.2500       0.0000      50.8611      91.2296       4.2562       4.2528       0.0926     221.9812       1.0278
    5404.0    1410.3669       0.0000      50.8611     100.6739       3.9403       3.8718       0.7295     228.0898       1.0226
    5405.0    1410.5254       0.0000      50.8611     109.3072       4.0638       3.8340       1.3416     234.1917       1.0226
    5406.0    1419.2721       0.0000      50.8611     117.0542       3.9439       3.5115       1.7926     240.2936       1.0226
    5407.0    1429.0346       0.0000      50.8611     123.4904       3.9941       3.3301       2.2027     246.4101       1.0226
    5408.0    1429.1158       0.0000      50.8611     130.6580       4.1016       3.1098       2.6710     252.5252       1.0281
    5409.0    1430.5275       0.0000      50.8611     139.8049       4.1686       2.6887       3.1828     258.6270       1.0226
    5410.0    1436.3722       0.0000      50.8611     146.7382       4.1737       2.2870       3.4888     264.7304       1.0226
    5411.0    1445.3185       0.0000      50.8611     153.5674       4.1489       1.8452       3.7143     271.2371       1.0278
    5412.0    1448.2060       0.0000      50.8611     159.4485       4.2954       1.5056       4.0203     277.3398       1.0278
    5413.0    1449.7422       0.0000      50.8611     166.6435       4.3467       1.0041       4.2272     283.4547       1.0226
    5414.0    1457.3007       0.0000      50.8611     175.6094       4.4237       0.3383       4.4106     289.5565       1.0226
    5415.0    1455.7454       0.0000      50.8611    -178.6718       4.4738      -0.1035       4.4726     295.6599       1.0338
    5416.0    1451.1950       0.0000      50.8611    -172.3628       4.5559      -0.6038       4.5147     301.7633       1.0226
    5417.0    1452.7377       0.0000      50.8611    -165.8343       4.6950      -1.1478       4.5519     307.8635       1.0226
    5418.0    1446.6761       0.0000      50.8611    -158.2815       4.7283      -1.7479       4.3908     313.9724       1.0281
    5419.0    1446.7593       0.0000      50.8611    -153.4832       4.9095      -2.1898       4.3908     320.0826       1.0278
    5420.0    1448.2955       0.0000      50.8611    -146.9654       5.0934      -2.7740       4.2681     326.1976       1.0226
    5421.0    1452.7377       0.0000      50.8611    -142.2983       5.0336      -3.0758       3.9807     332.2871       1.0226
    5422.0    1446.6051       0.0000      50.8611    -135.4645       5.1020      -3.5761       3.6337     338.3904       1.0226
    5423.0    1433.5316       0.0000      50.8611    -128.5368       5.4459      -4.2577       3.3884     344.8971       1.0226
    5424.0    1433.6311       0.0000      50.8611    -124.2536       5.5170      -4.5584       3.1010     351.0053       1.0281
    5425.0    1429.2089       0.0000      50.8611    -118.1798       5.4051      -4.7628       2.5496     357.1078       1.0278
    5426.0    1418.9053       0.0000      50.8611    -112.1476       5.5332      -5.1231       2.0825       3.2163       1.0226
    5427.0    1402.0872       0.0000      50.8611    -107.1974       5.6606      -5.4067       1.6711       9.3181       1.0226
    5428.0    1395.1778       0.0000      50.8611    -101.9233       5.8141      -5.6879       1.1991      15.4215       1.0226
    5429.0    1392.5140       0.0000      50.8611     -96.8427       5.7890      -5.7475       0.6886      21.5365       1.0226
    5430.0    1381.3850       0.0000      50.8611     -92.0003       5.8101      -5.8060       0.2016      27.6515       1.0226
    5431.0    1370.6994       0.0000      50.8611     -84.0189       5.9204      -5.8875      -0.6161      33.7533       1.0226
    5432.0    1348.4017       0.0000      50.8611     -79.8252       6.0443      -5.9484      -1.0659      39.8551       1.0226
    5433.0    1343.4526       0.0000      50.8611     -74.9632       6.0152      -5.8084      -1.5578      45.9569       1.0226
    5434.0    1330.3797       0.0000      50.8611     -71.7111       5.9483      -5.6465      -1.8638      52.0587       1.0175
    5435.0    1313.1459       0.0000      50.8611     -65.1662       6.1082      -5.5419      -2.5602      58.5424       1.0226
    5436.0    1302.1601       0.0000      50.8611     -58.7377       6.1618      -5.2643      -3.1933      64.6442       1.0226
    5437.0    1283.1493       0.0000      50.8611     -55.5506       6.2698      -5.1669      -3.5415      70.7491       1.0226
    5438.0    1272.6600       0.0000      50.8611     -50.9813       5.9862      -4.6460      -3.7633      76.8477       1.0226
    5439.0    1272.7374       0.0000      50.8611     -45.7229       6.0850      -4.3513      -4.2329      82.9495       1.0175
    5440.0    1256.9875       0.0000      50.8611     -40.5268       6.1676      -4.0021      -4.6839      89.0389       1.0226
    5441.0    1237.8961       0.0000      50.8611     -34.5688       5.9154      -3.3534      -4.8673      95.1432       1.0226
    5442.0    1232.5049       0.0000      50.8611     -28.8130       5.7271      -2.7569      -5.0159     101.2327       1.0175
    5443.0    1222.8936       0.0000      50.8611     -25.8647       6.0502      -2.6352      -5.4422     107.3236       1.0226
    5444.0    1220.7031       0.0000      50.8611     -18.9345       5.9714      -1.9341      -5.6466     113.4371       1.0281
    5445.0    1220.7704       0.0000      50.8611     -14.0285       5.9297      -1.4350      -5.7494     119.5389       1.0226
    5446.0    1220.7704       0.0000      50.8611     -10.0315       5.7962      -1.0079      -5.7073     125.6284       1.0226
    5447.0    1215.3415       0.0000      50.8611      -2.8670       5.6555      -0.2824      -5.6478     132.1382       1.0226
    5448.0    1228.0284       0.0000      50.8611       1.9794       5.6700       0.1959      -5.6664     138.2386       1.0226
    5449.0    1228.1347       0.0000      50.8611       6.6169       5.5400       0.6378      -5.5029     144.3405       1.0226
    5450.0    1234.6691       0.0000      50.8611      12.6814       5.2014       1.1405      -5.0742     150.4304       1.0125
    5451.0    1246.5586       0.0000      50.8611      16.5428       5.2768       1.4995      -5.0568     156.5137       1.0175
    5452.0    1274.8374       0.0000      50.8611      24.0925       5.1608       2.1033      -4.7099     162.6163       1.0175
    5453.0    1290.0710       0.0000      50.8611      29.7767       4.8880       2.4234      -4.2403     168.7011       1.0226
    5454.0    1305.6751       0.0000      50.8611      35.8218       4.8295       2.8238      -3.9119     174.8030       1.0226
    5455.0    1329.0881       0.0000      50.8611      42.1905       4.7806       3.2084      -3.5403     180.9049       1.0226
    5456.0    1352.0275       0.0000      50.8611      48.0492       4.7502       3.5310      -3.1735     187.0068       1.0226
    5457.0    1356.0372       0.0000      50.8611      54.4616       4.5143       3.6722      -2.6221     193.1087       1.0226
    5458.0    1361.3671       0.0000      50.8611      60.9232       4.2238       3.6904      -2.0509     199.2121       1.0226
    5459.0    1373.2910       0.0000      50.8611      67.7738       4.4006       4.0726      -1.6631     205.7205       1.0226
    5460.0    1379.9901       0.0000      50.8611      74.9297       4.2786       4.1311      -1.1105     211.8224       1.0226
    5461.0    1389.4982       0.0000      50.8611      81.8689       4.1137       4.0714      -0.5802     217.9366       1.0226
