~VERSION INFORMATION
VERS.           2.0   :CWLS Log ASCII Standard - VERSION 2.0
WRAP.           NO    :One Line per depth step
PROD.  Schlumberger   :LAS Producer
PROG.  DLIS to ASCII 19C2-270                          :LAS Program name and version
CREA.        2017/09/16 17:42                          :LAS Creation date {YYYY/MM/DD hh:mm}
DLIS_CREA.  2017-Sep-15 14:39                          :DLIS Creation date and time {YYYY-MMM-DD hh:mm}
SOURCE.     LPC_S2-1_B5.DLIS                           :DLIS File Name
FILE-ID.     PERFO_Perfo_WPGRT_030LTP                  :File Identification Number
#--------------------------------------------------
~WELL INFORMATION
#MNEM.UNIT      DATA             DESCRIPTION
#---- ------ --------------   -----------------------------
STRT .S        13946.0       :START TIME      
STOP .S        14402.0       :STOP TIME      
STEP .S            1.0       :STEP     
NULL .          -999.25      :NULL VALUE
COMP .        SHELL INTERNATIONAL E P                  :COMPANY
WELL .        WPP TEST 2                               :WELL
FLD  .        WILDCAT                                  :FIELD
LOC  .                                                 :LOCATION
CNTY .        HARRIS                                   :COUNTY
STAT .        TEXAS                                    :STATE
CTRY .                                                 :COUNTRY
API  .                                                 :API NUMBER
UWI  .                                                 :UNIQUE WELL ID
DATE .                                                 :LOG DATE
SRVC .        Schlumberger                             :SERVICE COMPANY
LATI .DEG                                              :LATITUDE
LONG .DEG                                              :LONGITUDE
GDAT .                                                 :GeoDetic Datum
#-----------------------------------------------------------------------------
~PARAMETER INFORMATION
#MNEM.UNIT    VALUE                      DESCRIPTION
#---- -----   --------------------       ------------------------
U-PHASE_B_COMP_PER_YT.                 0 :Phase B Comparator Period Yt
U-PHASE_A_COMP_PER_XT.                 0 :Phase A Comparator Period Xt
U-MAX_EXC_CUR_LIMIT.MA       240.00000   :Requested CM Current Limit
U-REQ_EXC_FQ.HZ              50          :Requested CM Frequency
U-TILT_Y_OFFSET.           0.19916       :WPTET Tilt Y Offset
U-TILT_Y_GAIN.           1.01796         :WPTET Tilt Y Gain
U-TILT_X_OFFSET.          -1.77103       :WPTET Tilt X Offset
U-TILT_X_GAIN.           1.00000         :WPTET Tilt X Gain
U-TILT_OFFSET_TOL.           0.00100     :WPTET Tilt Offset Calibration Tolerance
U-NO_TILT_CAL_ROTATIONS.                 3 :Number of Rotations for Tilt Calibration
HAZI .DEG        0.00000                 :Hole Azimuth
U-STD_TOL_TILT.           0.01000        :Tilt Standard Deviation Tolerance
U-GUN_POS_TOL.DEG        5.00000         :Gun Position Tolerance
ROT_ANGLE_THRESHOLD.DEG        5.00000   :Rotation Stop Angle Tolerance
STOP_ROT_ANGLE.DEG       80.00000        :Rotation Stop Angle
WITN .                                   :Witness's Name
ENGI .                                   :Engineer's Name
COUN .        HARRIS                     :County or Rig Name
FN   .        WILDCAT                    :Field Name
WN   .        WPP TEST 2                 :Well Name
CN   .        SHELL INTERNATIONAL E P    :Company Name
CLAB .        County                     :County/Rig Label
SLAB .        State                      :State/Province Label
RUN  .          1                        :RUN NUMBER
PDAT .        GROUND LEVEL               :Permanent Datum
EPD  .                                   :Elevation of Permanent Datum above Mean Sea Level
LMF  .                                   :Logging Measured From (Name of Logging Elevation Reference)
APD  .                                   :Elevation of Depth Reference (LMF) above Permanent Datum
#-----------------------------------------------------------------------------
~CURVE INFORMATION
#MNEM.UNIT   API CODE                                  DESCRIPTION
#---- -----  --------                                  -----------------------
TIME .S                                                :TIME {F10.1}
FREQ_EMF_SL.HZ                                         :Electromagnetic Field Frequency {F13.4}
PH_SH_WPPCM_SL.DEG                                     :WPPCM Phase Shift {F13.4}
FREQ_EXC_REQ_SL.HZ                                     :Requested Exciter Frequency {F13.4}
RB_SL.DEG                                              :Relative Bearing {F13.4}
SDEV_SL.DEG                                            :Sonde Deviation {F13.4}
TILX_SL.DEG                                            :X-axis Tilt {F13.4}
TILY_SL.DEG                                            :Y-axis Tilt {F13.4}
ROTA_SL.DEG                                            :Motor Rotation Angle {F13.4}
MSPE_SL.RPM                                            :Motor Speed {F13.4}
#-----------------------------------------------------------------------------
# 
#     TIME    FREQ_EMF_SL  PH_SH_WPPCM_ FREQ_EXC_REQ    RB_SL       SDEV_SL      TILX_SL      TILY_SL      ROTA_SL      MSPE_SL
#                          SL           _SL
~A  
# ...
   14009.0    1543.4725       0.0000      50.8611    -155.2231       3.8159      -1.5983       3.4641     135.5209       1.0226
   14010.0    1532.3645       0.0000      50.8611    -150.9754       3.8759      -1.8795       3.3884     141.6136       1.0210
   14011.0    1512.5856       0.0000      50.8611    -143.2138       4.0126      -2.4016       3.2126     147.7124       1.0226
   14012.0    1481.6745       0.0000      50.8611    -138.4025       4.1035      -2.7230       3.0674     153.7954       1.0195
   14013.0    1469.2896       0.0000      50.8611    -133.6157       4.2623      -3.0845       2.9387     159.9026       1.0242
   14014.0    1463.1745       0.0000      50.8611    -128.2012       4.1027      -3.2231       2.5359     166.0043       1.0226
   14015.0    1437.0049       0.0000      50.8611    -121.0062       4.2231      -3.6187       2.1740     172.5062       1.0226
   14016.0    1401.9106       0.0000      50.8611    -116.8347       4.4164      -3.9400       1.9921     178.5937       1.0226
   14017.0    1386.5858       0.0000      50.8611    -109.6901       4.3750      -4.1188       1.4728     184.6934       1.0226
   14018.0    1371.0156       0.0000      50.8611    -104.9033       4.5058      -4.3537       1.1580     190.8001       1.0136
   14019.0    1346.2116       0.0000      50.8611     -99.4272       4.5766      -4.5144       0.7491     196.9033       1.0210
   14020.0    1322.0369       0.0000      50.8611     -93.6895       4.6609      -4.6510       0.2993     203.0161       1.0242
   14021.0    1300.7636       0.0000      50.8611     -88.3581       4.8202      -4.8177      -0.1382     209.1289       1.0226
   14022.0    1268.2714       0.0000      50.8611     -83.9524       4.9821      -4.9542      -0.5246     215.2329       1.0226
   14023.0    1247.6755       0.0000      50.8611     -78.6941       5.0075      -4.9101      -0.9805     221.3370       1.0049
   14024.0    1197.9518       0.0000      50.8611     -75.1705       4.9550      -4.7896      -1.2667     227.4252       1.0226
   14025.0    1150.8910       0.0000      50.8611     -72.5533       5.2527      -5.0105      -1.5713     233.5127       1.0210
   14026.0    1120.1624       0.0000      50.8611     -65.6420       5.1136      -4.6570      -2.1069     239.6167       1.0226
   14027.0    1073.7195       0.0000      50.8611     -59.3245       5.0037      -4.3015      -2.5506     246.1397       1.0226
   14028.0    1031.0646       0.0000      50.8611     -54.5057       5.0240      -4.0886      -2.9145     252.2421       1.0210
   14029.0    1010.5446       0.0000      50.8611     -51.5454       4.9235      -3.8537      -3.0596     258.3468       1.0210
   14030.0     997.9798       0.0000      50.8611     -44.4004       5.0123      -3.5042      -3.5789     264.4497       1.0226
   14031.0     987.5352       0.0000      50.8611     -40.2421       5.0213      -3.2411      -3.8304     270.5483       1.0226
   14032.0     982.4307       0.0000      50.8611     -36.3069       4.9754      -2.9439      -4.0062     276.6487       1.0226
   14033.0     975.8193       0.0000      50.8611     -32.0501       4.7909      -2.5402      -4.0593     282.7656       1.0226
   14034.0     979.3629       0.0000      50.8611     -25.5710       4.7214      -2.0361      -4.2576     288.8571       1.0210
   14035.0     985.7363       0.0000      50.8611     -20.0403       4.8746      -1.6686      -4.5786     294.9430       1.0242
   14036.0     988.9241       0.0000      50.8611     -14.6773       4.7105      -1.1926      -4.5561     301.0576       1.0242
   14037.0     996.1397       0.0000      50.8611     -11.6226       4.5268      -0.9115      -4.4335     307.1614       1.0226
   14038.0    1011.1130       0.0000      50.8611      -6.3892       4.5314      -0.5038      -4.5030     313.2652       1.0317
   14039.0    1034.9251       0.0000      50.8611      -1.3204       4.4287      -0.1021      -4.4273     319.7967       1.0242
   14040.0    1077.3771       0.0000      50.8611       4.5075       4.4063       0.3458      -4.3926     325.9005       1.0226
   14041.0    1115.0152       0.0000      50.8611       7.9827       4.2463       0.5888      -4.2045     332.0044       1.0226
   14042.0    1171.5107       0.0000      50.8611      14.0679       4.0944       0.9944      -3.9714     338.1039       1.0226
   14043.0    1216.4792       0.0000      50.8611      20.0008       4.0907       1.3981      -3.8426     344.1807       1.0136
   14044.0    1253.3423       0.0000      50.8611      28.0842       3.9066       1.8379      -3.4460     350.2827       1.0226
   14045.0    1279.3481       0.0000      50.8611      33.6751       3.8742       2.1472      -3.2232     356.3643       1.0226
   14046.0    1303.7756       0.0000      50.8611      39.5170       3.5750       2.2738      -2.7570       2.4646       1.0136
   14047.0    1332.3221       0.0000      50.8611      47.6812       3.6199       2.6754      -2.4361       8.5755       1.0226
   14048.0    1353.9887       0.0000      50.8611      51.4823       3.4435       2.6935      -2.1437      14.6672       1.0226
   14049.0    1374.3754       0.0000      50.8611      61.8358       3.4319       3.0249      -1.6183      20.7842       1.0226
   14050.0    1397.0324       0.0000      50.8611      63.4545       3.2291       2.8883      -1.4425      26.8836       1.0317
   14051.0    1420.4546       0.0000      50.8611      72.1636       3.0891       2.9405      -0.9457      33.3822       1.0210
   14052.0    1448.4053       0.0000      50.8611      78.6826       2.9764       2.9184      -0.5838      39.4994       1.0226
   14053.0    1467.4431       0.0000      50.8611      86.5948       3.0331       3.0269      -0.1791      45.5991       1.0226
   14054.0    1486.0517       0.0000      50.8611     100.0189       2.9293       2.8843       0.5079      51.7118       1.0226
   14055.0    1511.6101       0.0000      50.8611     106.6142       2.9161       2.7939       0.8288      57.8269       1.0242
   14056.0    1533.2136       0.0000      50.8611     114.3373       2.9499       2.6875       1.2152      63.9440       1.0242
   14057.0    1538.3145       0.0000      50.8611     120.3939       2.8971       2.4987       1.4652      70.0332       1.0226
   14058.0    1561.9803       0.0000      50.8611     129.0069       3.0664       2.3822       1.9287      76.1317       1.0242
   14059.0    1577.9448       0.0000      50.8611     139.1051       3.1531       2.0629       2.3826      82.2376       1.0226
   14060.0    1582.5497       0.0000      50.8611     146.3027       3.0686       1.7014       2.5523      88.3415       1.0226
   14061.0    1583.6149       0.0000      50.8611     154.3782       3.1940       1.3800       2.8794      94.4400       1.0242
   14062.0    1591.8652       0.0000      50.8611     161.1174       3.2357       1.0467       3.0613     100.5527       1.0242
   14063.0    1590.2420       0.0000      50.8611     168.5429       3.2488       0.6450       3.1840     107.0687       1.0226
   14064.0    1586.1196       0.0000      50.8611     177.5413       3.2979       0.1409       3.2944     113.1795       1.0317
   14065.0    1584.1511       0.0000      50.8611    -179.9031       3.3884      -0.0037       3.3884     119.2922       1.0317
   14066.0    1577.5786       0.0000      50.8611    -171.1993       3.5410      -0.5419       3.4988     125.3981       1.0226
   14067.0    1572.4599       0.0000      50.8611    -165.8602       3.6994      -0.9034       3.5867     131.5021       1.0226
   14068.0    1554.5583       0.0000      50.8611    -160.6011       3.6230      -1.2027       3.4170     137.6129       1.0317
   14069.0    1536.2174       0.0000      50.8611    -151.5814       3.8304      -1.8212       3.3675     143.7146       1.0226
   14070.0    1521.9155       0.0000      50.8611    -145.8183       4.0407      -2.2691       3.3414     149.8193       1.0242
   14071.0    1496.4891       0.0000      50.8611    -140.9021       4.0751      -2.5683       3.1615     155.9233       1.0226
