~VERSION INFORMATION
VERS.           2.0   :CWLS Log ASCII Standard - VERSION 2.0
WRAP.           NO    :One Line per depth step
PROD.  Schlumberger   :LAS Producer
PROG.  DLIS to ASCII 19C2-270                          :LAS Program name and version
CREA.        2017/09/16 17:42                          :LAS Creation date {YYYY/MM/DD hh:mm}
DLIS_CREA.  2017-Sep-15 13:29                          :DLIS Creation date and time {YYYY-MMM-DD hh:mm}
SOURCE.     LPC_S1-1_2A5.DLIS                          :DLIS File Name
FILE-ID.     PERFO_Perfo_WPGRT_025LTP                  :File Identification Number
#--------------------------------------------------
~WELL INFORMATION
#MNEM.UNIT      DATA             DESCRIPTION
#---- ------ --------------   -----------------------------
STRT .S         9747.0       :START TIME      
STOP .S        10374.0       :STOP TIME      
STEP .S            1.0       :STEP     
NULL .          -999.25      :NULL VALUE
COMP .        SHELL INTERNATIONAL E P                  :COMPANY
WELL .        WPP TEST 2                               :WELL
FLD  .        WILDCAT                                  :FIELD
LOC  .                                                 :LOCATION
CNTY .        HARRIS                                   :COUNTY
STAT .        TEXAS                                    :STATE
CTRY .                                                 :COUNTRY
API  .                                                 :API NUMBER
UWI  .                                                 :UNIQUE WELL ID
DATE .                                                 :LOG DATE
SRVC .        Schlumberger                             :SERVICE COMPANY
LATI .DEG                                              :LATITUDE
LONG .DEG                                              :LONGITUDE
GDAT .                                                 :GeoDetic Datum
#-----------------------------------------------------------------------------
~PARAMETER INFORMATION
#MNEM.UNIT    VALUE                      DESCRIPTION
#---- -----   --------------------       ------------------------
U-PHASE_B_COMP_PER_YT.                 0 :Phase B Comparator Period Yt
U-PHASE_A_COMP_PER_XT.                 0 :Phase A Comparator Period Xt
U-MAX_EXC_CUR_LIMIT.MA       240.00000   :Requested CM Current Limit
U-REQ_EXC_FQ.HZ              40          :Requested CM Frequency
U-TILT_Y_OFFSET.           0.19916       :WPTET Tilt Y Offset
U-TILT_Y_GAIN.           1.01796         :WPTET Tilt Y Gain
U-TILT_X_OFFSET.          -1.77103       :WPTET Tilt X Offset
U-TILT_X_GAIN.           1.00000         :WPTET Tilt X Gain
U-TILT_OFFSET_TOL.           0.00100     :WPTET Tilt Offset Calibration Tolerance
U-NO_TILT_CAL_ROTATIONS.                 3 :Number of Rotations for Tilt Calibration
HAZI .DEG        0.00000                 :Hole Azimuth
U-STD_TOL_TILT.           0.01000        :Tilt Standard Deviation Tolerance
U-GUN_POS_TOL.DEG        5.00000         :Gun Position Tolerance
ROT_ANGLE_THRESHOLD.DEG        5.00000   :Rotation Stop Angle Tolerance
STOP_ROT_ANGLE.DEG       80.00000        :Rotation Stop Angle
WITN .                                   :Witness's Name
ENGI .                                   :Engineer's Name
COUN .        HARRIS                     :County or Rig Name
FN   .        WILDCAT                    :Field Name
WN   .        WPP TEST 2                 :Well Name
CN   .        SHELL INTERNATIONAL E P    :Company Name
CLAB .        County                     :County/Rig Label
SLAB .        State                      :State/Province Label
RUN  .          1                        :RUN NUMBER
PDAT .        GROUND LEVEL               :Permanent Datum
EPD  .                                   :Elevation of Permanent Datum above Mean Sea Level
LMF  .                                   :Logging Measured From (Name of Logging Elevation Reference)
APD  .                                   :Elevation of Depth Reference (LMF) above Permanent Datum
#-----------------------------------------------------------------------------
~CURVE INFORMATION
#MNEM.UNIT   API CODE                                  DESCRIPTION
#---- -----  --------                                  -----------------------
TIME .S                                                :TIME {F10.1}
FREQ_EMF_SL.HZ                                         :Electromagnetic Field Frequency {F13.4}
PH_SH_WPPCM_SL.DEG                                     :WPPCM Phase Shift {F13.4}
FREQ_EXC_REQ_SL.HZ                                     :Requested Exciter Frequency {F13.4}
RB_SL.DEG                                              :Relative Bearing {F13.4}
SDEV_SL.DEG                                            :Sonde Deviation {F13.4}
TILX_SL.DEG                                            :X-axis Tilt {F13.4}
TILY_SL.DEG                                            :Y-axis Tilt {F13.4}
ROTA_SL.DEG                                            :Motor Rotation Angle {F13.4}
MSPE_SL.RPM                                            :Motor Speed {F13.4}
#-----------------------------------------------------------------------------
# 
#     TIME    FREQ_EMF_SL  PH_SH_WPPCM_ FREQ_EXC_REQ    RB_SL       SDEV_SL      TILX_SL      TILY_SL      ROTA_SL      MSPE_SL
#                          SL           _SL
~A  
# ...
   10188.0    1334.5623       0.0000      50.8611      28.2817       4.0403       1.9127      -3.5568     262.1417       1.0226
   10189.0    1344.0523       0.0000      50.8611      33.7915       3.9575       2.1999      -3.2882     268.2315       1.0226
   10190.0    1333.1165       0.0000      50.8611      40.5999       3.7623       2.4465      -2.8560     274.3328       1.0226
   10191.0    1336.7396       0.0000      50.8611      46.7135       3.6382       2.6473      -2.4937     280.4340       1.0226
   10192.0    1336.7396       0.0000      50.8611      53.9186       3.5817       2.8939      -2.1082     286.5236       1.0226
   10193.0    1347.3490       0.0000      50.8611      59.6197       3.4085       2.9401      -1.7226     292.6332       1.0272
   10194.0    1349.5681       0.0000      50.8611      67.8195       3.3736       3.1237      -1.2728     298.7400       1.0226
   10195.0    1353.6485       0.0000      50.8611      75.1148       3.3164       3.2040      -0.8525     305.2450       1.0242
   10196.0    1367.9475       0.0000      50.8611      80.5286       3.2735       3.2277      -0.5430     311.3481       1.0242
   10197.0    1360.3831       0.0000      50.8611      91.4423       3.2394       3.2382       0.0822     317.4551       1.0226
   10198.0    1361.5121       0.0000      50.8611      96.7391       3.1457       3.1237       0.3684     323.5694       1.0226
   10199.0    1375.6068       0.0000      50.8611     106.3367       3.0118       2.8883       0.8472     329.6845       1.0272
   10200.0    1375.6068       0.0000      50.8611     113.5208       3.0535       2.7963       1.2209     335.7866       1.0226
   10201.0    1378.4818       0.0000      50.8611     120.5600       3.1516       2.7143       1.5981     341.8879       1.0226
   10202.0    1381.3850       0.0000      50.8611     130.6387       3.0961       2.3489       2.0158     347.9891       1.0226
   10203.0    1384.9067       0.0000      50.8611     138.8717       3.0572       2.0103       2.3020     354.0912       1.0226
   10204.0    1385.6605       0.0000      50.8611     146.3798       3.1660       1.7524       2.6349     154.9933       1.0226
   10205.0    1386.4572       0.0000      50.8611     156.6318       3.2230       1.2812       2.9558       6.3077       1.0226
   10206.0    1389.1961       0.0000      50.8611     161.1100       3.3225       1.0752       3.1431      12.4091       1.0226
   10207.0    1396.2819       0.0000      50.8611     168.2564       3.4251       0.6964       3.3533      18.9198       1.0226
   10208.0    1399.4501       0.0000      50.8611     175.7281       3.4213       0.2546       3.4117      25.0212       1.0226
   10209.0    1401.0436       0.0000      50.8611    -177.0466       3.5178      -0.1812       3.5111      31.1234       1.0272
   10210.0    1401.8496       0.0000      50.8611    -169.0977       3.5399      -0.6693       3.4759      37.2406       1.0334
   10211.0    1400.2623       0.0000      50.8611    -163.7202       3.7617      -1.0536       3.6104      43.3542       1.0226
   10212.0    1403.0566       0.0000      50.8611    -157.5453       3.8883      -1.4842       3.5929      49.4415       1.0121
   10213.0    1410.9846       0.0000      50.8611    -150.9499       3.7553      -1.8228       3.2820      55.5585       1.0226
   10214.0    1403.8409       0.0000      50.8611    -145.8399       4.0963      -2.2988       3.3884      61.6485       1.0226
   10215.0    1409.0682       0.0000      50.8611    -139.4870       4.1592      -2.7005       3.1607      67.7638       1.0226
   10216.0    1411.8976       0.0000      50.8611    -133.9962       4.2583      -3.0620       2.9562      73.8651       1.0226
   10217.0    1406.2500       0.0000      50.8611    -128.0062       4.3322      -3.4118       2.6643      79.9540       1.0226
   10218.0    1407.8564       0.0000      50.8611    -122.3715       4.4557      -3.7621       2.3838      86.0572       1.0226
   10219.0    1410.6810       0.0000      50.8611    -117.1973       4.5278      -4.0260       2.0681      92.3903       1.0226
   10220.0    1406.2500       0.0000      50.8611    -111.2803       4.5925      -4.2786       1.6654      98.6561       1.0226
   10221.0    1404.6501       0.0000      50.8611    -106.6965       4.6829      -4.4851       1.3440     104.7714       1.0226
   10222.0    1407.4618       0.0000      50.8611    -100.2805       4.7282      -4.6514       0.8419     110.8867       1.0272
   10223.0    1405.0430       0.0000      50.8611     -96.1629       4.8576      -4.8293       0.5205     116.9888       1.0226
   10224.0    1400.6475       0.0000      50.8611     -91.8003       4.8721      -4.8695       0.1525     123.0976       1.0272
   10225.0    1393.0741       0.0000      50.8611     -87.0976       5.0479      -5.0414      -0.2550     129.2124       1.0200
   10226.0    1395.0892       0.0000      50.8611     -80.2423       5.0349      -4.9615      -0.8521     135.2969       1.0226
   10227.0    1388.7911       0.0000      50.8611     -75.9502       5.0324      -4.8811      -1.2201     141.3861       1.0226
   10228.0    1377.9046       0.0000      50.8611     -70.9038       5.0576      -4.7779      -1.6523     147.4876       1.0166
   10229.0    1382.1844       0.0000      50.8611     -66.1469       5.0307      -4.6000      -2.0321     153.5652       1.0226
   10230.0    1376.7714       0.0000      50.8611     -60.5681       5.0922      -4.4337      -2.4994     159.6604       1.0181
   10231.0    1374.8229       0.0000      50.8611     -55.8963       5.0655      -4.1923      -2.8380     166.0032       1.0226
   10232.0    1368.3252       0.0000      50.8611     -50.7992       5.1241      -3.9689      -3.2354     172.2859       1.0166
   10233.0    1360.7842       0.0000      50.8611     -48.9293       5.3747      -4.0493      -3.5274     178.3838       1.0181
   10234.0    1357.0224       0.0000      50.8611     -40.9985       5.1180      -3.3548      -3.8606     184.4852       1.0226
   10235.0    1346.9828       0.0000      50.8611     -36.7360       5.1137      -3.0568      -4.0941     190.5867       1.0226
   10236.0    1336.7396       0.0000      50.8611     -31.0083       4.9018      -2.5229      -4.1992     196.6820       1.0181
   10237.0    1328.4743       0.0000      50.8611     -26.9077       4.9850      -2.2530      -4.4443     202.7878       1.0181
   10238.0    1317.7757       0.0000      50.8611     -22.1095       4.8170      -1.8112      -4.4621     208.8821       1.0226
   10239.0    1312.1476       0.0000      50.8611     -15.4312       4.7871      -1.2718      -4.6142     214.9643       1.0166
   10240.0    1307.6386       0.0000      50.8611     -12.4400       4.7375      -1.0195      -4.6256     221.0744       1.0226
   10241.0    1302.4253       0.0000      50.8611      -6.9323       4.6952      -0.5660      -4.6608     227.1924       1.0226
   10242.0    1307.2684       0.0000      50.8611      -1.5125       4.5104      -0.1186      -4.5087     233.2790       1.0226
   10243.0    1302.7929       0.0000      50.8611       4.3148       4.4572       0.3349      -4.4445     239.3804       1.0226
   10244.0    1310.7499       0.0000      50.8611      10.7595       4.4114       0.8225      -4.3337     245.8912       1.0166
   10245.0    1311.4613       0.0000      50.8611      16.5709       4.2606       1.2126      -4.0826     251.9681       1.0226
   10246.0    1309.3575       0.0000      50.8611      20.4966       4.1281       1.4423      -3.8667     258.0958       1.0272
   10247.0    1326.3053       0.0000      50.8611      25.9836       4.0944       1.7922      -3.6795     264.2110       1.0226
   10248.0    1338.5909       0.0000      50.8611      31.8142       3.9595       2.0850      -3.3642     270.3261       1.0226
   10249.0    1329.5153       0.0000      50.8611      37.5887       3.8420       2.3429      -3.0426     276.4404       1.0226
   10250.0    1327.7293       0.0000      50.8611      44.8645       3.7788       2.6642      -2.6749     282.5423       1.0287
