~VERSION INFORMATION
VERS.           2.0   :CWLS Log ASCII Standard - VERSION 2.0
WRAP.           NO    :One Line per depth step
PROD.  Schlumberger   :LAS Producer
PROG.  DLIS to ASCII 19C2-270                          :LAS Program name and version
CREA.        2017/09/16 17:42                          :LAS Creation date {YYYY/MM/DD hh:mm}
DLIS_CREA.  2017-Sep-15 11:29                          :DLIS Creation date and time {YYYY-MMM-DD hh:mm}
SOURCE.     LPC_SL_AV_2ND-LOG.DLIS                     :DLIS File Name
FILE-ID.     PERFO_Perfo_WPGRT_015LTP                  :File Identification Number
#--------------------------------------------------
~WELL INFORMATION
#MNEM.UNIT      DATA             DESCRIPTION
#---- ------ --------------   -----------------------------
STRT .S         2513.0       :START TIME      
STOP .S         2855.0       :STOP TIME      
STEP .S            1.0       :STEP     
NULL .          -999.25      :NULL VALUE
COMP .        SHELL INTERNATIONAL E P                  :COMPANY
WELL .        WPP TEST 2                               :WELL
FLD  .        WILDCAT                                  :FIELD
LOC  .                                                 :LOCATION
CNTY .        HARRIS                                   :COUNTY
STAT .        TEXAS                                    :STATE
CTRY .                                                 :COUNTRY
API  .                                                 :API NUMBER
UWI  .                                                 :UNIQUE WELL ID
DATE .                                                 :LOG DATE
SRVC .        Schlumberger                             :SERVICE COMPANY
LATI .DEG                                              :LATITUDE
LONG .DEG                                              :LONGITUDE
GDAT .                                                 :GeoDetic Datum
#-----------------------------------------------------------------------------
~PARAMETER INFORMATION
#MNEM.UNIT    VALUE                      DESCRIPTION
#---- -----   --------------------       ------------------------
U-PHASE_B_COMP_PER_YT.                 0 :Phase B Comparator Period Yt
U-PHASE_A_COMP_PER_XT.                 0 :Phase A Comparator Period Xt
U-MAX_EXC_CUR_LIMIT.MA       240.00000   :Requested CM Current Limit
U-REQ_EXC_FQ.HZ              50          :Requested CM Frequency
U-TILT_Y_OFFSET.           0.19916       :WPTET Tilt Y Offset
U-TILT_Y_GAIN.           1.01796         :WPTET Tilt Y Gain
U-TILT_X_OFFSET.          -1.77103       :WPTET Tilt X Offset
U-TILT_X_GAIN.           1.00000         :WPTET Tilt X Gain
U-TILT_OFFSET_TOL.           0.00100     :WPTET Tilt Offset Calibration Tolerance
U-NO_TILT_CAL_ROTATIONS.                 3 :Number of Rotations for Tilt Calibration
HAZI .DEG        0.00000                 :Hole Azimuth
U-STD_TOL_TILT.           0.01000        :Tilt Standard Deviation Tolerance
U-GUN_POS_TOL.DEG        5.00000         :Gun Position Tolerance
ROT_ANGLE_THRESHOLD.DEG        5.00000   :Rotation Stop Angle Tolerance
STOP_ROT_ANGLE.DEG       11.00000        :Rotation Stop Angle
WITN .                                   :Witness's Name
ENGI .                                   :Engineer's Name
COUN .        HARRIS                     :County or Rig Name
FN   .        WILDCAT                    :Field Name
WN   .        WPP TEST 2                 :Well Name
CN   .        SHELL INTERNATIONAL E P    :Company Name
CLAB .        County                     :County/Rig Label
SLAB .        State                      :State/Province Label
RUN  .          1                        :RUN NUMBER
PDAT .        GROUND LEVEL               :Permanent Datum
EPD  .                                   :Elevation of Permanent Datum above Mean Sea Level
LMF  .                                   :Logging Measured From (Name of Logging Elevation Reference)
APD  .                                   :Elevation of Depth Reference (LMF) above Permanent Datum
#-----------------------------------------------------------------------------
~CURVE INFORMATION
#MNEM.UNIT   API CODE                                  DESCRIPTION
#---- -----  --------                                  -----------------------
TIME .S                                                :TIME {F10.1}
FREQ_EMF_SL.HZ                                         :Electromagnetic Field Frequency {F13.4}
PH_SH_WPPCM_SL.DEG                                     :WPPCM Phase Shift {F13.4}
FREQ_EXC_REQ_SL.HZ                                     :Requested Exciter Frequency {F13.4}
RB_SL.DEG                                              :Relative Bearing {F13.4}
SDEV_SL.DEG                                            :Sonde Deviation {F13.4}
TILX_SL.DEG                                            :X-axis Tilt {F13.4}
TILY_SL.DEG                                            :Y-axis Tilt {F13.4}
ROTA_SL.DEG                                            :Motor Rotation Angle {F13.4}
MSPE_SL.RPM                                            :Motor Speed {F13.4}
#-----------------------------------------------------------------------------
# 
#     TIME    FREQ_EMF_SL  PH_SH_WPPCM_ FREQ_EXC_REQ    RB_SL       SDEV_SL      TILX_SL      TILY_SL      ROTA_SL      MSPE_SL
#                          SL           _SL
~A  
# ...
    2765.0    1343.7864       0.0000      50.8611     -57.0678       1.1473      -0.9628      -0.6236     150.9127       1.0226
    2766.0    1313.3637       0.0000      50.8611     -55.0097       1.1326      -0.9275      -0.6496     157.0150       1.0226
    2767.0    1262.7069       0.0000      50.8611     -54.4832       1.2067      -0.9823      -0.7004     163.5246       1.0146
    2768.0    1176.5777       0.0000      50.8611     -60.5046       1.1636      -1.0127      -0.5728     169.6273       1.0226
    2769.0    1113.5420       0.0000      50.8611     -54.3749       1.0543      -0.8569      -0.6136     175.7292       1.0226
    2770.0    1048.7634       0.0000      50.8611     -58.6109       1.2173      -1.0383      -0.6335     181.8311       1.0226
    2771.0    1005.9013       0.0000      50.8611     -50.2762       1.1600      -0.8922      -0.7413     187.9462       1.0226
    2772.0     983.6097       0.0000      50.8611     -50.1855       1.2140      -0.9324      -0.7772     194.0235       1.0133
    2773.0     961.0750       0.0000      50.8611     -56.3681       1.1458      -0.9531      -0.6335     200.1239       1.0213
    2774.0     946.5340       0.0000      50.8611     -51.2747       1.0470      -0.8168      -0.6545     206.2149       1.0226
    2775.0     932.3768       0.0000      50.8611     -52.4022       1.0815      -0.8569      -0.6595     212.3299       1.0226
    2776.0     916.1085       0.0000      50.8611     -49.0185       1.0755      -0.8119      -0.7053     218.4449       1.0226
    2777.0     911.6789       0.0000      50.8611     -47.6161       1.0316      -0.7620      -0.6954     224.5468       1.0226
    2778.0     910.9701       0.0000      50.8611     -45.1572       1.0455      -0.7413      -0.7363     230.6487       1.0226
    2779.0     904.4684       0.0000      50.8611     -53.6030       1.0589      -0.8521      -0.6285     237.1718       1.0226
    2780.0     906.5153       0.0000      50.8611     -52.1366       0.9869      -0.7766      -0.6075     243.2737       1.0226
    2781.0     911.5364       0.0000      50.8611     -51.7337       1.0229      -0.8022      -0.6335     249.3756       1.0226
    2782.0     918.8271       0.0000      50.8611     -42.2171       1.0441      -0.7011      -0.7722     255.4906       1.0226
    2783.0     924.6897       0.0000      50.8611     -50.0073       0.9551      -0.7316      -0.6136     261.5924       1.0226
    2784.0     937.1660       0.0000      50.8611     -49.6838       0.9005      -0.6865      -0.5827     267.6928       1.0213
    2785.0     954.1938       0.0000      50.8611     -46.1491       1.0701      -0.7717      -0.7413     273.7838       1.0213
    2786.0     971.4934       0.0000      50.8611     -53.5454       0.9035      -0.7267      -0.5368     279.8760       1.0213
    2787.0     993.6268       0.0000      50.8611     -44.4243       0.9304      -0.6512      -0.6644     285.9628       1.0226
    2788.0    1016.4336       0.0000      50.8611     -49.8264       0.9512      -0.7267      -0.6136     292.0662       1.0239
    2789.0    1044.1575       0.0000      50.8611     -44.4239       0.9234      -0.6464      -0.6595     298.1796       1.0226
    2790.0    1101.6119       0.0000      50.8611     -50.4409       0.7864      -0.6062      -0.5009     304.2814       1.0226
    2791.0    1196.5153       0.0000      50.8611     -55.3626       0.8895      -0.7316      -0.5059     310.7912       1.0226
    2792.0    1264.8897       0.0000      50.8611     -57.2213       0.8591      -0.7218      -0.4650     316.9062       1.0226
    2793.0    1304.2061       0.0000      50.8611     -57.9450       0.8574      -0.7267      -0.4551     323.0080       1.0226
    2794.0    1325.9875       0.0000      50.8611     -51.0582       0.8966      -0.6963      -0.5628     329.1098       1.0226
    2795.0    1353.7552       0.0000      50.8611     -54.2550       0.8034      -0.6512      -0.4699     335.2247       1.0226
    2796.0    1390.2437       0.0000      50.8611     -57.2883       0.8768      -0.7364      -0.4749     341.3269       1.0226
    2797.0    1425.8670       0.0000      50.8611     -61.2962       0.8631      -0.7571      -0.4142     347.4269       1.0133
    2798.0    1450.1054       0.0000      50.8611     -55.9724       0.9437      -0.7827      -0.5269     353.5309       1.0226
    2799.0    1475.1878       0.0000      50.8611     -58.0117       0.7737      -0.6561      -0.4092     315.9828       1.0226
    2800.0    1502.7939       0.0000      50.8611     -61.0022       0.9176      -0.8022      -0.4451       5.7477       1.0226
    2801.0    1535.6147       0.0000      50.8611     -65.6798       0.9301      -0.8472      -0.3832      11.8495       1.0226
    2802.0    1555.5862       0.0000      50.8611     -63.2036       0.8602      -0.7669      -0.3881      17.9514       1.0226
    2803.0    1570.7584       0.0000      50.8611     -65.9571       0.9170      -0.8375      -0.3733      24.4608       1.0226
    2804.0    1598.0114       0.0000      50.8611     -66.6080       0.8751      -0.8022      -0.3473      30.5626       1.0226
    2805.0    1615.4823       0.0000      50.8611     -66.0704       0.9323      -0.8521      -0.3782      36.6648       1.0239
    2806.0    1620.5573       0.0000      50.8611     -60.8553       0.9241      -0.8070      -0.4501      42.7828       1.0226
    2807.0    1635.1744       0.0000      50.8611     -64.8442       0.9858      -0.8922      -0.4191      48.8815       1.0226
    2808.0    1638.9860       0.0000      50.8611     -62.0135       0.8955      -0.7912      -0.4191      54.9841       1.0226
    2809.0    1639.9168       0.0000      50.8611     -56.2011       1.1481      -0.9531      -0.6397      61.0861       1.0226
    2810.0    1636.1009       0.0000      50.8611     -63.7431       1.0288      -0.9227      -0.4551      67.1882       1.0226
    2811.0    1638.5238       0.0000      50.8611     -62.9775       1.0917      -0.9726      -0.4959      73.2805       1.0417
    2812.0    1630.4669       0.0000      50.8611     -66.7207       1.0481      -0.9628      -0.4142      79.4054       1.0226
    2813.0    1617.7403       0.0000      50.8611     -70.4235       1.0223      -0.9628      -0.3423      85.5072       1.0226
    2814.0    1604.8648       0.0000      50.8611     -62.3599       1.0474      -0.9275      -0.4860      91.6089       1.0226
    2815.0    1589.9118       0.0000      50.8611     -62.0657       1.1244      -0.9932      -0.5269      98.1064       1.0226
    2816.0    1574.8143       0.0000      50.8611     -62.3599       1.0474      -0.9275      -0.4860     104.2055       1.0226
    2817.0    1547.9099       0.0000      50.8611     -66.8287       1.0526      -0.9677      -0.4142     110.3226       1.0226
    2818.0    1514.5670       0.0000      50.8611     -64.3521       1.2408      -1.1186      -0.5368     116.4248       1.0226
    2819.0    1497.2830       0.0000      50.8611     -62.3311       1.0584      -0.9373      -0.4910     122.5266       1.0226
    2820.0    1472.9396       0.0000      50.8611     -64.6911       1.0759      -0.9726      -0.4600     128.6284       1.0226
    2821.0    1440.8298       0.0000      50.8611     -59.1059       1.1754      -1.0079      -0.6037     134.7303       1.0226
    2822.0    1414.0509       0.0000      50.8611     -59.9920       1.0935      -0.9470      -0.5467     140.8318       1.0239
    2823.0    1385.5181       0.0000      50.8611     -58.5522       1.0987      -0.9373      -0.5728     146.9472       1.0226
    2824.0    1361.6903       0.0000      50.8611     -53.4271       1.0235      -0.8216      -0.6087     153.0491       1.0226
    2825.0    1326.3480       0.0000      50.8611     -58.1965       1.1744      -0.9981      -0.6186     159.1510       1.0226
    2826.0    1288.1539       0.0000      50.8611     -61.9459       1.1836      -1.0432      -0.5567     165.2529       1.0226
    2827.0    1215.8234       0.0000      50.8611     -57.5642       1.0617      -0.8922      -0.5715     171.7625       1.0226
