~VERSION INFORMATION
VERS.           2.0   :CWLS Log ASCII Standard - VERSION 2.0
WRAP.           NO    :One Line per depth step
PROD.  Schlumberger   :LAS Producer
PROG.  DLIS to ASCII 19C2-270                          :LAS Program name and version
CREA.        2017/09/16 17:42                          :LAS Creation date {YYYY/MM/DD hh:mm}
DLIS_CREA.  2017-Sep-15 16:48                          :DLIS Creation date and time {YYYY-MMM-DD hh:mm}
SOURCE.     LPC_S3-1_2B5.DLIS                          :DLIS File Name
FILE-ID.     PERFO_Perfo_WPGRT_043LTP                  :File Identification Number
#--------------------------------------------------
~WELL INFORMATION
#MNEM.UNIT      DATA             DESCRIPTION
#---- ------ --------------   -----------------------------
STRT .S         4703.0       :START TIME      
STOP .S         5168.0       :STOP TIME      
STEP .S            1.0       :STEP     
NULL .          -999.25      :NULL VALUE
COMP .        SHELL INTERNATIONAL E P                  :COMPANY
WELL .        WPP TEST 2                               :WELL
FLD  .        WILDCAT                                  :FIELD
LOC  .                                                 :LOCATION
CNTY .        HARRIS                                   :COUNTY
STAT .        TEXAS                                    :STATE
CTRY .                                                 :COUNTRY
API  .                                                 :API NUMBER
UWI  .                                                 :UNIQUE WELL ID
DATE .                                                 :LOG DATE
SRVC .        Schlumberger                             :SERVICE COMPANY
LATI .DEG                                              :LATITUDE
LONG .DEG                                              :LONGITUDE
GDAT .                                                 :GeoDetic Datum
#-----------------------------------------------------------------------------
~PARAMETER INFORMATION
#MNEM.UNIT    VALUE                      DESCRIPTION
#---- -----   --------------------       ------------------------
U-PHASE_B_COMP_PER_YT.                 0 :Phase B Comparator Period Yt
U-PHASE_A_COMP_PER_XT.                 0 :Phase A Comparator Period Xt
U-MAX_EXC_CUR_LIMIT.MA       240.00000   :Requested CM Current Limit
U-REQ_EXC_FQ.HZ              50          :Requested CM Frequency
U-TILT_Y_OFFSET.           0.19916       :WPTET Tilt Y Offset
U-TILT_Y_GAIN.           1.01796         :WPTET Tilt Y Gain
U-TILT_X_OFFSET.          -1.77103       :WPTET Tilt X Offset
U-TILT_X_GAIN.           1.00000         :WPTET Tilt X Gain
U-TILT_OFFSET_TOL.           0.00100     :WPTET Tilt Offset Calibration Tolerance
U-NO_TILT_CAL_ROTATIONS.                 3 :Number of Rotations for Tilt Calibration
HAZI .DEG        0.00000                 :Hole Azimuth
U-STD_TOL_TILT.           0.01000        :Tilt Standard Deviation Tolerance
U-GUN_POS_TOL.DEG        5.00000         :Gun Position Tolerance
ROT_ANGLE_THRESHOLD.DEG        5.00000   :Rotation Stop Angle Tolerance
STOP_ROT_ANGLE.DEG        0.00000        :Rotation Stop Angle
WITN .                                   :Witness's Name
ENGI .                                   :Engineer's Name
COUN .        HARRIS                     :County or Rig Name
FN   .        WILDCAT                    :Field Name
WN   .        WPP TEST 2                 :Well Name
CN   .        SHELL INTERNATIONAL E P    :Company Name
CLAB .        County                     :County/Rig Label
SLAB .        State                      :State/Province Label
RUN  .          1                        :RUN NUMBER
PDAT .        GROUND LEVEL               :Permanent Datum
EPD  .                                   :Elevation of Permanent Datum above Mean Sea Level
LMF  .                                   :Logging Measured From (Name of Logging Elevation Reference)
APD  .                                   :Elevation of Depth Reference (LMF) above Permanent Datum
#-----------------------------------------------------------------------------
~CURVE INFORMATION
#MNEM.UNIT   API CODE                                  DESCRIPTION
#---- -----  --------                                  -----------------------
TIME .S                                                :TIME {F10.1}
FREQ_EMF_SL.HZ                                         :Electromagnetic Field Frequency {F13.4}
PH_SH_WPPCM_SL.DEG                                     :WPPCM Phase Shift {F13.4}
FREQ_EXC_REQ_SL.HZ                                     :Requested Exciter Frequency {F13.4}
RB_SL.DEG                                              :Relative Bearing {F13.4}
SDEV_SL.DEG                                            :Sonde Deviation {F13.4}
TILX_SL.DEG                                            :X-axis Tilt {F13.4}
TILY_SL.DEG                                            :Y-axis Tilt {F13.4}
ROTA_SL.DEG                                            :Motor Rotation Angle {F13.4}
MSPE_SL.RPM                                            :Motor Speed {F13.4}
#-----------------------------------------------------------------------------
# 
#     TIME    FREQ_EMF_SL  PH_SH_WPPCM_ FREQ_EXC_REQ    RB_SL       SDEV_SL      TILX_SL      TILY_SL      ROTA_SL      MSPE_SL
#                          SL           _SL
~A  
# ...
    5018.0    1409.6091       0.0000      50.8611     133.8126       4.5566       3.2862       3.1528     126.9654       1.0226
    5019.0    1417.8634       0.0000      50.8611     141.9303       4.6127       2.8424       3.6299     133.0672       1.0226
    5020.0    1434.6719       0.0000      50.8611     149.0751       4.6754       2.4006       4.0095     139.1818       1.0126
    5021.0    1434.9490       0.0000      50.8611     156.4751       4.8114       1.9186       4.4106     145.2719       1.0226
    5022.0    1432.4446       0.0000      50.8611     162.1076       4.8053       1.4748       4.5722     151.3738       1.0226
    5023.0    1438.1639       0.0000      50.8611     170.3058       4.9705       0.8360       4.8993     157.4951       1.0226
    5024.0    1443.7886       0.0000      50.8611     175.8659       4.8420       0.3483       4.8292     163.9855       1.0226
    5025.0    1449.6005       0.0000      50.8611    -177.6562       5.1490      -0.2102       5.1447     170.0875       1.0226
    5026.0    1450.0273       0.0000      50.8611    -170.5951       5.2150      -0.8510       5.1447     176.2026       1.0226
    5027.0    1452.7377       0.0000      50.8611    -163.9372       5.2672      -1.4554       5.0609     182.3045       1.0226
    5028.0    1455.3185       0.0000      50.8611    -156.7730       5.4238      -2.1363       4.9831     188.4064       1.0226
    5029.0    1458.3014       0.0000      50.8611    -152.6729       5.5492      -2.5437       4.9281     194.5214       1.0226
    5030.0    1458.1952       0.0000      50.8611    -144.4097       5.5368      -3.2189       4.5002     200.6233       1.0221
    5031.0    1452.5954       0.0000      50.8611    -138.5470       5.7201      -3.7832       4.2841     206.7269       1.0226
    5032.0    1444.3565       0.0000      50.8611    -135.0770       5.7089      -4.0280       4.0387     212.8165       1.0226
    5033.0    1434.9490       0.0000      50.8611    -126.5467       5.7720      -4.6343       3.4332     218.9178       1.0216
    5034.0    1432.0265       0.0000      50.8611    -123.0935       6.0534      -5.0685       3.3008     224.9955       1.0226
    5035.0    1428.5684       0.0000      50.8611    -116.5352       6.0246      -5.3879       2.6875     231.0974       1.0221
    5036.0    1423.6048       0.0000      50.8611    -110.9500       6.1600      -5.7513       2.1988     237.5950       1.0226
    5037.0    1423.1934       0.0000      50.8611    -105.0394       6.2869      -6.0708       1.6283     243.6969       1.0226
    5038.0    1411.7632       0.0000      50.8611     -99.9266       6.3635      -6.2678       1.0948     249.7873       1.0027
    5039.0    1403.4431       0.0000      50.8611     -95.0729       6.3406      -6.3156       0.5594     255.8899       1.0328
    5040.0    1389.9687       0.0000      50.8611     -88.8374       6.3188      -6.3175      -0.1279     261.9913       1.0226
    5041.0    1381.7414       0.0000      50.8611     -84.5792       6.6151      -6.5853      -0.6235     268.0945       1.0226
    5042.0    1368.0742       0.0000      50.8611     -79.0060       6.5044      -6.3845      -1.2377     274.1963       1.0226
    5043.0    1354.6450       0.0000      50.8611     -72.3912       6.5311      -6.2238      -1.9718     280.2981       1.0226
    5044.0    1326.6509       0.0000      50.8611     -67.7985       6.6796      -6.1817      -2.5189     286.3999       1.0226
    5045.0    1313.5600       0.0000      50.8611     -63.8240       6.6269      -5.9445      -2.9180     292.4894       1.0226
    5046.0    1294.1067       0.0000      50.8611     -58.1927       6.5331      -5.5486      -3.4379     298.5912       1.0226
    5047.0    1270.9326       0.0000      50.8611     -53.2026       6.5809      -5.2655      -3.9364     304.6930       1.0226
    5048.0    1253.7698       0.0000      50.8611     -48.4725       6.6930      -5.0054      -4.4309     311.1905       1.0226
    5049.0    1238.1039       0.0000      50.8611     -41.8138       6.7042      -4.4641      -4.9917     317.2917       1.0126
    5050.0    1230.5842       0.0000      50.8611     -38.2812       6.6873      -4.1370      -5.2448     323.3817       1.0226
    5051.0    1214.2788       0.0000      50.8611     -32.8428       6.5272      -3.5345      -5.4804     329.4713       1.0226
    5052.0    1197.8279       0.0000      50.8611     -29.6753       6.7876      -3.3548      -5.8932     335.5600       1.0126
    5053.0    1185.5189       0.0000      50.8611     -21.1805       6.3740      -2.2989      -5.9418     341.6502       1.0226
    5054.0    1186.0907       0.0000      50.8611     -17.2175       6.3828      -1.8858      -6.0956     347.7520       1.0226
    5055.0    1175.7011       0.0000      50.8611     -12.3126       6.4072      -1.3636      -6.2592     353.8538       1.0226
    5056.0    1169.7409       0.0000      50.8611      -6.7656       6.3393      -0.7459      -6.2943     342.8556       1.0226
    5057.0    1173.7384       0.0000      50.8611      -1.0477       6.3753      -0.1166      -6.3741       6.0457       1.0231
    5058.0    1174.1120       0.0000      50.8611       4.9164       6.0831       0.5204      -6.0606      12.1484       1.0226
    5059.0    1183.4296       0.0000      50.8611       9.3102       5.9702       0.9641      -5.8912      18.2385       1.0131
    5060.0    1185.6134       0.0000      50.8611      14.8183       5.9637       1.5226      -5.7647      24.7484       1.0126
    5061.0    1189.8166       0.0000      50.8611      22.8712       5.6874       2.2074      -5.2389      30.8497       1.0226
    5062.0    1195.9846       0.0000      50.8611      26.5813       5.5814       2.4943      -4.9897      36.9282       1.0131
    5063.0    1212.1854       0.0000      50.8611      31.4121       5.4157       2.8194      -4.6198      43.0306       1.0226
    5064.0    1220.8040       0.0000      50.8611      40.7352       5.3627       3.4965      -4.0610      49.1202       1.0226
    5065.0    1242.0625       0.0000      50.8611      45.4903       5.2527       3.7433      -3.6794      55.2356       1.0231
    5066.0    1253.9859       0.0000      50.8611      52.3584       5.2324       4.1411      -3.1926      61.3498       1.0226
    5067.0    1285.5324       0.0000      50.8611      58.9937       5.0117       4.2941      -2.5793      67.4516       1.0226
    5068.0    1309.3575       0.0000      50.8611      65.8666       5.0945       4.6480      -2.0809      73.5694       1.0226
    5069.0    1329.3984       0.0000      50.8611      72.5541       5.0432       4.8106      -1.5104      79.6683       1.0231
    5070.0    1349.5681       0.0000      50.8611      79.1593       4.7737       4.6882      -0.8970      85.7709       1.0226
    5071.0    1357.7597       0.0000      50.8611      85.5074       4.6721       4.6575      -0.3655      91.8726       1.0226
    5072.0    1370.4874       0.0000      50.8611      95.0403       4.5989       4.5810       0.4036      98.3824       1.0226
    5073.0    1386.5755       0.0000      50.8611     100.2748       4.6133       4.5390       0.8222     104.4901       1.0226
    5074.0    1392.1961       0.0000      50.8611     110.8602       4.5613       4.2616       1.6225     110.5737       1.0226
    5075.0    1395.4860       0.0000      50.8611     115.7231       4.5406       4.0895       1.9690     116.6754       1.0226
    5076.0    1403.5764       0.0000      50.8611     123.3917       4.6040       3.8428       2.5317     122.7772       1.0226
    5077.0    1422.7869       0.0000      50.8611     129.8921       4.5943       3.5233       2.9445     128.8790       1.0226
    5078.0    1417.5908       0.0000      50.8611     138.8010       4.5650       3.0050       3.4332     134.9809       1.0226
    5079.0    1429.1158       0.0000      50.8611     145.5924       4.6616       2.6320       3.8440     141.0711       1.0328
    5080.0    1429.6723       0.0000      50.8611     154.3376       4.6242       2.0008       4.1672     147.1855       1.0226
