~VERSION INFORMATION
VERS.           2.0   :CWLS Log ASCII Standard - VERSION 2.0
WRAP.           NO    :One Line per depth step
PROD.  Schlumberger   :LAS Producer
PROG.  DLIS to ASCII 19C2-270                          :LAS Program name and version
CREA.        2017/09/16 17:42                          :LAS Creation date {YYYY/MM/DD hh:mm}
DLIS_CREA.  2017-Sep-15 12:00                          :DLIS Creation date and time {YYYY-MMM-DD hh:mm}
SOURCE.     LPC_S1-1_A5.DLIS                           :DLIS File Name
FILE-ID.     PERFO_Perfo_WPGRT_019LTP                  :File Identification Number
#--------------------------------------------------
~WELL INFORMATION
#MNEM.UNIT      DATA             DESCRIPTION
#---- ------ --------------   -----------------------------
STRT .S         4414.0       :START TIME      
STOP .S         5447.0       :STOP TIME      
STEP .S            1.0       :STEP     
NULL .          -999.25      :NULL VALUE
COMP .        SHELL INTERNATIONAL E P                  :COMPANY
WELL .        WPP TEST 2                               :WELL
FLD  .        WILDCAT                                  :FIELD
LOC  .                                                 :LOCATION
CNTY .        HARRIS                                   :COUNTY
STAT .        TEXAS                                    :STATE
CTRY .                                                 :COUNTRY
API  .                                                 :API NUMBER
UWI  .                                                 :UNIQUE WELL ID
DATE .                                                 :LOG DATE
SRVC .        Schlumberger                             :SERVICE COMPANY
LATI .DEG                                              :LATITUDE
LONG .DEG                                              :LONGITUDE
GDAT .                                                 :GeoDetic Datum
#-----------------------------------------------------------------------------
~PARAMETER INFORMATION
#MNEM.UNIT    VALUE                      DESCRIPTION
#---- -----   --------------------       ------------------------
U-PHASE_B_COMP_PER_YT.                 0 :Phase B Comparator Period Yt
U-PHASE_A_COMP_PER_XT.                 0 :Phase A Comparator Period Xt
U-MAX_EXC_CUR_LIMIT.MA       240.00000   :Requested CM Current Limit
U-REQ_EXC_FQ.HZ              50          :Requested CM Frequency
U-TILT_Y_OFFSET.           0.19916       :WPTET Tilt Y Offset
U-TILT_Y_GAIN.           1.01796         :WPTET Tilt Y Gain
U-TILT_X_OFFSET.          -1.77103       :WPTET Tilt X Offset
U-TILT_X_GAIN.           1.00000         :WPTET Tilt X Gain
U-TILT_OFFSET_TOL.           0.00100     :WPTET Tilt Offset Calibration Tolerance
U-NO_TILT_CAL_ROTATIONS.                 3 :Number of Rotations for Tilt Calibration
HAZI .DEG        0.00000                 :Hole Azimuth
U-STD_TOL_TILT.           0.01000        :Tilt Standard Deviation Tolerance
U-GUN_POS_TOL.DEG        5.00000         :Gun Position Tolerance
ROT_ANGLE_THRESHOLD.DEG        5.00000   :Rotation Stop Angle Tolerance
STOP_ROT_ANGLE.DEG       80.00000        :Rotation Stop Angle
WITN .                                   :Witness's Name
ENGI .                                   :Engineer's Name
COUN .        HARRIS                     :County or Rig Name
FN   .        WILDCAT                    :Field Name
WN   .        WPP TEST 2                 :Well Name
CN   .        SHELL INTERNATIONAL E P    :Company Name
CLAB .        County                     :County/Rig Label
SLAB .        State                      :State/Province Label
RUN  .          1                        :RUN NUMBER
PDAT .        GROUND LEVEL               :Permanent Datum
EPD  .                                   :Elevation of Permanent Datum above Mean Sea Level
LMF  .                                   :Logging Measured From (Name of Logging Elevation Reference)
APD  .                                   :Elevation of Depth Reference (LMF) above Permanent Datum
#-----------------------------------------------------------------------------
~CURVE INFORMATION
#MNEM.UNIT   API CODE                                  DESCRIPTION
#---- -----  --------                                  -----------------------
TIME .S                                                :TIME {F10.1}
FREQ_EMF_SL.HZ                                         :Electromagnetic Field Frequency {F13.4}
PH_SH_WPPCM_SL.DEG                                     :WPPCM Phase Shift {F13.4}
FREQ_EXC_REQ_SL.HZ                                     :Requested Exciter Frequency {F13.4}
RB_SL.DEG                                              :Relative Bearing {F13.4}
SDEV_SL.DEG                                            :Sonde Deviation {F13.4}
TILX_SL.DEG                                            :X-axis Tilt {F13.4}
TILY_SL.DEG                                            :Y-axis Tilt {F13.4}
ROTA_SL.DEG                                            :Motor Rotation Angle {F13.4}
MSPE_SL.RPM                                            :Motor Speed {F13.4}
#-----------------------------------------------------------------------------
# 
#     TIME    FREQ_EMF_SL  PH_SH_WPPCM_ FREQ_EXC_REQ    RB_SL       SDEV_SL      TILX_SL      TILY_SL      ROTA_SL      MSPE_SL
#                          SL           _SL
~A  
# ...
    4855.0    1631.3805       0.0000      50.8611     138.1150       3.1318       2.0905       2.3310     137.1869       0.0005
    4856.0    1631.3805       0.0000      50.8611     139.4731       3.5621       2.3132       2.7063     137.1869       0.0005
    4857.0    1631.3805       0.0000      50.8611     139.9108       3.3063       2.1177       2.5187     137.1869       0.0005
    4858.0    1631.3805       0.0000      50.8611     135.4458       3.2906       2.3077       2.3439     137.1869       0.0005
    4859.0    1635.1744       0.0000      50.8611     136.7194       3.3941       2.3260       2.4703     137.1869       0.0005
    4860.0    1630.5214       0.0000      50.8611     137.6547       3.4411       2.3168       2.5428     137.1869       0.0005
    4861.0    1627.6041       0.0000      50.8611     140.4854       3.2148       2.0448       2.4796     137.1869       0.0005
    4862.0    1633.4522       0.0000      50.8611     137.9032       3.1919       2.1398       2.3662     137.1869       0.0005
    4863.0    1631.3805       0.0000      50.8611     135.8828       3.2399       2.2548       2.3253     137.1869       0.0005
    4864.0    1632.2436       0.0000      50.8611     136.3664       3.3268       2.2949       2.4071     137.1869       0.0005
    4865.0    1633.4522       0.0000      50.8611     138.9884       3.3290       2.1836       2.5112     137.1869       0.0005
    4866.0    1631.3805       0.0000      50.8611     139.0508       3.3281       2.1817       2.5112     137.1869       0.0005
    4867.0    1632.2436       0.0000      50.8611     136.3418       3.2721       2.2584       2.3662     137.1869       0.0005
    4868.0    1632.2436       0.0000      50.8611     135.3440       3.3855       2.3789       2.4071     137.1869       0.0005
    4869.0    1634.3113       0.0000      50.8611     137.9418       3.2804       2.1963       2.4350     137.1869       0.0005
    4870.0    1631.3805       0.0000      50.8611     137.9077       3.1900       2.1379       2.3662     137.1869       0.0005
    4871.0    1631.3805       0.0000      50.8611     139.5450       3.1815       2.0631       2.4201     137.1869       0.0005
    4872.0    1636.0416       0.0000      50.8611     134.4959       3.3002       2.3534       2.3124     137.1869       0.0005
    4873.0    1630.5214       0.0000      50.8611     136.3414       3.4154       2.3570       2.4703     137.1869       0.0005
    4874.0    1635.1744       0.0000      50.8611     141.2876       3.3895       2.1196       2.6431     137.1869       0.0005
    4875.0    1631.3805       0.0000      50.8611     137.7067       3.2924       2.2146       2.4350     137.1869       0.0005
    4876.0    1637.2557       0.0000      50.8611     138.8911       3.2961       2.1653       2.4833     137.1869       0.0005
    4877.0    1627.6041       0.0000      50.8611     135.7841       3.0743       2.1434       2.2027     137.1869       0.0005
    4878.0    1620.9549       0.0000      50.8611     136.8942       3.2940       2.2493       2.4034     137.1869       0.0007
    4879.0    1626.7490       0.0000      50.8611     140.2500       3.3733       2.1562       2.5929     141.2055       0.6848
    4880.0    1633.4522       0.0000      50.8611     147.3559       3.3983       1.8312       2.8606     146.0580       0.9412
    4881.0    1638.9860       0.0000      50.8611     153.7368       3.4848       1.5409       3.1245     152.0719       1.0226
    4882.0    1643.6906       0.0000      50.8611     162.1923       3.3446       1.0224       3.1840     158.5812       1.0226
    4883.0    1646.6628       0.0000      50.8611     168.9994       3.5874       0.6847       3.5204     164.6838       1.0226
    4884.0    1644.9164       0.0000      50.8611     173.8738       3.6453       0.3888       3.6244     170.7857       1.0226
    4885.0    1634.3113       0.0000      50.8611    -178.3710       3.7451      -0.1059       3.7434     176.8869       1.0226
    4886.0    1618.9329       0.0000      50.8611    -172.2998       3.7908      -0.5076       3.7564     182.9765       1.0226
    4887.0    1613.5155       0.0000      50.8611    -164.0555       3.8509      -1.0572       3.7025     189.0831       1.0226
    4888.0    1597.1870       0.0000      50.8611    -158.0659       3.9919      -1.4899       3.7025     195.1810       1.0226
    4889.0    1576.2178       0.0000      50.8611    -153.1936       4.1283      -1.8605       3.6839     201.2911       1.0202
    4890.0    1560.6154       0.0000      50.8611    -144.0898       4.1182      -2.4137       3.3345     207.3854       1.0226
    4891.0    1529.2903       0.0000      50.8611    -139.2609       4.1999      -2.7386       3.1803     213.5029       1.0250
    4892.0    1501.3962       0.0000      50.8611    -135.5994       4.5921      -3.2115       3.2787     219.6033       1.0250
    4893.0    1479.2847       0.0000      50.8611    -128.7459       4.6183      -3.6004       2.8885     225.7075       1.0226
    4894.0    1453.1778       0.0000      50.8611    -121.5458       4.6437      -3.9564       2.4257     232.2020       1.0226
    4895.0    1429.7780       0.0000      50.8611    -114.5288       4.5528      -4.1409       1.8885     238.2916       1.0226
    4896.0    1401.2835       0.0000      50.8611    -110.2953       4.7583      -4.4622       1.6488     244.3942       1.0226
    4897.0    1367.5273       0.0000      50.8611    -106.0125       4.9582      -4.7652       1.3663     250.4968       1.0226
    4898.0    1346.7646       0.0000      50.8611    -100.7688       4.9852      -4.8968       0.9315     256.5980       1.0226
    4899.0    1312.9180       0.0000      50.8611     -96.7728       5.1629      -5.1267       0.6080     262.7005       1.0226
    4900.0    1242.5583       0.0000      50.8611     -90.6223       4.6143      -4.6139       0.0519     268.8030       1.0226
    4901.0    1169.1604       0.0000      50.8611     -84.1952       5.1874      -5.1597      -0.5219     274.9173       1.0226
    4902.0    1105.2606       0.0000      50.8611     -80.8233       5.3063      -5.2381      -0.8453     281.0321       1.0226
    4903.0    1039.1640       0.0000      50.8611     -76.1197       5.3133      -5.1578      -1.2728     287.1245       1.0202
    4904.0    1004.1383       0.0000      50.8611     -69.5573       5.2638      -4.9314      -1.8359     293.2235       1.0226
    4905.0     975.8252       0.0000      50.8611     -65.1576       5.2968      -4.8054      -2.2225     299.3277       1.0226
    4906.0     959.8399       0.0000      50.8611     -61.2685       5.3758      -4.7123      -2.5812     305.8264       1.0121
    4907.0     942.9990       0.0000      50.8611     -56.3729       5.2979      -4.4093      -2.9306     311.9247       1.0309
    4908.0     931.4682       0.0000      50.8611     -50.1079       5.2263      -4.0076      -3.3488     318.0397       1.0226
    4909.0     925.9986       0.0000      50.8611     -44.9605       5.8432      -4.1245      -4.1293     324.1429       1.0226
    4910.0     922.1867       0.0000      50.8611     -40.9030       5.2995      -3.4672      -4.0030     330.2433       1.0226
    4911.0     916.9932       0.0000      50.8611     -35.0727       5.2705      -3.0253      -4.3115     336.3451       1.0226
    4912.0     913.4872       0.0000      50.8611     -30.8612       5.1553      -2.6419      -4.4235     342.4476       1.0226
    4913.0     918.0300       0.0000      50.8611     -24.9763       5.2061      -2.1965      -4.7167     348.5487       1.0226
    4914.0     919.6658       0.0000      50.8611     -21.3261       5.1222      -1.8605      -4.7706     354.6536       1.0226
    4915.0     929.6717       0.0000      50.8611     -16.8229       5.0466      -1.4588      -4.8301      82.6530       1.0144
    4916.0     943.6252       0.0000      50.8611     -12.2681       5.0403      -1.0699      -4.9248       6.8448       1.0226
    4917.0     955.2962       0.0000      50.8611      -7.6368       5.0067      -0.6646      -4.9620      12.9568       1.0226
