~VERSION INFORMATION
VERS.           2.0   :CWLS Log ASCII Standard - VERSION 2.0
WRAP.           NO    :One Line per depth step
PROD.  Schlumberger   :LAS Producer
PROG.  DLIS to ASCII 19C2-270                          :LAS Program name and version
CREA.        2017/09/16 17:42                          :LAS Creation date {YYYY/MM/DD hh:mm}
DLIS_CREA.  2017-Sep-15 18:33                          :DLIS Creation date and time {YYYY-MMM-DD hh:mm}
SOURCE.     LPC_S4-1_2BV.DLIS                          :DLIS File Name
FILE-ID.     PERFO_Perfo_WPGRT_056LTP                  :File Identification Number
#--------------------------------------------------
~WELL INFORMATION
#MNEM.UNIT      DATA             DESCRIPTION
#---- ------ --------------   -----------------------------
STRT .S         5560.0       :START TIME      
STOP .S         6042.0       :STOP TIME      
STEP .S            1.0       :STEP     
NULL .          -999.25      :NULL VALUE
COMP .        SHELL INTERNATIONAL E P                  :COMPANY
WELL .        WPP TEST 2                               :WELL
FLD  .        WILDCAT                                  :FIELD
LOC  .        NA                                       :LOCATION
CNTY .        HARRIS                                   :COUNTY
STAT .        TEXAS                                    :STATE
CTRY .                                                 :COUNTRY
API  .        NA                                       :API NUMBER
UWI  .                                                 :UNIQUE WELL ID
DATE .        15-Sep-2017                              :LOG DATE {DD-MMM-YYYY}
SRVC .        Schlumberger                             :SERVICE COMPANY
LATI .DEG                                              :LATITUDE
LONG .DEG                                              :LONGITUDE
GDAT .                                                 :GeoDetic Datum
SECT .        NA                                       :Section
RANG .        NA                                       :Range
TOWN .        NA                                       :Township
#-----------------------------------------------------------------------------
~PARAMETER INFORMATION
#MNEM.UNIT    VALUE                      DESCRIPTION
#---- -----   --------------------       ------------------------
U-PHASE_B_COMP_PER_YT.                 0 :Phase B Comparator Period Yt
U-PHASE_A_COMP_PER_XT.                 0 :Phase A Comparator Period Xt
U-MAX_EXC_CUR_LIMIT.MA       240.00000   :Requested CM Current Limit
U-REQ_EXC_FQ.HZ              50          :Requested CM Frequency
U-TILT_Y_OFFSET.           0.19916       :WPTET Tilt Y Offset
U-TILT_Y_GAIN.           1.01796         :WPTET Tilt Y Gain
U-TILT_X_OFFSET.          -1.77103       :WPTET Tilt X Offset
U-TILT_X_GAIN.           1.00000         :WPTET Tilt X Gain
U-TILT_OFFSET_TOL.           0.00100     :WPTET Tilt Offset Calibration Tolerance
U-NO_TILT_CAL_ROTATIONS.                 3 :Number of Rotations for Tilt Calibration
HAZI .DEG        0.00000                 :Hole Azimuth
U-STD_TOL_TILT.           0.01000        :Tilt Standard Deviation Tolerance
U-GUN_POS_TOL.DEG        5.00000         :Gun Position Tolerance
ROT_ANGLE_THRESHOLD.DEG        5.00000   :Rotation Stop Angle Tolerance
STOP_ROT_ANGLE.DEG        0.00000        :Rotation Stop Angle
WITN .        MR. DHRUA ARORA            :Witness's Name
ENGI .        MORRIS MOORE               :Engineer's Name
COUN .        HARRIS                     :County or Rig Name
FN   .        WILDCAT                    :Field Name
WN   .        WPP TEST 2                 :Well Name
CN   .        SHELL INTERNATIONAL E P    :Company Name
CLAB .        County                     :County/Rig Label
SLAB .        State                      :State/Province Label
RUN  .          1                        :RUN NUMBER
PDAT .        GROUND LEVEL               :Permanent Datum
EPD  .                                   :Elevation of Permanent Datum above Mean Sea Level
LMF  .          NA                       :Logging Measured From (Name of Logging Elevation Reference)
APD  .                                   :Elevation of Depth Reference (LMF) above Permanent Datum
#-----------------------------------------------------------------------------
~CURVE INFORMATION
#MNEM.UNIT   API CODE                                  DESCRIPTION
#---- -----  --------                                  -----------------------
TIME .S                                                :TIME {F10.1}
FREQ_EMF_SL.HZ                                         :Electromagnetic Field Frequency {F13.4}
PH_SH_WPPCM_SL.DEG                                     :WPPCM Phase Shift {F13.4}
FREQ_EXC_REQ_SL.HZ                                     :Requested Exciter Frequency {F13.4}
RB_SL.DEG                                              :Relative Bearing {F13.4}
SDEV_SL.DEG                                            :Sonde Deviation {F13.4}
TILX_SL.DEG                                            :X-axis Tilt {F13.4}
TILY_SL.DEG                                            :Y-axis Tilt {F13.4}
ROTA_SL.DEG                                            :Motor Rotation Angle {F13.4}
MSPE_SL.RPM                                            :Motor Speed {F13.4}
#-----------------------------------------------------------------------------
# 
#     TIME    FREQ_EMF_SL  PH_SH_WPPCM_ FREQ_EXC_REQ    RB_SL       SDEV_SL      TILX_SL      TILY_SL      ROTA_SL      MSPE_SL
#                          SL           _SL
~A  
# ...
    5812.0    1428.4827       0.0000      50.8611     -59.7264       0.9529      -0.8227      -0.4800     290.5273       0.0005
    5813.0    1436.7390       0.0000      50.8611     -56.1664       1.0209      -0.8472      -0.5687     290.5273       0.0005
    5814.0    1437.3965       0.0000      50.8611     -61.7069       0.9265      -0.8159      -0.4391     290.5273       0.0005
    5815.0    1429.7608       0.0000      50.8611     -64.8719       0.8937      -0.8070      -0.3802     290.5273       0.0005
    5816.0    1432.5352       0.0000      50.8611     -59.7753       0.9249      -0.7982      -0.4640     290.5273       0.0005
    5817.0    1434.3107       0.0000      50.8611     -57.2200       0.9453      -0.7914      -0.5139     290.5273       0.0005
    5818.0    1432.0265       0.0000      50.8611     -67.2514       0.9019      -0.8315      -0.3483     290.5273       0.0005
    5819.0    1433.8092       0.0000      50.8611     -61.9423       0.8597      -0.7580      -0.4052     290.5273       0.0005
    5820.0    1434.0567       0.0000      50.8611     -56.6731       0.9181      -0.7676      -0.5022     290.5273       0.0005
    5821.0    1433.8092       0.0000      50.8611     -59.2275       0.9213      -0.7914      -0.4710     290.5273       0.0005
    5822.0    1434.9490       0.0000      50.8611     -54.0294       0.8888      -0.7199      -0.5209     290.5273       0.0005
    5823.0    1432.0265       0.0000      50.8611     -61.8472       0.9298      -0.8159      -0.4371     290.5273       0.0005
    5824.0    1434.9490       0.0000      50.8611     -63.3879       0.9828      -0.8785      -0.4391     290.5273       0.0005
    5825.0    1432.0265       0.0000      50.8611     -51.9030       0.9124      -0.7179      -0.5618     290.5273       0.0005
    5826.0    1431.3908       0.0000      50.8611     -55.6530       0.8583      -0.7090      -0.4800     290.5273       0.0005
    5827.0    1430.2510       0.0000      50.8611     -62.1035       0.9175      -0.8090      -0.4211     290.5273       0.0005
    5828.0    1433.1663       0.0000      50.8611     -58.3731       0.9769      -0.8315      -0.5119     290.5273       0.0005
    5829.0    1436.0934       0.0000      50.8611     -58.2925       0.9596      -0.8159      -0.5049     290.5273       0.0005
    5830.0    1431.3908       0.0000      50.8611     -53.2374       0.9168      -0.7335      -0.5458     290.5273       0.0005
    5831.0    1429.1158       0.0000      50.8611     -59.6804       0.9497      -0.8159      -0.4779     290.5273       0.0005
    5832.0    1434.2561       0.0000      50.8611     -57.3941       0.9374      -0.7886      -0.5049     290.5273       0.0005
    5833.0    1430.8913       0.0000      50.8611     -63.3053       0.8860      -0.7914      -0.3982     290.5273       0.0005
    5834.0    1430.8913       0.0000      50.8611     -58.8711       0.8492      -0.7267      -0.4391     290.5273       0.0005
    5835.0    1432.5352       0.0000      50.8611     -56.7562       0.9061      -0.7580      -0.4959     290.5273       0.0005
    5836.0    1438.5363       0.0000      50.8611     -62.0973       0.8854      -0.7825      -0.4142     290.5273       0.0005
    5837.0    1435.5992       0.0000      50.8611     -54.3178       0.9637      -0.7825      -0.5618     290.5273       0.0005
    5838.0    1433.1663       0.0000      50.8611     -62.7009       0.9304      -0.8247      -0.4211     290.5273       0.0005
    5839.0    1433.1663       0.0000      50.8611     -54.4874       0.8817      -0.7179      -0.5119     290.5273       0.0007
    5840.0    1440.3411       0.0000      50.8611     -62.0147       1.0880      -0.9629      -0.5049     294.8159       0.7195
    5841.0    1439.2014       0.0000      50.8611     -58.9588       0.9265      -0.7962      -0.4710     299.9254       0.9635
    5842.0    1430.2510       0.0000      50.8611     -59.3408       0.9109      -0.7825      -0.4640     305.9789       1.0185
    5843.0    1435.9968       0.0000      50.8611     -62.0890       0.8503      -0.7512      -0.3982     312.0807       1.0226
    5844.0    1439.0325       0.0000      50.8611     -60.2770       1.0366      -0.8962      -0.5126     318.2048       1.0275
    5845.0    1444.9471       0.0000      50.8611     -61.6328       0.8874      -0.7737      -0.4281     324.3105       1.0226
    5846.0    1447.9226       0.0000      50.8611     -64.3912       0.9639      -0.8697      -0.4142     330.4255       1.0292
    5847.0    1450.4061       0.0000      50.8611     -62.6709       0.9613      -0.8540      -0.4391     336.5425       1.0268
    5848.0    1434.9490       0.0000      50.8611     -57.3268       0.9957      -0.8384      -0.5368     342.6535       1.0292
    5849.0    1439.0325       0.0000      50.8611     -61.9656       0.9697      -0.8560      -0.4551     348.7549       1.0292
    5850.0    1432.0265       0.0000      50.8611     -66.8690       0.9918      -0.9119      -0.3892     354.8533       1.0226
    5851.0    1433.8092       0.0000      50.8611     -60.1401       1.0795      -0.9364      -0.5368       1.3662       1.0292
    5852.0    1423.9697       0.0000      50.8611     -60.7253       0.8794      -0.7669      -0.4301       7.4731       1.0226
    5853.0    1427.3476       0.0000      50.8611     -62.2972       0.9471      -0.8384      -0.4391      13.5749       1.0226
    5854.0    1419.8291       0.0000      50.8611     -61.9951       1.0230      -0.9030      -0.4800      19.6768       1.0226
    5855.0    1426.2170       0.0000      50.8611     -62.3941       1.1118      -0.9854      -0.5119      25.7662       1.0226
    5856.0    1405.1553       0.0000      50.8611     -63.8573       1.1071      -0.9922      -0.4890      31.8557       1.0226
    5857.0    1399.4419       0.0000      50.8611     -63.4699       1.0192      -0.9119      -0.4551      37.9587       1.0226
    5858.0    1399.5614       0.0000      50.8611     -60.3528       1.0030      -0.8717      -0.4959      44.0605       1.0226
    5859.0    1388.0595       0.0000      50.8611     -59.6664       1.0642      -0.9187      -0.5368      50.1703       1.0268
    5860.0    1373.7584       0.0000      50.8611     -57.1893       1.1534      -0.9677      -0.6256      56.2773       1.0292
    5861.0    1361.5039       0.0000      50.8611     -58.5832       0.9823      -0.8384      -0.5119      62.3935       1.0226
    5862.0    1342.4099       0.0000      50.8611     -62.3089       1.0969      -0.9697      -0.5029      68.4950       1.0226
    5863.0    1346.5548       0.0000      50.8611     -58.3962       1.1186      -0.9520      -0.5867      74.9912       1.0226
    5864.0    1320.1509       0.0000      50.8611     -56.7528       1.1573      -0.9677      -0.6345      81.0930       1.0226
    5865.0    1321.0476       0.0000      50.8611     -62.8207       1.1063      -0.9834      -0.5049      87.2028       1.0268
    5866.0    1310.7418       0.0000      50.8611     -56.2397       1.0987      -0.9119      -0.6117      93.2986       1.0226
    5867.0    1307.3465       0.0000      50.8611     -56.6345       1.0517      -0.8785      -0.5777      99.3870       1.0226
    5868.0    1279.7282       0.0000      50.8611     -54.6814       1.0273      -0.8384      -0.5937     105.4899       1.0226
    5869.0    1267.7837       0.0000      50.8611     -37.1938       1.2703      -0.7283      -0.7245     111.6056       1.0226
    5870.0    1256.0777       0.0000      50.8611     -58.7409       1.1137      -0.9520      -0.5777     117.6950       1.0226
    5871.0    1245.7186       0.0000      50.8611     -54.4971       1.1660      -0.9500      -0.6754     123.7968       1.0226
    5872.0    1249.3819       0.0000      50.8611     -56.9422       1.0150      -0.8472      -0.5548     129.8862       1.0226
    5873.0    1237.8961       0.0000      50.8611     -57.0623       0.9733      -0.8159      -0.5278     135.9900       1.0226
    5874.0    1230.0791       0.0000      50.8611     -44.9677       1.0469      -0.7464      -0.7253     142.0919       1.0226
