~VERSION INFORMATION
VERS.           2.0   :CWLS Log ASCII Standard - VERSION 2.0
WRAP.           NO    :One Line per depth step
PROD.  Schlumberger   :LAS Producer
PROG.  DLIS to ASCII 19C2-270                          :LAS Program name and version
CREA.        2017/09/16 17:42                          :LAS Creation date {YYYY/MM/DD hh:mm}
DLIS_CREA.  2017-Sep-15 18:33                          :DLIS Creation date and time {YYYY-MMM-DD hh:mm}
SOURCE.     LPC_S4-1_2BV.DLIS                          :DLIS File Name
FILE-ID.     PERFO_Perfo_WPGRT_056LTP                  :File Identification Number
#--------------------------------------------------
~WELL INFORMATION
#MNEM.UNIT      DATA             DESCRIPTION
#---- ------ --------------   -----------------------------
STRT .S         5560.0       :START TIME      
STOP .S         6042.0       :STOP TIME      
STEP .S            1.0       :STEP     
NULL .          -999.25      :NULL VALUE
COMP .        SHELL INTERNATIONAL E P                  :COMPANY
WELL .        WPP TEST 2                               :WELL
FLD  .        WILDCAT                                  :FIELD
LOC  .        NA                                       :LOCATION
CNTY .        HARRIS                                   :COUNTY
STAT .        TEXAS                                    :STATE
CTRY .                                                 :COUNTRY
API  .        NA                                       :API NUMBER
UWI  .                                                 :UNIQUE WELL ID
DATE .        15-Sep-2017                              :LOG DATE {DD-MMM-YYYY}
SRVC .        Schlumberger                             :SERVICE COMPANY
LATI .DEG                                              :LATITUDE
LONG .DEG                                              :LONGITUDE
GDAT .                                                 :GeoDetic Datum
SECT .        NA                                       :Section
RANG .        NA                                       :Range
TOWN .        NA                                       :Township
#-----------------------------------------------------------------------------
~PARAMETER INFORMATION
#MNEM.UNIT    VALUE                      DESCRIPTION
#---- -----   --------------------       ------------------------
U-PHASE_B_COMP_PER_YT.                 0 :Phase B Comparator Period Yt
U-PHASE_A_COMP_PER_XT.                 0 :Phase A Comparator Period Xt
U-MAX_EXC_CUR_LIMIT.MA       240.00000   :Requested CM Current Limit
U-REQ_EXC_FQ.HZ              50          :Requested CM Frequency
U-TILT_Y_OFFSET.           0.19916       :WPTET Tilt Y Offset
U-TILT_Y_GAIN.           1.01796         :WPTET Tilt Y Gain
U-TILT_X_OFFSET.          -1.77103       :WPTET Tilt X Offset
U-TILT_X_GAIN.           1.00000         :WPTET Tilt X Gain
U-TILT_OFFSET_TOL.           0.00100     :WPTET Tilt Offset Calibration Tolerance
U-NO_TILT_CAL_ROTATIONS.                 3 :Number of Rotations for Tilt Calibration
HAZI .DEG        0.00000                 :Hole Azimuth
U-STD_TOL_TILT.           0.01000        :Tilt Standard Deviation Tolerance
U-GUN_POS_TOL.DEG        5.00000         :Gun Position Tolerance
ROT_ANGLE_THRESHOLD.DEG        5.00000   :Rotation Stop Angle Tolerance
STOP_ROT_ANGLE.DEG        0.00000        :Rotation Stop Angle
WITN .        MR. DHRUA ARORA            :Witness's Name
ENGI .        MORRIS MOORE               :Engineer's Name
COUN .        HARRIS                     :County or Rig Name
FN   .        WILDCAT                    :Field Name
WN   .        WPP TEST 2                 :Well Name
CN   .        SHELL INTERNATIONAL E P    :Company Name
CLAB .        County                     :County/Rig Label
SLAB .        State                      :State/Province Label
RUN  .          1                        :RUN NUMBER
PDAT .        GROUND LEVEL               :Permanent Datum
EPD  .                                   :Elevation of Permanent Datum above Mean Sea Level
LMF  .          NA                       :Logging Measured From (Name of Logging Elevation Reference)
APD  .                                   :Elevation of Depth Reference (LMF) above Permanent Datum
#-----------------------------------------------------------------------------
~CURVE INFORMATION
#MNEM.UNIT   API CODE                                  DESCRIPTION
#---- -----  --------                                  -----------------------
TIME .S                                                :TIME {F10.1}
FREQ_EMF_SL.HZ                                         :Electromagnetic Field Frequency {F13.4}
PH_SH_WPPCM_SL.DEG                                     :WPPCM Phase Shift {F13.4}
FREQ_EXC_REQ_SL.HZ                                     :Requested Exciter Frequency {F13.4}
RB_SL.DEG                                              :Relative Bearing {F13.4}
SDEV_SL.DEG                                            :Sonde Deviation {F13.4}
TILX_SL.DEG                                            :X-axis Tilt {F13.4}
TILY_SL.DEG                                            :Y-axis Tilt {F13.4}
ROTA_SL.DEG                                            :Motor Rotation Angle {F13.4}
MSPE_SL.RPM                                            :Motor Speed {F13.4}
#-----------------------------------------------------------------------------
# 
#     TIME    FREQ_EMF_SL  PH_SH_WPPCM_ FREQ_EXC_REQ    RB_SL       SDEV_SL      TILX_SL      TILY_SL      ROTA_SL      MSPE_SL
#                          SL           _SL
~A  
    5560.0    1437.8834       0.0000      50.8611     -62.9348       1.9889      -1.7710      -0.9048     290.2321       1.0226
    5561.0    1441.4856       0.0000      50.8611     -35.6516       1.4011      -0.7520      -1.0835     294.2318       1.0292
    5562.0    1453.4041       0.0000      50.8611     -57.6320       0.6825      -0.5592      -0.3622     300.3522       1.0162
    5563.0    1445.6007       0.0000      50.8611     -61.1548       0.8895      -0.7757      -0.4322     306.4418       1.0185
    5564.0    1437.8834       0.0000      50.8611     -59.5320       0.7237      -0.6014      -0.3373     312.5388       1.0226
    5565.0    1439.0325       0.0000      50.8611     -73.3181       1.2808      -1.2264      -0.3643     318.6406       1.0226
    5566.0    1442.8853       0.0000      50.8611     -67.2158       0.9767      -0.8941      -0.3905     324.7349       1.0234
    5567.0    1432.2076       0.0000      50.8611     -54.9395       1.3011      -1.0637      -0.7482     330.8326       1.0185
    5568.0    1434.4641       0.0000      50.8611     -45.4706       0.8512      -0.6102      -0.5687     336.9344       1.0226
    5569.0    1431.3908       0.0000      50.8611     -63.9584       1.1149      -1.0010      -0.4869     343.0362       1.0226
    5570.0    1437.7723       0.0000      50.8611     -70.9816       0.9923      -0.9364      -0.3254     349.1380       1.0292
    5571.0    1433.8092       0.0000      50.8611     -66.4760       1.1841      -1.0862      -0.4710     355.2621       1.0268
    5572.0    1414.7384       0.0000      50.8611     -63.7737       1.0651      -0.9540      -0.4730       1.3678       1.0226
    5573.0    1409.0682       0.0000      50.8611     -67.2967       0.9123      -0.8384      -0.3553       7.8776       1.0292
    5574.0    1402.8325       0.0000      50.8611     -64.1625       1.0496      -0.9452      -0.4551      13.9925       1.0226
    5575.0    1394.6306       0.0000      50.8611     -66.6014       1.0070      -0.9207      -0.3962      20.1075       1.0268
    5576.0    1386.3809       0.0000      50.8611     -62.5841       1.3404      -1.1882      -0.6006      26.2093       1.0226
    5577.0    1389.5751       0.0000      50.8611     -62.4753       1.0921      -0.9677      -0.5049      32.3111       1.0226
    5578.0    1370.4375       0.0000      50.8611     -65.7338       1.0921      -0.9956      -0.4488      38.4085       1.0226
    5579.0    1356.8128       0.0000      50.8611     -58.3599       1.1312      -0.9609      -0.5957      44.5030       1.0226
    5580.0    1344.8549       0.0000      50.8611     -60.9966       1.0904      -0.9520      -0.5299      50.6049       1.0226
    5581.0    1335.7503       0.0000      50.8611     -52.0440       1.1144      -0.8785      -0.6844      56.7154       1.0268
    5582.0    1327.0868       0.0000      50.8611     -53.3807       0.9780      -0.8151      -0.5229      62.8101       1.0226
    5583.0    1312.7566       0.0000      50.8611     -55.4784       1.0474      -0.8629      -0.5937      68.9119       1.0226
    5584.0    1307.4627       0.0000      50.8611     -67.5916       1.3356      -1.2372      -0.4959      75.0267       1.0226
    5585.0    1288.1851       0.0000      50.8611     -63.6247       1.0804      -0.9677      -0.4800      81.5365       1.0226
    5586.0    1270.0738       0.0000      50.8611     -55.9567       0.8874      -0.7355      -0.4959      87.6522       1.0268
    5587.0    1258.8327       0.0000      50.8611     -60.9702       1.1256      -0.9834      -0.5458      93.7540       1.0226
    5588.0    1250.2455       0.0000      50.8611     -56.1030       1.0410      -0.8649      -0.5777      99.8446       1.0185
    5589.0    1244.3822       0.0000      50.8611     -59.2124       1.0982      -0.9432      -0.5618     105.9452       1.0226
    5590.0    1239.2279       0.0000      50.8611     -61.0709       1.3211      -1.1577      -0.6345     112.0469       1.0226
    5591.0    1236.5690       0.0000      50.8611     -54.8402       1.0179      -0.8315      -0.5867     118.1487       1.0226
    5592.0    1228.3089       0.0000      50.8611     -55.8464       1.1772      -0.9745      -0.6595     124.2505       1.0226
    5593.0    1234.8751       0.0000      50.8611     -53.1958       0.9222      -0.7355      -0.5548     130.3523       1.0226
    5594.0    1236.0283       0.0000      50.8611     -53.0603       1.1527      -0.9207      -0.6934     136.4467       1.0185
    5595.0    1239.2279       0.0000      50.8611     -54.7363       1.0674      -0.8697      -0.6117     142.5364       1.0185
    5596.0    1246.6755       0.0000      50.8611     -39.9216       1.0268      -0.6580      -0.7593     148.6423       1.0292
    5597.0    1247.1658       0.0000      50.8611     -49.9843       1.0650      -0.8159      -0.6844     155.1529       1.0268
    5598.0    1266.1513       0.0000      50.8611     -50.6531       0.9608      -0.7424      -0.6096     161.2599       1.0226
    5599.0    1286.8566       0.0000      50.8611     -51.7471       1.0105      -0.7914      -0.6256     167.3377       1.0162
    5600.0    1301.5573       0.0000      50.8611     -56.1012       1.0510      -0.8717      -0.5867     173.4399       1.0226
    5601.0    1315.2122       0.0000      50.8611     -48.7767       0.9074      -0.6845      -0.5937     179.5549       1.0268
    5602.0    1332.8050       0.0000      50.8611     -60.5628       0.8444      -0.7355      -0.4142     185.6568       1.0226
    5603.0    1341.4169       0.0000      50.8611     -57.4319       0.9680      -0.8159      -0.5209     191.7667       1.0268
    5604.0    1356.3642       0.0000      50.8611     -56.1799       1.0053      -0.8315      -0.5597     197.8868       1.0226
    5605.0    1365.2913       0.0000      50.8611     -53.5515       0.8443      -0.6777      -0.5029     203.9811       1.0185
    5606.0    1373.8864       0.0000      50.8611     -56.5236       0.9302      -0.7757      -0.5119     210.0862       1.0268
    5607.0    1377.6243       0.0000      50.8611     -53.5834       0.8951      -0.7179      -0.5299     216.2064       1.0226
    5608.0    1388.5062       0.0000      50.8611     -62.6944       0.8816      -0.7825      -0.4052     222.3095       1.0226
    5609.0    1396.1709       0.0000      50.8611     -51.2927       1.0041      -0.7825      -0.6276     228.8295       1.0226
    5610.0    1398.9488       0.0000      50.8611     -54.4365       0.9234      -0.7512      -0.5368     234.9358       1.0226
    5611.0    1405.1553       0.0000      50.8611     -54.4923       0.9010      -0.7335      -0.5209     241.0359       1.0226
    5612.0    1413.0055       0.0000      50.8611     -52.8768       0.9314      -0.7424      -0.5618     247.1378       1.0226
    5613.0    1417.5908       0.0000      50.8611     -54.0604       0.8987      -0.7267      -0.5278     253.2528       1.0226
    5614.0    1425.0911       0.0000      50.8611     -54.3178       0.9637      -0.7825      -0.5618     259.3547       1.0292
    5615.0    1433.8092       0.0000      50.8611     -64.3481       0.9551      -0.8492      -0.4031     265.4695       1.0226
    5616.0    1429.2962       0.0000      50.8611     -57.3152       0.9483      -0.7982      -0.5119     271.5713       1.0226
    5617.0    1430.8913       0.0000      50.8611     -59.0311       1.0920      -0.9364      -0.5618     277.6731       1.0226
    5618.0    1434.9490       0.0000      50.8611     -51.2415       0.9383      -0.7395      -0.5528     283.7893       1.0226
    5619.0    1446.1105       0.0000      50.8611     -57.6244       0.9558      -0.8070      -0.5119     289.8899       1.0226
    5620.0    1439.2014       0.0000      50.8611     -61.0600       0.9246      -0.8070      -0.4481     295.9929       1.0226
    5621.0    1442.6347       0.0000      50.8611     -57.6460       0.8322      -0.7022      -0.4461     302.5015       1.0226
    5622.0    1442.5083       0.0000      50.8611     -60.9011       0.9878      -0.8629      -0.4800     308.6033       1.0226
