~VERSION INFORMATION
VERS.           2.0   :CWLS Log ASCII Standard - VERSION 2.0
WRAP.           NO    :One Line per depth step
PROD.  Schlumberger   :LAS Producer
PROG.  DLIS to ASCII 19C2-270                          :LAS Program name and version
CREA.        2017/09/16 17:42                          :LAS Creation date {YYYY/MM/DD hh:mm}
DLIS_CREA.  2017-Sep-15 14:39                          :DLIS Creation date and time {YYYY-MMM-DD hh:mm}
SOURCE.     LPC_S2-1_B5.DLIS                           :DLIS File Name
FILE-ID.     PERFO_Perfo_WPGRT_030LTP                  :File Identification Number
#--------------------------------------------------
~WELL INFORMATION
#MNEM.UNIT      DATA             DESCRIPTION
#---- ------ --------------   -----------------------------
STRT .S        13946.0       :START TIME      
STOP .S        14402.0       :STOP TIME      
STEP .S            1.0       :STEP     
NULL .          -999.25      :NULL VALUE
COMP .        SHELL INTERNATIONAL E P                  :COMPANY
WELL .        WPP TEST 2                               :WELL
FLD  .        WILDCAT                                  :FIELD
LOC  .                                                 :LOCATION
CNTY .        HARRIS                                   :COUNTY
STAT .        TEXAS                                    :STATE
CTRY .                                                 :COUNTRY
API  .                                                 :API NUMBER
UWI  .                                                 :UNIQUE WELL ID
DATE .                                                 :LOG DATE
SRVC .        Schlumberger                             :SERVICE COMPANY
LATI .DEG                                              :LATITUDE
LONG .DEG                                              :LONGITUDE
GDAT .                                                 :GeoDetic Datum
#-----------------------------------------------------------------------------
~PARAMETER INFORMATION
#MNEM.UNIT    VALUE                      DESCRIPTION
#---- -----   --------------------       ------------------------
U-PHASE_B_COMP_PER_YT.                 0 :Phase B Comparator Period Yt
U-PHASE_A_COMP_PER_XT.                 0 :Phase A Comparator Period Xt
U-MAX_EXC_CUR_LIMIT.MA       240.00000   :Requested CM Current Limit
U-REQ_EXC_FQ.HZ              50          :Requested CM Frequency
U-TILT_Y_OFFSET.           0.19916       :WPTET Tilt Y Offset
U-TILT_Y_GAIN.           1.01796         :WPTET Tilt Y Gain
U-TILT_X_OFFSET.          -1.77103       :WPTET Tilt X Offset
U-TILT_X_GAIN.           1.00000         :WPTET Tilt X Gain
U-TILT_OFFSET_TOL.           0.00100     :WPTET Tilt Offset Calibration Tolerance
U-NO_TILT_CAL_ROTATIONS.                 3 :Number of Rotations for Tilt Calibration
HAZI .DEG        0.00000                 :Hole Azimuth
U-STD_TOL_TILT.           0.01000        :Tilt Standard Deviation Tolerance
U-GUN_POS_TOL.DEG        5.00000         :Gun Position Tolerance
ROT_ANGLE_THRESHOLD.DEG        5.00000   :Rotation Stop Angle Tolerance
STOP_ROT_ANGLE.DEG       80.00000        :Rotation Stop Angle
WITN .                                   :Witness's Name
ENGI .                                   :Engineer's Name
COUN .        HARRIS                     :County or Rig Name
FN   .        WILDCAT                    :Field Name
WN   .        WPP TEST 2                 :Well Name
CN   .        SHELL INTERNATIONAL E P    :Company Name
CLAB .        County                     :County/Rig Label
SLAB .        State                      :State/Province Label
RUN  .          1                        :RUN NUMBER
PDAT .        GROUND LEVEL               :Permanent Datum
EPD  .                                   :Elevation of Permanent Datum above Mean Sea Level
LMF  .                                   :Logging Measured From (Name of Logging Elevation Reference)
APD  .                                   :Elevation of Depth Reference (LMF) above Permanent Datum
#-----------------------------------------------------------------------------
~CURVE INFORMATION
#MNEM.UNIT   API CODE                                  DESCRIPTION
#---- -----  --------                                  -----------------------
TIME .S                                                :TIME {F10.1}
FREQ_EMF_SL.HZ                                         :Electromagnetic Field Frequency {F13.4}
PH_SH_WPPCM_SL.DEG                                     :WPPCM Phase Shift {F13.4}
FREQ_EXC_REQ_SL.HZ                                     :Requested Exciter Frequency {F13.4}
RB_SL.DEG                                              :Relative Bearing {F13.4}
SDEV_SL.DEG                                            :Sonde Deviation {F13.4}
TILX_SL.DEG                                            :X-axis Tilt {F13.4}
TILY_SL.DEG                                            :Y-axis Tilt {F13.4}
ROTA_SL.DEG                                            :Motor Rotation Angle {F13.4}
MSPE_SL.RPM                                            :Motor Speed {F13.4}
#-----------------------------------------------------------------------------
# 
#     TIME    FREQ_EMF_SL  PH_SH_WPPCM_ FREQ_EXC_REQ    RB_SL       SDEV_SL      TILX_SL      TILY_SL      ROTA_SL      MSPE_SL
#                          SL           _SL
~A  
# ...
   14261.0    1551.1289       0.0000      50.8611    -158.8227       3.7593      -1.3573       3.5050     148.2831       1.0226
   14262.0    1535.2074       0.0000      50.8611    -152.8716       3.7624      -1.7148       3.3475     154.3819       1.0136
   14263.0    1512.5856       0.0000      50.8611    -142.9673       3.9032      -2.3494       3.1145     160.4744       1.0226
   14264.0    1499.6809       0.0000      50.8611    -139.8857       4.1034      -2.6426       3.1370     166.5742       1.0226
   14265.0    1475.4561       0.0000      50.8611    -133.5660       4.1561      -3.0102       2.8630     172.6782       1.0226
   14266.0    1462.2552       0.0000      50.8611    -128.1758       4.1063      -3.2271       2.5359     178.7700       1.0226
   14267.0    1442.6160       0.0000      50.8611    -121.9973       4.4032      -3.7332       2.3315     184.8575       1.0226
   14268.0    1424.6344       0.0000      50.8611    -116.1200       4.4004      -3.9501       1.9349     190.9580       1.0226
   14269.0    1406.2500       0.0000      50.8611    -110.6686       4.5423      -4.2493       1.6016     197.4931       1.0226
   14270.0    1381.7929       0.0000      50.8611    -105.4168       4.4917      -4.3296       1.1927     203.5858       1.0226
   14271.0    1360.0098       0.0000      50.8611     -99.7999       4.6100      -4.5425       0.7839     209.6608       1.0226
   14272.0    1335.3488       0.0000      50.8611     -96.6554       4.9010      -4.8679       0.5671     215.7544       1.0136
   14273.0    1315.3640       0.0000      50.8611     -91.6190       4.8359      -4.8337       0.1358     221.8443       1.0210
   14274.0    1280.5242       0.0000      50.8611     -84.0331       4.8668      -4.8398      -0.5062     227.9441       1.0226
   14275.0    1256.2554       0.0000      50.8611     -80.5197       4.8908      -4.8237      -0.8046     234.0438       1.0226
   14276.0    1204.6017       0.0000      50.8611     -76.8037       4.9900      -4.8578      -1.1379     240.1479       1.0226
   14277.0    1154.9616       0.0000      50.8611     -73.2933       5.0474      -4.8337      -1.4486     246.2519       1.0136
   14278.0    1121.9498       0.0000      50.8611     -64.4425       5.0483      -4.5526      -2.1764     252.3394       1.0136
   14279.0    1087.2519       0.0000      50.8611     -63.0524       5.1739      -4.6108      -2.3420     258.4398       1.0226
   14280.0    1051.2449       0.0000      50.8611     -57.7859       4.9768      -4.2091      -2.6507     264.5436       1.0136
   14281.0    1022.7552       0.0000      50.8611     -53.0789       5.1153      -4.0866      -3.0678     271.0409       1.0226
   14282.0    1001.0364       0.0000      50.8611     -46.9562       5.1364      -3.7512      -3.5032     277.1279       1.0226
   14283.0     996.2869       0.0000      50.8611     -41.6762       4.9203      -3.2692      -3.6729     283.2317       1.0136
   14284.0     982.3672       0.0000      50.8611     -38.0608       4.9060      -3.0222      -3.8610     289.3129       1.0210
   14285.0     973.2074       0.0000      50.8611     -33.6899       4.8732      -2.7009      -4.0532     295.4132       1.0210
   14286.0     976.5625       0.0000      50.8611     -27.3227       4.8257      -2.2129      -4.2863     301.4986       1.0226
   14287.0     982.3672       0.0000      50.8611     -22.2178       4.8587      -1.8353      -4.4968     307.6155       1.0226
   14288.0     983.3916       0.0000      50.8611     -16.6516       4.6642      -1.3352      -4.4682     313.7193       1.0226
   14289.0     993.1144       0.0000      50.8611     -12.7952       4.7374      -1.0480      -4.6195     319.8214       1.0136
   14290.0    1007.5592       0.0000      50.8611      -7.0454       4.6197      -0.5660      -4.5847     325.9191       1.0226
   14291.0    1034.1697       0.0000      50.8611      -2.2827       4.4309      -0.1764      -4.4273     332.0229       1.0226
   14292.0    1063.6639       0.0000      50.8611       4.6363       4.2840       0.3458      -4.2699     338.1398       1.0226
   14293.0    1092.9985       0.0000      50.8611      10.7060       4.2703       0.7916      -4.1943     344.6452       1.0226
   14294.0    1139.3101       0.0000      50.8611      14.6610       4.2259       1.0688      -4.0879     350.7384       1.0136
   14295.0    1191.6575       0.0000      50.8611      17.2232       4.0000       1.1832      -3.8201     356.8281       1.0226
   14296.0    1245.3586       0.0000      50.8611      26.3071       4.0592       1.7978      -3.6382       2.9408       1.0226
   14297.0    1275.3966       0.0000      50.8611      31.1637       3.8104       1.9705      -3.2600       9.0404       1.0226
   14298.0    1298.2457       0.0000      50.8611      35.5233       3.6900       2.1432      -3.0024      15.1444       1.0226
   14299.0    1326.2761       0.0000      50.8611      43.0875       3.4569       2.3601      -2.5240      21.2881       1.0317
   14300.0    1349.5681       0.0000      50.8611      51.4350       3.4302       2.6814      -2.1376      27.4009       1.0226
   14301.0    1374.3754       0.0000      50.8611      58.1698       3.5353       3.0028      -1.8636      33.5138       1.0226
   14302.0    1395.7990       0.0000      50.8611      63.7217       3.3810       3.0309      -1.4956      39.6178       1.0226
   14303.0    1419.1710       0.0000      50.8611      69.8490       3.1563       2.9626      -1.0868      45.7094       1.0226
   14304.0    1438.7692       0.0000      50.8611      78.8869       2.9445       2.8883      -0.5675      51.8091       1.0226
   14305.0    1461.7983       0.0000      50.8611      84.8051       3.0339       3.0209      -0.2751      58.3450       1.0226
   14306.0    1479.3322       0.0000      50.8611      93.5888       3.0832       3.0771       0.1930      64.4367       1.0210
   14307.0    1509.6839       0.0000      50.8611     100.6689       2.9965       2.9445       0.5549      70.5494       1.0226
   14308.0    1521.9155       0.0000      50.8611     108.9285       2.8667       2.7116       0.9290      76.6491       1.0226
   14309.0    1541.9408       0.0000      50.8611     119.3237       2.9453       2.5670       1.4422      82.7530       1.0226
   14310.0    1558.0030       0.0000      50.8611     127.3510       2.9269       2.3260       1.7754      88.8569       1.0226
   14311.0    1572.9866       0.0000      50.8611     136.8014       3.0143       2.0629       2.1965      94.9696       1.0226
   14312.0    1570.5312       0.0000      50.8611     143.7714       2.9970       1.7697       2.4173     101.0692       1.0226
   14313.0    1579.5248       0.0000      50.8611     150.4393       3.1695       1.5628       2.7567     107.1635       1.0195
   14314.0    1584.1511       0.0000      50.8611     156.6074       3.1130       1.2354       2.8569     113.2787       1.0226
   14315.0    1584.1511       0.0000      50.8611     167.0338       3.2908       0.7374       3.2065     119.3793       1.0136
   14316.0    1580.0563       0.0000      50.8611     174.3253       3.2757       0.3237       3.2596     125.4790       1.0226
   14317.0    1590.2420       0.0000      50.8611    -126.2129       3.3540       0.0144       3.3537     131.9939       1.0226
   14318.0    1575.9844       0.0000      50.8611    -172.4299       3.5074      -0.4616       3.4763     138.0944       1.0210
   14319.0    1561.1282       0.0000      50.8611    -165.5794       3.5410      -0.8813       3.4293     144.2073       1.0226
   14320.0    1555.5862       0.0000      50.8611    -160.7856       3.6385      -1.1966       3.4354     150.3113       1.0226
   14321.0    1537.5612       0.0000      50.8611    -153.7060       3.8325      -1.6967       3.4354     156.4153       1.0226
   14322.0    1514.5622       0.0000      50.8611    -148.3271       3.8118      -2.0000       3.2433     162.4922       1.0136
   14323.0    1509.3387       0.0000      50.8611    -140.2534       3.9419      -2.5191       3.0296     168.5889       1.0317
