~VERSION INFORMATION
VERS.           2.0   :CWLS Log ASCII Standard - VERSION 2.0
WRAP.           NO    :One Line per depth step
PROD.  Schlumberger   :LAS Producer
PROG.  DLIS to ASCII 19C2-270                          :LAS Program name and version
CREA.        2017/09/16 17:42                          :LAS Creation date {YYYY/MM/DD hh:mm}
DLIS_CREA.  2017-Sep-15 15:01                          :DLIS Creation date and time {YYYY-MMM-DD hh:mm}
SOURCE.     LPC_S2-1_2AV.DLIS                          :DLIS File Name
FILE-ID.     PERFO_Perfo_WPGRT_032LTP                  :File Identification Number
#--------------------------------------------------
~WELL INFORMATION
#MNEM.UNIT      DATA             DESCRIPTION
#---- ------ --------------   -----------------------------
STRT .S        15223.0       :START TIME      
STOP .S        15655.0       :STOP TIME      
STEP .S            1.0       :STEP     
NULL .          -999.25      :NULL VALUE
COMP .        SHELL INTERNATIONAL E P                  :COMPANY
WELL .                                                 :WELL
FLD  .        WPP TEST 2                               :FIELD
LOC  .                                                 :LOCATION
CNTY .        HARRIS                                   :COUNTY
STAT .        TEXAS                                    :STATE
CTRY .                                                 :COUNTRY
API  .                                                 :API NUMBER
UWI  .                                                 :UNIQUE WELL ID
DATE .                                                 :LOG DATE
SRVC .        Schlumberger                             :SERVICE COMPANY
LATI .DEG                                              :LATITUDE
LONG .DEG                                              :LONGITUDE
GDAT .                                                 :GeoDetic Datum
#-----------------------------------------------------------------------------
~PARAMETER INFORMATION
#MNEM.UNIT    VALUE                      DESCRIPTION
#---- -----   --------------------       ------------------------
U-PHASE_B_COMP_PER_YT.                 0 :Phase B Comparator Period Yt
U-PHASE_A_COMP_PER_XT.                 0 :Phase A Comparator Period Xt
U-MAX_EXC_CUR_LIMIT.MA       240.00000   :Requested CM Current Limit
U-REQ_EXC_FQ.HZ              50          :Requested CM Frequency
U-TILT_Y_OFFSET.           0.19916       :WPTET Tilt Y Offset
U-TILT_Y_GAIN.           1.01796         :WPTET Tilt Y Gain
U-TILT_X_OFFSET.          -1.77103       :WPTET Tilt X Offset
U-TILT_X_GAIN.           1.00000         :WPTET Tilt X Gain
U-TILT_OFFSET_TOL.           0.00100     :WPTET Tilt Offset Calibration Tolerance
U-NO_TILT_CAL_ROTATIONS.                 3 :Number of Rotations for Tilt Calibration
HAZI .DEG        0.00000                 :Hole Azimuth
U-STD_TOL_TILT.           0.01000        :Tilt Standard Deviation Tolerance
U-GUN_POS_TOL.DEG        5.00000         :Gun Position Tolerance
ROT_ANGLE_THRESHOLD.DEG        5.00000   :Rotation Stop Angle Tolerance
STOP_ROT_ANGLE.DEG       80.00000        :Rotation Stop Angle
WITN .                                   :Witness's Name
ENGI .                                   :Engineer's Name
COUN .        HARRIS                     :County or Rig Name
FN   .        WPP TEST 2                 :Field Name
WN   .                                   :Well Name
CN   .        SHELL INTERNATIONAL E P    :Company Name
CLAB .        County                     :County/Rig Label
SLAB .        State                      :State/Province Label
RUN  .          1                        :RUN NUMBER
PDAT .        GROUND LEVEL               :Permanent Datum
EPD  .                                   :Elevation of Permanent Datum above Mean Sea Level
LMF  .                                   :Logging Measured From (Name of Logging Elevation Reference)
APD  .                                   :Elevation of Depth Reference (LMF) above Permanent Datum
#-----------------------------------------------------------------------------
~CURVE INFORMATION
#MNEM.UNIT   API CODE                                  DESCRIPTION
#---- -----  --------                                  -----------------------
TIME .S                                                :TIME {F10.1}
FREQ_EMF_SL.HZ                                         :Electromagnetic Field Frequency {F13.4}
PH_SH_WPPCM_SL.DEG                                     :WPPCM Phase Shift {F13.4}
FREQ_EXC_REQ_SL.HZ                                     :Requested Exciter Frequency {F13.4}
RB_SL.DEG                                              :Relative Bearing {F13.4}
SDEV_SL.DEG                                            :Sonde Deviation {F13.4}
TILX_SL.DEG                                            :X-axis Tilt {F13.4}
TILY_SL.DEG                                            :Y-axis Tilt {F13.4}
ROTA_SL.DEG                                            :Motor Rotation Angle {F13.4}
MSPE_SL.RPM                                            :Motor Speed {F13.4}
#-----------------------------------------------------------------------------
# 
#     TIME    FREQ_EMF_SL  PH_SH_WPPCM_ FREQ_EXC_REQ    RB_SL       SDEV_SL      TILX_SL      TILY_SL      ROTA_SL      MSPE_SL
#                          SL           _SL
~A  
# ...
   15349.0    1390.8056       0.0000      50.8611     -61.5404       0.9552      -0.8398      -0.4551     203.8961       1.0226
   15350.0    1382.1039       0.0000      50.8611     -66.9539       0.8691      -0.7996      -0.3400     209.9961       1.0226
   15351.0    1368.4408       0.0000      50.8611     -70.9468       0.9971      -0.9424      -0.3248     216.0836       1.0226
   15352.0    1363.1349       0.0000      50.8611     -65.9087       1.0960      -1.0004      -0.4475     222.1774       1.0206
   15353.0    1353.8067       0.0000      50.8611     -58.0305       1.0641      -0.9022      -0.5626     228.2775       1.0246
   15354.0    1333.5567       0.0000      50.8611     -66.2787       0.9679      -0.8843      -0.3839     234.3799       1.0226
   15355.0    1330.5613       0.0000      50.8611     -73.7671       0.9860      -0.9454      -0.2733     240.4676       1.0226
   15356.0    1316.2582       0.0000      50.8611     -60.6560       0.9598      -0.8367      -0.4702     246.9764       1.0226
   15357.0    1304.0521       0.0000      50.8611     -57.2818       1.0071      -0.8472      -0.5444     253.0946       1.0226
   15358.0    1285.8561       0.0000      50.8611     -63.2427       1.1409      -1.0183      -0.5111     259.1944       1.0226
   15359.0    1270.3197       0.0000      50.8611     -68.6963       1.1408      -1.0629      -0.4142     265.2980       1.0226
   15360.0    1253.7563       0.0000      50.8611     -56.7933       0.9486      -0.7922      -0.5186     271.3978       1.0226
   15361.0    1244.0623       0.0000      50.8611     -65.3878       1.0639      -0.9380      -0.4459     277.5014       1.0226
   15362.0    1222.4333       0.0000      50.8611     -59.7898       1.1490      -0.9930      -0.5777     283.6061       1.0226
   15363.0    1210.5839       0.0000      50.8611     -56.2309       1.1030      -0.9171      -0.6110     289.7047       1.0226
   15364.0    1200.2515       0.0000      50.8611     -58.4699       1.1055      -0.9424      -0.5777     295.7960       1.0226
   15365.0    1195.7908       0.0000      50.8611     -50.5946       1.1155      -0.8621      -0.7079     301.8958       1.0226
   15366.0    1195.4152       0.0000      50.8611     -51.3004       1.2920      -1.0079      -0.8079     307.9955       1.0226
   15367.0    1195.7908       0.0000      50.8611     -57.4381       1.1788      -0.9930      -0.6337     314.0991       1.0140
   15368.0    1194.5131       0.0000      50.8611     -57.5154       1.1265      -0.9498      -0.6035     320.5862       1.0140
   15369.0    1203.4539       0.0000      50.8611     -64.5715       1.4063      -1.2728      -0.5959     326.6967       1.0246
   15370.0    1223.7782       0.0000      50.8611     -55.8041       1.0735      -0.8874      -0.6035     332.8003       1.0226
   15371.0    1229.6378       0.0000      50.8611     -58.8501       1.2188      -1.0436      -0.6262     338.9039       1.0226
   15372.0    1246.6755       0.0000      50.8611     -55.3022       1.1463      -0.9424      -0.6519     345.0036       1.0226
   15373.0    1256.8314       0.0000      50.8611     -56.1479       1.0379      -0.8621      -0.5777     351.1041       1.0226
   15374.0    1284.8783       0.0000      50.8611     -52.9071       1.1488      -0.9164      -0.6928     357.2210       1.0226
   15375.0    1302.7213       0.0000      50.8611     -53.3258       1.1091      -0.8904      -0.6595       3.3247       1.0140
   15376.0    1310.4496       0.0000      50.8611     -53.7606       1.1415      -0.9201      -0.6746       9.4107       1.0160
   15377.0    1324.1526       0.0000      50.8611     -47.4319       1.0958      -0.8070      -0.7413      15.5021       1.0226
   15378.0    1337.2107       0.0000      50.8611     -46.7875       0.9524      -0.6940      -0.6519      21.5936       1.0226
   15379.0    1350.2539       0.0000      50.8611     -50.1731       0.9897      -0.7594      -0.6337      27.6851       1.0226
   15380.0    1359.0402       0.0000      50.8611     -46.3876       1.0192      -0.7341      -0.7034      34.1027       1.0226
   15381.0    1363.1349       0.0000      50.8611     -49.7488       1.1115      -0.8472      -0.7186      40.2781       1.0246
   15382.0    1378.1774       0.0000      50.8611     -52.3412       1.0005      -0.7922      -0.6110      46.3999       1.0226
   15383.0    1391.3107       0.0000      50.8611     -56.9131       0.9549      -0.7996      -0.5217      52.5129       1.0226
   15384.0    1400.8775       0.0000      50.8611     -44.4210       0.8873      -0.6211      -0.6337      58.6127       1.0226
   15385.0    1403.9624       0.0000      50.8611     -44.7594       0.8714      -0.6136      -0.6186      64.7173       1.0226
   15386.0    1414.2129       0.0000      50.8611     -43.0203       0.8128      -0.5556      -0.5928      70.8340       1.0226
   15387.0    1422.7980       0.0000      50.8611     -55.1323       0.9257      -0.7594      -0.5293      76.9339       1.0140
   15388.0    1432.0265       0.0000      50.8611     -49.3861       0.9276      -0.7044      -0.6035      83.0321       1.0246
   15389.0    1438.6627       0.0000      50.8611     -48.9031       0.9127      -0.6865      -0.6004      89.1382       1.0226
   15390.0    1444.0337       0.0000      50.8611     -45.9170       0.8894      -0.6389      -0.6186      95.2441       1.0226
   15391.0    1448.4217       0.0000      50.8611     -51.0285       0.9890      -0.7699      -0.6186     101.3428       1.0226
   15392.0    1446.0006       0.0000      50.8611     -49.3046       1.0115      -0.7669      -0.6595     107.7727       1.0226
   15393.0    1455.1889       0.0000      50.8611     -47.5084       0.8668      -0.6389      -0.5853     113.9563       1.0226
   15394.0    1457.6504       0.0000      50.8611     -50.2209       0.9684      -0.7476      -0.6110     119.7261       0.1898
   15395.0    1453.8528       0.0000      50.8611     -58.2614       0.8804      -0.7490      -0.4626     119.8771       0.0005
   15396.0    1452.7377       0.0000      50.8611     -51.8780       0.7382      -0.5809      -0.4551     119.8771       0.0005
   15397.0    1453.8528       0.0000      50.8611     -55.9981       0.9266      -0.7669      -0.5186     119.8771       0.0005
   15398.0    1457.5905       0.0000      50.8611     -50.7205       0.8360      -0.6471      -0.5293     119.8771       0.0005
   15399.0    1453.8528       0.0000      50.8611     -59.9695       0.8569      -0.7416      -0.4293     119.8771       0.0005
   15400.0    1451.4115       0.0000      50.8611     -57.5407       0.9864      -0.8323      -0.5293     119.8771       0.0005
   15401.0    1460.6785       0.0000      50.8611     -55.1102       0.8552      -0.7014      -0.4884     119.8771       0.0005
   15402.0    1454.6348       0.0000      50.8611     -50.3672       0.8297      -0.6389      -0.5293     119.8771       0.0005
   15403.0    1450.2964       0.0000      50.8611     -54.3042       0.8774      -0.7118      -0.5111     119.8771       0.0005
   15404.0    1458.7655       0.0000      50.8611     -56.3586       0.8820      -0.7341      -0.4884     119.8771       0.0005
   15405.0    1460.6785       0.0000      50.8611     -51.9762       0.8715      -0.6865      -0.5368     119.8771       0.0005
   15406.0    1452.7377       0.0000      50.8611     -54.0651       0.9289      -0.7520      -0.5444     119.8771       0.0005
   15407.0    1452.1835       0.0000      50.8611     -54.3131       0.8634      -0.7014      -0.5035     119.8771       0.0005
   15408.0    1454.4139       0.0000      50.8611     -57.3730       0.8450      -0.7118      -0.4551     119.8771       0.0005
   15409.0    1455.7454       0.0000      50.8611     -39.9540       0.8623      -0.5512      -0.6626     119.8771       0.0005
   15410.0    1453.3495       0.0000      50.8611     -52.1123       1.0751      -0.8487      -0.6595     119.8771       0.0005
   15411.0    1455.7454       0.0000      50.8611     -48.0356       0.9271      -0.6835      -0.6141     119.8771       0.0005
