~VERSION INFORMATION
VERS.           2.0   :CWLS Log ASCII Standard - VERSION 2.0
WRAP.           NO    :One Line per depth step
PROD.  Schlumberger   :LAS Producer
PROG.  DLIS to ASCII 19C2-270                          :LAS Program name and version
CREA.        2017/09/16 17:42                          :LAS Creation date {YYYY/MM/DD hh:mm}
DLIS_CREA.  2017-Sep-15 15:51                          :DLIS Creation date and time {YYYY-MMM-DD hh:mm}
SOURCE.     LPC_S3-1_AV.DLIS                           :DLIS File Name
FILE-ID.     PERFO_Perfo_WPGRT_037LTP                  :File Identification Number
#--------------------------------------------------
~WELL INFORMATION
#MNEM.UNIT      DATA             DESCRIPTION
#---- ------ --------------   -----------------------------
STRT .S         1283.0       :START TIME      
STOP .S         1755.0       :STOP TIME      
STEP .S            1.0       :STEP     
NULL .          -999.25      :NULL VALUE
COMP .        SHELL INTERNATIONAL E P                  :COMPANY
WELL .        WPP TEST 2                               :WELL
FLD  .        WILDCAT                                  :FIELD
LOC  .                                                 :LOCATION
CNTY .        HARRIS                                   :COUNTY
STAT .        TEXAS                                    :STATE
CTRY .                                                 :COUNTRY
API  .                                                 :API NUMBER
UWI  .                                                 :UNIQUE WELL ID
DATE .                                                 :LOG DATE
SRVC .        Schlumberger                             :SERVICE COMPANY
LATI .DEG                                              :LATITUDE
LONG .DEG                                              :LONGITUDE
GDAT .                                                 :GeoDetic Datum
#-----------------------------------------------------------------------------
~PARAMETER INFORMATION
#MNEM.UNIT    VALUE                      DESCRIPTION
#---- -----   --------------------       ------------------------
U-PHASE_B_COMP_PER_YT.                 0 :Phase B Comparator Period Yt
U-PHASE_A_COMP_PER_XT.                 0 :Phase A Comparator Period Xt
U-MAX_EXC_CUR_LIMIT.MA       240.00000   :Requested CM Current Limit
U-REQ_EXC_FQ.HZ              50          :Requested CM Frequency
U-TILT_Y_OFFSET.           0.19916       :WPTET Tilt Y Offset
U-TILT_Y_GAIN.           1.01796         :WPTET Tilt Y Gain
U-TILT_X_OFFSET.          -1.77103       :WPTET Tilt X Offset
U-TILT_X_GAIN.           1.00000         :WPTET Tilt X Gain
U-TILT_OFFSET_TOL.           0.00100     :WPTET Tilt Offset Calibration Tolerance
U-NO_TILT_CAL_ROTATIONS.                 3 :Number of Rotations for Tilt Calibration
HAZI .DEG        0.00000                 :Hole Azimuth
U-STD_TOL_TILT.           0.01000        :Tilt Standard Deviation Tolerance
U-GUN_POS_TOL.DEG        5.00000         :Gun Position Tolerance
ROT_ANGLE_THRESHOLD.DEG        5.00000   :Rotation Stop Angle Tolerance
STOP_ROT_ANGLE.DEG        0.00000        :Rotation Stop Angle
WITN .                                   :Witness's Name
ENGI .                                   :Engineer's Name
COUN .        HARRIS                     :County or Rig Name
FN   .        WILDCAT                    :Field Name
WN   .        WPP TEST 2                 :Well Name
CN   .        SHELL INTERNATIONAL E P    :Company Name
CLAB .        County                     :County/Rig Label
SLAB .        State                      :State/Province Label
RUN  .          1                        :RUN NUMBER
PDAT .        GROUND LEVEL               :Permanent Datum
EPD  .                                   :Elevation of Permanent Datum above Mean Sea Level
LMF  .                                   :Logging Measured From (Name of Logging Elevation Reference)
APD  .                                   :Elevation of Depth Reference (LMF) above Permanent Datum
#-----------------------------------------------------------------------------
~CURVE INFORMATION
#MNEM.UNIT   API CODE                                  DESCRIPTION
#---- -----  --------                                  -----------------------
TIME .S                                                :TIME {F10.1}
FREQ_EMF_SL.HZ                                         :Electromagnetic Field Frequency {F13.4}
PH_SH_WPPCM_SL.DEG                                     :WPPCM Phase Shift {F13.4}
FREQ_EXC_REQ_SL.HZ                                     :Requested Exciter Frequency {F13.4}
RB_SL.DEG                                              :Relative Bearing {F13.4}
SDEV_SL.DEG                                            :Sonde Deviation {F13.4}
TILX_SL.DEG                                            :X-axis Tilt {F13.4}
TILY_SL.DEG                                            :Y-axis Tilt {F13.4}
ROTA_SL.DEG                                            :Motor Rotation Angle {F13.4}
MSPE_SL.RPM                                            :Motor Speed {F13.4}
#-----------------------------------------------------------------------------
# 
#     TIME    FREQ_EMF_SL  PH_SH_WPPCM_ FREQ_EXC_REQ    RB_SL       SDEV_SL      TILX_SL      TILY_SL      ROTA_SL      MSPE_SL
#                          SL           _SL
~A  
# ...
    1346.0    1399.1149       0.0000      50.8611     -66.1573       0.9460      -0.8652      -0.3824     106.3526       1.0144
    1347.0    1389.9337       0.0000      50.8611     -66.3000       0.9184      -0.8382      -0.3691     112.4416       1.0144
    1348.0    1371.8177       0.0000      50.8611     -66.0700       1.0443      -0.9546      -0.4233     118.5287       1.0226
    1349.0    1359.4206       0.0000      50.8611     -62.5724       1.0827      -0.9587      -0.5001     125.0413       1.0202
    1350.0    1339.2858       0.0000      50.8611     -62.8434       1.0235      -0.9095      -0.4684     131.1559       1.0226
    1351.0    1324.4771       0.0000      50.8611     -66.9619       1.1101      -1.0210      -0.4325     137.2431       1.0226
    1352.0    1302.6254       0.0000      50.8611     -61.0144       1.1269      -0.9857      -0.5460     143.3582       1.0226
    1353.0    1280.2152       0.0000      50.8611     -66.9375       1.0375      -0.9546      -0.4050     149.4601       1.0226
    1354.0    1240.8615       0.0000      50.8611     -63.3387       1.0631      -0.9497      -0.4776     155.5524       1.0144
    1355.0    1204.3652       0.0000      50.8611     -66.6345       1.1417      -1.0480      -0.4528     161.6647       1.0226
    1356.0    1169.7346       0.0000      50.8611     -67.4456       1.2298      -1.1366      -0.4642     167.7666       1.0226
    1357.0    1135.9047       0.0000      50.8611     -63.1012       0.9921      -0.8832      -0.4509     173.8577       1.0226
    1358.0    1105.7663       0.0000      50.8611     -60.8511       1.2962      -1.1242      -0.6270     179.9631       1.0144
    1359.0    1090.3338       0.0000      50.8611     -59.1619       1.1271      -0.9677      -0.5777     186.0400       1.0202
    1360.0    1072.2041       0.0000      50.8611     -59.6085       1.0345      -0.8923      -0.5235     192.1200       1.0202
    1361.0    1071.1059       0.0000      50.8611     -60.1237       1.1415      -0.9898      -0.5685     198.6241       1.0226
    1362.0    1062.4829       0.0000      50.8611     -59.6566       1.1693      -1.0079      -0.5911     204.7391       1.0226
    1363.0    1061.2404       0.0000      50.8611     -56.1943       1.1862      -0.9857      -0.6595     210.8542       1.0226
    1364.0    1060.1620       0.0000      50.8611     -55.2195       1.1405      -0.9365      -0.6503     216.9561       1.0226
    1365.0    1067.3214       0.0000      50.8611     -54.1410       1.1310      -0.9144      -0.6645     223.0456       1.0202
    1366.0    1072.7400       0.0000      50.8611     -55.4690       1.1637      -0.9587      -0.6595     229.1454       1.0250
    1367.0    1084.5072       0.0000      50.8611     -55.6199       1.2241      -1.0101      -0.6912     235.2518       1.0244
    1368.0    1094.6572       0.0000      50.8611     -54.1038       1.1946      -0.9677      -0.7004     241.3638       1.0250
    1369.0    1124.4165       0.0000      50.8611     -55.2625       1.1890      -0.9767      -0.6778     247.4686       1.0226
    1370.0    1163.4671       0.0000      50.8611     -56.0162       1.1847      -0.9808      -0.6637     253.5712       1.0226
    1371.0    1196.2462       0.0000      50.8611     -56.3380       1.1737      -0.9767      -0.6503     259.6724       1.0226
    1372.0    1223.5274       0.0000      50.8611     -55.2387       1.1794      -0.9677      -0.6729     265.7765       1.0226
    1373.0    1249.3885       0.0000      50.8611     -49.8715       1.0600      -0.8111      -0.6820     272.1903       1.0250
    1374.0    1291.4470       0.0000      50.8611     -48.0124       1.0875      -0.8070      -0.7279     278.3866       1.0226
    1375.0    1310.9819       0.0000      50.8611     -53.4427       1.0293      -0.8250      -0.6144     284.4920       1.0144
    1376.0    1325.5319       0.0000      50.8611     -51.7235       1.0794      -0.8472      -0.6687     290.6041       1.0226
    1377.0    1344.4073       0.0000      50.8611     -50.2337       1.0667      -0.8202      -0.6820     296.7066       1.0226
    1378.0    1367.3515       0.0000      50.8611     -49.9476       1.1085      -0.8472      -0.7137     302.7990       1.0144
    1379.0    1382.8096       0.0000      50.8611     -48.1617       1.1661      -0.8681      -0.7784     308.9011       1.0226
    1380.0    1396.6207       0.0000      50.8611     -50.0536       1.0852      -0.8292      -0.6962     314.9881       1.0226
    1381.0    1409.7031       0.0000      50.8611     -55.3069       1.1437      -0.9407      -0.6503     321.0801       1.0226
    1382.0    1429.4300       0.0000      50.8611     -44.3528       0.9359      -0.6513      -0.6637     327.1700       1.0202
    1383.0    1446.0927       0.0000      50.8611     -45.1773       1.0317      -0.7316      -0.7229     333.2738       1.0144
    1384.0    1455.7454       0.0000      50.8611     -46.6100       1.0799      -0.7849      -0.7413     339.3741       1.0226
    1385.0    1478.8706       0.0000      50.8611     -48.5758       1.0110      -0.7578      -0.6687     345.8032       1.0250
    1386.0    1490.0137       0.0000      50.8611     -56.1984       0.9137      -0.7578      -0.5093     351.9965       1.0226
    1387.0    1494.5883       0.0000      50.8611     -45.8435       0.8754      -0.6283      -0.6094     358.0992       1.0250
    1388.0    1503.1257       0.0000      50.8611     -47.9790       0.9241      -0.6865      -0.6186       4.2398       1.0334
    1389.0    1507.4051       0.0000      50.8611     -46.8964       0.7996      -0.5841      -0.5460      10.3553       1.0226
    1390.0    1513.8963       0.0000      50.8611     -47.5926       0.9175      -0.6775      -0.6186      16.4680       1.0309
    1391.0    1513.9915       0.0000      50.8611     -59.9502       1.0349      -0.8951      -0.5185      22.5628       1.0226
    1392.0    1524.4762       0.0000      50.8611     -50.6724       0.9629      -0.7447      -0.6094      28.6622       1.0226
    1393.0    1532.2250       0.0000      50.8611     -54.2078       0.8087      -0.6554      -0.4734      34.7516       1.0226
    1394.0    1524.4762       0.0000      50.8611     -53.8584       0.7727      -0.6242      -0.4551      40.8661       1.0168
    1395.0    1519.3661       0.0000      50.8611     -57.9128       0.8629      -0.7267      -0.4600      46.9586       1.0226
    1396.0    1517.5682       0.0000      50.8611     -55.5387       0.8446      -0.6955      -0.4776      53.0604       1.0226
    1397.0    1511.3687       0.0000      50.8611     -52.6252       0.9049      -0.7177      -0.5502      59.1598       1.0226
    1398.0    1505.6210       0.0000      50.8611     -56.6058       0.8606      -0.7177      -0.4734      65.6697       1.0226
    1399.0    1492.8344       0.0000      50.8611     -62.5251       0.9454      -0.8382      -0.4367      71.7626       1.0202
    1400.0    1484.7964       0.0000      50.8611     -62.5755       0.9690      -0.8603      -0.4459      77.8623       1.0226
    1401.0    1471.6648       0.0000      50.8611     -60.5412       0.8296      -0.7226      -0.4050      83.9641       1.0226
    1402.0    1460.1293       0.0000      50.8611     -57.6033       0.9084      -0.7669      -0.4868      90.0790       1.0226
    1403.0    1445.7965       0.0000      50.8611     -67.2380       0.9049      -0.8341      -0.3507      96.1808       1.0226
    1404.0    1439.5103       0.0000      50.8611     -62.2929       0.9750      -0.8603      -0.4509     102.2710       1.0144
    1405.0    1416.0210       0.0000      50.8611     -61.2135       1.0170      -0.8874      -0.4910     108.3628       1.0226
    1406.0    1397.2405       0.0000      50.8611     -59.6478       0.9197      -0.7939      -0.4642     114.4646       1.0226
    1407.0    1383.2227       0.0000      50.8611     -70.3249       0.9240      -0.8693      -0.3098     120.5541       1.0226
    1408.0    1371.2147       0.0000      50.8611     -55.4156       1.0181      -0.8382      -0.5777     126.6559       1.0226
