~VERSION INFORMATION
VERS.           2.0   :CWLS Log ASCII Standard - VERSION 2.0
WRAP.           NO    :One Line per depth step
PROD.  Schlumberger   :LAS Producer
PROG.  DLIS to ASCII 19C2-270                          :LAS Program name and version
CREA.        2017/09/16 17:42                          :LAS Creation date {YYYY/MM/DD hh:mm}
DLIS_CREA.  2017-Sep-15 19:54                          :DLIS Creation date and time {YYYY-MMM-DD hh:mm}
SOURCE.     LPC_S5-1_2B5.DLIS                          :DLIS File Name
FILE-ID.     PERFO_Perfo_WPGRT_064LTP                  :File Identification Number
#--------------------------------------------------
~WELL INFORMATION
#MNEM.UNIT      DATA             DESCRIPTION
#---- ------ --------------   -----------------------------
STRT .S         1886.0       :START TIME      
STOP .S         2307.0       :STOP TIME      
STEP .S            1.0       :STEP     
NULL .          -999.25      :NULL VALUE
COMP .        SHELL INTERNATIONAL E P                  :COMPANY
WELL .        WPP TEST 2                               :WELL
FLD  .        WILDCAT                                  :FIELD
LOC  .        NA                                       :LOCATION
CNTY .        HARRIS                                   :COUNTY
STAT .        TEXAS                                    :STATE
CTRY .                                                 :COUNTRY
API  .        NA                                       :API NUMBER
UWI  .                                                 :UNIQUE WELL ID
DATE .        15-Sep-2017                              :LOG DATE {DD-MMM-YYYY}
SRVC .        Schlumberger                             :SERVICE COMPANY
LATI .DEG                                              :LATITUDE
LONG .DEG                                              :LONGITUDE
GDAT .                                                 :GeoDetic Datum
SECT .        NA                                       :Section
RANG .        NA                                       :Range
TOWN .        NA                                       :Township
#-----------------------------------------------------------------------------
~PARAMETER INFORMATION
#MNEM.UNIT    VALUE                      DESCRIPTION
#---- -----   --------------------       ------------------------
U-PHASE_B_COMP_PER_YT.                 0 :Phase B Comparator Period Yt
U-PHASE_A_COMP_PER_XT.                 0 :Phase A Comparator Period Xt
U-MAX_EXC_CUR_LIMIT.MA       240.00000   :Requested CM Current Limit
U-REQ_EXC_FQ.HZ              50          :Requested CM Frequency
U-TILT_Y_OFFSET.           0.19916       :WPTET Tilt Y Offset
U-TILT_Y_GAIN.           1.01796         :WPTET Tilt Y Gain
U-TILT_X_OFFSET.          -1.77103       :WPTET Tilt X Offset
U-TILT_X_GAIN.           1.00000         :WPTET Tilt X Gain
U-TILT_OFFSET_TOL.           0.00100     :WPTET Tilt Offset Calibration Tolerance
U-NO_TILT_CAL_ROTATIONS.                 3 :Number of Rotations for Tilt Calibration
HAZI .DEG        0.00000                 :Hole Azimuth
U-STD_TOL_TILT.           0.01000        :Tilt Standard Deviation Tolerance
U-GUN_POS_TOL.DEG        5.00000         :Gun Position Tolerance
ROT_ANGLE_THRESHOLD.DEG        5.00000   :Rotation Stop Angle Tolerance
STOP_ROT_ANGLE.DEG        0.00000        :Rotation Stop Angle
WITN .        MR. DHRUA ARORA            :Witness's Name
ENGI .        MORRIS MOORE               :Engineer's Name
COUN .        HARRIS                     :County or Rig Name
FN   .        WILDCAT                    :Field Name
WN   .        WPP TEST 2                 :Well Name
CN   .        SHELL INTERNATIONAL E P    :Company Name
CLAB .        County                     :County/Rig Label
SLAB .        State                      :State/Province Label
RUN  .          1                        :RUN NUMBER
PDAT .        GROUND LEVEL               :Permanent Datum
EPD  .                                   :Elevation of Permanent Datum above Mean Sea Level
LMF  .          NA                       :Logging Measured From (Name of Logging Elevation Reference)
APD  .                                   :Elevation of Depth Reference (LMF) above Permanent Datum
#-----------------------------------------------------------------------------
~CURVE INFORMATION
#MNEM.UNIT   API CODE                                  DESCRIPTION
#---- -----  --------                                  -----------------------
TIME .S                                                :TIME {F10.1}
FREQ_EMF_SL.HZ                                         :Electromagnetic Field Frequency {F13.4}
PH_SH_WPPCM_SL.DEG                                     :WPPCM Phase Shift {F13.4}
FREQ_EXC_REQ_SL.HZ                                     :Requested Exciter Frequency {F13.4}
RB_SL.DEG                                              :Relative Bearing {F13.4}
SDEV_SL.DEG                                            :Sonde Deviation {F13.4}
TILX_SL.DEG                                            :X-axis Tilt {F13.4}
TILY_SL.DEG                                            :Y-axis Tilt {F13.4}
ROTA_SL.DEG                                            :Motor Rotation Angle {F13.4}
MSPE_SL.RPM                                            :Motor Speed {F13.4}
#-----------------------------------------------------------------------------
# 
#     TIME    FREQ_EMF_SL  PH_SH_WPPCM_ FREQ_EXC_REQ    RB_SL       SDEV_SL      TILX_SL      TILY_SL      ROTA_SL      MSPE_SL
#                          SL           _SL
~A  
# ...
    1949.0    1456.5551       0.0000      50.8611    -109.2531       5.8455      -5.5173       1.9245     268.9615       1.0226
    1950.0    1440.8298       0.0000      50.8611    -104.0613       5.9561      -5.7769       1.4448     275.0787       1.0226
    1951.0    1424.1041       0.0000      50.8611     -99.3230       6.0362      -5.9562       0.9760     281.1716       1.0305
    1952.0    1419.9037       0.0000      50.8611     -93.9486       5.8712      -5.8573       0.4036     287.2830       1.0226
    1953.0    1404.0012       0.0000      50.8611     -88.3774       6.1090      -6.1061      -0.1718     293.3848       1.0226
    1954.0    1389.5751       0.0000      50.8611     -83.2446       6.1520      -6.1090      -0.7223     299.4866       1.0198
    1955.0    1351.6638       0.0000      50.8611     -76.8958       6.1799      -6.0179      -1.3984     305.5769       1.0226
    1956.0    1332.8505       0.0000      50.8611     -72.6247       6.3040      -6.0150      -1.8781     311.6918       1.0226
    1957.0    1330.1760       0.0000      50.8611     -66.6382       6.3622      -5.8386      -2.5184     317.7812       1.0178
    1958.0    1306.1189       0.0000      50.8611     -61.8142       6.3871      -5.6270      -3.0120     323.8928       1.0198
    1959.0    1270.4117       0.0000      50.8611     -56.5021       6.3762      -5.3135      -3.5137     329.9855       1.0226
    1960.0    1244.3216       0.0000      50.8611     -52.3903       6.2704      -4.9628      -3.8218     336.0873       1.0226
    1961.0    1231.8210       0.0000      50.8611     -46.8065       6.2790      -4.5719      -4.2935     342.5941       1.0226
    1962.0    1215.3545       0.0000      50.8611     -42.9810       6.3098      -4.2957      -4.6096     348.6959       1.0226
    1963.0    1185.7083       0.0000      50.8611     -35.9757       6.2125      -3.6452      -5.0235     354.7977       1.0198
    1964.0    1170.3118       0.0000      50.8611     -31.3576       6.1648      -3.2033      -5.2609       0.8903       1.0226
    1965.0    1158.1233       0.0000      50.8611     -29.1233       6.3434      -3.0837      -5.5361       6.9929       1.0226
    1966.0    1139.4622       0.0000      50.8611     -22.7466       6.2925      -2.4294      -5.8004      13.0816       1.0226
    1967.0    1121.4115       0.0000      50.8611     -16.4836       6.0728      -1.7201      -5.8223      19.1834       1.0226
    1968.0    1101.6144       0.0000      50.8611     -11.0924       6.0672      -1.1656      -5.9530      25.2861       1.0226
    1969.0    1094.2983       0.0000      50.8611      -5.3601       5.9825      -0.5582      -5.9560      31.3879       1.0226
    1970.0    1090.1163       0.0000      50.8611      -0.6503       5.7520      -0.0654      -5.7515      37.4897       1.0226
    1971.0    1072.7158       0.0000      50.8611       4.6462       5.7276       0.4626      -5.7077      43.5793       1.0226
    1972.0    1066.4184       0.0000      50.8611      11.2027       5.5718       1.0808      -5.4653      49.6942       1.0226
    1973.0    1058.9232       0.0000      50.8611      16.8061       5.4505       1.5736      -5.2170      56.1977       1.0149
    1974.0    1056.9052       0.0000      50.8611      21.7595       5.4949       2.0340      -5.1024      62.2905       1.0226
    1975.0    1050.2827       0.0000      50.8611      27.3276       5.1836       2.3769      -4.6037      68.3935       1.0198
    1976.0    1058.1860       0.0000      50.8611      33.4357       5.1401       2.8295      -4.2876      74.4840       1.0226
    1977.0    1070.9634       0.0000      50.8611      39.2052       5.1199       3.2312      -3.9655      80.5866       1.0198
    1978.0    1075.8796       0.0000      50.8611      44.8325       4.9199       3.4643      -3.4858      86.6630       1.0149
    1979.0    1075.7760       0.0000      50.8611      52.2981       4.7849       3.7827      -2.9243      92.7656       1.0226
    1980.0    1088.1038       0.0000      50.8611      59.0244       4.7165       4.0424      -2.4257      98.8805       1.0226
    1981.0    1095.9581       0.0000      50.8611      66.7501       4.6510       4.2726      -1.8343     104.9831       1.0226
    1982.0    1115.2527       0.0000      50.8611      72.4978       4.5342       4.3235      -1.3626     111.0849       1.0226
    1983.0    1124.0378       0.0000      50.8611      80.0649       4.4085       4.3422      -0.7602     117.1867       1.0226
    1984.0    1139.2308       0.0000      50.8611      86.4514       4.3644       4.3558      -0.2696     123.2884       1.0198
    1985.0    1152.9772       0.0000      50.8611      95.1809       4.3522       4.3343       0.3926     129.7829       1.0226
    1986.0    1169.4041       0.0000      50.8611     104.1135       4.6816       4.5401       1.1396     135.8848       1.0226
    1987.0    1191.1966       0.0000      50.8611     109.9116       4.3426       4.0825       1.4776     141.9867       1.0226
    1988.0    1210.9255       0.0000      50.8611     117.9707       4.1934       3.7024       1.9653     148.0909       1.0226
    1989.0    1228.4259       0.0000      50.8611     123.7649       4.3199       3.5898       2.3991     154.1895       1.0198
    1990.0    1239.6585       0.0000      50.8611     133.9853       4.2809       3.0784       2.9715     160.2930       1.0198
    1991.0    1262.5201       0.0000      50.8611     140.2864       4.3004       2.7463       3.3066     166.3851       1.0226
    1992.0    1284.7916       0.0000      50.8611     145.9681       4.3901       2.4543       3.6367     172.5008       1.0198
    1993.0    1296.1730       0.0000      50.8611     154.5570       4.4325       1.9028       4.0017     178.6167       1.0226
    1994.0    1326.1698       0.0000      50.8611     160.8341       4.5200       1.4825       4.2690     184.7186       1.0255
    1995.0    1348.3719       0.0000      50.8611     168.8461       4.5380       0.8771       4.4515     190.8468       1.0226
    1996.0    1375.9785       0.0000      50.8611     175.5514       4.6180       0.3578       4.6041     196.9487       1.0255
    1997.0    1386.3090       0.0000      50.8611    -179.1694       4.7912      -0.0683       4.7896     203.4767       1.0255
    1998.0    1413.9767       0.0000      50.8611    -173.8743       4.8095      -0.5131       4.7786     209.5836       1.0226
    1999.0    1429.3451       0.0000      50.8611    -165.0519       4.8966      -1.2625       4.7297     215.6886       1.0226
    2000.0    1443.2195       0.0000      50.8611    -158.7200       4.9685      -1.8004       4.6290     221.8063       1.0284
    2001.0    1446.1881       0.0000      50.8611    -154.3809       5.1984      -2.2452       4.6859     227.9317       1.0226
    2002.0    1437.8834       0.0000      50.8611    -147.5610       5.3353      -2.8584       4.5004     234.0336       1.0198
    2003.0    1461.7983       0.0000      50.8611    -140.0012       5.2837      -3.3943       4.0426     240.1231       1.0226
    2004.0    1450.5454       0.0000      50.8611    -134.6790       5.4540      -3.8763       3.8302     246.2381       1.0226
    2005.0    1465.4522       0.0000      50.8611    -129.6964       5.5837      -4.2937       3.5629     252.3443       1.0305
    2006.0    1438.4694       0.0000      50.8611    -123.8082       5.5826      -4.6365       3.1022     258.4689       1.0226
    2007.0    1455.7454       0.0000      50.8611    -116.7991       5.6802      -5.0676       2.5567     264.5699       1.0226
    2008.0    1458.7655       0.0000      50.8611    -110.9572       5.8549      -5.4664       2.0910     270.6725       1.0226
    2009.0    1444.3794       0.0000      50.8611    -107.3555       5.8743      -5.6055       1.7499     277.1792       1.0226
    2010.0    1421.0263       0.0000      50.8611    -101.6027       5.9171      -5.7955       1.1885     283.2833       1.0226
    2011.0    1418.3587       0.0000      50.8611     -95.1094       6.1336      -6.1090       0.5452     289.3851       1.0226
