~VERSION INFORMATION
VERS.           2.0   :CWLS Log ASCII Standard - VERSION 2.0
WRAP.           NO    :One Line per depth step
PROD.  Schlumberger   :LAS Producer
PROG.  DLIS to ASCII 19C2-270                          :LAS Program name and version
CREA.        2017/09/16 17:42                          :LAS Creation date {YYYY/MM/DD hh:mm}
DLIS_CREA.  2017-Sep-15 18:10                          :DLIS Creation date and time {YYYY-MMM-DD hh:mm}
SOURCE.     LPC_S4-1_2A5.DLIS                          :DLIS File Name
FILE-ID.     PERFO_Perfo_WPGRT_053LTP                  :File Identification Number
#--------------------------------------------------
~WELL INFORMATION
#MNEM.UNIT      DATA             DESCRIPTION
#---- ------ --------------   -----------------------------
STRT .S         4226.0       :START TIME      
STOP .S         4689.0       :STOP TIME      
STEP .S            1.0       :STEP     
NULL .          -999.25      :NULL VALUE
COMP .        SHELL INTERNATIONAL E P                  :COMPANY
WELL .        WPP TEST 2                               :WELL
FLD  .        WILDCAT                                  :FIELD
LOC  .        NA                                       :LOCATION
CNTY .        HARRIS                                   :COUNTY
STAT .        TEXAS                                    :STATE
CTRY .                                                 :COUNTRY
API  .        NA                                       :API NUMBER
UWI  .                                                 :UNIQUE WELL ID
DATE .        15-Sep-2017                              :LOG DATE {DD-MMM-YYYY}
SRVC .        Schlumberger                             :SERVICE COMPANY
LATI .DEG                                              :LATITUDE
LONG .DEG                                              :LONGITUDE
GDAT .                                                 :GeoDetic Datum
SECT .        NA                                       :Section
RANG .        NA                                       :Range
TOWN .        NA                                       :Township
#-----------------------------------------------------------------------------
~PARAMETER INFORMATION
#MNEM.UNIT    VALUE                      DESCRIPTION
#---- -----   --------------------       ------------------------
U-PHASE_B_COMP_PER_YT.                 0 :Phase B Comparator Period Yt
U-PHASE_A_COMP_PER_XT.                 0 :Phase A Comparator Period Xt
U-MAX_EXC_CUR_LIMIT.MA       240.00000   :Requested CM Current Limit
U-REQ_EXC_FQ.HZ              50          :Requested CM Frequency
U-TILT_Y_OFFSET.           0.19916       :WPTET Tilt Y Offset
U-TILT_Y_GAIN.           1.01796         :WPTET Tilt Y Gain
U-TILT_X_OFFSET.          -1.77103       :WPTET Tilt X Offset
U-TILT_X_GAIN.           1.00000         :WPTET Tilt X Gain
U-TILT_OFFSET_TOL.           0.00100     :WPTET Tilt Offset Calibration Tolerance
U-NO_TILT_CAL_ROTATIONS.                 3 :Number of Rotations for Tilt Calibration
HAZI .DEG        0.00000                 :Hole Azimuth
U-STD_TOL_TILT.           0.01000        :Tilt Standard Deviation Tolerance
U-GUN_POS_TOL.DEG        5.00000         :Gun Position Tolerance
ROT_ANGLE_THRESHOLD.DEG        5.00000   :Rotation Stop Angle Tolerance
STOP_ROT_ANGLE.DEG        0.00000        :Rotation Stop Angle
WITN .        MR. DHRUA ARORA            :Witness's Name
ENGI .        MORRIS MOORE               :Engineer's Name
COUN .        HARRIS                     :County or Rig Name
FN   .        WILDCAT                    :Field Name
WN   .        WPP TEST 2                 :Well Name
CN   .        SHELL INTERNATIONAL E P    :Company Name
CLAB .        County                     :County/Rig Label
SLAB .        State                      :State/Province Label
RUN  .          1                        :RUN NUMBER
PDAT .        GROUND LEVEL               :Permanent Datum
EPD  .                                   :Elevation of Permanent Datum above Mean Sea Level
LMF  .          NA                       :Logging Measured From (Name of Logging Elevation Reference)
APD  .                                   :Elevation of Depth Reference (LMF) above Permanent Datum
#-----------------------------------------------------------------------------
~CURVE INFORMATION
#MNEM.UNIT   API CODE                                  DESCRIPTION
#---- -----  --------                                  -----------------------
TIME .S                                                :TIME {F10.1}
FREQ_EMF_SL.HZ                                         :Electromagnetic Field Frequency {F13.4}
PH_SH_WPPCM_SL.DEG                                     :WPPCM Phase Shift {F13.4}
FREQ_EXC_REQ_SL.HZ                                     :Requested Exciter Frequency {F13.4}
RB_SL.DEG                                              :Relative Bearing {F13.4}
SDEV_SL.DEG                                            :Sonde Deviation {F13.4}
TILX_SL.DEG                                            :X-axis Tilt {F13.4}
TILY_SL.DEG                                            :Y-axis Tilt {F13.4}
ROTA_SL.DEG                                            :Motor Rotation Angle {F13.4}
MSPE_SL.RPM                                            :Motor Speed {F13.4}
#-----------------------------------------------------------------------------
# 
#     TIME    FREQ_EMF_SL  PH_SH_WPPCM_ FREQ_EXC_REQ    RB_SL       SDEV_SL      TILX_SL      TILY_SL      ROTA_SL      MSPE_SL
#                          SL           _SL
~A  
# ...
    4415.0    1504.3060       0.0000      50.8611     150.2262       4.2346       2.1014       3.6746     229.8381       0.0005
    4416.0    1500.1454       0.0000      50.8611     149.8781       4.0794       2.0468       3.5231     229.8381       0.0005
    4417.0    1505.0637       0.0000      50.8611     146.4841       4.2031       2.3208       3.4943     229.8381       0.0005
    4418.0    1508.8519       0.0000      50.8611     150.7321       4.1506       2.0237       3.6190     229.8381       0.0005
    4419.0    1501.0945       0.0000      50.8611     148.4121       4.2000       2.1982       3.5761     229.8381       0.0005
    4420.0    1503.3529       0.0000      50.8611     149.4307       4.2936       2.1818       3.6961     229.8381       0.0005
    4421.0    1506.9497       0.0000      50.8611     149.5558       4.1738       2.1133       3.5976     229.8381       0.0005
    4422.0    1508.8519       0.0000      50.8611     148.8382       4.1254       2.1344       3.5278     229.8381       0.0005
    4423.0    1505.2632       0.0000      50.8611     151.0893       4.1763       2.0165       3.6552     229.8381       0.0005
    4424.0    1503.3529       0.0000      50.8611     150.0045       4.2300       2.1133       3.6626     229.8381       0.0005
    4425.0    1506.0047       0.0000      50.8611     149.7438       4.1409       2.0850       3.5761     229.8381       0.0005
    4426.0    1506.9497       0.0000      50.8611     150.4870       4.1437       2.0402       3.6049     229.8381       0.0005
    4427.0    1501.0945       0.0000      50.8611     145.7282       4.3052       2.4228       3.5567     229.8381       0.0005
    4428.0    1502.4038       0.0000      50.8611     148.6503       4.1277       2.1462       3.5231     229.8381       0.0005
    4429.0    1508.2924       0.0000      50.8611     150.8147       4.1075       2.0026       3.5808     229.8381       0.0005
    4430.0    1506.7587       0.0000      50.8611     150.6323       4.2843       2.0993       3.7323     229.8381       0.0005
    4431.0    1502.4038       0.0000      50.8611     150.8060       4.1032       2.0000       3.5808     229.8381       0.0005
    4432.0    1500.1454       0.0000      50.8611     151.4005       4.1067       1.9645       3.6049     229.8381       0.0005
    4433.0    1506.5741       0.0000      50.8611     150.4446       4.1896       2.0659       3.6432     229.8381       0.0005
    4434.0    1504.3060       0.0000      50.8611     150.9128       4.2214       2.0494       3.6887     229.8381       0.0005
    4435.0    1504.6719       0.0000      50.8611     150.1483       4.2013       2.0896       3.6432     229.8381       0.0005
    4436.0    1507.8988       0.0000      50.8611     150.1899       4.1665       2.0685       3.6143     229.8381       0.0005
    4437.0    1502.4038       0.0000      50.8611     149.4281       4.1658       2.1179       3.5855     229.8381       0.0005
    4438.0    1506.5741       0.0000      50.8611     150.0041       4.1495       2.0731       3.5929     229.8381       0.0005
    4439.0    1505.6210       0.0000      50.8611     150.2275       4.1455       2.0567       3.5976     229.8381       0.0005
    4440.0    1502.4038       0.0000      50.8611     149.2587       4.1143       2.1014       3.5352     229.8381       0.0005
    4441.0    1503.3529       0.0000      50.8611     150.5055       4.1811       2.0567       3.6384     229.8381       0.0005
    4442.0    1503.3529       0.0000      50.8611     151.2492       4.1812       2.0094       3.6649     229.8381       0.0005
    4443.0    1506.9497       0.0000      50.8611     149.4419       4.1593       2.1133       3.5808     229.8381       0.0005
    4444.0    1504.6719       0.0000      50.8611     150.0860       4.1600       2.0731       3.6049     229.8381       0.0005
    4445.0    1504.3060       0.0000      50.8611     150.7537       4.2124       2.0567       3.6746     229.8381       0.0005
    4446.0    1501.0945       0.0000      50.8611     149.6764       4.0768       2.0567       3.5184     229.8381       0.0005
    4447.0    1499.2004       0.0000      50.8611     151.8773       4.0750       1.9197       3.5929     229.8381       0.0005
    4448.0    1508.8519       0.0000      50.8611     149.5986       4.0997       2.0731       3.5352     229.8381       0.0005
    4449.0    1505.6210       0.0000      50.8611     150.2265       4.1681       2.0685       3.6170     229.8381       0.0005
    4450.0    1502.0476       0.0000      50.8611     150.5710       4.1067       2.0165       3.5761     229.8381       0.0005
    4451.0    1503.7269       0.0000      50.8611     150.6697       4.1441       2.0283       3.6123     229.8381       0.0005
    4452.0    1511.5348       0.0000      50.8611     149.4565       4.1056       2.0850       3.5352     229.8381       0.0005
    4453.0    1505.2632       0.0000      50.8611     150.5794       4.0736       2.0000       3.5473     229.8381       0.0005
    4454.0    1503.1152       0.0000      50.8611     150.5488       4.0744       2.0017       3.5473     229.8381       0.0005
    4455.0    1506.5741       0.0000      50.8611     150.7259       4.1612       2.0330       3.6290     229.8381       0.0005
    4456.0    1503.7269       0.0000      50.8611     149.7998       4.0912       2.0567       3.5352     229.8381       0.0005
    4457.0    1503.3529       0.0000      50.8611     149.4565       4.1056       2.0850       3.5352     229.8381       0.0005
    4458.0    1505.6210       0.0000      50.8611     150.1214       4.0834       2.0330       3.5399     229.8381       0.0005
    4459.0    1503.3529       0.0000      50.8611     150.5393       4.1604       2.0448       3.6217     229.8381       0.0005
    4460.0    1505.6210       0.0000      50.8611     149.7256       4.1946       2.1133       3.6217     229.8381       0.0005
    4461.0    1500.1454       0.0000      50.8611     149.9757       4.1699       2.0850       3.6096     229.8381       0.0005
    4462.0    1507.8988       0.0000      50.8611     149.9811       4.1226       2.0613       3.5687     229.8381       0.0005
    4463.0    1506.5741       0.0000      50.8611     150.4800       4.1768       2.0567       3.6337     229.8381       0.0005
    4464.0    1500.1454       0.0000      50.8611     150.1185       4.1640       2.0731       3.6096     229.8381       0.0005
    4465.0    1505.6210       0.0000      50.8611     149.9208       4.1390       2.0731       3.5808     229.8381       0.0005
    4466.0    1503.9628       0.0000      50.8611     149.3879       4.1353       2.1044       3.5580     229.8381       0.0005
    4467.0    1503.0049       0.0000      50.8611     150.6212       4.1709       2.0448       3.6337     229.8381       0.0005
    4468.0    1505.6210       0.0000      50.8611     151.6062       4.1589       1.9763       3.6579     229.8381       0.0005
    4469.0    1502.7859       0.0000      50.8611     150.8155       4.2106       2.0520       3.6746     229.8381       0.0005
    4470.0    1508.2924       0.0000      50.8611     149.8585       4.0749       2.0448       3.5231     229.8381       0.0005
    4471.0    1505.6210       0.0000      50.8611     151.3672       4.1272       1.9763       3.6217     229.8381       0.0005
    4472.0    1502.0476       0.0000      50.8611     150.2262       4.2346       2.1014       3.6746     229.8381       0.0005
    4473.0    1503.7269       0.0000      50.8611     150.4870       4.1437       2.0402       3.6049     229.8381       0.0005
    4474.0    1509.2374       0.0000      50.8611     149.4565       4.1056       2.0850       3.5352     229.8381       0.0005
    4475.0    1504.3060       0.0000      50.8611     149.1643       4.0704       2.0850       3.4943     229.8381       0.0005
    4476.0    1504.3060       0.0000      50.8611     150.7206       4.0677       1.9882       3.5473     229.8381       0.0005
    4477.0    1505.6210       0.0000      50.8611     151.0322       4.1077       1.9882       3.5929     229.8381       0.0005
