~VERSION INFORMATION
VERS.           2.0   :CWLS Log ASCII Standard - VERSION 2.0
WRAP.           NO    :One Line per depth step
PROD.  Schlumberger   :LAS Producer
PROG.  DLIS to ASCII 19C2-270                          :LAS Program name and version
CREA.        2017/09/16 17:42                          :LAS Creation date {YYYY/MM/DD hh:mm}
DLIS_CREA.  2017-Sep-15 19:44                          :DLIS Creation date and time {YYYY-MMM-DD hh:mm}
SOURCE.     LPC_S5-1_2A5.DLIS                          :DLIS File Name
FILE-ID.     PERFO_Perfo_WPGRT_063LTP                  :File Identification Number
#--------------------------------------------------
~WELL INFORMATION
#MNEM.UNIT      DATA             DESCRIPTION
#---- ------ --------------   -----------------------------
STRT .S         1302.0       :START TIME      
STOP .S         1712.0       :STOP TIME      
STEP .S            1.0       :STEP     
NULL .          -999.25      :NULL VALUE
COMP .        SHELL INTERNATIONAL E P                  :COMPANY
WELL .        WPP TEST 2                               :WELL
FLD  .        WILDCAT                                  :FIELD
LOC  .        NA                                       :LOCATION
CNTY .        HARRIS                                   :COUNTY
STAT .        TEXAS                                    :STATE
CTRY .                                                 :COUNTRY
API  .        NA                                       :API NUMBER
UWI  .                                                 :UNIQUE WELL ID
DATE .        15-Sep-2017                              :LOG DATE {DD-MMM-YYYY}
SRVC .        Schlumberger                             :SERVICE COMPANY
LATI .DEG                                              :LATITUDE
LONG .DEG                                              :LONGITUDE
GDAT .                                                 :GeoDetic Datum
SECT .        NA                                       :Section
RANG .        NA                                       :Range
TOWN .        NA                                       :Township
#-----------------------------------------------------------------------------
~PARAMETER INFORMATION
#MNEM.UNIT    VALUE                      DESCRIPTION
#---- -----   --------------------       ------------------------
U-PHASE_B_COMP_PER_YT.                 0 :Phase B Comparator Period Yt
U-PHASE_A_COMP_PER_XT.                 0 :Phase A Comparator Period Xt
U-MAX_EXC_CUR_LIMIT.MA       240.00000   :Requested CM Current Limit
U-REQ_EXC_FQ.HZ              50          :Requested CM Frequency
U-TILT_Y_OFFSET.           0.19916       :WPTET Tilt Y Offset
U-TILT_Y_GAIN.           1.01796         :WPTET Tilt Y Gain
U-TILT_X_OFFSET.          -1.77103       :WPTET Tilt X Offset
U-TILT_X_GAIN.           1.00000         :WPTET Tilt X Gain
U-TILT_OFFSET_TOL.           0.00100     :WPTET Tilt Offset Calibration Tolerance
U-NO_TILT_CAL_ROTATIONS.                 3 :Number of Rotations for Tilt Calibration
HAZI .DEG        0.00000                 :Hole Azimuth
U-STD_TOL_TILT.           0.01000        :Tilt Standard Deviation Tolerance
U-GUN_POS_TOL.DEG        5.00000         :Gun Position Tolerance
ROT_ANGLE_THRESHOLD.DEG        5.00000   :Rotation Stop Angle Tolerance
STOP_ROT_ANGLE.DEG        0.00000        :Rotation Stop Angle
WITN .        MR. DHRUA ARORA            :Witness's Name
ENGI .        MORRIS MOORE               :Engineer's Name
COUN .        HARRIS                     :County or Rig Name
FN   .        WILDCAT                    :Field Name
WN   .        WPP TEST 2                 :Well Name
CN   .        SHELL INTERNATIONAL E P    :Company Name
CLAB .        County                     :County/Rig Label
SLAB .        State                      :State/Province Label
RUN  .          1                        :RUN NUMBER
PDAT .        GROUND LEVEL               :Permanent Datum
EPD  .                                   :Elevation of Permanent Datum above Mean Sea Level
LMF  .          NA                       :Logging Measured From (Name of Logging Elevation Reference)
APD  .                                   :Elevation of Depth Reference (LMF) above Permanent Datum
#-----------------------------------------------------------------------------
~CURVE INFORMATION
#MNEM.UNIT   API CODE                                  DESCRIPTION
#---- -----  --------                                  -----------------------
TIME .S                                                :TIME {F10.1}
FREQ_EMF_SL.HZ                                         :Electromagnetic Field Frequency {F13.4}
PH_SH_WPPCM_SL.DEG                                     :WPPCM Phase Shift {F13.4}
FREQ_EXC_REQ_SL.HZ                                     :Requested Exciter Frequency {F13.4}
RB_SL.DEG                                              :Relative Bearing {F13.4}
SDEV_SL.DEG                                            :Sonde Deviation {F13.4}
TILX_SL.DEG                                            :X-axis Tilt {F13.4}
TILY_SL.DEG                                            :Y-axis Tilt {F13.4}
ROTA_SL.DEG                                            :Motor Rotation Angle {F13.4}
MSPE_SL.RPM                                            :Motor Speed {F13.4}
#-----------------------------------------------------------------------------
# 
#     TIME    FREQ_EMF_SL  PH_SH_WPPCM_ FREQ_EXC_REQ    RB_SL       SDEV_SL      TILX_SL      TILY_SL      ROTA_SL      MSPE_SL
#                          SL           _SL
~A  
# ...
    1554.0    1117.2704       0.0000      50.8611     -24.3083       6.1172      -2.5143      -5.5729      13.1543       1.0226
    1555.0    1121.7127       0.0000      50.8611     -18.3160       6.0724      -1.9050      -5.7636      19.2530       1.0226
    1556.0    1112.8360       0.0000      50.8611     -12.3407       6.0475      -1.2894      -5.9065      25.3553       1.0226
    1557.0    1116.6690       0.0000      50.8611      -7.8955       6.0874      -0.8340      -6.0292      31.4572       1.0226
    1558.0    1124.6979       0.0000      50.8611      -1.7696       5.7599      -0.1779      -5.7571      37.9665       1.0226
    1559.0    1121.7065       0.0000      50.8611       2.8555       5.7238       0.2839      -5.7162      44.0683       1.0226
    1560.0    1122.6015       0.0000      50.8611       7.5903       5.7596       0.7595      -5.7090      50.1832       1.0244
    1561.0    1128.6116       0.0000      50.8611      13.1049       5.6314       1.2749      -5.4843      56.2850       1.0226
    1562.0    1129.8169       0.0000      50.8611      18.5559       5.5921       1.7771      -5.3005      62.3744       1.0226
    1563.0    1138.6596       0.0000      50.8611      24.4200       5.2762       2.1788      -4.8029      68.4770       1.0226
    1564.0    1159.6305       0.0000      50.8611      31.2011       5.2446       2.7138      -4.4827      74.5670       1.0226
    1565.0    1164.7529       0.0000      50.8611      36.5458       5.1583       3.0689      -4.1418      80.6682       1.0226
    1566.0    1177.7638       0.0000      50.8611      44.5764       4.9867       3.4972      -3.5491      86.7577       1.0226
    1567.0    1191.0838       0.0000      50.8611      50.1112       4.9536       3.7986      -3.1743      92.8471       1.0226
    1568.0    1220.7031       0.0000      50.8611      56.3880       4.7162       3.9259      -2.6087      98.9496       1.0226
    1569.0    1234.9929       0.0000      50.8611      61.5145       4.7726       4.1935      -2.2744     105.0514       1.0226
    1570.0    1242.2703       0.0000      50.8611      70.4486       4.7709       4.4946      -1.5934     111.5489       1.0226
    1571.0    1266.8918       0.0000      50.8611      75.4404       4.4439       4.3009      -1.1161     117.6507       1.0226
    1572.0    1285.0262       0.0000      50.8611      84.2778       4.3631       4.3411      -0.4348     123.7524       1.0226
    1573.0    1310.5728       0.0000      50.8611      89.7489       4.2744       4.2742      -0.0190     129.8440       1.0226
    1574.0    1328.3171       0.0000      50.8611      97.5928       4.3932       4.3542       0.5805     135.9570       1.0226
    1575.0    1347.8538       0.0000      50.8611     105.2879       4.2236       4.0734       1.1121     142.0604       1.0226
    1576.0    1380.9296       0.0000      50.8611     115.0580       4.2399       3.8392       1.7934     148.1739       1.0226
    1577.0    1404.3736       0.0000      50.8611     122.9323       4.3045       3.6113       2.3387     154.2758       1.0226
    1578.0    1421.8855       0.0000      50.8611     127.1581       4.2473       3.3838       2.5638     160.3768       1.0138
    1579.0    1435.4423       0.0000      50.8611     134.7181       4.2082       2.9885       2.9593     166.4812       1.0226
    1580.0    1447.2608       0.0000      50.8611     145.1622       4.3209       2.4667       3.5451     172.5831       1.0226
    1581.0    1448.2438       0.0000      50.8611     152.1657       4.4263       2.0651       3.9131     178.6855       1.0226
    1582.0    1456.2531       0.0000      50.8611     157.5069       4.5089       1.7235       4.1653     185.2079       1.0226
    1583.0    1466.3658       0.0000      50.8611     164.5428       4.5906       1.2216       4.4240     191.3230       1.0226
    1584.0    1455.7454       0.0000      50.8611     169.2390       4.5384       0.8466       4.4584     197.4249       1.0226
    1585.0    1465.3579       0.0000      50.8611    -119.1931       4.6511      -0.0232       4.6491     203.5399       1.0226
    1586.0    1468.4182       0.0000      50.8611    -174.9082       4.7228      -0.4185       4.7037     209.6425       1.0208
    1587.0    1459.2754       0.0000      50.8611    -168.3639       4.9697      -1.0011       4.8673     215.7706       1.0226
    1588.0    1463.6947       0.0000      50.8611    -160.9311       4.8805      -1.5918       4.6120     221.8725       1.0226
    1589.0    1456.7630       0.0000      50.8611    -155.5444       4.9142      -2.0319       4.4721     227.9744       1.0138
    1590.0    1456.7630       0.0000      50.8611    -148.2785       5.1557      -2.7080       4.3835     234.0516       1.0226
    1591.0    1442.7958       0.0000      50.8611    -142.7919       5.4469      -3.2906       4.3357     240.1535       1.0226
    1592.0    1435.9220       0.0000      50.8611    -137.5332       5.5317      -3.7321       4.0766     246.2822       1.0226
    1593.0    1418.0723       0.0000      50.8611    -131.8444       5.4628      -4.0669       3.6406     252.3972       1.0226
    1594.0    1409.0682       0.0000      50.8611    -126.0818       5.5742      -4.5024       3.2795     258.8972       1.0208
    1595.0    1399.2729       0.0000      50.8611    -121.0752       5.8848      -5.0377       3.0338     264.9969       1.0226
    1596.0    1385.0092       0.0000      50.8611    -114.0002       5.8754      -5.3658       2.3865     271.1119       1.0226
    1597.0    1362.6454       0.0000      50.8611    -109.7250       5.8082      -5.4664       1.9573     277.2137       1.0226
    1598.0    1340.1468       0.0000      50.8611    -104.1453       5.8725      -5.6939       1.4327     283.3155       1.0226
    1599.0    1330.4333       0.0000      50.8611     -98.7638       5.9243      -5.8549       0.9011     289.4173       1.0226
    1600.0    1305.3159       0.0000      50.8611     -93.4891       6.0281      -6.0169       0.3661     295.5199       1.0239
    1601.0    1290.5363       0.0000      50.8611     -88.0212       6.0857      -6.0820      -0.2097     301.6094       1.0226
    1602.0    1272.2497       0.0000      50.8611     -81.4815       6.1995      -6.1289      -0.9179     307.7243       1.0226
    1603.0    1259.3506       0.0000      50.8611     -76.4946       6.2493      -6.0756      -1.4566     313.8261       1.0226
    1604.0    1223.9043       0.0000      50.8611     -71.2399       6.2768      -5.9416      -2.0153     319.9279       1.0226
    1605.0    1215.0860       0.0000      50.8611     -66.7872       6.2997      -5.7877      -2.4788     326.0297       1.0226
    1606.0    1200.2169       0.0000      50.8611     -61.1776       6.3959      -5.6004      -3.0784     332.4592       1.0226
    1607.0    1189.7208       0.0000      50.8611     -55.8376       6.4254      -5.3124      -3.6031     338.6421       1.0226
    1608.0    1170.2530       0.0000      50.8611     -50.8727       6.3444      -4.9175      -3.9986     344.7439       1.0226
    1609.0    1154.5566       0.0000      50.8611     -47.1602       6.4195      -4.7028      -4.3597     350.8457       1.0226
    1610.0    1147.3318       0.0000      50.8611     -42.3039       6.2786      -4.2212      -4.6394     356.9352       1.0226
    1611.0    1141.4368       0.0000      50.8611     -36.5827       6.2145      -3.6990      -4.9867       3.0247       1.0226
    1612.0    1128.3331       0.0000      50.8611     -34.4098       6.3297      -3.5718      -5.2187       9.1266       1.0226
    1613.0    1127.1008       0.0000      50.8611     -24.1073       6.1823      -2.5210      -5.6409      15.2284       1.0226
    1614.0    1127.1069       0.0000      50.8611     -19.9111       6.0954      -2.0725      -5.7296      21.3307       1.0226
    1615.0    1115.1977       0.0000      50.8611     -15.2069       5.9956      -1.5705      -5.7842      27.4197       1.0226
    1616.0    1125.0303       0.0000      50.8611     -10.6242       6.0241      -1.1085      -5.9203      33.5083       1.0298
