~VERSION INFORMATION
VERS.           2.0   :CWLS Log ASCII Standard - VERSION 2.0
WRAP.           NO    :One Line per depth step
PROD.  Schlumberger   :LAS Producer
PROG.  DLIS to ASCII 19C2-270                          :LAS Program name and version
CREA.        2017/09/16 17:42                          :LAS Creation date {YYYY/MM/DD hh:mm}
DLIS_CREA.  2017-Sep-15 17:02                          :DLIS Creation date and time {YYYY-MMM-DD hh:mm}
SOURCE.     LPC_S3-1_2BV.DLIS                          :DLIS File Name
FILE-ID.     PERFO_Perfo_WPGRT_045LTP                  :File Identification Number
#--------------------------------------------------
~WELL INFORMATION
#MNEM.UNIT      DATA             DESCRIPTION
#---- ------ --------------   -----------------------------
STRT .S          126.0       :START TIME      
STOP .S          554.0       :STOP TIME      
STEP .S            1.0       :STEP     
NULL .          -999.25      :NULL VALUE
COMP .        SHELL INTERNATIONAL E P                  :COMPANY
WELL .        WPP TEST 2                               :WELL
FLD  .        WILDCAT                                  :FIELD
LOC  .        NA                                       :LOCATION
CNTY .        HARRIS                                   :COUNTY
STAT .        TEXAS                                    :STATE
CTRY .                                                 :COUNTRY
API  .        NA                                       :API NUMBER
UWI  .                                                 :UNIQUE WELL ID
DATE .        15-Sep-2017                              :LOG DATE {DD-MMM-YYYY}
SRVC .        Schlumberger                             :SERVICE COMPANY
LATI .DEG                                              :LATITUDE
LONG .DEG                                              :LONGITUDE
GDAT .                                                 :GeoDetic Datum
SECT .        NA                                       :Section
RANG .        NA                                       :Range
TOWN .        NA                                       :Township
#-----------------------------------------------------------------------------
~PARAMETER INFORMATION
#MNEM.UNIT    VALUE                      DESCRIPTION
#---- -----   --------------------       ------------------------
U-PHASE_B_COMP_PER_YT.                 0 :Phase B Comparator Period Yt
U-PHASE_A_COMP_PER_XT.                 0 :Phase A Comparator Period Xt
U-MAX_EXC_CUR_LIMIT.MA       240.00000   :Requested CM Current Limit
U-REQ_EXC_FQ.HZ              50          :Requested CM Frequency
U-TILT_Y_OFFSET.           0.19916       :WPTET Tilt Y Offset
U-TILT_Y_GAIN.           1.01796         :WPTET Tilt Y Gain
U-TILT_X_OFFSET.          -1.77103       :WPTET Tilt X Offset
U-TILT_X_GAIN.           1.00000         :WPTET Tilt X Gain
U-TILT_OFFSET_TOL.           0.00100     :WPTET Tilt Offset Calibration Tolerance
U-NO_TILT_CAL_ROTATIONS.                 3 :Number of Rotations for Tilt Calibration
HAZI .DEG        0.00000                 :Hole Azimuth
U-STD_TOL_TILT.           0.01000        :Tilt Standard Deviation Tolerance
U-GUN_POS_TOL.DEG        5.00000         :Gun Position Tolerance
ROT_ANGLE_THRESHOLD.DEG        5.00000   :Rotation Stop Angle Tolerance
STOP_ROT_ANGLE.DEG        0.00000        :Rotation Stop Angle
WITN .        MR. DHRUA ARORA            :Witness's Name
ENGI .        MORRIS MOORE               :Engineer's Name
COUN .        HARRIS                     :County or Rig Name
FN   .        WILDCAT                    :Field Name
WN   .        WPP TEST 2                 :Well Name
CN   .        SHELL INTERNATIONAL E P    :Company Name
CLAB .        County                     :County/Rig Label
SLAB .        State                      :State/Province Label
RUN  .          1                        :RUN NUMBER
PDAT .        GROUND LEVEL               :Permanent Datum
EPD  .                                   :Elevation of Permanent Datum above Mean Sea Level
LMF  .          NA                       :Logging Measured From (Name of Logging Elevation Reference)
APD  .                                   :Elevation of Depth Reference (LMF) above Permanent Datum
#-----------------------------------------------------------------------------
~CURVE INFORMATION
#MNEM.UNIT   API CODE                                  DESCRIPTION
#---- -----  --------                                  -----------------------
TIME .S                                                :TIME {F10.1}
FREQ_EMF_SL.HZ                                         :Electromagnetic Field Frequency {F13.4}
PH_SH_WPPCM_SL.DEG                                     :WPPCM Phase Shift {F13.4}
FREQ_EXC_REQ_SL.HZ                                     :Requested Exciter Frequency {F13.4}
RB_SL.DEG                                              :Relative Bearing {F13.4}
SDEV_SL.DEG                                            :Sonde Deviation {F13.4}
TILX_SL.DEG                                            :X-axis Tilt {F13.4}
TILY_SL.DEG                                            :Y-axis Tilt {F13.4}
ROTA_SL.DEG                                            :Motor Rotation Angle {F13.4}
MSPE_SL.RPM                                            :Motor Speed {F13.4}
#-----------------------------------------------------------------------------
# 
#     TIME    FREQ_EMF_SL  PH_SH_WPPCM_ FREQ_EXC_REQ    RB_SL       SDEV_SL      TILX_SL      TILY_SL      ROTA_SL      MSPE_SL
#                          SL           _SL
~A  
# ...
     378.0    1431.4965       0.0000      50.8611     -61.6536       1.3791      -1.2136      -0.6545     254.4065       1.0226
     379.0    1415.4379       0.0000      50.8611     -62.7857       1.4580      -1.2964      -0.6670     260.5084       1.0226
     380.0    1412.2445       0.0000      50.8611     -61.9534       1.4182      -1.2513      -0.6670     266.6094       1.0127
     381.0    1408.0481       0.0000      50.8611     -53.3431       1.6446      -1.3194      -0.9816     272.7128       1.0226
     382.0    1394.8370       0.0000      50.8611     -54.6691       1.4349      -1.1704      -0.8299     278.8146       1.0226
     383.0    1383.2823       0.0000      50.8611     -54.3490       1.4784      -1.2013      -0.8614     284.9168       1.0226
     384.0    1370.4515       0.0000      50.8611     -49.3919       1.4465      -1.0980      -0.9407     291.0211       1.0226
     385.0    1352.8022       0.0000      50.8611     -57.8550       1.4106      -1.1940      -0.7487     297.1229       1.0226
     386.0    1343.4781       0.0000      50.8611     -53.3870       1.3975      -1.1210      -0.8330     303.2126       1.0226
     387.0    1323.3999       0.0000      50.8611     -49.2459       1.3274      -1.0054      -0.8664     309.3142       1.0226
     388.0    1308.7676       0.0000      50.8611     -41.9754       1.3305      -0.8898      -0.9891     315.4409       1.0226
     389.0    1281.0230       0.0000      50.8611     -41.7585       1.4428      -0.9603      -1.0758     321.9258       1.0226
     390.0    1280.0333       0.0000      50.8611     -50.3832       1.2601      -0.9677      -0.8046     328.0269       1.0220
     391.0    1244.7385       0.0000      50.8611     -35.3524       1.4076      -0.8144      -1.1477     334.1019       1.0226
     392.0    1239.6816       0.0000      50.8611     -41.5321       1.2058      -0.7997      -0.9023     340.2037       1.0226
     393.0    1220.5742       0.0000      50.8611     -33.6719       1.3211      -0.7316      -1.0993     346.3048       1.0220
     394.0    1205.5145       0.0000      50.8611     -30.3646       1.1385      -0.5752      -0.9816     352.3950       1.0226
     395.0    1197.3339       0.0000      50.8611     -33.1964       1.1761      -0.6439      -0.9841     358.4989       1.0220
     396.0    1193.8843       0.0000      50.8611     -34.9454       1.0540      -0.6037      -0.8639       4.5740       1.0226
     397.0    1183.7122       0.0000      50.8611     -31.5559       1.0141      -0.5308      -0.8639      10.6787       1.0226
     398.0    1183.3497       0.0000      50.8611     -31.7928       1.0047      -0.5283      -0.8540      16.7805       1.0226
     399.0    1179.2606       0.0000      50.8611     -34.8076       0.9964      -0.5685      -0.8181      22.8823       1.0226
     400.0    1173.9509       0.0000      50.8611     -24.4100       0.9017      -0.3725      -0.8206      28.9726       1.0226
     401.0    1170.2828       0.0000      50.8611     -22.0687       0.8803      -0.3299      -0.8156      35.5048       1.0226
     402.0    1181.6019       0.0000      50.8611     -31.6784       0.7809      -0.4103      -0.6645      41.5945       1.0226
     403.0    1187.3463       0.0000      50.8611     -36.8680       0.8724      -0.5234      -0.6979      47.7019       1.0226
     404.0    1196.0395       0.0000      50.8611     -29.2483       0.8255      -0.4005      -0.7213      53.7884       1.0226
     405.0    1198.5817       0.0000      50.8611     -42.0876       0.8249      -0.5538      -0.6111      59.8881       1.0226
     406.0    1202.5545       0.0000      50.8611     -46.3560       0.6142      -0.4431      -0.4241      65.9928       1.0226
     407.0    1218.9756       0.0000      50.8611     -44.8241       0.5312      -0.3750      -0.3758      72.0793       1.0226
     408.0    1238.0292       0.0000      50.8611     -55.0807       0.5932      -0.4857      -0.3399      78.1840       1.0226
     409.0    1255.5803       0.0000      50.8611     -55.4712       0.5866      -0.4832      -0.3324      84.2858       1.0232
     410.0    1269.5998       0.0000      50.8611     -62.8593       0.6334      -0.5636      -0.2890      90.4017       1.0327
     411.0    1293.3877       0.0000      50.8611     -62.0820       0.5506      -0.4857      -0.2581      96.5157       1.0226
     412.0    1317.0151       0.0000      50.8611     -54.8184       0.6435      -0.5259      -0.3708     102.6053       1.0226
     413.0    1349.0973       0.0000      50.8611     -68.3428       0.5684      -0.5283      -0.2097     109.1120       1.0226
     414.0    1367.9475       0.0000      50.8611     -72.5582       0.5564      -0.5308      -0.1663     115.2138       1.0226
     415.0    1370.7771       0.0000      50.8611     -72.8696       0.6776      -0.6464      -0.1998     121.3184       1.0226
     416.0    1373.4548       0.0000      50.8611     -74.5408       0.7880      -0.7595      -0.2097     127.4174       1.0133
     417.0    1386.6680       0.0000      50.8611     -83.2696       0.8006      -0.7948      -0.0920     133.5331       1.0226
     418.0    1403.1031       0.0000      50.8611     -86.5544       0.7682      -0.7669      -0.0462     139.6350       1.0232
     419.0    1404.4798       0.0000      50.8611     -83.0230       0.7016      -0.6963      -0.0846     145.7413       1.0239
     420.0    1406.5941       0.0000      50.8611     -88.9913       0.8129      -0.8119      -0.0152     151.8687       1.0226
     421.0    1420.6298       0.0000      50.8611     -80.1637       0.7524      -0.7414      -0.1279     157.9705       1.0226
     422.0    1429.1158       0.0000      50.8611     -76.2388       0.7083      -0.6880      -0.1589     164.0726       1.0226
     423.0    1432.2046       0.0000      50.8611     -87.5747       0.9639      -0.9628      -0.0412     170.1753       1.0327
     424.0    1441.1912       0.0000      50.8611     -85.7540       1.2475      -1.2440      -0.0920     176.2896       1.0226
     425.0    1443.7886       0.0000      50.8611     -82.7969       1.0208      -1.0128      -0.1279     182.7993       1.0226
     426.0    1449.7422       0.0000      50.8611     -83.4669       1.1714      -1.1636      -0.1329     188.8990       1.0226
     427.0    1447.1236       0.0000      50.8611     -82.0101       1.1777      -1.1661      -0.1639     194.9914       1.0226
     428.0    1444.3339       0.0000      50.8611     -80.0180       1.2248      -1.2062      -0.2122     201.0941       1.0232
     429.0    1449.3794       0.0000      50.8611     -77.2324       1.3192      -1.2866      -0.2915     207.1961       1.0226
     430.0    1446.5783       0.0000      50.8611     -77.5173       1.3279      -1.2964      -0.2865     213.2980       1.0226
     431.0    1449.5604       0.0000      50.8611     -73.6599       1.3117      -1.2586      -0.3683     219.3999       1.0226
     432.0    1446.3980       0.0000      50.8611     -74.9518       1.4495      -1.3997      -0.3758     225.5148       1.0226
     433.0    1443.7886       0.0000      50.8611     -74.3750       1.2605      -1.2136      -0.3399     231.6301       1.0226
     434.0    1444.1514       0.0000      50.8611     -68.7115       1.4645      -1.3645      -0.5318     237.7320       1.0226
     435.0    1446.3980       0.0000      50.8611     -72.7522       1.4373      -1.3718      -0.4266     243.8360       1.0220
     436.0    1440.1160       0.0000      50.8611     -63.6970       1.4828      -1.3292      -0.6570     249.9111       1.0226
     437.0    1434.9490       0.0000      50.8611     -59.4843       1.4554      -1.2538      -0.7388     256.4180       1.0226
     438.0    1418.1165       0.0000      50.8611     -61.4731       1.3758      -1.2087      -0.6570     262.5227       1.0226
     439.0    1420.4546       0.0000      50.8611     -59.6373       1.5322      -1.3218      -0.7747     268.6245       1.0226
     440.0    1411.3824       0.0000      50.8611     -54.1769       1.5374      -1.2464      -0.8998     274.7263       1.0226
