~VERSION INFORMATION
VERS.           2.0   :CWLS Log ASCII Standard - VERSION 2.0
WRAP.           NO    :One Line per depth step
PROD.  Schlumberger   :LAS Producer
PROG.  DLIS to ASCII 19C2-270                          :LAS Program name and version
CREA.        2017/09/16 17:42                          :LAS Creation date {YYYY/MM/DD hh:mm}
DLIS_CREA.  2017-Sep-15 19:24                          :DLIS Creation date and time {YYYY-MMM-DD hh:mm}
SOURCE.     LPC_S5-1_BV.DLIS                           :DLIS File Name
FILE-ID.     PERFO_Perfo_WPGRT_061LTP                  :File Identification Number
#--------------------------------------------------
~WELL INFORMATION
#MNEM.UNIT      DATA             DESCRIPTION
#---- ------ --------------   -----------------------------
STRT .S          101.0       :START TIME      
STOP .S          592.0       :STOP TIME      
STEP .S            1.0       :STEP     
NULL .          -999.25      :NULL VALUE
COMP .        SHELL INTERNATIONAL E P                  :COMPANY
WELL .        WPP TEST 2                               :WELL
FLD  .        WILDCAT                                  :FIELD
LOC  .        NA                                       :LOCATION
CNTY .        HARRIS                                   :COUNTY
STAT .        TEXAS                                    :STATE
CTRY .                                                 :COUNTRY
API  .        NA                                       :API NUMBER
UWI  .                                                 :UNIQUE WELL ID
DATE .        15-Sep-2017                              :LOG DATE {DD-MMM-YYYY}
SRVC .        Schlumberger                             :SERVICE COMPANY
LATI .DEG                                              :LATITUDE
LONG .DEG                                              :LONGITUDE
GDAT .                                                 :GeoDetic Datum
SECT .        NA                                       :Section
RANG .        NA                                       :Range
TOWN .        NA                                       :Township
#-----------------------------------------------------------------------------
~PARAMETER INFORMATION
#MNEM.UNIT    VALUE                      DESCRIPTION
#---- -----   --------------------       ------------------------
U-PHASE_B_COMP_PER_YT.                 0 :Phase B Comparator Period Yt
U-PHASE_A_COMP_PER_XT.                 0 :Phase A Comparator Period Xt
U-MAX_EXC_CUR_LIMIT.MA       240.00000   :Requested CM Current Limit
U-REQ_EXC_FQ.HZ              50          :Requested CM Frequency
U-TILT_Y_OFFSET.           0.19916       :WPTET Tilt Y Offset
U-TILT_Y_GAIN.           1.01796         :WPTET Tilt Y Gain
U-TILT_X_OFFSET.          -1.77103       :WPTET Tilt X Offset
U-TILT_X_GAIN.           1.00000         :WPTET Tilt X Gain
U-TILT_OFFSET_TOL.           0.00100     :WPTET Tilt Offset Calibration Tolerance
U-NO_TILT_CAL_ROTATIONS.                 3 :Number of Rotations for Tilt Calibration
HAZI .DEG        0.00000                 :Hole Azimuth
U-STD_TOL_TILT.           0.01000        :Tilt Standard Deviation Tolerance
U-GUN_POS_TOL.DEG        5.00000         :Gun Position Tolerance
ROT_ANGLE_THRESHOLD.DEG        5.00000   :Rotation Stop Angle Tolerance
STOP_ROT_ANGLE.DEG        0.00000        :Rotation Stop Angle
WITN .        MR. DHRUA ARORA            :Witness's Name
ENGI .        MORRIS MOORE               :Engineer's Name
COUN .        HARRIS                     :County or Rig Name
FN   .        WILDCAT                    :Field Name
WN   .        WPP TEST 2                 :Well Name
CN   .        SHELL INTERNATIONAL E P    :Company Name
CLAB .        County                     :County/Rig Label
SLAB .        State                      :State/Province Label
RUN  .          1                        :RUN NUMBER
PDAT .        GROUND LEVEL               :Permanent Datum
EPD  .                                   :Elevation of Permanent Datum above Mean Sea Level
LMF  .          NA                       :Logging Measured From (Name of Logging Elevation Reference)
APD  .                                   :Elevation of Depth Reference (LMF) above Permanent Datum
#-----------------------------------------------------------------------------
~CURVE INFORMATION
#MNEM.UNIT   API CODE                                  DESCRIPTION
#---- -----  --------                                  -----------------------
TIME .S                                                :TIME {F10.1}
FREQ_EMF_SL.HZ                                         :Electromagnetic Field Frequency {F13.4}
PH_SH_WPPCM_SL.DEG                                     :WPPCM Phase Shift {F13.4}
FREQ_EXC_REQ_SL.HZ                                     :Requested Exciter Frequency {F13.4}
RB_SL.DEG                                              :Relative Bearing {F13.4}
SDEV_SL.DEG                                            :Sonde Deviation {F13.4}
TILX_SL.DEG                                            :X-axis Tilt {F13.4}
TILY_SL.DEG                                            :Y-axis Tilt {F13.4}
ROTA_SL.DEG                                            :Motor Rotation Angle {F13.4}
MSPE_SL.RPM                                            :Motor Speed {F13.4}
#-----------------------------------------------------------------------------
# 
#     TIME    FREQ_EMF_SL  PH_SH_WPPCM_ FREQ_EXC_REQ    RB_SL       SDEV_SL      TILX_SL      TILY_SL      ROTA_SL      MSPE_SL
#                          SL           _SL
~A  
# ...
     416.0    1276.9224       0.0000      50.8611     -38.8392       0.8881      -0.5578      -0.6857       8.1271       1.0226
     417.0    1266.0734       0.0000      50.8611     -36.1244       0.8674      -0.5114      -0.7004      14.2165       1.0226
     418.0    1253.3423       0.0000      50.8611     -44.8711       0.9318      -0.6577      -0.6595      20.3060       1.0226
     419.0    1252.1001       0.0000      50.8611     -43.0706       0.8529      -0.5836      -0.6218      26.4078       1.0226
     420.0    1248.2928       0.0000      50.8611     -41.5217       0.8102      -0.5372      -0.6055      32.5096       1.0226
     421.0    1237.8961       0.0000      50.8611     -44.8156       0.8067      -0.5723      -0.5662      38.6255       1.0265
     422.0    1235.8971       0.0000      50.8611     -46.6731       0.7629      -0.5547      -0.5221      44.7026       1.0188
     423.0    1240.8664       0.0000      50.8611     -50.7385       0.7659      -0.5918      -0.4844      50.8045       1.0226
     424.0    1237.1146       0.0000      50.8611     -50.8231       0.7789      -0.6031      -0.4928      56.9074       1.0226
     425.0    1247.3019       0.0000      50.8611     -48.5088       0.7036      -0.5259      -0.4666      63.0089       1.0158
     426.0    1248.8899       0.0000      50.8611     -56.4796       0.7784      -0.6495      -0.4289      69.1115       1.0226
     427.0    1258.0096       0.0000      50.8611     -53.7010       0.7981      -0.6432      -0.4697      75.6213       1.0226
     428.0    1267.3812       0.0000      50.8611     -56.8219       0.7585      -0.6350      -0.4142      81.7231       1.0226
     429.0    1277.4099       0.0000      50.8611     -63.6696       0.7499      -0.6721      -0.3324      87.8248       1.0226
     430.0    1289.2888       0.0000      50.8611     -55.5362       0.5408      -0.4455      -0.3062      93.9266       1.0226
     431.0    1308.6755       0.0000      50.8611     -65.9776       0.7519      -0.6865      -0.3062     100.0284       1.0226
     432.0    1329.8710       0.0000      50.8611     -70.1388       0.7849      -0.7380      -0.2653     106.1302       1.0226
     433.0    1341.8416       0.0000      50.8611     -69.8078       0.7561      -0.7091      -0.2621     112.2373       1.0188
     434.0    1346.0576       0.0000      50.8611     -71.5680       0.7931      -0.7524      -0.2506     118.3582       1.0334
     435.0    1356.4447       0.0000      50.8611     -75.1122       1.0413      -0.9903      -0.2820     124.4628       1.0226
     436.0    1365.2913       0.0000      50.8611     -68.8815       0.7934      -0.7380      -0.2883     130.5646       1.0158
     437.0    1369.6562       0.0000      50.8611     -70.7390       0.8317      -0.7813      -0.2736     136.6674       1.0226
     438.0    1381.3850       0.0000      50.8611     -72.3061       0.8744      -0.8328      -0.2653     142.7693       1.0226
     439.0    1383.1275       0.0000      50.8611     -77.9576       0.9492      -0.9275      -0.1982     149.2792       1.0226
     440.0    1384.1044       0.0000      50.8611     -81.0255       1.0952      -1.0820      -0.1688     155.3791       1.0226
     441.0    1397.8628       0.0000      50.8611     -68.0037       0.9573      -0.8874      -0.3586     161.4841       1.0226
     442.0    1400.6475       0.0000      50.8611     -72.5089       1.0569      -1.0079      -0.3177     167.5979       1.0158
     443.0    1406.0433       0.0000      50.8611     -71.7389       1.1969      -1.1334      -0.3816     173.7007       1.0226
     444.0    1412.7016       0.0000      50.8611     -74.0690       1.1168      -1.0738      -0.3062     179.8026       1.0226
     445.0    1420.6895       0.0000      50.8611     -69.4174       1.0475      -0.9790      -0.3701     185.9045       1.0226
     446.0    1428.0745       0.0000      50.8611     -65.1691       1.0544      -0.9564      -0.4435     192.0195       1.0226
     447.0    1423.1183       0.0000      50.8611     -68.4316       1.2305      -1.1428      -0.4519     198.1214       1.0226
     448.0    1435.7795       0.0000      50.8611     -69.8461       1.1594      -1.0882      -0.3995     203.8184       1.0226
     449.0    1441.0718       0.0000      50.8611     -68.0231       1.2784      -1.1830      -0.4781     209.9203       1.0226
     450.0    1441.8927       0.0000      50.8611     -70.0841       1.3049      -1.2231      -0.4467     216.0222       1.0226
     451.0    1445.6921       0.0000      50.8611     -66.4422       1.2288      -1.1252      -0.4928     222.5321       1.0226
     452.0    1444.8557       0.0000      50.8611     -61.3727       1.4413      -1.2602      -0.6940     228.6340       1.0226
     453.0    1444.8557       0.0000      50.8611     -63.6084       1.3334      -1.1943      -0.5924     234.7490       1.0226
     454.0    1451.8986       0.0000      50.8611     -60.5146       1.2554      -1.0913      -0.6154     240.8509       1.0226
     455.0    1455.5242       0.0000      50.8611     -62.3045       1.2746      -1.1284      -0.5924     246.9528       1.0226
     456.0    1449.7422       0.0000      50.8611     -54.6508       1.2359      -1.0079      -0.7151     253.0547       1.0226
     457.0    1451.6616       0.0000      50.8611     -55.0762       1.3234      -1.0851      -0.7560     259.1566       1.0226
     458.0    1444.8557       0.0000      50.8611     -54.1528       1.3110      -1.0625      -0.7675     265.2584       1.0226
     459.0    1445.9272       0.0000      50.8611     -53.8904       1.2831      -1.0367      -0.7560     271.3733       1.0226
     460.0    1432.0265       0.0000      50.8611     -51.9908       1.2468      -0.9821      -0.7675     277.4751       1.0226
     461.0    1434.7339       0.0000      50.8611     -49.5630       1.2865      -0.9790      -0.8346     283.5702       1.0188
     462.0    1427.0374       0.0000      50.8611     -46.1457       1.3063      -0.9420      -0.9048     289.6665       1.0226
     463.0    1417.5908       0.0000      50.8611     -51.5816       1.2170      -0.9533      -0.7560     296.1764       1.0226
     464.0    1412.7016       0.0000      50.8611     -48.1839       1.1516      -0.8585      -0.7675     302.2658       1.0226
     465.0    1403.4431       0.0000      50.8611     -37.6810       1.2409      -0.7606      -0.9802     308.3553       1.0226
     466.0    1400.6475       0.0000      50.8611     -41.2602       1.2141      -0.7793      -0.8806     314.4409       1.0257
     467.0    1384.3270       0.0000      50.8611     -37.0333       1.3129      -0.7762      -1.0326     320.5474       1.0226
     468.0    1376.9477       0.0000      50.8611     -38.7700       0.9976      -0.6269      -0.7675     326.6246       1.0151
     469.0    1374.0515       0.0000      50.8611     -50.5359       1.0788      -0.8328      -0.6857     332.7263       1.0226
     470.0    1358.3273       0.0000      50.8611     -40.2154       1.1700      -0.7555      -0.8933     338.8159       1.0295
     471.0    1351.4363       0.0000      50.8611     -40.8434       1.2510      -0.8183      -0.9457     344.9392       1.0295
     472.0    1326.6509       0.0000      50.8611     -37.7632       0.9941      -0.6093      -0.7853     351.0468       1.0226
     473.0    1319.0013       0.0000      50.8611     -45.5317       0.9623      -0.6865      -0.6742     357.1475       1.0226
     474.0    1296.4204       0.0000      50.8611     -47.7754       0.9814      -0.7267      -0.6595       3.2493       1.0226
     475.0    1278.8054       0.0000      50.8611     -32.7796       0.9447      -0.5032      -0.7905       9.7723       1.0226
     476.0    1258.6363       0.0000      50.8611     -35.3991       0.8441      -0.4888      -0.6857      15.8618       1.0188
     477.0    1257.8265       0.0000      50.8611     -40.3954       0.7472      -0.4826      -0.5662      21.9512       1.0226
     478.0    1239.2951       0.0000      50.8611     -51.6373       1.0301      -0.8121      -0.6301      28.0530       1.0226
