~VERSION INFORMATION
VERS.           2.0   :CWLS Log ASCII Standard - VERSION 2.0
WRAP.           NO    :One Line per depth step
PROD.  Schlumberger   :LAS Producer
PROG.  DLIS to ASCII 19C2-270                          :LAS Program name and version
CREA.        2017/09/16 17:42                          :LAS Creation date {YYYY/MM/DD hh:mm}
DLIS_CREA.  2017-Sep-15 15:20                          :DLIS Creation date and time {YYYY-MMM-DD hh:mm}
SOURCE.     LPC_S2-1_2B5.DLIS                          :DLIS File Name
FILE-ID.     PERFO_Perfo_WPGRT_034LTP                  :File Identification Number
#--------------------------------------------------
~WELL INFORMATION
#MNEM.UNIT      DATA             DESCRIPTION
#---- ------ --------------   -----------------------------
STRT .S        16366.0       :START TIME      
STOP .S        16828.0       :STOP TIME      
STEP .S            1.0       :STEP     
NULL .          -999.25      :NULL VALUE
COMP .        SHELL INTERNATIONAL E P                  :COMPANY
WELL .        WPP TEST 2                               :WELL
FLD  .        WILDCAT                                  :FIELD
LOC  .                                                 :LOCATION
CNTY .        HARRIS                                   :COUNTY
STAT .        TEXAS                                    :STATE
CTRY .                                                 :COUNTRY
API  .                                                 :API NUMBER
UWI  .                                                 :UNIQUE WELL ID
DATE .                                                 :LOG DATE
SRVC .        Schlumberger                             :SERVICE COMPANY
LATI .DEG                                              :LATITUDE
LONG .DEG                                              :LONGITUDE
GDAT .                                                 :GeoDetic Datum
#-----------------------------------------------------------------------------
~PARAMETER INFORMATION
#MNEM.UNIT    VALUE                      DESCRIPTION
#---- -----   --------------------       ------------------------
U-PHASE_B_COMP_PER_YT.                 0 :Phase B Comparator Period Yt
U-PHASE_A_COMP_PER_XT.                 0 :Phase A Comparator Period Xt
U-MAX_EXC_CUR_LIMIT.MA       240.00000   :Requested CM Current Limit
U-REQ_EXC_FQ.HZ              50          :Requested CM Frequency
U-TILT_Y_OFFSET.           0.19916       :WPTET Tilt Y Offset
U-TILT_Y_GAIN.           1.01796         :WPTET Tilt Y Gain
U-TILT_X_OFFSET.          -1.77103       :WPTET Tilt X Offset
U-TILT_X_GAIN.           1.00000         :WPTET Tilt X Gain
U-TILT_OFFSET_TOL.           0.00100     :WPTET Tilt Offset Calibration Tolerance
U-NO_TILT_CAL_ROTATIONS.                 3 :Number of Rotations for Tilt Calibration
HAZI .DEG        0.00000                 :Hole Azimuth
U-STD_TOL_TILT.           0.01000        :Tilt Standard Deviation Tolerance
U-GUN_POS_TOL.DEG        5.00000         :Gun Position Tolerance
ROT_ANGLE_THRESHOLD.DEG        5.00000   :Rotation Stop Angle Tolerance
STOP_ROT_ANGLE.DEG       80.00000        :Rotation Stop Angle
WITN .                                   :Witness's Name
ENGI .                                   :Engineer's Name
COUN .        HARRIS                     :County or Rig Name
FN   .        WILDCAT                    :Field Name
WN   .        WPP TEST 2                 :Well Name
CN   .        SHELL INTERNATIONAL E P    :Company Name
CLAB .        County                     :County/Rig Label
SLAB .        State                      :State/Province Label
RUN  .          1                        :RUN NUMBER
PDAT .        GROUND LEVEL               :Permanent Datum
EPD  .                                   :Elevation of Permanent Datum above Mean Sea Level
LMF  .                                   :Logging Measured From (Name of Logging Elevation Reference)
APD  .                                   :Elevation of Depth Reference (LMF) above Permanent Datum
#-----------------------------------------------------------------------------
~CURVE INFORMATION
#MNEM.UNIT   API CODE                                  DESCRIPTION
#---- -----  --------                                  -----------------------
TIME .S                                                :TIME {F10.1}
FREQ_EMF_SL.HZ                                         :Electromagnetic Field Frequency {F13.4}
PH_SH_WPPCM_SL.DEG                                     :WPPCM Phase Shift {F13.4}
FREQ_EXC_REQ_SL.HZ                                     :Requested Exciter Frequency {F13.4}
RB_SL.DEG                                              :Relative Bearing {F13.4}
SDEV_SL.DEG                                            :Sonde Deviation {F13.4}
TILX_SL.DEG                                            :X-axis Tilt {F13.4}
TILY_SL.DEG                                            :Y-axis Tilt {F13.4}
ROTA_SL.DEG                                            :Motor Rotation Angle {F13.4}
MSPE_SL.RPM                                            :Motor Speed {F13.4}
#-----------------------------------------------------------------------------
# 
#     TIME    FREQ_EMF_SL  PH_SH_WPPCM_ FREQ_EXC_REQ    RB_SL       SDEV_SL      TILX_SL      TILY_SL      ROTA_SL      MSPE_SL
#                          SL           _SL
~A  
# ...
   16492.0    1422.9391       0.0000      50.8611    -118.1734       4.9959      -4.4027       2.3564     239.7453       1.0226
   16493.0    1414.0610       0.0000      50.8611    -112.3441       5.0325      -4.6534       1.9107     245.8529       1.0267
   16494.0    1402.7764       0.0000      50.8611    -106.8762       5.2679      -5.0398       1.5272     251.9621       1.0226
   16495.0    1398.9210       0.0000      50.8611    -102.1253       5.2122      -5.0952       1.0930     258.0801       1.0226
   16496.0    1386.8344       0.0000      50.8611     -97.2467       5.3143      -5.2711       0.6686     264.1825       1.0226
   16497.0    1373.9400       0.0000      50.8611     -93.0505       5.3697      -5.3611       0.2850     270.2710       1.0226
   16498.0    1372.9267       0.0000      50.8611     -86.7202       5.4952      -5.4856      -0.3128     276.3596       1.0226
   16499.0    1354.4141       0.0000      50.8611     -81.0039       5.4035      -5.3362      -0.8443     282.4628       1.0226
   16500.0    1344.0579       0.0000      50.8611     -76.5136       5.5555      -5.4013      -1.2941     288.5652       1.0226
   16501.0    1335.4375       0.0000      50.8611     -71.3323       5.5488      -5.2559      -1.7733     295.0711       1.0226
   16502.0    1308.4327       0.0000      50.8611     -65.9818       5.6353      -5.1450      -2.2909     301.1720       1.0226
   16503.0    1299.1044       0.0000      50.8611     -60.7702       5.5757      -4.8639      -2.7194     307.2782       1.0226
   16504.0    1278.9711       0.0000      50.8611     -56.3958       5.6132      -4.6727      -3.1030     313.3568       1.0097
   16505.0    1254.4306       0.0000      50.8611     -51.9732       5.5903      -4.4011      -3.4399     319.4408       1.0201
   16506.0    1225.7688       0.0000      50.8611     -46.1319       5.5535      -3.9995      -3.8447     325.5588       1.0226
   16507.0    1211.6371       0.0000      50.8611     -41.9013       5.5257      -3.6872      -4.1096     331.6612       1.0226
   16508.0    1197.5497       0.0000      50.8611     -36.3214       5.4204      -3.2074      -4.3648     337.7475       1.0226
   16509.0    1180.4516       0.0000      50.8611     -31.2466       5.3980      -2.7985      -4.6101     343.8362       1.0226
   16510.0    1169.1866       0.0000      50.8611     -26.9261       5.5069      -2.4924      -4.9061     349.9287       1.0226
   16511.0    1161.7322       0.0000      50.8611     -21.1070       5.3978      -1.9413      -5.0345     356.0444       1.0334
   16512.0    1151.2325       0.0000      50.8611     -16.6687       5.3525      -1.5340      -5.1261       2.1461       1.0226
   16513.0    1158.3317       0.0000      50.8611     -12.2102       5.3132      -1.1227      -5.1923       8.6449       1.0267
   16514.0    1155.2782       0.0000      50.8611      -6.0303       5.1039      -0.5355      -5.0754      14.7593       1.0186
   16515.0    1157.0151       0.0000      50.8611       0.0626       5.0289       0.0059      -5.0288      20.8589       1.0293
   16516.0    1163.6549       0.0000      50.8611       4.0888       4.9565       0.3538      -4.9429      26.9607       1.0293
   16517.0    1169.9252       0.0000      50.8611       9.6382       4.9100       0.8205      -4.8399      33.0618       1.0226
   16518.0    1186.4694       0.0000      50.8611      14.1948       4.8215       1.1780      -4.6706      39.1692       1.0226
   16519.0    1202.1003       0.0000      50.8611      21.9688       4.6017       1.7201      -4.2668      45.2433       1.0226
   16520.0    1214.0923       0.0000      50.8611      26.8813       4.4709       2.0199      -3.9870      51.3395       1.0267
   16521.0    1229.8735       0.0000      50.8611      31.4280       4.4936       2.3412      -3.8332      57.4503       1.0226
   16522.0    1255.9029       0.0000      50.8611      39.1072       4.3420       2.7373      -3.3679      63.5405       1.0226
   16523.0    1291.9433       0.0000      50.8611      45.1820       4.2220       2.9935      -2.9746      69.6416       1.0226
   16524.0    1309.7087       0.0000      50.8611      51.5161       4.0912       3.2000      -2.5444      75.7304       1.0226
   16525.0    1325.4684       0.0000      50.8611      57.9114       3.8963       3.2996      -2.0693      81.9868       1.0226
   16526.0    1330.4846       0.0000      50.8611      65.2157       3.8694       3.5117      -1.6195      88.3156       1.0161
   16527.0    1344.4073       0.0000      50.8611      72.6492       3.7059       3.5366      -1.1035      94.4167       1.0226
   16528.0    1352.1635       0.0000      50.8611      81.2421       3.6947       3.6515      -0.5622     100.5397       1.0267
   16529.0    1376.3667       0.0000      50.8611      86.5463       3.6431       3.6362      -0.2195     106.6504       1.0226
   16530.0    1377.4001       0.0000      50.8611      94.0830       3.5996       3.5904       0.2556     112.7501       1.0293
   16531.0    1386.0559       0.0000      50.8611     102.3849       3.5527       3.4697       0.7618     118.8775       1.0226
   16532.0    1397.8628       0.0000      50.8611     113.2031       3.5682       3.2707       1.4029     124.9823       1.0226
   16533.0    1408.3961       0.0000      50.8611     118.6618       3.4862       3.0586       1.6711     131.0849       1.0226
   16534.0    1412.9771       0.0000      50.8611     125.7478       3.5641       2.8923       2.0800     137.1861       1.0226
   16535.0    1418.2824       0.0000      50.8611     134.5551       3.5043       2.4963       2.4578     143.2872       1.0226
   16536.0    1429.1158       0.0000      50.8611     143.1310       3.5234       2.1139       2.8160     149.3899       1.0226
   16537.0    1436.7683       0.0000      50.8611     150.0554       3.6976       1.8440       3.2036     155.6433       1.0186
   16538.0    1435.3718       0.0000      50.8611     156.7565       3.7060       1.4616       3.4040     161.9879       1.0226
   16539.0    1442.6643       0.0000      50.8611     163.3014       3.8001       1.0904       3.6395     168.0929       1.0226
   16540.0    1447.4798       0.0000      50.8611     170.5597       3.8657       0.6334       3.8128     174.0549       0.6410
   16541.0    1449.0311       0.0000      50.8611     172.8938       3.9195       0.4839       3.8889     174.5570       0.0005
   16542.0    1446.0509       0.0000      50.8611     171.5955       3.9312       0.5739       3.8889     174.5570       0.0005
   16543.0    1447.6090       0.0000      50.8611     172.2005       3.8903       0.5279       3.8537     174.5570       0.0005
   16544.0    1447.8928       0.0000      50.8611     172.7672       3.8439       0.4839       3.8128     174.5570       0.0005
   16545.0    1445.6304       0.0000      50.8611     172.6519       3.9369       0.5032       3.9044     174.5570       0.0005
   16546.0    1453.4642       0.0000      50.8611     172.3199       3.8829       0.5185       3.8480     174.5570       0.0005
   16547.0    1450.8805       0.0000      50.8611     172.4900       3.9288       0.5129       3.8946     174.5570       0.0005
   16548.0    1449.7422       0.0000      50.8611     171.8866       3.8573       0.5434       3.8186     174.5570       0.0005
   16549.0    1447.8928       0.0000      50.8611     172.6579       3.9426       0.5032       3.9102     174.5570       0.0005
   16550.0    1448.6087       0.0000      50.8611     174.1609       3.9150       0.3980       3.8946     174.5570       0.0005
   16551.0    1451.5994       0.0000      50.8611     172.7999       3.8593       0.4839       3.8284     174.5570       0.0005
   16552.0    1450.1740       0.0000      50.8611     172.8258       3.9099       0.4879       3.8791     174.5570       0.0005
   16553.0    1446.0509       0.0000      50.8611     172.7255       3.8597       0.4879       3.8284     174.5570       0.0005
   16554.0    1452.3306       0.0000      50.8611     172.3012       3.8381       0.5129       3.8030     174.5570       0.0005
