~VERSION INFORMATION
VERS.           2.0   :CWLS Log ASCII Standard - VERSION 2.0
WRAP.           NO    :One Line per depth step
PROD.  Schlumberger   :LAS Producer
PROG.  DLIS to ASCII 19C2-270                          :LAS Program name and version
CREA.        2017/09/16 17:42                          :LAS Creation date {YYYY/MM/DD hh:mm}
DLIS_CREA.  2017-Sep-15 12:22                          :DLIS Creation date and time {YYYY-MMM-DD hh:mm}
SOURCE.     LPC_S1-1_B5.DLIS                           :DLIS File Name
FILE-ID.     PERFO_Perfo_WPGRT_020LTP                  :File Identification Number
#--------------------------------------------------
~WELL INFORMATION
#MNEM.UNIT      DATA             DESCRIPTION
#---- ------ --------------   -----------------------------
STRT .S         5686.0       :START TIME      
STOP .S         6834.0       :STOP TIME      
STEP .S            1.0       :STEP     
NULL .          -999.25      :NULL VALUE
COMP .        SHELL INTERNATIONAL E P                  :COMPANY
WELL .        WPP TEST 2                               :WELL
FLD  .        WILDCAT                                  :FIELD
LOC  .                                                 :LOCATION
CNTY .        HARRIS                                   :COUNTY
STAT .        TEXAS                                    :STATE
CTRY .                                                 :COUNTRY
API  .                                                 :API NUMBER
UWI  .                                                 :UNIQUE WELL ID
DATE .                                                 :LOG DATE
SRVC .        Schlumberger                             :SERVICE COMPANY
LATI .DEG                                              :LATITUDE
LONG .DEG                                              :LONGITUDE
GDAT .                                                 :GeoDetic Datum
#-----------------------------------------------------------------------------
~PARAMETER INFORMATION
#MNEM.UNIT    VALUE                      DESCRIPTION
#---- -----   --------------------       ------------------------
U-PHASE_B_COMP_PER_YT.                 0 :Phase B Comparator Period Yt
U-PHASE_A_COMP_PER_XT.                 0 :Phase A Comparator Period Xt
U-MAX_EXC_CUR_LIMIT.MA       240.00000   :Requested CM Current Limit
U-REQ_EXC_FQ.HZ              50          :Requested CM Frequency
U-TILT_Y_OFFSET.           0.19916       :WPTET Tilt Y Offset
U-TILT_Y_GAIN.           1.01796         :WPTET Tilt Y Gain
U-TILT_X_OFFSET.          -1.77103       :WPTET Tilt X Offset
U-TILT_X_GAIN.           1.00000         :WPTET Tilt X Gain
U-TILT_OFFSET_TOL.           0.00100     :WPTET Tilt Offset Calibration Tolerance
U-NO_TILT_CAL_ROTATIONS.                 3 :Number of Rotations for Tilt Calibration
HAZI .DEG        0.00000                 :Hole Azimuth
U-STD_TOL_TILT.           0.01000        :Tilt Standard Deviation Tolerance
U-GUN_POS_TOL.DEG        5.00000         :Gun Position Tolerance
ROT_ANGLE_THRESHOLD.DEG        5.00000   :Rotation Stop Angle Tolerance
STOP_ROT_ANGLE.DEG       80.00000        :Rotation Stop Angle
WITN .                                   :Witness's Name
ENGI .                                   :Engineer's Name
COUN .        HARRIS                     :County or Rig Name
FN   .        WILDCAT                    :Field Name
WN   .        WPP TEST 2                 :Well Name
CN   .        SHELL INTERNATIONAL E P    :Company Name
CLAB .        County                     :County/Rig Label
SLAB .        State                      :State/Province Label
RUN  .          1                        :RUN NUMBER
PDAT .        GROUND LEVEL               :Permanent Datum
EPD  .                                   :Elevation of Permanent Datum above Mean Sea Level
LMF  .                                   :Logging Measured From (Name of Logging Elevation Reference)
APD  .                                   :Elevation of Depth Reference (LMF) above Permanent Datum
#-----------------------------------------------------------------------------
~CURVE INFORMATION
#MNEM.UNIT   API CODE                                  DESCRIPTION
#---- -----  --------                                  -----------------------
TIME .S                                                :TIME {F10.1}
FREQ_EMF_SL.HZ                                         :Electromagnetic Field Frequency {F13.4}
PH_SH_WPPCM_SL.DEG                                     :WPPCM Phase Shift {F13.4}
FREQ_EXC_REQ_SL.HZ                                     :Requested Exciter Frequency {F13.4}
RB_SL.DEG                                              :Relative Bearing {F13.4}
SDEV_SL.DEG                                            :Sonde Deviation {F13.4}
TILX_SL.DEG                                            :X-axis Tilt {F13.4}
TILY_SL.DEG                                            :Y-axis Tilt {F13.4}
ROTA_SL.DEG                                            :Motor Rotation Angle {F13.4}
MSPE_SL.RPM                                            :Motor Speed {F13.4}
#-----------------------------------------------------------------------------
# 
#     TIME    FREQ_EMF_SL  PH_SH_WPPCM_ FREQ_EXC_REQ    RB_SL       SDEV_SL      TILX_SL      TILY_SL      ROTA_SL      MSPE_SL
#                          SL           _SL
~A  
# ...
    6379.0    1260.5000       0.0000      50.8611     -80.2025       5.3505      -5.2723      -0.9086     344.1916       1.0226
    6380.0    1226.0526       0.0000      50.8611     -74.0040       5.1954      -4.9936      -1.4297     350.2934       1.0226
    6381.0    1190.4707       0.0000      50.8611     -69.3992       5.2830      -4.9442      -1.8566     356.3952       1.0130
    6382.0    1156.6318       0.0000      50.8611     -64.5925       5.3376      -4.8200      -2.2874       2.4866       1.0216
    6383.0    1124.7184       0.0000      50.8611     -57.9848       5.2393      -4.4406      -2.7743       8.5873       1.0226
    6384.0    1115.2922       0.0000      50.8611     -54.8869       5.2164      -4.2651      -2.9977      14.6891       1.0226
    6385.0    1099.8766       0.0000      50.8611     -48.6067       5.3189      -3.9876      -3.5141      20.8303       1.0226
    6386.0    1078.2598       0.0000      50.8611     -44.9302       5.3142      -3.7503      -3.7594      27.3401       1.0226
    6387.0    1066.0932       0.0000      50.8611     -40.3541       5.1757      -3.3487      -3.9419      33.4551       1.0226
    6388.0    1073.7774       0.0000      50.8611     -34.1043       5.1892      -2.9068      -4.2947      39.5569       1.0226
    6389.0    1061.9741       0.0000      50.8611     -29.9956       5.3013      -2.6480      -4.5885      45.6588       1.0226
    6390.0    1069.3096       0.0000      50.8611     -22.6413       5.0059      -1.9250      -4.6181      51.7737       1.0226
    6391.0    1076.9139       0.0000      50.8611     -19.2652       5.0307      -1.6580      -4.7483      57.8756       1.0226
    6392.0    1095.3288       0.0000      50.8611     -14.0278       5.0231      -1.2161      -4.8728      63.9650       1.0226
    6393.0    1119.1335       0.0000      50.8611      -8.2209       4.8843      -0.6977      -4.8338      70.0830       1.0226
    6394.0    1142.2709       0.0000      50.8611      -0.7257       4.6596      -0.0587      -4.6589      76.1695       1.0216
    6395.0    1158.5376       0.0000      50.8611       0.5361       4.7039       0.0439      -4.7036      82.2712       1.0226
    6396.0    1209.4325       0.0000      50.8611       8.5927       4.5059       0.6717      -4.4552      88.3730       1.0226
    6397.0    1242.0676       0.0000      50.8611      13.1290       4.5364       1.0295      -4.4174      94.4748       1.0226
    6398.0    1270.8392       0.0000      50.8611      20.9757       4.5215       1.6171      -4.2205     100.9600       1.0226
    6399.0    1284.9874       0.0000      50.8611      25.6115       4.4963       1.9422      -4.0532     107.0996       1.0226
    6400.0    1304.0529       0.0000      50.8611      29.7229       4.3562       2.1579      -3.7821     113.2013       1.0226
    6401.0    1328.4655       0.0000      50.8611      35.3749       4.0834       2.3624      -3.3286     119.2920       1.0130
    6402.0    1338.8156       0.0000      50.8611      41.2614       3.8160       2.5157      -2.8674     125.3926       1.0226
    6403.0    1360.0098       0.0000      50.8611      48.7835       3.8749       2.9136      -2.5517     131.4833       1.0130
    6404.0    1383.4150       0.0000      50.8611      54.0969       3.9530       3.2004      -2.3168     137.5729       1.0219
    6405.0    1392.0722       0.0000      50.8611      60.8769       3.6330       3.1732      -1.7672     143.6740       1.0226
    6406.0    1409.0682       0.0000      50.8611      69.7351       3.4414       3.2282      -1.1910     149.7887       1.0226
    6407.0    1426.4852       0.0000      50.8611      77.2599       3.4145       3.3301      -0.7526     155.9036       1.0226
    6408.0    1448.6453       0.0000      50.8611      81.9703       3.5254       3.4908      -0.4922     161.9932       1.0324
    6409.0    1458.2079       0.0000      50.8611      91.1105       3.3823       3.3815       0.0651     168.1213       1.0226
    6410.0    1468.4712       0.0000      50.8611     100.0157       3.1744       3.1256       0.5520     174.5937       1.0226
    6411.0    1483.0972       0.0000      50.8611     107.1432       3.1870       3.0453       0.9389     180.7449       1.0324
    6412.0    1498.3190       0.0000      50.8611     116.2885       3.3970       3.0453       1.5038     186.8357       1.0226
    6413.0    1502.1075       0.0000      50.8611     120.3181       3.3929       2.9285       1.7120     192.9376       1.0226
    6414.0    1505.6210       0.0000      50.8611     134.1606       2.7492       1.9682       1.9157     199.0271       1.0226
    6415.0    1512.0968       0.0000      50.8611     139.0655       3.1719       2.0775       2.3958     205.1451       1.0226
    6416.0    1518.7689       0.0000      50.8611     146.4303       3.5408       1.9570       2.9496     211.2439       1.0226
    6417.0    1518.6285       0.0000      50.8611     151.6879       3.6888       1.7488       3.2468     217.3338       1.0226
    6418.0    1515.6583       0.0000      50.8611     159.8154       3.3886       1.1686       3.1802     223.4485       1.0226
    6419.0    1505.6210       0.0000      50.8611     172.0171       3.5304       0.4895       3.4960     229.5504       1.0226
    6420.0    1500.0932       0.0000      50.8611     176.2200       3.7830       0.2485       3.7746     235.6774       1.0324
    6421.0    1490.5530       0.0000      50.8611    -144.0083       3.8878      -0.1822       3.8829     241.7805       1.0226
    6422.0    1489.9642       0.0000      50.8611    -170.8554       3.7712      -0.5988       3.7231     247.8824       1.0226
    6423.0    1477.1533       0.0000      50.8611    -162.8321       3.8503      -1.1358       3.6784     254.3923       1.0226
    6424.0    1467.6190       0.0000      50.8611    -156.0076       4.0353      -1.6394       3.6860     260.4942       1.0226
    6425.0    1454.1404       0.0000      50.8611    -152.9279       4.3199      -1.9644       3.8458     266.5960       1.0226
    6426.0    1447.0352       0.0000      50.8611    -146.5510       4.2229      -2.3259       3.5224     272.6978       1.0324
    6427.0    1437.6120       0.0000      50.8611    -139.8639       4.1713      -2.6874       3.1878     278.8127       1.0226
    6428.0    1420.9876       0.0000      50.8611    -133.5253       4.4287      -3.2096       3.0483     284.9146       1.0226
    6429.0    1404.4879       0.0000      50.8611    -128.5916       4.6366      -3.6224       2.8902     291.0164       1.0226
    6430.0    1398.1204       0.0000      50.8611    -123.2960       4.7897      -4.0018       2.6267     297.1058       1.0226
    6431.0    1383.6023       0.0000      50.8611    -116.5206       4.8050      -4.2978       2.1436     303.2076       1.0226
    6432.0    1366.2798       0.0000      50.8611    -112.3680       4.8931      -4.5239       1.8604     309.2971       1.0226
    6433.0    1350.5340       0.0000      50.8611    -106.0975       5.1349      -4.9330       1.4220     315.3989       1.0226
    6434.0    1336.5050       0.0000      50.8611    -100.7727       4.9110      -4.8237       0.9169     321.5007       1.0226
    6435.0    1318.7277       0.0000      50.8611    -100.9617       5.4130      -5.3131       1.0275     328.0105       1.0226
    6436.0    1300.3469       0.0000      50.8611     -90.5976       5.2587      -5.2581       0.0545     334.1123       1.0226
    6437.0    1285.8569       0.0000      50.8611     -83.5233       5.2017      -5.1673      -0.5846     340.2272       1.0226
    6438.0    1275.8750       0.0000      50.8611     -80.1015       5.2268      -5.1487      -0.8973     346.3290       1.0226
    6439.0    1244.0631       0.0000      50.8611     -74.2443       5.0625      -4.8713      -1.3728     352.4308       1.0226
    6440.0    1199.5531       0.0000      50.8611     -71.8310       5.2811      -5.0171      -1.6446     358.5326       1.0226
    6441.0    1167.3116       0.0000      50.8611     -65.2515       5.3736      -4.8787      -2.2466       4.6344       1.0226
