~VERSION INFORMATION
VERS.           2.0   :CWLS Log ASCII Standard - VERSION 2.0
WRAP.           NO    :One Line per depth step
PROD.  Schlumberger   :LAS Producer
PROG.  DLIS to ASCII 19C2-270                          :LAS Program name and version
CREA.        2017/09/16 17:42                          :LAS Creation date {YYYY/MM/DD hh:mm}
DLIS_CREA.  2017-Sep-15 18:49                          :DLIS Creation date and time {YYYY-MMM-DD hh:mm}
SOURCE.     LPC_S5-1_AV.DLIS                           :DLIS File Name
FILE-ID.     PERFO_Perfo_WPGRT_057LTP                  :File Identification Number
#--------------------------------------------------
~WELL INFORMATION
#MNEM.UNIT      DATA             DESCRIPTION
#---- ------ --------------   -----------------------------
STRT .S         6545.0       :START TIME      
STOP .S         7010.0       :STOP TIME      
STEP .S            1.0       :STEP     
NULL .          -999.25      :NULL VALUE
COMP .        SHELL INTERNATIONAL E P                  :COMPANY
WELL .        WPP TEST 2                               :WELL
FLD  .        WILDCAT                                  :FIELD
LOC  .        NA                                       :LOCATION
CNTY .        HARRIS                                   :COUNTY
STAT .        TEXAS                                    :STATE
CTRY .                                                 :COUNTRY
API  .        NA                                       :API NUMBER
UWI  .                                                 :UNIQUE WELL ID
DATE .        15-Sep-2017                              :LOG DATE {DD-MMM-YYYY}
SRVC .        Schlumberger                             :SERVICE COMPANY
LATI .DEG                                              :LATITUDE
LONG .DEG                                              :LONGITUDE
GDAT .                                                 :GeoDetic Datum
SECT .        NA                                       :Section
RANG .        NA                                       :Range
TOWN .        NA                                       :Township
#-----------------------------------------------------------------------------
~PARAMETER INFORMATION
#MNEM.UNIT    VALUE                      DESCRIPTION
#---- -----   --------------------       ------------------------
U-PHASE_B_COMP_PER_YT.                 0 :Phase B Comparator Period Yt
U-PHASE_A_COMP_PER_XT.                 0 :Phase A Comparator Period Xt
U-MAX_EXC_CUR_LIMIT.MA       240.00000   :Requested CM Current Limit
U-REQ_EXC_FQ.HZ              50          :Requested CM Frequency
U-TILT_Y_OFFSET.           0.19916       :WPTET Tilt Y Offset
U-TILT_Y_GAIN.           1.01796         :WPTET Tilt Y Gain
U-TILT_X_OFFSET.          -1.77103       :WPTET Tilt X Offset
U-TILT_X_GAIN.           1.00000         :WPTET Tilt X Gain
U-TILT_OFFSET_TOL.           0.00100     :WPTET Tilt Offset Calibration Tolerance
U-NO_TILT_CAL_ROTATIONS.                 3 :Number of Rotations for Tilt Calibration
HAZI .DEG        0.00000                 :Hole Azimuth
U-STD_TOL_TILT.           0.01000        :Tilt Standard Deviation Tolerance
U-GUN_POS_TOL.DEG        5.00000         :Gun Position Tolerance
ROT_ANGLE_THRESHOLD.DEG        5.00000   :Rotation Stop Angle Tolerance
STOP_ROT_ANGLE.DEG        0.00000        :Rotation Stop Angle
WITN .        MR. DHRUA ARORA            :Witness's Name
ENGI .        MORRIS MOORE               :Engineer's Name
COUN .        HARRIS                     :County or Rig Name
FN   .        WILDCAT                    :Field Name
WN   .        WPP TEST 2                 :Well Name
CN   .        SHELL INTERNATIONAL E P    :Company Name
CLAB .        County                     :County/Rig Label
SLAB .        State                      :State/Province Label
RUN  .          1                        :RUN NUMBER
PDAT .        GROUND LEVEL               :Permanent Datum
EPD  .                                   :Elevation of Permanent Datum above Mean Sea Level
LMF  .          NA                       :Logging Measured From (Name of Logging Elevation Reference)
APD  .                                   :Elevation of Depth Reference (LMF) above Permanent Datum
#-----------------------------------------------------------------------------
~CURVE INFORMATION
#MNEM.UNIT   API CODE                                  DESCRIPTION
#---- -----  --------                                  -----------------------
TIME .S                                                :TIME {F10.1}
FREQ_EMF_SL.HZ                                         :Electromagnetic Field Frequency {F13.4}
PH_SH_WPPCM_SL.DEG                                     :WPPCM Phase Shift {F13.4}
FREQ_EXC_REQ_SL.HZ                                     :Requested Exciter Frequency {F13.4}
RB_SL.DEG                                              :Relative Bearing {F13.4}
SDEV_SL.DEG                                            :Sonde Deviation {F13.4}
TILX_SL.DEG                                            :X-axis Tilt {F13.4}
TILY_SL.DEG                                            :Y-axis Tilt {F13.4}
ROTA_SL.DEG                                            :Motor Rotation Angle {F13.4}
MSPE_SL.RPM                                            :Motor Speed {F13.4}
#-----------------------------------------------------------------------------
# 
#     TIME    FREQ_EMF_SL  PH_SH_WPPCM_ FREQ_EXC_REQ    RB_SL       SDEV_SL      TILX_SL      TILY_SL      ROTA_SL      MSPE_SL
#                          SL           _SL
~A  
# ...
    6671.0    1437.8834       0.0000      50.8611     -61.4598       1.0914      -0.9581      -0.5221      33.4181       1.0226
    6672.0    1437.5313       0.0000      50.8611     -62.5292       1.0170      -0.9018      -0.4698      39.5203       1.0226
    6673.0    1418.5634       0.0000      50.8611     -60.1700       1.1554      -1.0022      -0.5736      45.6221       1.0226
    6674.0    1401.3198       0.0000      50.8611     -55.0282       1.2850      -1.0528      -0.7364      51.7116       1.0213
    6675.0    1404.9107       0.0000      50.8611     -58.0776       1.1306      -0.9581      -0.5973      57.7888       1.0213
    6676.0    1389.2462       0.0000      50.8611     -59.4133       1.2062      -1.0384      -0.6137      63.8914       1.0226
    6677.0    1378.6765       0.0000      50.8611     -57.6460       1.2024      -1.0143      -0.6382      69.9959       1.0226
    6678.0    1365.2913       0.0000      50.8611     -40.6845       1.1753      -0.7653      -0.8852      76.0976       1.0226
    6679.0    1353.8345       0.0000      50.8611     -46.8086       1.0781      -0.7861      -0.7364      82.6036       1.0213
    6680.0    1345.7536       0.0000      50.8611     -57.0713       1.1473      -0.9629      -0.6235      88.7074       1.0226
    6681.0    1328.8579       0.0000      50.8611     -48.6565       0.9934      -0.7460      -0.6546      94.8092       1.0226
    6682.0    1319.4814       0.0000      50.8611     -56.5853       1.1723      -0.9789      -0.6448     100.9110       1.0226
    6683.0    1300.6499       0.0000      50.8611     -44.4335       1.0816      -0.7572      -0.7723     107.0128       1.0226
    6684.0    1293.4718       0.0000      50.8611     -31.9337       0.9883      -0.5210      -0.8394     113.1145       1.0226
    6685.0    1264.8414       0.0000      50.8611     -49.3820       1.1615      -0.8817      -0.7552     119.2163       1.0226
    6686.0    1244.4691       0.0000      50.8611     -54.9675       1.0778      -0.8825      -0.6186     125.3313       1.0226
    6687.0    1236.8573       0.0000      50.8611     -48.8723       1.0650      -0.8022      -0.7004     131.4331       1.0226
    6688.0    1231.6516       0.0000      50.8611     -45.3964       0.9347      -0.6656      -0.6546     137.5350       1.0226
    6689.0    1226.2481       0.0000      50.8611     -47.2995       0.9783      -0.7203      -0.6595     143.6396       1.0226
    6690.0    1216.2271       0.0000      50.8611     -51.7066       1.0799      -0.8472      -0.6693     149.7400       1.0133
    6691.0    1215.9759       0.0000      50.8611     -49.3997       0.9507      -0.7219      -0.6186     155.8802       1.0146
    6692.0    1223.0817       0.0000      50.8611     -41.7969       0.8656      -0.5757      -0.6448     162.3268       1.0226
    6693.0    1230.0172       0.0000      50.8611     -51.7481       0.8963      -0.7026      -0.5515     168.4418       1.0226
    6694.0    1236.7704       0.0000      50.8611     -50.6063       1.0317      -0.7974      -0.6546     174.5437       1.0226
    6695.0    1257.5570       0.0000      50.8611     -48.4032       0.9788      -0.7315      -0.6497     180.6483       1.0226
    6696.0    1275.1744       0.0000      50.8611     -50.3542       0.8980      -0.6913      -0.5728     186.7479       1.0226
    6697.0    1287.7748       0.0000      50.8611     -52.0998       0.8211      -0.6476      -0.5045     192.8370       1.0226
    6698.0    1301.2201       0.0000      50.8611     -51.0094       0.9679      -0.7524      -0.6088     198.9389       1.0226
    6699.0    1310.2403       0.0000      50.8611     -48.6616       0.8675      -0.6512      -0.5728     205.0408       1.0226
    6700.0    1320.0799       0.0000      50.8611     -52.1525       0.8315      -0.6560      -0.5107     211.1427       1.0226
    6701.0    1329.4609       0.0000      50.8611     -58.1305       0.8033      -0.6817      -0.4240     217.2473       1.0226
    6702.0    1341.2293       0.0000      50.8611     -60.3987       0.8689      -0.7556      -0.4289     223.3492       1.0226
    6703.0    1347.2930       0.0000      50.8611     -55.3659       0.8894      -0.7315      -0.5058     229.5008       1.0226
    6704.0    1351.1374       0.0000      50.8611     -57.4903       0.8562      -0.7219      -0.4600     235.9721       1.0226
    6705.0    1362.6454       0.0000      50.8611     -59.9133       0.9276      -0.8022      -0.4649     242.0740       1.0226
    6706.0    1382.8068       0.0000      50.8611     -70.6691       0.8145      -0.7669      -0.2702     248.1759       1.0226
    6707.0    1385.0911       0.0000      50.8611     -62.8600       0.8638      -0.7669      -0.3945     254.2778       1.0239
    6708.0    1395.7562       0.0000      50.8611     -64.3402       0.9796      -0.8825      -0.4240     260.3928       1.0226
    6709.0    1408.6457       0.0000      50.8611     -64.6924       0.8931      -0.8070      -0.3819     266.4946       1.0226
    6710.0    1412.9244       0.0000      50.8611     -69.6114       1.1030      -1.0336      -0.3831     272.5964       1.0226
    6711.0    1426.2170       0.0000      50.8611     -68.5841       0.8135      -0.7572      -0.2964     278.6982       1.0226
    6712.0    1434.5983       0.0000      50.8611     -64.1508       0.7736      -0.6962      -0.3373     284.8043       1.0321
    6713.0    1440.8298       0.0000      50.8611     -59.5078       0.9776      -0.8424      -0.4959     290.9177       1.0226
    6714.0    1452.3782       0.0000      50.8611     -57.9062       0.9514      -0.8022      -0.5074     297.0184       1.0133
    6715.0    1461.4344       0.0000      50.8611     -73.0661       1.0388      -0.9934      -0.3013     303.1094       1.0226
    6716.0    1465.2107       0.0000      50.8611     -74.6911       1.0041      -0.9677      -0.2653     309.6161       1.0226
    6717.0    1465.9493       0.0000      50.8611     -62.6852       0.8343      -0.7412      -0.3831     315.7071       1.0321
    6718.0    1471.3429       0.0000      50.8611     -73.9894       1.0386      -0.9982      -0.2866     320.4438       0.0005
    6719.0    1471.3429       0.0000      50.8611     -64.1858       1.0463      -0.9420      -0.4551     320.4438       0.0005
    6720.0    1474.0566       0.0000      50.8611     -71.9255       1.0552      -1.0030      -0.3275     320.4438       0.0005
    6721.0    1479.7970       0.0000      50.8611     -65.9156       0.9268      -0.8460      -0.3782     320.4438       0.0005
    6722.0    1474.4282       0.0000      50.8611     -62.0206       0.9594      -0.8472      -0.4501     320.4438       0.0005
    6723.0    1471.3429       0.0000      50.8611     -63.4772       0.9976      -0.8922      -0.4452     320.4438       0.0005
    6724.0    1481.8965       0.0000      50.8611     -67.9471       1.2324      -1.1396      -0.4665     320.4438       0.0005
    6725.0    1479.1483       0.0000      50.8611     -65.5565       1.1191      -1.0191      -0.4600     320.4438       0.0005
    6726.0    1474.8014       0.0000      50.8611     -66.5156       0.9100      -0.8311      -0.3667     320.4438       0.0005
    6727.0    1469.0120       0.0000      50.8611     -63.2330       1.0788      -0.9629      -0.4861     320.4438       0.0005
    6728.0    1478.7798       0.0000      50.8611     -64.7644       1.1162      -1.0095      -0.4763     320.4438       0.0005
    6729.0    1479.8900       0.0000      50.8611     -67.2567       1.0598      -0.9773      -0.4093     320.4438       0.0005
    6730.0    1472.0877       0.0000      50.8611     -72.3596       1.0113      -0.9629      -0.3062     320.4438       0.0005
    6731.0    1471.3429       0.0000      50.8611     -65.3207       1.0159      -0.9227      -0.4240     320.4438       0.0005
    6732.0    1476.4117       0.0000      50.8611     -59.7521       0.9473      -0.8167      -0.4763     320.4438       0.0005
    6733.0    1470.9729       0.0000      50.8611     -56.1778       1.5198      -1.2633      -0.8067     320.4438       0.0005
