~VERSION INFORMATION
VERS.           2.0   :CWLS Log ASCII Standard - VERSION 2.0
WRAP.           NO    :One Line per depth step
PROD.  Schlumberger   :LAS Producer
PROG.  DLIS to ASCII 19C2-270                          :LAS Program name and version
CREA.        2017/09/16 17:42                          :LAS Creation date {YYYY/MM/DD hh:mm}
DLIS_CREA.  2017-Sep-15 15:01                          :DLIS Creation date and time {YYYY-MMM-DD hh:mm}
SOURCE.     LPC_S2-1_2AV.DLIS                          :DLIS File Name
FILE-ID.     PERFO_Perfo_WPGRT_032LTP                  :File Identification Number
#--------------------------------------------------
~WELL INFORMATION
#MNEM.UNIT      DATA             DESCRIPTION
#---- ------ --------------   -----------------------------
STRT .S        15223.0       :START TIME      
STOP .S        15655.0       :STOP TIME      
STEP .S            1.0       :STEP     
NULL .          -999.25      :NULL VALUE
COMP .        SHELL INTERNATIONAL E P                  :COMPANY
WELL .                                                 :WELL
FLD  .        WPP TEST 2                               :FIELD
LOC  .                                                 :LOCATION
CNTY .        HARRIS                                   :COUNTY
STAT .        TEXAS                                    :STATE
CTRY .                                                 :COUNTRY
API  .                                                 :API NUMBER
UWI  .                                                 :UNIQUE WELL ID
DATE .                                                 :LOG DATE
SRVC .        Schlumberger                             :SERVICE COMPANY
LATI .DEG                                              :LATITUDE
LONG .DEG                                              :LONGITUDE
GDAT .                                                 :GeoDetic Datum
#-----------------------------------------------------------------------------
~PARAMETER INFORMATION
#MNEM.UNIT    VALUE                      DESCRIPTION
#---- -----   --------------------       ------------------------
U-PHASE_B_COMP_PER_YT.                 0 :Phase B Comparator Period Yt
U-PHASE_A_COMP_PER_XT.                 0 :Phase A Comparator Period Xt
U-MAX_EXC_CUR_LIMIT.MA       240.00000   :Requested CM Current Limit
U-REQ_EXC_FQ.HZ              50          :Requested CM Frequency
U-TILT_Y_OFFSET.           0.19916       :WPTET Tilt Y Offset
U-TILT_Y_GAIN.           1.01796         :WPTET Tilt Y Gain
U-TILT_X_OFFSET.          -1.77103       :WPTET Tilt X Offset
U-TILT_X_GAIN.           1.00000         :WPTET Tilt X Gain
U-TILT_OFFSET_TOL.           0.00100     :WPTET Tilt Offset Calibration Tolerance
U-NO_TILT_CAL_ROTATIONS.                 3 :Number of Rotations for Tilt Calibration
HAZI .DEG        0.00000                 :Hole Azimuth
U-STD_TOL_TILT.           0.01000        :Tilt Standard Deviation Tolerance
U-GUN_POS_TOL.DEG        5.00000         :Gun Position Tolerance
ROT_ANGLE_THRESHOLD.DEG        5.00000   :Rotation Stop Angle Tolerance
STOP_ROT_ANGLE.DEG       80.00000        :Rotation Stop Angle
WITN .                                   :Witness's Name
ENGI .                                   :Engineer's Name
COUN .        HARRIS                     :County or Rig Name
FN   .        WPP TEST 2                 :Field Name
WN   .                                   :Well Name
CN   .        SHELL INTERNATIONAL E P    :Company Name
CLAB .        County                     :County/Rig Label
SLAB .        State                      :State/Province Label
RUN  .          1                        :RUN NUMBER
PDAT .        GROUND LEVEL               :Permanent Datum
EPD  .                                   :Elevation of Permanent Datum above Mean Sea Level
LMF  .                                   :Logging Measured From (Name of Logging Elevation Reference)
APD  .                                   :Elevation of Depth Reference (LMF) above Permanent Datum
#-----------------------------------------------------------------------------
~CURVE INFORMATION
#MNEM.UNIT   API CODE                                  DESCRIPTION
#---- -----  --------                                  -----------------------
TIME .S                                                :TIME {F10.1}
FREQ_EMF_SL.HZ                                         :Electromagnetic Field Frequency {F13.4}
PH_SH_WPPCM_SL.DEG                                     :WPPCM Phase Shift {F13.4}
FREQ_EXC_REQ_SL.HZ                                     :Requested Exciter Frequency {F13.4}
RB_SL.DEG                                              :Relative Bearing {F13.4}
SDEV_SL.DEG                                            :Sonde Deviation {F13.4}
TILX_SL.DEG                                            :X-axis Tilt {F13.4}
TILY_SL.DEG                                            :Y-axis Tilt {F13.4}
ROTA_SL.DEG                                            :Motor Rotation Angle {F13.4}
MSPE_SL.RPM                                            :Motor Speed {F13.4}
#-----------------------------------------------------------------------------
# 
#     TIME    FREQ_EMF_SL  PH_SH_WPPCM_ FREQ_EXC_REQ    RB_SL       SDEV_SL      TILX_SL      TILY_SL      ROTA_SL      MSPE_SL
#                          SL           _SL
~A  
# ...
   15412.0    1455.7454       0.0000      50.8611     -50.3270       0.8882      -0.6835      -0.5626     119.8771       0.0005
   15413.0    1447.8653       0.0000      50.8611     -59.5190       0.9922      -0.8532      -0.4853     119.8771       0.0005
   15414.0    1454.4139       0.0000      50.8611     -44.1849       0.9217      -0.6389      -0.6626     119.8771       0.0005
   15415.0    1460.6785       0.0000      50.8611     -48.5629       1.0602      -0.7922      -0.7034     119.8771       0.0005
   15416.0    1455.1889       0.0000      50.8611     -58.0081       1.0289      -0.8725      -0.5444     119.8771       0.0005
   15417.0    1450.8528       0.0000      50.8611     -59.7485       1.0606      -0.9127      -0.5338     119.8771       0.0005
   15418.0    1456.8652       0.0000      50.8611     -47.3271       1.0226      -0.7520      -0.6928     119.8771       0.0005
   15419.0    1456.3041       0.0000      50.8611     -63.6237       0.8410      -0.7490      -0.3778     119.8771       0.0005
   15420.0    1457.0962       0.0000      50.8611     -53.3719       0.8562      -0.6865      -0.5111     119.8771       0.0005
   15421.0    1457.6504       0.0000      50.8611     -59.9397       0.9240      -0.7996      -0.4626     119.8771       0.0005
   15422.0    1451.9726       0.0000      50.8611     -56.3586       0.8820      -0.7341      -0.4884     119.8771       0.0005
   15423.0    1458.7655       0.0000      50.8611     -59.1611       0.8082      -0.6940      -0.4142     119.8771       0.0005
   15424.0    1454.6348       0.0000      50.8611     -52.5368       0.8835      -0.7014      -0.5368     119.8771       0.0005
   15425.0    1460.6785       0.0000      50.8611     -58.1498       0.7997      -0.6791      -0.4217     121.7975       0.6608
   15426.0    1456.3041       0.0000      50.8611     -59.8202       0.9075      -0.7847      -0.4551     126.5680       0.9286
   15427.0    1460.1221       0.0000      50.8611     -54.1461       0.9112      -0.7385      -0.5338     132.5393       1.0226
   15428.0    1455.7454       0.0000      50.8611     -57.5164       0.9093      -0.7669      -0.4884     138.6277       1.0226
   15429.0    1453.2941       0.0000      50.8611     -49.5875       0.8424      -0.6389      -0.5475     145.1376       1.0226
   15430.0    1447.3111       0.0000      50.8611     -60.0231       0.8346      -0.7237      -0.4142     151.2545       1.0226
   15431.0    1441.3772       0.0000      50.8611     -63.9889       0.9112      -0.8175      -0.3960     157.3422       1.0226
   15432.0    1443.7886       0.0000      50.8611     -61.2090       0.7629      -0.6687      -0.3657     163.4422       1.0226
   15433.0    1426.7533       0.0000      50.8611     -63.8204       0.8629      -0.7743      -0.3808     169.5591       1.0226
   15434.0    1423.3300       0.0000      50.8611     -62.4304       0.9842      -0.8725      -0.4551     175.6629       1.0226
   15435.0    1424.4003       0.0000      50.8611     -61.1751       0.9963      -0.8725      -0.4808     181.7629       1.0226
   15436.0    1400.9848       0.0000      50.8611     -61.4030       0.7698      -0.6761      -0.3657     187.8628       1.0226
   15437.0    1405.5327       0.0000      50.8611     -64.7733       0.9892      -0.8948      -0.4217     193.9667       1.0226
   15438.0    1399.6192       0.0000      50.8611     -58.6010       0.9088      -0.7743      -0.4732     200.0705       1.0226
   15439.0    1383.6013       0.0000      50.8611     -66.2807       1.0490      -0.9603      -0.4217     206.1605       1.0294
   15440.0    1375.7965       0.0000      50.8611     -64.1657       0.9695      -0.8725      -0.4217     212.2712       1.0226
   15441.0    1378.1774       0.0000      50.8611     -66.9541       0.9725      -0.8948      -0.3808     218.7850       1.0226
   15442.0    1366.4790       0.0000      50.8611     -60.4491       0.9745      -0.8472      -0.4808     224.8727       1.0226
   15443.0    1351.4998       0.0000      50.8611     -62.1629       0.9582      -0.8472      -0.4475     230.9710       1.0314
   15444.0    1339.7586       0.0000      50.8611     -70.4445       1.2928      -1.2103      -0.3929     237.0650       1.0226
   15445.0    1333.0839       0.0000      50.8611     -63.3352       0.9661      -0.8621      -0.4324     243.1565       1.0226
   15446.0    1320.2925       0.0000      50.8611     -65.3422       1.1959      -1.0868      -0.4990     249.2565       1.0226
   15447.0    1298.1675       0.0000      50.8611     -65.5542       1.0190      -0.9275      -0.4217     255.3564       1.0226
   15448.0    1290.4219       0.0000      50.8611     -66.1809       0.9625      -0.8799      -0.3884     261.4478       1.0226
   15449.0    1277.9799       0.0000      50.8611     -58.1875       0.9389      -0.7952      -0.4853     267.5390       1.0226
   15450.0    1261.5074       0.0000      50.8611     -60.8473       1.1546      -1.0079      -0.5626     273.6387       1.0226
   15451.0    1238.7053       0.0000      50.8611     -53.9639       1.1125      -0.8948      -0.6550     279.7262       1.0226
   15452.0    1220.5581       0.0000      50.8611     -61.5159       1.0430      -0.9171      -0.4959     285.8309       1.0226
   15453.0    1204.7465       0.0000      50.8611     -63.8429       1.1599      -1.0406      -0.5111     292.3394       1.0226
   15454.0    1199.8721       0.0000      50.8611     -60.2834       1.2414      -1.0763      -0.6080     298.4524       1.0226
   15455.0    1186.8236       0.0000      50.8611     -59.9824       1.0884      -0.9424      -0.5444     304.5560       1.0226
   15456.0    1189.5828       0.0000      50.8611     -57.4309       1.2259      -1.0332      -0.6595     310.6474       1.0226
   15457.0    1198.2061       0.0000      50.8611     -57.6083       1.1579      -0.9781      -0.6186     316.7479       1.0246
   15458.0    1194.6678       0.0000      50.8611     -59.4499       1.1800      -1.0153      -0.6004     322.8484       1.0226
   15459.0    1202.4659       0.0000      50.8611     -53.7049       1.0326      -0.8323      -0.6110     328.9520       1.0226
   15460.0    1211.1305       0.0000      50.8611     -54.0370       1.0970      -0.8874      -0.6444     335.0434       1.0206
   15461.0    1213.2202       0.0000      50.8611     -51.5037       1.1663      -0.9127      -0.7261     341.1320       1.0314
   15462.0    1243.6570       0.0000      50.8611     -52.5273       1.0384      -0.8263      -0.6262     347.2436       1.0226
   15463.0    1257.4110       0.0000      50.8611     -54.7155       1.1861      -0.9677      -0.6852     353.3472       1.0226
   15464.0    1271.8999       0.0000      50.8611     -54.4036       1.1902      -0.9677      -0.6928     359.4664       1.0246
   15465.0    1299.2329       0.0000      50.8611     -51.1926       1.1711      -0.9127      -0.7337       5.9576       1.0206
   15466.0    1309.8095       0.0000      50.8611     -48.8439       1.1295      -0.8472      -0.7443      12.0497       1.0246
   15467.0    1326.1887       0.0000      50.8611     -51.5836       1.0621      -0.8323      -0.6595      18.1544       1.0226
   15468.0    1333.2698       0.0000      50.8611     -49.5019       1.1056      -0.8398      -0.7186      24.2543       1.0226
   15469.0    1346.0317       0.0000      50.8611     -52.6220       1.0789      -0.8546      -0.6564      30.3524       1.0314
   15470.0    1351.0141       0.0000      50.8611     -51.9497       0.9507      -0.7490      -0.5853      36.4463       1.0226
   15471.0    1367.9475       0.0000      50.8611     -45.2850       1.0437      -0.7416      -0.7337      42.5608       1.0246
   15472.0    1380.3848       0.0000      50.8611     -54.6197       1.0444      -0.8502      -0.6004      48.6507       1.0226
   15473.0    1388.0599       0.0000      50.8611     -53.2651       0.9661      -0.7743      -0.5777      54.7506       1.0226
   15474.0    1395.0892       0.0000      50.8611     -44.7290       0.9860      -0.6940      -0.7004      60.8525       1.0246
