~VERSION INFORMATION
VERS.           2.0   :CWLS Log ASCII Standard - VERSION 2.0
WRAP.           NO    :One Line per depth step
PROD.  Schlumberger   :LAS Producer
PROG.  DLIS to ASCII 19C2-270                          :LAS Program name and version
CREA.        2017/09/16 17:42                          :LAS Creation date {YYYY/MM/DD hh:mm}
DLIS_CREA.  2017-Sep-15 12:43                          :DLIS Creation date and time {YYYY-MMM-DD hh:mm}
SOURCE.     LPC_S1-1_BV.DLIS                           :DLIS File Name
FILE-ID.     PERFO_Perfo_WPGRT_021LTP                  :File Identification Number
#--------------------------------------------------
~WELL INFORMATION
#MNEM.UNIT      DATA             DESCRIPTION
#---- ------ --------------   -----------------------------
STRT .S         6992.0       :START TIME      
STOP .S         7825.0       :STOP TIME      
STEP .S            1.0       :STEP     
NULL .          -999.25      :NULL VALUE
COMP .        SHELL INTERNATIONAL E P                  :COMPANY
WELL .        WPP TEST 2                               :WELL
FLD  .        WILDCAT                                  :FIELD
LOC  .                                                 :LOCATION
CNTY .        HARRIS                                   :COUNTY
STAT .        TEXAS                                    :STATE
CTRY .                                                 :COUNTRY
API  .                                                 :API NUMBER
UWI  .                                                 :UNIQUE WELL ID
DATE .                                                 :LOG DATE
SRVC .        Schlumberger                             :SERVICE COMPANY
LATI .DEG                                              :LATITUDE
LONG .DEG                                              :LONGITUDE
GDAT .                                                 :GeoDetic Datum
#-----------------------------------------------------------------------------
~PARAMETER INFORMATION
#MNEM.UNIT    VALUE                      DESCRIPTION
#---- -----   --------------------       ------------------------
U-PHASE_B_COMP_PER_YT.                 0 :Phase B Comparator Period Yt
U-PHASE_A_COMP_PER_XT.                 0 :Phase A Comparator Period Xt
U-MAX_EXC_CUR_LIMIT.MA       240.00000   :Requested CM Current Limit
U-REQ_EXC_FQ.HZ              50          :Requested CM Frequency
U-TILT_Y_OFFSET.           0.19916       :WPTET Tilt Y Offset
U-TILT_Y_GAIN.           1.01796         :WPTET Tilt Y Gain
U-TILT_X_OFFSET.          -1.77103       :WPTET Tilt X Offset
U-TILT_X_GAIN.           1.00000         :WPTET Tilt X Gain
U-TILT_OFFSET_TOL.           0.00100     :WPTET Tilt Offset Calibration Tolerance
U-NO_TILT_CAL_ROTATIONS.                 3 :Number of Rotations for Tilt Calibration
HAZI .DEG        0.00000                 :Hole Azimuth
U-STD_TOL_TILT.           0.01000        :Tilt Standard Deviation Tolerance
U-GUN_POS_TOL.DEG        5.00000         :Gun Position Tolerance
ROT_ANGLE_THRESHOLD.DEG        5.00000   :Rotation Stop Angle Tolerance
STOP_ROT_ANGLE.DEG       80.00000        :Rotation Stop Angle
WITN .                                   :Witness's Name
ENGI .                                   :Engineer's Name
COUN .        HARRIS                     :County or Rig Name
FN   .        WILDCAT                    :Field Name
WN   .        WPP TEST 2                 :Well Name
CN   .        SHELL INTERNATIONAL E P    :Company Name
CLAB .        County                     :County/Rig Label
SLAB .        State                      :State/Province Label
RUN  .          1                        :RUN NUMBER
PDAT .        GROUND LEVEL               :Permanent Datum
EPD  .                                   :Elevation of Permanent Datum above Mean Sea Level
LMF  .                                   :Logging Measured From (Name of Logging Elevation Reference)
APD  .                                   :Elevation of Depth Reference (LMF) above Permanent Datum
#-----------------------------------------------------------------------------
~CURVE INFORMATION
#MNEM.UNIT   API CODE                                  DESCRIPTION
#---- -----  --------                                  -----------------------
TIME .S                                                :TIME {F10.1}
FREQ_EMF_SL.HZ                                         :Electromagnetic Field Frequency {F13.4}
PH_SH_WPPCM_SL.DEG                                     :WPPCM Phase Shift {F13.4}
FREQ_EXC_REQ_SL.HZ                                     :Requested Exciter Frequency {F13.4}
RB_SL.DEG                                              :Relative Bearing {F13.4}
SDEV_SL.DEG                                            :Sonde Deviation {F13.4}
TILX_SL.DEG                                            :X-axis Tilt {F13.4}
TILY_SL.DEG                                            :Y-axis Tilt {F13.4}
ROTA_SL.DEG                                            :Motor Rotation Angle {F13.4}
MSPE_SL.RPM                                            :Motor Speed {F13.4}
#-----------------------------------------------------------------------------
# 
#     TIME    FREQ_EMF_SL  PH_SH_WPPCM_ FREQ_EXC_REQ    RB_SL       SDEV_SL      TILX_SL      TILY_SL      ROTA_SL      MSPE_SL
#                          SL           _SL
~A  
# ...
    7559.0    1048.1122       0.0000      50.8611     -66.3077       1.1421      -1.0456      -0.4587     118.8140       1.0124
    7560.0    1062.0263       0.0000      50.8611     -63.5161       1.2148      -1.0870      -0.5417     124.9161       1.0226
    7561.0    1074.8699       0.0000      50.8611     -57.5467       1.1484      -0.9689      -0.6161     131.4137       1.0226
    7562.0    1079.9205       0.0000      50.8611     -68.2389       1.1247      -1.0444      -0.4166     137.5405       1.0229
    7563.0    1108.9776       0.0000      50.8611     -59.1985       1.1308      -0.9713      -0.5789     143.6427       1.0226
    7564.0    1137.5232       0.0000      50.8611     -60.0281       1.1637      -1.0079      -0.5814     149.7446       1.0226
    7565.0    1163.9990       0.0000      50.8611     -64.6716       0.9884      -0.8922      -0.4240     155.8465       1.0226
    7566.0    1208.0564       0.0000      50.8611     -58.8069       1.0459      -0.8946      -0.5417     161.9877       1.0226
    7567.0    1237.9616       0.0000      50.8611     -71.3168       1.0639      -1.0067      -0.3410     168.0956       1.0226
    7568.0    1269.1101       0.0000      50.8611     -54.5858       1.1381      -0.9275      -0.6595     174.1915       1.0226
    7569.0    1281.0908       0.0000      50.8611     -58.6994       1.0402      -0.8886      -0.5405     180.2945       1.0223
    7570.0    1304.4990       0.0000      50.8611     -48.9134       1.1242      -0.8472      -0.7388     186.3961       1.0226
    7571.0    1326.3528       0.0000      50.8611     -56.1550       1.1093      -0.9215      -0.6174     192.5111       1.0226
    7572.0    1349.1833       0.0000      50.8611     -55.9088       1.1675      -0.9665      -0.6546     198.6262       1.0226
    7573.0    1362.8044       0.0000      50.8611     -52.5979       1.1604      -0.9215      -0.7041     204.7281       1.0226
    7574.0    1384.1044       0.0000      50.8611     -47.3858       1.0967      -0.8070      -0.7425     211.2255       1.0223
    7575.0    1400.4807       0.0000      50.8611     -53.5373       1.2534      -1.0079      -0.7449     217.3405       1.0229
    7576.0    1414.7384       0.0000      50.8611     -47.8212       0.9823      -0.7279      -0.6595     223.4424       1.0226
    7577.0    1432.0265       0.0000      50.8611     -47.6308       1.0412      -0.7693      -0.7016     229.5443       1.0226
    7578.0    1449.7422       0.0000      50.8611     -48.8542       1.1267      -0.8484      -0.7413     235.6462       1.0226
    7579.0    1466.8850       0.0000      50.8611     -47.4361       0.9751      -0.7182      -0.6595     241.7489       1.0301
    7580.0    1480.0770       0.0000      50.8611     -56.1647       0.9688      -0.8046      -0.5393     247.8508       1.0226
    7581.0    1489.7665       0.0000      50.8611     -51.3149       1.1804      -0.9215      -0.7376     253.9528       1.0226
    7582.0    1508.7550       0.0000      50.8611     -49.5847       0.9561      -0.7279      -0.6198     260.0551       1.0330
    7583.0    1515.1605       0.0000      50.8611     -52.8861       1.1648      -0.9287      -0.7028     266.1703       1.0226
    7584.0    1525.2169       0.0000      50.8611     -48.2965       0.8705      -0.6500      -0.5789     272.2721       1.0226
    7585.0    1534.9077       0.0000      50.8611     -51.5945       0.9259      -0.7255      -0.5753     278.3740       1.0226
    7586.0    1535.1071       0.0000      50.8611     -55.5625       0.8813      -0.7267      -0.4984     284.8837       1.0226
    7587.0    1528.4332       0.0000      50.8611     -44.5412       0.9773      -0.6853      -0.6967     290.9885       1.0226
    7588.0    1535.2074       0.0000      50.8611     -50.3865       0.8421      -0.6488      -0.5368     297.0873       1.0226
    7589.0    1528.5327       0.0000      50.8611     -57.8387       0.8615      -0.7291      -0.4587     303.1891       1.0226
    7590.0    1521.9155       0.0000      50.8611     -51.9920       0.8698      -0.6853      -0.5356     309.2939       1.0226
    7591.0    1512.2928       0.0000      50.8611     -50.4712       0.8441      -0.6512      -0.5368     315.3928       1.0226
    7592.0    1499.2965       0.0000      50.8611     -48.4727       0.8097      -0.6062      -0.5368     321.4945       1.0226
    7593.0    1499.1047       0.0000      50.8611     -52.6396       0.8177      -0.6500      -0.4959     327.6095       1.0226
    7594.0    1486.5221       0.0000      50.8611     -57.5520       0.9101      -0.7669      -0.4886     333.7112       1.0226
    7595.0    1468.0865       0.0000      50.8611     -55.5815       0.7349      -0.6062      -0.4154     339.8038       1.0226
    7596.0    1458.9479       0.0000      50.8611     -55.9796       0.8774      -0.7267      -0.4910     345.8903       1.0226
    7597.0    1455.6551       0.0000      50.8611     -59.0147       0.7995      -0.6853      -0.4117     351.9827       1.0223
    7598.0    1440.7414       0.0000      50.8611     -57.9067       0.9980      -0.8448      -0.5307     358.5025       1.0226
    7599.0    1414.9099       0.0000      50.8611     -63.8774       0.9409      -0.8448      -0.4142       4.6043       1.0330
    7600.0    1400.8155       0.0000      50.8611     -65.5333       0.7997      -0.7279      -0.3312      10.7069       1.0223
    7601.0    1392.4097       0.0000      50.8611     -64.1042       0.9393      -0.8448      -0.4105      16.8092       1.0226
    7602.0    1375.6579       0.0000      50.8611     -62.8327       0.9071      -0.8070      -0.4142      22.8994       1.0226
    7603.0    1352.3988       0.0000      50.8611     -61.6966       0.8737      -0.7693      -0.4142      29.0140       1.0226
    7604.0    1334.4322       0.0000      50.8611     -63.6319       0.8525      -0.7632      -0.3782      35.1159       1.0226
    7605.0    1321.6636       0.0000      50.8611     -67.4702       0.8711      -0.8046      -0.3336      41.2177       1.0226
    7606.0    1302.1558       0.0000      50.8611     -63.9470       0.9430      -0.8472      -0.4142      47.3233       1.0226
    7607.0    1283.3579       0.0000      50.8611     -59.8810       0.9811      -0.8484      -0.4923      53.4349       1.0229
    7608.0    1267.0293       0.0000      50.8611     -60.6834       0.9270      -0.8082      -0.4538      59.5371       1.0226
    7609.0    1231.4571       0.0000      50.8611     -69.4228       0.9491      -0.8886      -0.3336      65.6397       1.0226
    7610.0    1190.0869       0.0000      50.8611     -55.5948       0.9456      -0.7801      -0.5307      72.1524       1.0226
    7611.0    1158.5914       0.0000      50.8611     -65.9302       1.0185      -0.9299      -0.4154      78.2389       1.0226
    7612.0    1128.8855       0.0000      50.8611     -68.9289       1.0383      -0.9689      -0.3733      84.3407       1.0226
    7613.0    1110.7294       0.0000      50.8611     -70.3253       1.1091      -1.0444      -0.3733      90.4425       1.0226
    7614.0    1085.1702       0.0000      50.8611     -61.1803       1.1061      -0.9689      -0.5331      96.5319       1.0226
    7615.0    1065.4869       0.0000      50.8611     -70.2788       1.1134      -1.0480      -0.3757     102.6337       1.0226
    7616.0    1054.3033       0.0000      50.8611     -64.7561       1.0726      -0.9701      -0.4575     108.7232       1.0226
    7617.0    1046.4107       0.0000      50.8611     -66.8287       1.0526      -0.9677      -0.4142     114.8131       1.0223
    7618.0    1051.0089       0.0000      50.8611     -59.1094       1.1277      -0.9677      -0.5789     120.9145       1.0226
    7619.0    1058.6858       0.0000      50.8611     -51.2413       1.0464      -0.8155      -0.6534     127.0164       1.0226
    7620.0    1058.7330       0.0000      50.8611     -60.0803       1.0743      -0.9311      -0.5356     133.1212       1.0226
    7621.0    1072.0342       0.0000      50.8611     -67.0980       1.1817      -1.0882      -0.4600     139.2201       1.0226
