~VERSION INFORMATION
VERS.           2.0   :CWLS Log ASCII Standard - VERSION 2.0
WRAP.           NO    :One Line per depth step
PROD.  Schlumberger   :LAS Producer
PROG.  DLIS to ASCII 19C2-270                          :LAS Program name and version
CREA.        2017/09/16 17:42                          :LAS Creation date {YYYY/MM/DD hh:mm}
DLIS_CREA.  2017-Sep-15 17:32                          :DLIS Creation date and time {YYYY-MMM-DD hh:mm}
SOURCE.     LPC_S4-1_A5.DLIS                           :DLIS File Name
FILE-ID.     PERFO_Perfo_WPGRT_048LTP                  :File Identification Number
#--------------------------------------------------
~WELL INFORMATION
#MNEM.UNIT      DATA             DESCRIPTION
#---- ------ --------------   -----------------------------
STRT .S         1889.0       :START TIME      
STOP .S         2373.0       :STOP TIME      
STEP .S            1.0       :STEP     
NULL .          -999.25      :NULL VALUE
COMP .        SHELL INTERNATIONAL E P                  :COMPANY
WELL .        WPP TEST 2                               :WELL
FLD  .        WILDCAT                                  :FIELD
LOC  .        NA                                       :LOCATION
CNTY .        HARRIS                                   :COUNTY
STAT .        TEXAS                                    :STATE
CTRY .                                                 :COUNTRY
API  .        NA                                       :API NUMBER
UWI  .                                                 :UNIQUE WELL ID
DATE .        15-Sep-2017                              :LOG DATE {DD-MMM-YYYY}
SRVC .        Schlumberger                             :SERVICE COMPANY
LATI .DEG                                              :LATITUDE
LONG .DEG                                              :LONGITUDE
GDAT .                                                 :GeoDetic Datum
SECT .        NA                                       :Section
RANG .        NA                                       :Range
TOWN .        NA                                       :Township
#-----------------------------------------------------------------------------
~PARAMETER INFORMATION
#MNEM.UNIT    VALUE                      DESCRIPTION
#---- -----   --------------------       ------------------------
U-PHASE_B_COMP_PER_YT.                 0 :Phase B Comparator Period Yt
U-PHASE_A_COMP_PER_XT.                 0 :Phase A Comparator Period Xt
U-MAX_EXC_CUR_LIMIT.MA       240.00000   :Requested CM Current Limit
U-REQ_EXC_FQ.HZ              50          :Requested CM Frequency
U-TILT_Y_OFFSET.           0.19916       :WPTET Tilt Y Offset
U-TILT_Y_GAIN.           1.01796         :WPTET Tilt Y Gain
U-TILT_X_OFFSET.          -1.77103       :WPTET Tilt X Offset
U-TILT_X_GAIN.           1.00000         :WPTET Tilt X Gain
U-TILT_OFFSET_TOL.           0.00100     :WPTET Tilt Offset Calibration Tolerance
U-NO_TILT_CAL_ROTATIONS.                 3 :Number of Rotations for Tilt Calibration
HAZI .DEG        0.00000                 :Hole Azimuth
U-STD_TOL_TILT.           0.01000        :Tilt Standard Deviation Tolerance
U-GUN_POS_TOL.DEG        5.00000         :Gun Position Tolerance
ROT_ANGLE_THRESHOLD.DEG        5.00000   :Rotation Stop Angle Tolerance
STOP_ROT_ANGLE.DEG        0.00000        :Rotation Stop Angle
WITN .        MR. DHRUA ARORA            :Witness's Name
ENGI .        MORRIS MOORE               :Engineer's Name
COUN .        HARRIS                     :County or Rig Name
FN   .        WILDCAT                    :Field Name
WN   .        WPP TEST 2                 :Well Name
CN   .        SHELL INTERNATIONAL E P    :Company Name
CLAB .        County                     :County/Rig Label
SLAB .        State                      :State/Province Label
RUN  .          1                        :RUN NUMBER
PDAT .        GROUND LEVEL               :Permanent Datum
EPD  .                                   :Elevation of Permanent Datum above Mean Sea Level
LMF  .          NA                       :Logging Measured From (Name of Logging Elevation Reference)
APD  .                                   :Elevation of Depth Reference (LMF) above Permanent Datum
#-----------------------------------------------------------------------------
~CURVE INFORMATION
#MNEM.UNIT   API CODE                                  DESCRIPTION
#---- -----  --------                                  -----------------------
TIME .S                                                :TIME {F10.1}
FREQ_EMF_SL.HZ                                         :Electromagnetic Field Frequency {F13.4}
PH_SH_WPPCM_SL.DEG                                     :WPPCM Phase Shift {F13.4}
FREQ_EXC_REQ_SL.HZ                                     :Requested Exciter Frequency {F13.4}
RB_SL.DEG                                              :Relative Bearing {F13.4}
SDEV_SL.DEG                                            :Sonde Deviation {F13.4}
TILX_SL.DEG                                            :X-axis Tilt {F13.4}
TILY_SL.DEG                                            :Y-axis Tilt {F13.4}
ROTA_SL.DEG                                            :Motor Rotation Angle {F13.4}
MSPE_SL.RPM                                            :Motor Speed {F13.4}
#-----------------------------------------------------------------------------
# 
#     TIME    FREQ_EMF_SL  PH_SH_WPPCM_ FREQ_EXC_REQ    RB_SL       SDEV_SL      TILX_SL      TILY_SL      ROTA_SL      MSPE_SL
#                          SL           _SL
~A  
# ...
    2267.0     856.3910       0.0000      50.8611     -20.3879       5.1948      -1.8076      -4.8685      17.4005       1.0226
    2268.0     864.9125       0.0000      50.8611     -14.6178       4.9514      -1.2481      -4.7907      23.5023       1.0226
    2269.0     886.6436       0.0000      50.8611      -8.1875       4.8371      -0.6880      -4.7876      29.6171       1.0226
    2270.0     905.0327       0.0000      50.8611      -3.8309       4.8819      -0.3258      -4.8710      35.7066       1.0226
    2271.0     921.7564       0.0000      50.8611       1.3865       4.7104       0.1138      -4.7089      41.8084       1.0224
    2272.0     952.8412       0.0000      50.8611       7.5046       4.5840       0.5981      -4.5446      47.8980       1.0226
    2273.0     984.8208       0.0000      50.8611      13.6497       4.5881       1.0816      -4.4582      53.9998       1.0224
    2274.0    1031.0320       0.0000      50.8611      16.7817       4.4482       1.2831      -4.2584      60.5101       1.0224
    2275.0    1114.8812       0.0000      50.8611      22.4120       4.4251       1.6856      -4.0902      66.5875       1.0122
    2276.0    1225.3223       0.0000      50.8611      28.2911       4.3254       2.0486      -3.8079      72.7024       1.0224
    2277.0    1283.2073       0.0000      50.8611      35.2506       3.9639       2.2866      -3.2362      78.8183       1.0226
    2278.0    1331.7235       0.0000      50.8611      39.8508       3.9464       2.5276      -3.0287      84.9332       1.0226
    2279.0    1378.8809       0.0000      50.8611      46.0654       3.8986       2.8065      -2.7039      91.0612       1.0226
    2280.0    1426.3260       0.0000      50.8611      53.5599       3.7902       3.0482      -2.2503      97.1625       1.0121
    2281.0    1474.3494       0.0000      50.8611      61.2155       3.6610       3.2081      -1.7619     103.2530       1.0125
    2282.0    1522.2277       0.0000      50.8611      68.5979       3.4940       3.2528      -1.2743     109.3558       1.0226
    2283.0    1566.3105       0.0000      50.8611      74.7146       3.5743       3.4476      -0.9419     115.4584       1.0226
    2284.0    1620.3151       0.0000      50.8611      81.5508       3.3667       3.3301      -0.4944     121.5602       1.0226
    2285.0    1662.3821       0.0000      50.8611      90.6281       3.2500       3.2498       0.0356     127.6373       1.0122
    2286.0    1702.5593       0.0000      50.8611      97.2400       3.2348       3.2089       0.4074     134.1350       1.0122
    2287.0    1736.1917       0.0000      50.8611     107.7459       3.2038       3.0512       0.9760     140.2246       1.0125
    2288.0    1766.7291       0.0000      50.8611     113.1153       3.2265       2.9671       1.2661     146.3270       1.0121
    2289.0    1798.1877       0.0000      50.8611     120.4629       3.2995       2.8436       1.6719     152.4428       1.0224
    2290.0    1817.0374       0.0000      50.8611     129.8634       3.1871       2.4457       2.0422     158.5458       1.0226
    2291.0    1831.0547       0.0000      50.8611     138.0476       3.2957       2.2025       2.4503     164.6354       1.0226
    2292.0    1840.5512       0.0000      50.8611     144.5013       3.3099       1.9213       2.6941     170.7368       1.0021
    2293.0    1850.3290       0.0000      50.8611     152.9297       3.3474       1.5226       2.9803     176.8285       1.0226
    2294.0    1850.4205       0.0000      50.8611     161.0504       3.4515       1.1202       3.2642     182.9435       1.0226
    2295.0    1835.8356       0.0000      50.8611     168.1378       3.5050       0.7201       3.4301     189.0330       1.0226
    2296.0    1821.6560       0.0000      50.8611     174.3962       3.6512       0.3563       3.6337     195.1352       1.0228
    2297.0    1816.5984       0.0000      50.8611    -178.6897       3.6771      -0.0840       3.6762     201.2537       1.0122
    2298.0    1793.6862       0.0000      50.8611    -172.5361       3.7473      -0.4864       3.7155     207.7737       1.0226
    2299.0    1770.9294       0.0000      50.8611    -163.9539       3.9483      -1.0905       3.7942     213.8756       1.0226
    2300.0    1740.1678       0.0000      50.8611    -158.9808       3.9386      -1.4118       3.6762     219.9906       1.0224
    2301.0    1702.3280       0.0000      50.8611    -152.7489       4.2219      -1.9317       3.7526     226.0810       1.0226
    2302.0    1658.3137       0.0000      50.8611    -147.2685       4.1750      -2.2560       3.5111     232.1826       1.0122
    2303.0    1612.6721       0.0000      50.8611    -142.4083       4.2261      -2.5766       3.3475     238.2724       1.0226
    2304.0    1565.9146       0.0000      50.8611    -135.3772       4.3034      -3.0215       3.0613     244.3874       1.0226
    2305.0    1521.6706       0.0000      50.8611    -129.5152       4.7441      -3.6581       3.0166     250.5025       1.0226
    2306.0    1473.8268       0.0000      50.8611    -122.1393       4.6053      -3.8984       2.4480     256.6044       1.0226
    2307.0    1434.7311       0.0000      50.8611    -119.7579       4.6813      -4.0628       2.3215     262.7062       1.0226
    2308.0    1391.9699       0.0000      50.8611    -111.7048       4.6337      -4.3045       1.7120     268.8080       1.0226
    2309.0    1349.3753       0.0000      50.8611    -107.1282       4.8387      -4.6236       1.4235     274.8975       1.0226
    2310.0    1285.1590       0.0000      50.8611    -102.6402       4.8265      -4.7092       1.0547     281.4078       1.0334
    2311.0    1189.3862       0.0000      50.8611     -96.5782       4.9366      -4.9040       0.5648     287.5361       1.0226
    2312.0    1105.2532       0.0000      50.8611     -91.2845       5.1062      -5.1049       0.1143     293.6379       1.0226
    2313.0    1027.8207       0.0000      50.8611     -86.7025       5.1141      -5.1056      -0.2938     299.7397       1.0226
    2314.0     981.8147       0.0000      50.8611     -80.3907       5.1777      -5.1049      -0.8632     305.8415       1.0226
    2315.0     944.9422       0.0000      50.8611     -76.2863       5.2130      -5.0639      -1.2342     311.9433       1.0226
    2316.0     910.8058       0.0000      50.8611     -71.4405       5.2978      -5.0215      -1.6840     318.0452       1.0226
    2317.0     896.6313       0.0000      50.8611     -66.7785       5.5068      -5.0594      -2.1685     324.1469       1.0226
    2318.0     878.8447       0.0000      50.8611     -63.5026       5.2552      -4.7017      -2.3420     330.2364       1.0226
    2319.0     859.6055       0.0000      50.8611     -56.3941       5.2626      -4.3811      -2.9099     336.3379       1.0224
    2320.0     847.1770       0.0000      50.8611     -50.7166       5.2460      -4.0583      -3.3187     342.4153       1.0226
    2321.0     843.9932       0.0000      50.8611     -46.9347       5.2846      -3.8582      -3.6057     348.4957       1.0228
    2322.0     842.9626       0.0000      50.8611     -41.3162       5.2385      -3.4558      -3.9321     355.0285       1.0228
    2323.0     836.0769       0.0000      50.8611     -35.6309       5.0440      -2.9359      -4.0979       1.1310       1.0226
    2324.0     835.1589       0.0000      50.8611     -31.3319       5.0342      -2.6153      -4.2985       7.2208       1.0226
    2325.0     841.0587       0.0000      50.8611     -25.3544       5.1644      -2.2091      -4.6657      13.3355       1.0226
    2326.0     854.3438       0.0000      50.8611     -21.5555       5.1503      -1.8900      -4.7892      19.4250       1.0226
    2327.0     861.7524       0.0000      50.8611     -17.5722       5.0663      -1.5278      -4.8293      25.5399       1.0226
    2328.0     871.4255       0.0000      50.8611     -11.3382       4.9241      -0.9669      -4.8278      31.6294       1.0224
    2329.0     893.4885       0.0000      50.8611      -5.4117       4.7293      -0.4455      -4.7082      37.7189       1.0226
