~VERSION INFORMATION
VERS.           2.0   :CWLS Log ASCII Standard - VERSION 2.0
WRAP.           NO    :One Line per depth step
PROD.  Schlumberger   :LAS Producer
PROG.  DLIS to ASCII 19C2-270                          :LAS Program name and version
CREA.        2017/09/16 17:42                          :LAS Creation date {YYYY/MM/DD hh:mm}
DLIS_CREA.  2017-Sep-15 19:24                          :DLIS Creation date and time {YYYY-MMM-DD hh:mm}
SOURCE.     LPC_S5-1_BV.DLIS                           :DLIS File Name
FILE-ID.     PERFO_Perfo_WPGRT_061LTP                  :File Identification Number
#--------------------------------------------------
~WELL INFORMATION
#MNEM.UNIT      DATA             DESCRIPTION
#---- ------ --------------   -----------------------------
STRT .S          101.0       :START TIME      
STOP .S          592.0       :STOP TIME      
STEP .S            1.0       :STEP     
NULL .          -999.25      :NULL VALUE
COMP .        SHELL INTERNATIONAL E P                  :COMPANY
WELL .        WPP TEST 2                               :WELL
FLD  .        WILDCAT                                  :FIELD
LOC  .        NA                                       :LOCATION
CNTY .        HARRIS                                   :COUNTY
STAT .        TEXAS                                    :STATE
CTRY .                                                 :COUNTRY
API  .        NA                                       :API NUMBER
UWI  .                                                 :UNIQUE WELL ID
DATE .        15-Sep-2017                              :LOG DATE {DD-MMM-YYYY}
SRVC .        Schlumberger                             :SERVICE COMPANY
LATI .DEG                                              :LATITUDE
LONG .DEG                                              :LONGITUDE
GDAT .                                                 :GeoDetic Datum
SECT .        NA                                       :Section
RANG .        NA                                       :Range
TOWN .        NA                                       :Township
#-----------------------------------------------------------------------------
~PARAMETER INFORMATION
#MNEM.UNIT    VALUE                      DESCRIPTION
#---- -----   --------------------       ------------------------
U-PHASE_B_COMP_PER_YT.                 0 :Phase B Comparator Period Yt
U-PHASE_A_COMP_PER_XT.                 0 :Phase A Comparator Period Xt
U-MAX_EXC_CUR_LIMIT.MA       240.00000   :Requested CM Current Limit
U-REQ_EXC_FQ.HZ              50          :Requested CM Frequency
U-TILT_Y_OFFSET.           0.19916       :WPTET Tilt Y Offset
U-TILT_Y_GAIN.           1.01796         :WPTET Tilt Y Gain
U-TILT_X_OFFSET.          -1.77103       :WPTET Tilt X Offset
U-TILT_X_GAIN.           1.00000         :WPTET Tilt X Gain
U-TILT_OFFSET_TOL.           0.00100     :WPTET Tilt Offset Calibration Tolerance
U-NO_TILT_CAL_ROTATIONS.                 3 :Number of Rotations for Tilt Calibration
HAZI .DEG        0.00000                 :Hole Azimuth
U-STD_TOL_TILT.           0.01000        :Tilt Standard Deviation Tolerance
U-GUN_POS_TOL.DEG        5.00000         :Gun Position Tolerance
ROT_ANGLE_THRESHOLD.DEG        5.00000   :Rotation Stop Angle Tolerance
STOP_ROT_ANGLE.DEG        0.00000        :Rotation Stop Angle
WITN .        MR. DHRUA ARORA            :Witness's Name
ENGI .        MORRIS MOORE               :Engineer's Name
COUN .        HARRIS                     :County or Rig Name
FN   .        WILDCAT                    :Field Name
WN   .        WPP TEST 2                 :Well Name
CN   .        SHELL INTERNATIONAL E P    :Company Name
CLAB .        County                     :County/Rig Label
SLAB .        State                      :State/Province Label
RUN  .          1                        :RUN NUMBER
PDAT .        GROUND LEVEL               :Permanent Datum
EPD  .                                   :Elevation of Permanent Datum above Mean Sea Level
LMF  .          NA                       :Logging Measured From (Name of Logging Elevation Reference)
APD  .                                   :Elevation of Depth Reference (LMF) above Permanent Datum
#-----------------------------------------------------------------------------
~CURVE INFORMATION
#MNEM.UNIT   API CODE                                  DESCRIPTION
#---- -----  --------                                  -----------------------
TIME .S                                                :TIME {F10.1}
FREQ_EMF_SL.HZ                                         :Electromagnetic Field Frequency {F13.4}
PH_SH_WPPCM_SL.DEG                                     :WPPCM Phase Shift {F13.4}
FREQ_EXC_REQ_SL.HZ                                     :Requested Exciter Frequency {F13.4}
RB_SL.DEG                                              :Relative Bearing {F13.4}
SDEV_SL.DEG                                            :Sonde Deviation {F13.4}
TILX_SL.DEG                                            :X-axis Tilt {F13.4}
TILY_SL.DEG                                            :Y-axis Tilt {F13.4}
ROTA_SL.DEG                                            :Motor Rotation Angle {F13.4}
MSPE_SL.RPM                                            :Motor Speed {F13.4}
#-----------------------------------------------------------------------------
# 
#     TIME    FREQ_EMF_SL  PH_SH_WPPCM_ FREQ_EXC_REQ    RB_SL       SDEV_SL      TILX_SL      TILY_SL      ROTA_SL      MSPE_SL
#                          SL           _SL
~A  
# ...
     353.0    1443.7886       0.0000      50.8611     -57.3954       1.2449      -1.0480      -0.6710     214.9345       0.0005
     354.0    1441.6673       0.0000      50.8611     -64.5707       1.2526      -1.1315      -0.5368     214.9345       0.0005
     355.0    1436.0031       0.0000      50.8611     -62.5213       1.3312      -1.1798      -0.6154     214.9345       0.0005
     356.0    1439.1915       0.0000      50.8611     -62.3334       1.2894      -1.1397      -0.6007     214.9345       0.0005
     357.0    1441.0718       0.0000      50.8611     -66.5800       1.2204      -1.1202      -0.4813     214.9345       0.0005
     358.0    1441.6673       0.0000      50.8611     -61.2967       1.2639      -1.1057      -0.6103     214.9345       0.0005
     359.0    1437.8834       0.0000      50.8611     -66.1928       1.2649      -1.1572      -0.5106     214.9345       0.0005
     360.0    1442.7257       0.0000      50.8611     -63.9481       1.1913      -1.0706      -0.5221     214.9345       0.0005
     361.0    1440.0047       0.0000      50.8611     -65.2024       1.1828      -1.0738      -0.4959     214.9345       0.0005
     362.0    1440.8298       0.0000      50.8611     -66.5743       1.1563      -1.0593      -0.4582     214.9345       0.0005
     363.0    1442.7257       0.0000      50.8611     -67.3057       1.1795      -1.0882      -0.4551     214.9345       0.0005
     364.0    1443.7886       0.0000      50.8611     -66.7854       1.2285      -1.1284      -0.4844     214.9345       0.0005
     365.0    1439.7714       0.0000      50.8611     -64.2237       1.3296      -1.1974      -0.5777     214.9345       0.0005
     366.0    1439.7714       0.0000      50.8611     -58.2992       1.1695      -0.9985      -0.6039     214.9345       0.0005
     367.0    1442.7257       0.0000      50.8611     -71.9336       1.3540      -1.2859      -0.4173     214.9345       0.0005
     368.0    1447.6035       0.0000      50.8611     -94.1683       1.0123      -1.0047       0.0682     214.9345       0.0005
     369.0    1440.8298       0.0000      50.8611     -60.6425       1.3923      -1.2056      -0.6805     214.9345       0.0005
     370.0    1441.8927       0.0000      50.8611     -62.4290       1.2526      -1.1108      -0.5777     214.9345       0.0005
     371.0    1442.7257       0.0000      50.8611     -61.0896       1.3024      -1.1397      -0.6301     214.9345       0.0005
     372.0    1444.3643       0.0000      50.8611     -65.9341       1.3135      -1.1984      -0.5327     214.9345       0.0005
     373.0    1439.7714       0.0000      50.8611     -65.1723       1.2435      -1.1284      -0.5221     214.9345       0.0005
     374.0    1442.9598       0.0000      50.8611     -63.5290       1.2288      -1.0995      -0.5483     214.9345       0.0005
     375.0    1443.7886       0.0000      50.8611     -74.1312       1.2572      -1.2087      -0.3439     214.9345       0.0005
     376.0    1442.5168       0.0000      50.8611     -62.9989       1.1540      -1.0254      -0.5190     214.9345       0.0005
     377.0    1441.6673       0.0000      50.8611     -75.8553       1.4686      -1.4240      -0.3586     214.9345       0.0005
     378.0    1441.0718       0.0000      50.8611     -74.0850       1.2688      -1.2200      -0.3471     214.9345       0.0005
     379.0    1443.7886       0.0000      50.8611     -65.8511       1.2169      -1.1108      -0.4959     214.9345       0.0005
     380.0    1442.7257       0.0000      50.8611     -67.3316       1.2414      -1.1428      -0.4781     214.9345       0.0005
     381.0    1442.7257       0.0000      50.8611     -64.3936       1.1545      -1.0398      -0.4928     214.9345       0.0005
     382.0    1440.0047       0.0000      50.8611     -63.5735       1.2939      -1.1572      -0.5745     214.9345       0.0005
     383.0    1444.8557       0.0000      50.8611     -63.1869       1.1904      -1.0625      -0.5368     214.9345       0.0005
     384.0    1441.3607       0.0000      50.8611     -65.2195       1.1794      -1.0697      -0.4954     214.9345       0.0005
     385.0    1448.6707       0.0000      50.8611     -67.7935       1.2571      -1.1623      -0.4781     214.9345       0.0005
     386.0    1443.7886       0.0000      50.8611     -66.7855       1.2633      -1.1603      -0.4991     214.9345       0.0005
     387.0    1442.9598       0.0000      50.8611     -66.9350       1.1236      -1.0336      -0.4404     214.9345       0.0005
     388.0    1442.7257       0.0000      50.8611     -66.0820       1.2527      -1.1284      -0.5126     214.9345       0.0005
     389.0    1443.7886       0.0000      50.8611     -68.5957       1.2110      -1.0944      -0.4709     214.9345       0.0005
     390.0    1438.9418       0.0000      50.8611     -68.5182       1.2836      -1.1943      -0.4697     214.9345       0.0005
     391.0    1443.5709       0.0000      50.8611     -64.0993       1.2379      -1.1026      -0.5420     216.4805       0.6186
     392.0    1445.9272       0.0000      50.8611     -66.0992       1.2349      -1.1252      -0.5043     221.0848       0.8973
     393.0    1444.0313       0.0000      50.8611     -63.4341       1.2329      -1.1026      -0.5515     226.9887       1.0226
     394.0    1447.6035       0.0000      50.8611     -64.7378       1.2923      -1.1685      -0.5515     233.0866       1.0295
     395.0    1446.7593       0.0000      50.8611     -60.5592       1.3125      -1.1428      -0.6448     239.1933       1.0226
     396.0    1447.5625       0.0000      50.8611     -61.8731       1.1487      -1.0141      -0.5368     245.3083       1.0255
     397.0    1448.9068       0.0000      50.8611     -59.0201       1.2823      -1.0995      -0.6595     251.4233       1.0226
     398.0    1449.5230       0.0000      50.8611     -54.6904       1.2385      -1.0110      -0.7151     257.5251       1.0226
     399.0    1447.6035       0.0000      50.8611     -53.6960       1.3013      -1.0480      -0.7706     263.6146       1.0226
     400.0    1430.4078       0.0000      50.8611     -53.5491       1.2760      -1.0254      -0.7591     269.7041       1.0226
     401.0    1434.1304       0.0000      50.8611     -53.8945       1.1816      -0.9533      -0.6972     275.8059       1.0226
     402.0    1426.2170       0.0000      50.8611     -52.1447       1.2662      -1.0028      -0.7706     282.1692       1.0226
     403.0    1421.2684       0.0000      50.8611     -43.4415       1.2788      -0.8760      -0.9278     288.4156       1.0226
     404.0    1413.9427       0.0000      50.8611     -50.3547       1.2084      -0.9306      -0.7706     294.5213       1.0226
     405.0    1407.2624       0.0000      50.8611     -46.3518       1.1711      -0.8472      -0.8084     300.5966       1.0188
     406.0    1404.2375       0.0000      50.8611     -48.8763       1.1338      -0.8554      -0.7413     306.6984       1.0226
     407.0    1387.6099       0.0000      50.8611     -46.6555       1.2238      -0.8874      -0.8409     312.8002       1.0226
     408.0    1378.3522       0.0000      50.8611     -56.7438       1.3294      -1.1061      -0.7133     318.9020       1.0278
     409.0    1370.6140       0.0000      50.8611     -42.9742       1.0341      -0.7041      -0.7528     325.0170       1.0158
     410.0    1364.5500       0.0000      50.8611     -40.6624       1.0314      -0.6721      -0.7822     331.1065       1.0226
     411.0    1365.2913       0.0000      50.8611     -43.2973       1.0390      -0.7123      -0.7560     337.1960       1.0226
     412.0    1345.5494       0.0000      50.8611     -39.3517       0.9812      -0.6237      -0.7560     343.2978       1.0226
     413.0    1331.8820       0.0000      50.8611     -42.8724       0.9928      -0.6752      -0.7266     349.4127       1.0226
     414.0    1309.3575       0.0000      50.8611     -37.8400       0.9304      -0.5723      -0.7266     355.5145       1.0226
     415.0    1300.3574       0.0000      50.8611     -48.5621       0.9673      -0.7236      -0.6416       2.0244       1.0158
