~VERSION INFORMATION
VERS.           2.0   :CWLS Log ASCII Standard - VERSION 2.0
WRAP.           NO    :One Line per depth step
PROD.  Schlumberger   :LAS Producer
PROG.  DLIS to ASCII 19C2-270                          :LAS Program name and version
CREA.        2017/09/16 17:42                          :LAS Creation date {YYYY/MM/DD hh:mm}
DLIS_CREA.  2017-Sep-15 16:29                          :DLIS Creation date and time {YYYY-MMM-DD hh:mm}
SOURCE.     LPC_S3-1_2AV.DLIS                          :DLIS File Name
FILE-ID.     PERFO_Perfo_WPGRT_041LTP                  :File Identification Number
#--------------------------------------------------
~WELL INFORMATION
#MNEM.UNIT      DATA             DESCRIPTION
#---- ------ --------------   -----------------------------
STRT .S         3547.0       :START TIME      
STOP .S         3943.0       :STOP TIME      
STEP .S            1.0       :STEP     
NULL .          -999.25      :NULL VALUE
COMP .        SHELL INTERNATIONAL E P                  :COMPANY
WELL .        WPP TEST 2                               :WELL
FLD  .        WILDCAT                                  :FIELD
LOC  .                                                 :LOCATION
CNTY .        HARRIS                                   :COUNTY
STAT .        TEXAS                                    :STATE
CTRY .                                                 :COUNTRY
API  .                                                 :API NUMBER
UWI  .                                                 :UNIQUE WELL ID
DATE .                                                 :LOG DATE
SRVC .        Schlumberger                             :SERVICE COMPANY
LATI .DEG                                              :LATITUDE
LONG .DEG                                              :LONGITUDE
GDAT .                                                 :GeoDetic Datum
#-----------------------------------------------------------------------------
~PARAMETER INFORMATION
#MNEM.UNIT    VALUE                      DESCRIPTION
#---- -----   --------------------       ------------------------
U-PHASE_B_COMP_PER_YT.                 0 :Phase B Comparator Period Yt
U-PHASE_A_COMP_PER_XT.                 0 :Phase A Comparator Period Xt
U-MAX_EXC_CUR_LIMIT.MA       240.00000   :Requested CM Current Limit
U-REQ_EXC_FQ.HZ              50          :Requested CM Frequency
U-TILT_Y_OFFSET.           0.19916       :WPTET Tilt Y Offset
U-TILT_Y_GAIN.           1.01796         :WPTET Tilt Y Gain
U-TILT_X_OFFSET.          -1.77103       :WPTET Tilt X Offset
U-TILT_X_GAIN.           1.00000         :WPTET Tilt X Gain
U-TILT_OFFSET_TOL.           0.00100     :WPTET Tilt Offset Calibration Tolerance
U-NO_TILT_CAL_ROTATIONS.                 3 :Number of Rotations for Tilt Calibration
HAZI .DEG        0.00000                 :Hole Azimuth
U-STD_TOL_TILT.           0.01000        :Tilt Standard Deviation Tolerance
U-GUN_POS_TOL.DEG        5.00000         :Gun Position Tolerance
ROT_ANGLE_THRESHOLD.DEG        5.00000   :Rotation Stop Angle Tolerance
STOP_ROT_ANGLE.DEG        0.00000        :Rotation Stop Angle
WITN .                                   :Witness's Name
ENGI .                                   :Engineer's Name
COUN .        HARRIS                     :County or Rig Name
FN   .        WILDCAT                    :Field Name
WN   .        WPP TEST 2                 :Well Name
CN   .        SHELL INTERNATIONAL E P    :Company Name
CLAB .        County                     :County/Rig Label
SLAB .        State                      :State/Province Label
RUN  .          1                        :RUN NUMBER
PDAT .        GROUND LEVEL               :Permanent Datum
EPD  .                                   :Elevation of Permanent Datum above Mean Sea Level
LMF  .                                   :Logging Measured From (Name of Logging Elevation Reference)
APD  .                                   :Elevation of Depth Reference (LMF) above Permanent Datum
#-----------------------------------------------------------------------------
~CURVE INFORMATION
#MNEM.UNIT   API CODE                                  DESCRIPTION
#---- -----  --------                                  -----------------------
TIME .S                                                :TIME {F10.1}
FREQ_EMF_SL.HZ                                         :Electromagnetic Field Frequency {F13.4}
PH_SH_WPPCM_SL.DEG                                     :WPPCM Phase Shift {F13.4}
FREQ_EXC_REQ_SL.HZ                                     :Requested Exciter Frequency {F13.4}
RB_SL.DEG                                              :Relative Bearing {F13.4}
SDEV_SL.DEG                                            :Sonde Deviation {F13.4}
TILX_SL.DEG                                            :X-axis Tilt {F13.4}
TILY_SL.DEG                                            :Y-axis Tilt {F13.4}
ROTA_SL.DEG                                            :Motor Rotation Angle {F13.4}
MSPE_SL.RPM                                            :Motor Speed {F13.4}
#-----------------------------------------------------------------------------
# 
#     TIME    FREQ_EMF_SL  PH_SH_WPPCM_ FREQ_EXC_REQ    RB_SL       SDEV_SL      TILX_SL      TILY_SL      ROTA_SL      MSPE_SL
#                          SL           _SL
~A  
# ...
    3799.0    1377.0240       0.0000      50.8611     -60.7465       0.9185      -0.8005      -0.4459      60.0069       1.0226
    3800.0    1380.7798       0.0000      50.8611     -62.1744       0.9405      -0.8316      -0.4392      66.1217       1.0226
    3801.0    1388.5130       0.0000      50.8611     -59.5604       0.8997      -0.7759      -0.4551      72.2254       1.0226
    3802.0    1391.8905       0.0000      50.8611     -66.6677       0.8656      -0.7890      -0.3349      78.3272       1.0226
    3803.0    1386.2243       0.0000      50.8611     -71.0122       0.9482      -0.8964      -0.3073      84.4290       1.0226
    3804.0    1392.6866       0.0000      50.8611     -62.3144       0.9427      -0.8329      -0.4405      90.5307       1.0226
    3805.0    1398.9419       0.0000      50.8611     -53.0819       1.1484      -0.9225      -0.6820      96.6457       1.0226
    3806.0    1406.2500       0.0000      50.8611     -67.3041       0.9894      -0.9120      -0.3825     102.7400       1.0185
    3807.0    1405.1623       0.0000      50.8611     -71.1010       1.0844      -1.0259      -0.3482     108.8451       1.0268
    3808.0    1401.9252       0.0000      50.8611     -65.3793       1.1326      -1.0300      -0.4709     114.9519       1.0226
    3809.0    1409.7091       0.0000      50.8611     -62.6413       1.0446      -0.9275      -0.4801     121.0618       1.0292
    3810.0    1413.6376       0.0000      50.8611     -63.9470       0.9430      -0.8472      -0.4142     127.4194       1.0268
    3811.0    1409.0682       0.0000      50.8611     -66.2816       1.1465      -1.0480      -0.4617     133.6943       1.0226
    3812.0    1410.1646       0.0000      50.8611     -68.1103       1.0528      -0.9742      -0.3958     139.7925       1.0226
    3813.0    1410.1646       0.0000      50.8611     -65.4025       0.9228      -0.8382      -0.3825     145.8962       1.0226
    3814.0    1414.1037       0.0000      50.8611     -65.4708       1.1351      -1.0325      -0.4709     152.0094       1.0268
    3815.0    1418.8999       0.0000      50.8611     -62.7064       1.1168      -0.9923      -0.5118     158.1132       1.0226
    3816.0    1408.4087       0.0000      50.8611     -66.4886       1.1088      -1.0140      -0.4429     164.2151       1.0226
    3817.0    1416.9534       0.0000      50.8611     -63.9733       1.1315      -1.0169      -0.4959     170.3046       1.0226
    3818.0    1416.9534       0.0000      50.8611     -58.4145       1.1918      -1.0144      -0.6252     176.4146       1.0203
    3819.0    1417.1387       0.0000      50.8611     -64.4207       1.0903      -0.9833      -0.4709     182.5100       1.0226
    3820.0    1408.6215       0.0000      50.8611     -65.4970       1.1002      -1.0013      -0.4551     188.6249       1.0226
    3821.0    1404.5308       0.0000      50.8611     -57.1748       1.2781      -1.0726      -0.6937     194.7144       1.0185
    3822.0    1403.9105       0.0000      50.8611     -59.4878       1.2373      -1.0661      -0.6278     201.0644       1.0226
    3823.0    1397.8628       0.0000      50.8611     -57.8160       1.1911      -1.0079      -0.6344     207.3120       1.0226
    3824.0    1391.2605       0.0000      50.8611     -59.7680       1.1449      -0.9858      -0.5803     213.4139       1.0226
    3825.0    1383.4966       0.0000      50.8611     -52.9429       1.1623      -0.9275      -0.7004     219.5158       1.0226
    3826.0    1387.7702       0.0000      50.8611     -49.3000       1.2237      -0.9275      -0.7980     225.6128       1.0203
    3827.0    1379.2900       0.0000      50.8611     -59.9487       1.0945      -0.9456      -0.5435     231.7099       1.0226
    3828.0    1376.7959       0.0000      50.8611     -56.5026       1.1273      -0.9402      -0.6219     237.8198       1.0268
    3829.0    1370.1911       0.0000      50.8611     -54.5858       1.1381      -0.9275      -0.6595     243.9145       1.0226
    3830.0    1367.5262       0.0000      50.8611     -55.0868       1.0910      -0.8939      -0.6252     250.0164       1.0226
    3831.0    1363.0856       0.0000      50.8611     -48.5894       1.0972      -0.8226      -0.7254     256.1107       1.0161
    3832.0    1355.2039       0.0000      50.8611     -53.9895       1.0549      -0.8537      -0.6186     262.2002       1.0185
    3833.0    1352.1635       0.0000      50.8611     -44.4376       1.0946      -0.7643      -0.7755     268.2972       1.0226
    3834.0    1350.1559       0.0000      50.8611     -54.5106       1.1092      -0.9029      -0.6436     274.3990       1.0226
    3835.0    1337.7263       0.0000      50.8611     -42.9202       0.9411      -0.6514      -0.6687     280.9089       1.0226
    3836.0    1337.7263       0.0000      50.8611     -54.9982       1.1333      -0.9275      -0.6503     287.0088       1.0226
    3837.0    1328.1870       0.0000      50.8611     -55.3796       1.0511      -0.8653      -0.5936     293.1106       1.0226
    3838.0    1325.6828       0.0000      50.8611     -53.5187       1.0680      -0.8562      -0.6370     299.2150       1.0226
    3839.0    1321.6636       0.0000      50.8611     -45.6096       1.0861      -0.7709      -0.7438     305.3168       1.0226
    3840.0    1315.2060       0.0000      50.8611     -52.1619       1.0230      -0.8070      -0.6278     311.4186       1.0226
    3841.0    1319.7454       0.0000      50.8611     -52.9927       1.0422      -0.8316      -0.6278     317.5204       1.0226
    3842.0    1320.3162       0.0000      50.8611     -48.1703       0.8798      -0.6554      -0.5869     323.6222       1.0226
    3843.0    1316.1633       0.0000      50.8611     -50.0991       1.0431      -0.8005      -0.6687     329.7372       1.0226
    3844.0    1317.6708       0.0000      50.8611     -51.9762       0.8715      -0.6865      -0.5368     335.8390       1.0226
    3845.0    1326.6509       0.0000      50.8611     -48.0137       1.0000      -0.7423      -0.6687     341.9463       1.0185
    3846.0    1319.7454       0.0000      50.8611     -42.6944       1.1320      -0.7669      -0.8322     348.0706       1.0226
    3847.0    1326.5226       0.0000      50.8611     -47.8299       0.9685      -0.7177      -0.6503     354.5792       1.0226
    3848.0    1332.0964       0.0000      50.8611     -49.1673       0.9077      -0.6865      -0.5936     140.1686       1.0226
    3849.0    1340.8512       0.0000      50.8611     -50.9197       0.8653      -0.6710      -0.5460       6.7967       1.0226
    3850.0    1340.8512       0.0000      50.8611     -51.5174       0.9705      -0.7603      -0.6028      12.8862       1.0226
    3851.0    1348.5663       0.0000      50.8611     -55.4446       0.9520      -0.7849      -0.5368      19.0012       1.0226
    3852.0    1347.9846       0.0000      50.8611     -54.7978       0.8661      -0.7086      -0.4959      25.1030       1.0226
    3853.0    1353.1730       0.0000      50.8611     -54.5376       0.9142      -0.7423      -0.5302      31.2180       1.0226
    3854.0    1359.4229       0.0000      50.8611     -56.3847       0.9989      -0.8316      -0.5527      37.3330       1.0226
    3855.0    1364.2660       0.0000      50.8611     -51.9021       0.9453      -0.7423      -0.5844      43.4403       1.0161
    3856.0    1369.5807       0.0000      50.8611     -58.6741       0.9716      -0.8226      -0.5092      49.5373       1.0161
    3857.0    1378.6765       0.0000      50.8611     -63.3362       0.7960      -0.7111      -0.3574      55.6398       1.0226
    3858.0    1380.3355       0.0000      50.8611     -69.6616       0.7718      -0.7242      -0.2665      61.7548       1.0226
    3859.0    1383.6732       0.0000      50.8611     -57.9450       0.8574      -0.7267      -0.4551      68.2654       1.0185
    3860.0    1385.3519       0.0000      50.8611     -55.2785       0.9707      -0.7980      -0.5527      74.3803       1.0226
    3861.0    1392.9525       0.0000      50.8611     -68.3412       0.9043      -0.8407      -0.3324      80.4820       1.0226
