~VERSION INFORMATION
VERS.           2.0   :CWLS Log ASCII Standard - VERSION 2.0
WRAP.           NO    :One Line per depth step
PROD.  Schlumberger   :LAS Producer
PROG.  DLIS to ASCII 19C2-270                          :LAS Program name and version
CREA.        2017/09/16 17:42                          :LAS Creation date {YYYY/MM/DD hh:mm}
DLIS_CREA.  2017-Sep-15 13:29                          :DLIS Creation date and time {YYYY-MMM-DD hh:mm}
SOURCE.     LPC_S1-1_2A5.DLIS                          :DLIS File Name
FILE-ID.     PERFO_Perfo_WPGRT_025LTP                  :File Identification Number
#--------------------------------------------------
~WELL INFORMATION
#MNEM.UNIT      DATA             DESCRIPTION
#---- ------ --------------   -----------------------------
STRT .S         9747.0       :START TIME      
STOP .S        10374.0       :STOP TIME      
STEP .S            1.0       :STEP     
NULL .          -999.25      :NULL VALUE
COMP .        SHELL INTERNATIONAL E P                  :COMPANY
WELL .        WPP TEST 2                               :WELL
FLD  .        WILDCAT                                  :FIELD
LOC  .                                                 :LOCATION
CNTY .        HARRIS                                   :COUNTY
STAT .        TEXAS                                    :STATE
CTRY .                                                 :COUNTRY
API  .                                                 :API NUMBER
UWI  .                                                 :UNIQUE WELL ID
DATE .                                                 :LOG DATE
SRVC .        Schlumberger                             :SERVICE COMPANY
LATI .DEG                                              :LATITUDE
LONG .DEG                                              :LONGITUDE
GDAT .                                                 :GeoDetic Datum
#-----------------------------------------------------------------------------
~PARAMETER INFORMATION
#MNEM.UNIT    VALUE                      DESCRIPTION
#---- -----   --------------------       ------------------------
U-PHASE_B_COMP_PER_YT.                 0 :Phase B Comparator Period Yt
U-PHASE_A_COMP_PER_XT.                 0 :Phase A Comparator Period Xt
U-MAX_EXC_CUR_LIMIT.MA       240.00000   :Requested CM Current Limit
U-REQ_EXC_FQ.HZ              40          :Requested CM Frequency
U-TILT_Y_OFFSET.           0.19916       :WPTET Tilt Y Offset
U-TILT_Y_GAIN.           1.01796         :WPTET Tilt Y Gain
U-TILT_X_OFFSET.          -1.77103       :WPTET Tilt X Offset
U-TILT_X_GAIN.           1.00000         :WPTET Tilt X Gain
U-TILT_OFFSET_TOL.           0.00100     :WPTET Tilt Offset Calibration Tolerance
U-NO_TILT_CAL_ROTATIONS.                 3 :Number of Rotations for Tilt Calibration
HAZI .DEG        0.00000                 :Hole Azimuth
U-STD_TOL_TILT.           0.01000        :Tilt Standard Deviation Tolerance
U-GUN_POS_TOL.DEG        5.00000         :Gun Position Tolerance
ROT_ANGLE_THRESHOLD.DEG        5.00000   :Rotation Stop Angle Tolerance
STOP_ROT_ANGLE.DEG       80.00000        :Rotation Stop Angle
WITN .                                   :Witness's Name
ENGI .                                   :Engineer's Name
COUN .        HARRIS                     :County or Rig Name
FN   .        WILDCAT                    :Field Name
WN   .        WPP TEST 2                 :Well Name
CN   .        SHELL INTERNATIONAL E P    :Company Name
CLAB .        County                     :County/Rig Label
SLAB .        State                      :State/Province Label
RUN  .          1                        :RUN NUMBER
PDAT .        GROUND LEVEL               :Permanent Datum
EPD  .                                   :Elevation of Permanent Datum above Mean Sea Level
LMF  .                                   :Logging Measured From (Name of Logging Elevation Reference)
APD  .                                   :Elevation of Depth Reference (LMF) above Permanent Datum
#-----------------------------------------------------------------------------
~CURVE INFORMATION
#MNEM.UNIT   API CODE                                  DESCRIPTION
#---- -----  --------                                  -----------------------
TIME .S                                                :TIME {F10.1}
FREQ_EMF_SL.HZ                                         :Electromagnetic Field Frequency {F13.4}
PH_SH_WPPCM_SL.DEG                                     :WPPCM Phase Shift {F13.4}
FREQ_EXC_REQ_SL.HZ                                     :Requested Exciter Frequency {F13.4}
RB_SL.DEG                                              :Relative Bearing {F13.4}
SDEV_SL.DEG                                            :Sonde Deviation {F13.4}
TILX_SL.DEG                                            :X-axis Tilt {F13.4}
TILY_SL.DEG                                            :Y-axis Tilt {F13.4}
ROTA_SL.DEG                                            :Motor Rotation Angle {F13.4}
MSPE_SL.RPM                                            :Motor Speed {F13.4}
#-----------------------------------------------------------------------------
# 
#     TIME    FREQ_EMF_SL  PH_SH_WPPCM_ FREQ_EXC_REQ    RB_SL       SDEV_SL      TILX_SL      TILY_SL      ROTA_SL      MSPE_SL
#                          SL           _SL
~A  
# ...
    9873.0    1486.5221       0.0000      40.6889     -65.4869       5.1273      -4.6630      -2.1253     137.0619       1.0226
    9874.0    1477.6591       0.0000      40.6889     -60.3184       5.1585      -4.4795      -2.5518     143.1634       1.0226
    9875.0    1478.9259       0.0000      40.6889     -55.0293       5.1495      -4.2156      -2.9488     149.2665       1.0226
    9876.0    1470.9729       0.0000      40.6889     -50.5044       5.1831      -3.9975      -3.2939     155.3689       1.0226
    9877.0    1465.2773       0.0000      40.6889     -45.3438       5.0984      -3.6247      -3.5801     161.4605       1.0226
    9878.0    1464.8438       0.0000      40.6889     -36.4900       4.6232      -2.7463      -3.7146     167.5724       1.0226
    9879.0    1448.0419       0.0000      40.6889     -36.3633       4.9558      -2.9359      -3.9890     173.6755       1.0181
    9880.0    1454.8855       0.0000      40.6889     -31.9181       5.0582      -2.6788      -4.2752     179.7935       1.0226
    9881.0    1448.0419       0.0000      40.6889     -27.3560       4.9198      -2.2586      -4.3684     186.3261       1.0272
    9882.0    1445.4819       0.0000      40.6889     -21.1912       4.9053      -1.7710      -4.5729     192.4284       1.0226
    9883.0    1444.6621       0.0000      40.6889     -16.9463       4.8238      -1.4039      -4.6138     198.5438       1.0226
    9884.0    1437.4777       0.0000      40.6889     -11.4939       4.8046      -0.9564      -4.7074     204.6452       1.0226
    9885.0    1439.1504       0.0000      40.6889      -5.3895       4.6177      -0.4343      -4.5966     210.7397       1.0166
    9886.0    1434.9490       0.0000      40.6889      -0.3950       4.6849      -0.0326      -4.6841     216.8403       1.0226
    9887.0    1433.6923       0.0000      40.6889       4.3685       4.4751       0.3405      -4.4621     222.9391       1.0226
    9888.0    1433.2832       0.0000      40.6889       8.1225       4.4969       0.6329      -4.4506     229.0432       1.0226
    9889.0    1432.0265       0.0000      40.6889      15.2375       4.2448       1.1149      -4.0941     235.1297       1.0181
    9890.0    1436.6216       0.0000      40.6889      22.5835       4.2079       1.6142      -3.8839     241.2321       1.0226
    9891.0    1437.8834       0.0000      40.6889      26.7705       4.1088       1.8496      -3.6676     247.3370       1.0226
    9892.0    1436.6216       0.0000      40.6889      32.7702       3.9395       2.1308      -3.3115     253.4385       1.0226
    9893.0    1441.2494       0.0000      40.6889      39.5765       3.8506       2.4521      -2.9668     259.9456       1.0226
    9894.0    1442.1021       0.0000      40.6889      44.9533       3.7567       2.6529      -2.6573     266.0407       1.0166
    9895.0    1442.1021       0.0000      40.6889      51.7016       3.6009       2.8252      -2.2308     272.1271       1.0287
    9896.0    1443.7886       0.0000      40.6889      58.0464       3.4112       2.8939      -1.8044     278.2422       1.0226
    9897.0    1453.1640       0.0000      40.6889      64.4003       3.3500       3.0201      -1.4478     284.3408       1.0226
    9898.0    1448.9300       0.0000      40.6889      72.7925       3.2405       3.0948      -0.9576     290.4437       1.0226
    9899.0    1452.7377       0.0000      40.6889      81.9839       3.2298       3.1980      -0.4493     296.5450       1.0226
    9900.0    1451.0302       0.0000      40.6889      93.7842       3.6602       3.6523       0.2400     302.6462       1.0166
    9901.0    1462.2301       0.0000      40.6889      97.7106       3.0540       3.0261       0.4093     308.7394       1.0226
    9902.0    1463.1079       0.0000      40.6889     104.9954       3.0735       2.9686       0.7949     314.8406       1.0226
    9903.0    1468.3374       0.0000      40.6889     110.2647       3.1894       2.9915       1.1044     320.9294       1.0226
    9904.0    1474.0566       0.0000      40.6889     122.2866       2.9646       2.5039       1.5832     327.0280       1.0287
    9905.0    1475.8217       0.0000      40.6889     131.0291       3.0631       2.3083       2.0044     333.5518       1.0287
    9906.0    1483.3861       0.0000      40.6889     137.3889       3.0973       2.0966       2.2787     339.6565       1.0226
    9907.0    1481.6060       0.0000      40.6889     145.0660       3.1302       1.7926       2.5649     345.7551       1.0226
    9908.0    1485.1736       0.0000      40.6889     152.4850       3.2480       1.4997       2.8802     351.8702       1.0334
    9909.0    1489.6716       0.0000      40.6889     159.7533       3.2259       1.1154       3.0262     357.9856       1.0226
    9910.0    1492.3974       0.0000      40.6889     167.5452       3.3987       0.7310       3.3181       4.0896       1.0226
    9911.0    1499.6547       0.0000      40.6889     175.4654       3.4403       0.2719       3.4293      10.2014       1.0334
    9912.0    1503.3506       0.0000      40.6889    -177.9189       3.5897      -0.1298       3.5871      16.3169       1.0226
    9913.0    1506.0792       0.0000      40.6889    -172.7275       3.6172      -0.4568       3.5871      22.4292       1.0272
    9914.0    1505.6210       0.0000      40.6889    -164.9679       3.7570      -0.9733       3.6280      28.5312       1.0272
    9915.0    1501.0264       0.0000      40.6889    -158.5748       3.8425      -1.4035       3.5753      34.6391       1.0226
    9916.0    1512.5590       0.0000      40.6889    -153.4880       3.9700      -1.7710       3.5520      40.7378       1.0287
    9917.0    1508.4056       0.0000      40.6889    -146.5369       4.0358      -2.2241       3.3651      47.2609       1.0226
    9918.0    1510.7015       0.0000      40.6889    -141.8975       4.0997      -2.5286       3.2249      53.3500       1.0226
    9919.0    1515.3556       0.0000      40.6889    -134.7089       4.2299      -3.0045       2.9738      59.4522       1.0226
    9920.0    1516.3189       0.0000      40.6889    -129.8344       4.3258      -3.3203       2.7694      65.5619       1.0287
    9921.0    1512.0968       0.0000      40.6889    -123.0266       4.4199      -3.7046       2.4071      71.6715       1.0226
    9922.0    1512.0968       0.0000      40.6889    -117.9290       4.5068      -3.9802       2.1094      77.7580       1.0226
    9923.0    1513.0559       0.0000      40.6889    -112.9350       4.6528      -4.2843       1.8114      83.8602       1.0226
    9924.0    1512.0968       0.0000      40.6889    -108.0594       4.7006      -4.4678       1.4552      89.9650       1.0226
    9925.0    1512.0968       0.0000      40.6889    -102.3162       4.7441      -4.6345       1.0112      96.0672       1.0226
    9926.0    1510.2472       0.0000      40.6889     -97.4872       4.8074      -4.7663       0.6256     102.1694       1.0226
    9927.0    1512.5590       0.0000      40.6889     -91.7306       4.8668      -4.8639       0.1468     108.2716       1.0226
    9928.0    1507.0103       0.0000      40.6889     -87.3115       4.9726      -4.9671      -0.2330     114.3805       1.0272
    9929.0    1504.7018       0.0000      40.6889     -81.0728       5.0060      -4.9442      -0.7760     120.8801       1.0226
    9930.0    1497.3822       0.0000      40.6889     -76.0165       5.0085      -4.8582      -1.2082     126.9829       1.0226
    9931.0    1487.8764       0.0000      40.6889     -71.8200       5.0238      -4.7723      -1.5648     133.0852       1.0226
    9932.0    1485.1736       0.0000      40.6889     -66.1526       5.0618      -4.6285      -2.0440     139.1823       1.0166
    9933.0    1487.8764       0.0000      40.6889     -62.1002       5.0713      -4.4795      -2.3707     145.2891       1.0272
    9934.0    1471.8800       0.0000      40.6889     -57.8132       5.2467      -4.4389      -2.7914     151.3914       1.0226
    9935.0    1478.9259       0.0000      40.6889     -50.9163       5.1081      -3.9629      -3.2179     157.4841       1.0226
