~VERSION INFORMATION
VERS.           2.0   :CWLS Log ASCII Standard - VERSION 2.0
WRAP.           NO    :One Line per depth step
PROD.  Schlumberger   :LAS Producer
PROG.  DLIS to ASCII 19C2-270                          :LAS Program name and version
CREA.        2017/09/16 17:42                          :LAS Creation date {YYYY/MM/DD hh:mm}
DLIS_CREA.  2017-Sep-15 13:07                          :DLIS Creation date and time {YYYY-MMM-DD hh:mm}
SOURCE.     LPC_S1-1_2AV.DLIS                          :DLIS File Name
FILE-ID.     PERFO_Perfo_WPGRT_022LTP                  :File Identification Number
#--------------------------------------------------
~WELL INFORMATION
#MNEM.UNIT      DATA             DESCRIPTION
#---- ------ --------------   -----------------------------
STRT .S         8392.0       :START TIME      
STOP .S         9264.0       :STOP TIME      
STEP .S            1.0       :STEP     
NULL .          -999.25      :NULL VALUE
COMP .        SHELL INTERNATIONAL E P                  :COMPANY
WELL .        WPP TEST 2                               :WELL
FLD  .        WILDCAT                                  :FIELD
LOC  .                                                 :LOCATION
CNTY .        HARRIS                                   :COUNTY
STAT .        TEXAS                                    :STATE
CTRY .                                                 :COUNTRY
API  .                                                 :API NUMBER
UWI  .                                                 :UNIQUE WELL ID
DATE .                                                 :LOG DATE
SRVC .        Schlumberger                             :SERVICE COMPANY
LATI .DEG                                              :LATITUDE
LONG .DEG                                              :LONGITUDE
GDAT .                                                 :GeoDetic Datum
#-----------------------------------------------------------------------------
~PARAMETER INFORMATION
#MNEM.UNIT    VALUE                      DESCRIPTION
#---- -----   --------------------       ------------------------
U-PHASE_B_COMP_PER_YT.                 0 :Phase B Comparator Period Yt
U-PHASE_A_COMP_PER_XT.                 0 :Phase A Comparator Period Xt
U-MAX_EXC_CUR_LIMIT.MA       240.00000   :Requested CM Current Limit
U-REQ_EXC_FQ.HZ              50          :Requested CM Frequency
U-TILT_Y_OFFSET.           0.19916       :WPTET Tilt Y Offset
U-TILT_Y_GAIN.           1.01796         :WPTET Tilt Y Gain
U-TILT_X_OFFSET.          -1.77103       :WPTET Tilt X Offset
U-TILT_X_GAIN.           1.00000         :WPTET Tilt X Gain
U-TILT_OFFSET_TOL.           0.00100     :WPTET Tilt Offset Calibration Tolerance
U-NO_TILT_CAL_ROTATIONS.                 3 :Number of Rotations for Tilt Calibration
HAZI .DEG        0.00000                 :Hole Azimuth
U-STD_TOL_TILT.           0.01000        :Tilt Standard Deviation Tolerance
U-GUN_POS_TOL.DEG        5.00000         :Gun Position Tolerance
ROT_ANGLE_THRESHOLD.DEG        5.00000   :Rotation Stop Angle Tolerance
STOP_ROT_ANGLE.DEG       80.00000        :Rotation Stop Angle
WITN .                                   :Witness's Name
ENGI .                                   :Engineer's Name
COUN .        HARRIS                     :County or Rig Name
FN   .        WILDCAT                    :Field Name
WN   .        WPP TEST 2                 :Well Name
CN   .        SHELL INTERNATIONAL E P    :Company Name
CLAB .        County                     :County/Rig Label
SLAB .        State                      :State/Province Label
RUN  .          1                        :RUN NUMBER
PDAT .        GROUND LEVEL               :Permanent Datum
EPD  .                                   :Elevation of Permanent Datum above Mean Sea Level
LMF  .                                   :Logging Measured From (Name of Logging Elevation Reference)
APD  .                                   :Elevation of Depth Reference (LMF) above Permanent Datum
#-----------------------------------------------------------------------------
~CURVE INFORMATION
#MNEM.UNIT   API CODE                                  DESCRIPTION
#---- -----  --------                                  -----------------------
TIME .S                                                :TIME {F10.1}
FREQ_EMF_SL.HZ                                         :Electromagnetic Field Frequency {F13.4}
PH_SH_WPPCM_SL.DEG                                     :WPPCM Phase Shift {F13.4}
FREQ_EXC_REQ_SL.HZ                                     :Requested Exciter Frequency {F13.4}
RB_SL.DEG                                              :Relative Bearing {F13.4}
SDEV_SL.DEG                                            :Sonde Deviation {F13.4}
TILX_SL.DEG                                            :X-axis Tilt {F13.4}
TILY_SL.DEG                                            :Y-axis Tilt {F13.4}
ROTA_SL.DEG                                            :Motor Rotation Angle {F13.4}
MSPE_SL.RPM                                            :Motor Speed {F13.4}
#-----------------------------------------------------------------------------
# 
#     TIME    FREQ_EMF_SL  PH_SH_WPPCM_ FREQ_EXC_REQ    RB_SL       SDEV_SL      TILX_SL      TILY_SL      ROTA_SL      MSPE_SL
#                          SL           _SL
~A  
    8392.0    1337.9921       0.0000      50.8611     -57.7310       1.1126      -0.9404      -0.5916     222.2094       1.0226
    8393.0    1342.7156       0.0000      50.8611     -63.5421       1.0811      -0.9669      -0.4759     228.3010       1.0208
    8394.0    1341.8416       0.0000      50.8611     -58.2612       1.1138      -0.9472      -0.5847     234.4060       1.0226
    8395.0    1342.7156       0.0000      50.8611     -46.3850       1.0142      -0.7275      -0.6926     240.5059       1.0226
    8396.0    1347.4223       0.0000      50.8611     -47.2137       1.0344      -0.7540      -0.6996     246.5924       1.0208
    8397.0    1354.7688       0.0000      50.8611     -46.3177       1.0143      -0.7335      -0.7004     252.7094       1.0226
    8398.0    1355.6159       0.0000      50.8611     -52.6224       0.9741      -0.7737      -0.5916     258.8143       1.0226
    8399.0    1359.5634       0.0000      50.8611     -55.2950       1.0941      -0.9243      -0.5299     264.9139       1.0226
    8400.0    1361.8125       0.0000      50.8611     -55.5893       1.0103      -0.8335      -0.5708     271.0176       1.0226
    8401.0    1366.1961       0.0000      50.8611     -53.6911       0.9186      -0.7403      -0.5438     277.1346       1.0226
    8402.0    1371.0332       0.0000      50.8611     -51.6265       0.8759      -0.6865      -0.5438     283.2473       1.0226
    8403.0    1370.1607       0.0000      50.8611     -54.7579       0.9306      -0.7600      -0.5368     289.7519       1.0226
    8404.0    1369.3128       0.0000      50.8611     -50.5674       0.7762      -0.6002      -0.4890     295.8606       1.0226
    8405.0    1378.2179       0.0000      50.8611     -52.2700       0.9635      -0.7600      -0.5908     301.9603       1.0138
    8406.0    1382.7230       0.0000      50.8611     -51.5383       0.8679      -0.6805      -0.5368     308.0607       1.0226
    8407.0    1383.1816       0.0000      50.8611     -57.1082       0.9133      -0.7669      -0.4959     314.1644       1.0226
    8408.0    1382.7773       0.0000      50.8611     -55.3636       0.9322      -0.7669      -0.5299     320.2528       1.0208
    8409.0    1386.8344       0.0000      50.8611     -56.5718       0.8389      -0.7002      -0.4620     326.3555       1.0226
    8410.0    1389.5751       0.0000      50.8611     -59.1640       0.9012      -0.7737      -0.4620     332.4450       1.0297
    8411.0    1391.8590       0.0000      50.8611     -60.5015       0.8825      -0.7669      -0.4350     338.5596       1.0226
    8412.0    1388.6451       0.0000      50.8611     -56.6482       0.9267      -0.7737      -0.5098     344.6633       1.0226
    8413.0    1395.0892       0.0000      50.8611     -60.1487       0.8458      -0.7335      -0.4211     350.7630       1.0226
    8414.0    1390.0429       0.0000      50.8611     -56.6084       0.8073      -0.6737      -0.4411     356.8759       1.0226
    8415.0    1392.7964       0.0000      50.8611     -56.9824       0.9228      -0.7737      -0.5029       3.3846       1.0226
    8416.0    1395.0892       0.0000      50.8611     -65.6878       0.7901      -0.7199      -0.3254       9.4793       1.0138
    8417.0    1402.9679       0.0000      50.8611     -61.4325       1.0246      -0.9002      -0.4890      15.5901       1.0226
    8418.0    1389.1092       0.0000      50.8611     -64.6142       0.9670      -0.8737      -0.4142      21.6888       1.0226
    8419.0    1388.6451       0.0000      50.8611     -63.8651       0.9292      -0.8343      -0.4072      27.7802       1.0226
    8420.0    1389.5751       0.0000      50.8611     -61.0082       0.9632      -0.8404      -0.4681      33.8840       1.0226
    8421.0    1388.1828       0.0000      50.8611     -62.2347       0.9045      -0.8002      -0.4211      39.9849       1.0226
    8422.0    1372.4451       0.0000      50.8611     -54.6762       1.1285      -0.9207      -0.6525      46.0887       1.0226
    8423.0    1380.0633       0.0000      50.8611     -67.2990       0.8667      -0.7942      -0.3402      52.2056       1.0226
    8424.0    1380.4659       0.0000      50.8611     -65.6905       1.1926      -1.0874      -0.4890      58.3053       1.0226
    8425.0    1373.2638       0.0000      50.8611     -65.7744       1.0096      -0.9207      -0.4142      64.4051       1.0226
    8426.0    1366.6512       0.0000      50.8611     -62.9222       1.0430      -0.9275      -0.4751      70.5140       1.0138
    8427.0    1366.6512       0.0000      50.8611     -69.8225       1.0249      -0.9609      -0.3532      76.9953       1.0226
    8428.0    1367.0461       0.0000      50.8611     -59.6718       1.0518      -0.9078      -0.5299      83.1070       1.0226
    8429.0    1363.9471       0.0000      50.8611     -60.1574       0.9548      -0.8275      -0.4759      89.2041       1.0297
    8430.0    1353.9454       0.0000      50.8611     -59.5106       1.0303      -0.8874      -0.5229      95.3348       1.0244
    8431.0    1340.5943       0.0000      50.8611     -58.5345       1.0161      -0.8669      -0.5299     101.4317       1.0208
    8432.0    1352.1635       0.0000      50.8611     -61.1306       1.0973      -0.9609      -0.5299     107.5294       1.0226
    8433.0    1341.8416       0.0000      50.8611     -60.9958       1.0379      -0.9078      -0.5029     113.6332       1.0226
    8434.0    1337.1725       0.0000      50.8611     -57.5929       0.8535      -0.7215      -0.4559     119.7370       1.0226
    8435.0    1332.1057       0.0000      50.8611     -55.9169       1.0311      -0.8540      -0.5777     125.8368       1.0226
    8436.0    1334.2030       0.0000      50.8611     -61.1845       1.1431      -1.0010      -0.5507     131.9352       1.0244
    8437.0    1324.1526       0.0000      50.8611     -60.6341       1.1491      -1.0010      -0.5638     138.0290       1.0226
    8438.0    1333.3455       0.0000      50.8611     -58.2089       1.0833      -0.9207      -0.5708     144.1330       1.0226
    8439.0    1325.3815       0.0000      50.8611     -59.9834       1.1024      -0.9540      -0.5507     150.6265       1.0226
    8440.0    1332.1057       0.0000      50.8611     -56.5342       1.0723      -0.8942      -0.5916     156.7254       1.0226
    8441.0    1324.1526       0.0000      50.8611     -54.0648       1.1129      -0.9010      -0.6525     162.8293       1.0226
    8442.0    1333.3455       0.0000      50.8611     -56.7251       1.1413      -0.9540      -0.6256     168.9343       1.0226
    8443.0    1331.6761       0.0000      50.8611     -52.6430       1.0993      -0.8737      -0.6664     175.0450       1.0315
    8444.0    1336.5238       0.0000      50.8611     -54.8961       1.0529      -0.8608      -0.6047     180.7462       1.0226
    8445.0    1327.5052       0.0000      50.8611     -52.5233       1.0846      -0.8608      -0.6595     186.8501       1.0226
    8446.0    1335.4509       0.0000      50.8611     -54.8225       1.0858      -0.8874      -0.6256     192.9500       1.0226
    8447.0    1331.2482       0.0000      50.8611     -51.5264       1.0924      -0.8540      -0.6795     199.0631       1.0244
    8448.0    1328.3660       0.0000      50.8611     -54.2284       1.0117      -0.8207      -0.5916     205.1670       1.0226
    8449.0    1335.9377       0.0000      50.8611     -49.0245       1.1143      -0.8412      -0.7274     211.2720       1.0226
    8450.0    1343.9712       0.0000      50.8611     -49.7800       1.0220      -0.7805      -0.6595     217.3817       1.0315
    8451.0    1346.1088       0.0000      50.8611     -49.3771       1.0478      -0.7942      -0.6795     223.8887       1.0226
    8452.0    1342.2777       0.0000      50.8611     -49.5908       1.1223      -0.8540      -0.7274     229.9926       1.0226
    8453.0    1346.6134       0.0000      50.8611     -54.6778       1.0707      -0.8737      -0.6186     236.1070       1.0334
    8454.0    1356.4966       0.0000      50.8611     -49.9695       1.0792      -0.8267      -0.6934     242.2244       1.0226
