~VERSION INFORMATION
VERS.           2.0   :CWLS Log ASCII Standard - VERSION 2.0
WRAP.           NO    :One Line per depth step
PROD.  Schlumberger   :LAS Producer
PROG.  DLIS to ASCII 19C2-270                          :LAS Program name and version
CREA.        2017/09/16 17:42                          :LAS Creation date {YYYY/MM/DD hh:mm}
DLIS_CREA.  2017-Sep-15 12:00                          :DLIS Creation date and time {YYYY-MMM-DD hh:mm}
SOURCE.     LPC_S1-1_A5.DLIS                           :DLIS File Name
FILE-ID.     PERFO_Perfo_WPGRT_019LTP                  :File Identification Number
#--------------------------------------------------
~WELL INFORMATION
#MNEM.UNIT      DATA             DESCRIPTION
#---- ------ --------------   -----------------------------
STRT .S         4414.0       :START TIME      
STOP .S         5447.0       :STOP TIME      
STEP .S            1.0       :STEP     
NULL .          -999.25      :NULL VALUE
COMP .        SHELL INTERNATIONAL E P                  :COMPANY
WELL .        WPP TEST 2                               :WELL
FLD  .        WILDCAT                                  :FIELD
LOC  .                                                 :LOCATION
CNTY .        HARRIS                                   :COUNTY
STAT .        TEXAS                                    :STATE
CTRY .                                                 :COUNTRY
API  .                                                 :API NUMBER
UWI  .                                                 :UNIQUE WELL ID
DATE .                                                 :LOG DATE
SRVC .        Schlumberger                             :SERVICE COMPANY
LATI .DEG                                              :LATITUDE
LONG .DEG                                              :LONGITUDE
GDAT .                                                 :GeoDetic Datum
#-----------------------------------------------------------------------------
~PARAMETER INFORMATION
#MNEM.UNIT    VALUE                      DESCRIPTION
#---- -----   --------------------       ------------------------
U-PHASE_B_COMP_PER_YT.                 0 :Phase B Comparator Period Yt
U-PHASE_A_COMP_PER_XT.                 0 :Phase A Comparator Period Xt
U-MAX_EXC_CUR_LIMIT.MA       240.00000   :Requested CM Current Limit
U-REQ_EXC_FQ.HZ              50          :Requested CM Frequency
U-TILT_Y_OFFSET.           0.19916       :WPTET Tilt Y Offset
U-TILT_Y_GAIN.           1.01796         :WPTET Tilt Y Gain
U-TILT_X_OFFSET.          -1.77103       :WPTET Tilt X Offset
U-TILT_X_GAIN.           1.00000         :WPTET Tilt X Gain
U-TILT_OFFSET_TOL.           0.00100     :WPTET Tilt Offset Calibration Tolerance
U-NO_TILT_CAL_ROTATIONS.                 3 :Number of Rotations for Tilt Calibration
HAZI .DEG        0.00000                 :Hole Azimuth
U-STD_TOL_TILT.           0.01000        :Tilt Standard Deviation Tolerance
U-GUN_POS_TOL.DEG        5.00000         :Gun Position Tolerance
ROT_ANGLE_THRESHOLD.DEG        5.00000   :Rotation Stop Angle Tolerance
STOP_ROT_ANGLE.DEG       80.00000        :Rotation Stop Angle
WITN .                                   :Witness's Name
ENGI .                                   :Engineer's Name
COUN .        HARRIS                     :County or Rig Name
FN   .        WILDCAT                    :Field Name
WN   .        WPP TEST 2                 :Well Name
CN   .        SHELL INTERNATIONAL E P    :Company Name
CLAB .        County                     :County/Rig Label
SLAB .        State                      :State/Province Label
RUN  .          1                        :RUN NUMBER
PDAT .        GROUND LEVEL               :Permanent Datum
EPD  .                                   :Elevation of Permanent Datum above Mean Sea Level
LMF  .                                   :Logging Measured From (Name of Logging Elevation Reference)
APD  .                                   :Elevation of Depth Reference (LMF) above Permanent Datum
#-----------------------------------------------------------------------------
~CURVE INFORMATION
#MNEM.UNIT   API CODE                                  DESCRIPTION
#---- -----  --------                                  -----------------------
TIME .S                                                :TIME {F10.1}
FREQ_EMF_SL.HZ                                         :Electromagnetic Field Frequency {F13.4}
PH_SH_WPPCM_SL.DEG                                     :WPPCM Phase Shift {F13.4}
FREQ_EXC_REQ_SL.HZ                                     :Requested Exciter Frequency {F13.4}
RB_SL.DEG                                              :Relative Bearing {F13.4}
SDEV_SL.DEG                                            :Sonde Deviation {F13.4}
TILX_SL.DEG                                            :X-axis Tilt {F13.4}
TILY_SL.DEG                                            :Y-axis Tilt {F13.4}
ROTA_SL.DEG                                            :Motor Rotation Angle {F13.4}
MSPE_SL.RPM                                            :Motor Speed {F13.4}
#-----------------------------------------------------------------------------
# 
#     TIME    FREQ_EMF_SL  PH_SH_WPPCM_ FREQ_EXC_REQ    RB_SL       SDEV_SL      TILX_SL      TILY_SL      ROTA_SL      MSPE_SL
#                          SL           _SL
~A  
# ...
    4981.0    1072.8911       0.0000      50.8611      20.0183       4.4251       1.5135      -4.1573      45.9636       1.0226
    4982.0    1143.0517       0.0000      50.8611      24.7439       4.2386       1.7728      -3.8488      52.0559       1.0144
    4983.0    1223.7250       0.0000      50.8611      29.2928       4.2009       2.0539      -3.6629      58.1686       1.0226
    4984.0    1275.2706       0.0000      50.8611      37.0259       4.2713       2.5706      -3.4083      64.2590       1.0226
    4985.0    1312.0334       0.0000      50.8611      43.0156       4.0056       2.7313      -2.9269      70.3702       1.0250
    4986.0    1337.9003       0.0000      50.8611      47.6860       3.7145       2.7459      -2.4994      76.4804       1.0226
    4987.0    1370.0074       0.0000      50.8611      57.7681       3.7014       3.1293      -1.9735      82.5651       1.0226
    4988.0    1395.3538       0.0000      50.8611      64.6308       3.6322       3.2808      -1.5553      88.6801       1.0226
    4989.0    1419.8031       0.0000      50.8611      70.6255       3.4682       3.2681      -1.1521      94.7572       1.0226
    4990.0    1446.7593       0.0000      50.8611      78.3828       3.3684       3.2991      -0.6781     100.8614       1.0226
    4991.0    1475.7473       0.0000      50.8611      85.9476       3.3572       3.3484      -0.2376     107.3558       1.0202
    4992.0    1502.7120       0.0000      50.8611      95.4023       3.3736       3.3576       0.3162     113.4576       1.0226
    4993.0    1533.6889       0.0000      50.8611      99.8607       3.2280       3.1786       0.5522     119.5725       1.0226
    4994.0    1552.1523       0.0000      50.8611     109.5753       3.1712       2.9869       1.0615     125.6874       1.0226
    4995.0    1579.2503       0.0000      50.8611     118.6328       3.1752       2.7861       1.5206     131.7952       1.0144
    4996.0    1597.1870       0.0000      50.8611     125.8365       3.3179       2.6875       1.9424     137.8919       1.0226
    4997.0    1609.8213       0.0000      50.8611     134.4468       3.1464       2.2456       2.2027     143.9945       1.0144
    4998.0    1626.7490       0.0000      50.8611     140.5766       3.2642       2.0722       2.5205     150.1103       1.0226
    4999.0    1640.2139       0.0000      50.8611     150.2177       3.3654       1.6706       2.9200     156.2122       1.0226
    5000.0    1639.8571       0.0000      50.8611     157.9793       3.4691       1.2999       3.2156     162.3141       1.0144
    5001.0    1646.6628       0.0000      50.8611     163.8618       3.4432       0.9567       3.3066     168.4043       1.0226
    5002.0    1652.6489       0.0000      50.8611     171.0600       3.5775       0.5550       3.5334     174.5079       1.0226
    5003.0    1638.9860       0.0000      50.8611     177.0710       3.6202       0.1844       3.6151     181.0147       1.0226
    5004.0    1627.6041       0.0000      50.8611    -174.3413       3.8293      -0.3779       3.8103     187.1166       1.0226
    5005.0    1625.5596       0.0000      50.8611    -168.0692       3.9237      -0.8106       3.8382     193.2185       1.0226
    5006.0    1612.6721       0.0000      50.8611    -163.0576       3.9177      -1.1411       3.7471     199.3204       1.0226
    5007.0    1594.3877       0.0000      50.8611    -156.6433       4.0726      -1.6140       3.7378     205.4223       1.0226
    5008.0    1576.5134       0.0000      50.8611    -149.4515       4.1622      -2.1142       3.5836     211.5119       1.0226
    5009.0    1556.3709       0.0000      50.8611    -144.8336       4.2698      -2.4575       3.4888     217.6138       1.0226
    5010.0    1532.6237       0.0000      50.8611    -137.1587       4.3085      -2.9267       3.1580     223.7164       1.0226
    5011.0    1502.4038       0.0000      50.8611    -131.9934       4.3903      -3.2608       2.9350     229.8183       1.0226
    5012.0    1476.1791       0.0000      50.8611    -127.4227       4.6021      -3.6533       2.7937     235.9030       1.0121
    5013.0    1454.7990       0.0000      50.8611    -119.1686       4.6724      -4.0788       2.2751     242.0004       1.0226
    5014.0    1436.5510       0.0000      50.8611    -115.8845       4.7478      -4.2705       2.0707     248.1023       1.0226
    5015.0    1396.3537       0.0000      50.8611    -111.6660       4.9306      -4.5808       1.8198     254.5845       1.0202
    5016.0    1363.0313       0.0000      50.8611    -104.9756       4.9113      -4.7434       1.2679     260.6994       1.0226
    5017.0    1335.9408       0.0000      50.8611     -99.8189       4.9869      -4.9132       0.8497     266.8144       1.0226
    5018.0    1304.2940       0.0000      50.8611     -95.2634       5.0588      -5.0373       0.4631     272.9161       1.0309
    5019.0    1228.0721       0.0000      50.8611     -89.7512       5.1556      -5.1542      -0.0219     279.0215       1.0144
    5020.0    1152.7982       0.0000      50.8611     -85.2112       5.1230      -5.1049      -0.4271     285.1337       1.0309
    5021.0    1086.8636       0.0000      50.8611     -78.3965       5.1802      -5.0738      -1.0405     291.2486       1.0226
    5022.0    1031.8908       0.0000      50.8611     -73.7107       5.2871      -5.0738      -1.4809     297.3504       1.0226
    5023.0     994.3981       0.0000      50.8611     -69.6910       5.2962      -4.9661      -1.8359     303.4637       1.0250
    5024.0     971.7792       0.0000      50.8611     -64.1539       5.2587      -4.7306      -2.2894     309.5786       1.0309
    5025.0     954.3315       0.0000      50.8611     -59.7512       5.3178      -4.5918      -2.6760     315.6858       1.0226
    5026.0     941.4458       0.0000      50.8611     -54.0695       5.3103      -4.2979      -3.1128     321.7912       1.0202
    5027.0     931.2914       0.0000      50.8611     -49.7678       5.2813      -4.0295      -3.4083     328.2976       1.0226
    5028.0     922.4611       0.0000      50.8611     -44.5711       5.2714      -3.6954      -3.7521     334.3978       1.0226
    5029.0     915.7989       0.0000      50.8611     -39.6684       5.2489      -3.3467      -4.0383     340.4996       1.0226
    5030.0     918.3009       0.0000      50.8611     -34.3748       5.2375      -2.9541      -4.3208     346.6145       1.0226
    5031.0     915.1515       0.0000      50.8611     -29.4082       5.1856      -2.5433      -4.5159     352.7040       1.0226
    5032.0     920.1620       0.0000      50.8611     -25.3159       5.0039      -2.1380      -4.5216     358.8058       1.0226
    5033.0     922.7362       0.0000      50.8611     -19.8161       5.0853      -1.7217      -4.7836       4.8954       1.0226
    5034.0     931.1850       0.0000      50.8611     -14.8154       4.9969      -1.2763      -4.8301      11.0241       1.0250
    5035.0     944.7719       0.0000      50.8611      -9.2710       4.9358      -0.7943      -4.8710      17.1259       1.0226
    5036.0     955.5863       0.0000      50.8611      -5.3178       4.8846      -0.4528      -4.8617      23.2154       1.0121
    5037.0     972.3336       0.0000      50.8611       0.8497       4.7811       0.0711      -4.7799      29.3179       1.0226
    5038.0     990.1969       0.0000      50.8611       5.3591       4.6964       0.4381      -4.6758      35.4328       1.0226
    5039.0    1015.0787       0.0000      50.8611      11.9248       4.5249       0.9329      -4.4268      41.9419       1.0226
    5040.0    1048.5330       0.0000      50.8611      17.6913       4.3836       1.3309      -4.1759      48.0444       1.0226
    5041.0    1119.1851       0.0000      50.8611      22.9081       4.3130       1.6778      -3.9714      54.1360       1.0202
    5042.0    1190.1213       0.0000      50.8611      28.5869       4.1934       2.0046      -3.6815      60.2350       1.0226
    5043.0    1261.3154       0.0000      50.8611      34.2569       4.2284       2.3789      -3.4937      66.3368       1.0226
