~VERSION INFORMATION
VERS.           2.0   :CWLS Log ASCII Standard - VERSION 2.0
WRAP.           NO    :One Line per depth step
PROD.  Schlumberger   :LAS Producer
PROG.  DLIS to ASCII 19C2-270                          :LAS Program name and version
CREA.        2017/09/16 17:42                          :LAS Creation date {YYYY/MM/DD hh:mm}
DLIS_CREA.  2017-Sep-15 17:22                          :DLIS Creation date and time {YYYY-MMM-DD hh:mm}
SOURCE.     LPC_S4-1_AV.DLIS                           :DLIS File Name
FILE-ID.     PERFO_Perfo_WPGRT_047LTP                  :File Identification Number
#--------------------------------------------------
~WELL INFORMATION
#MNEM.UNIT      DATA             DESCRIPTION
#---- ------ --------------   -----------------------------
STRT .S         1296.0       :START TIME      
STOP .S         1779.0       :STOP TIME      
STEP .S            1.0       :STEP     
NULL .          -999.25      :NULL VALUE
COMP .        SHELL INTERNATIONAL E P                  :COMPANY
WELL .        WPP TEST 2                               :WELL
FLD  .        WILDCAT                                  :FIELD
LOC  .        NA                                       :LOCATION
CNTY .        HARRIS                                   :COUNTY
STAT .        TEXAS                                    :STATE
CTRY .                                                 :COUNTRY
API  .        NA                                       :API NUMBER
UWI  .                                                 :UNIQUE WELL ID
DATE .        15-Sep-2017                              :LOG DATE {DD-MMM-YYYY}
SRVC .        Schlumberger                             :SERVICE COMPANY
LATI .DEG                                              :LATITUDE
LONG .DEG                                              :LONGITUDE
GDAT .                                                 :GeoDetic Datum
SECT .        NA                                       :Section
RANG .        NA                                       :Range
TOWN .        NA                                       :Township
#-----------------------------------------------------------------------------
~PARAMETER INFORMATION
#MNEM.UNIT    VALUE                      DESCRIPTION
#---- -----   --------------------       ------------------------
U-PHASE_B_COMP_PER_YT.                 0 :Phase B Comparator Period Yt
U-PHASE_A_COMP_PER_XT.                 0 :Phase A Comparator Period Xt
U-MAX_EXC_CUR_LIMIT.MA       240.00000   :Requested CM Current Limit
U-REQ_EXC_FQ.HZ              50          :Requested CM Frequency
U-TILT_Y_OFFSET.           0.19916       :WPTET Tilt Y Offset
U-TILT_Y_GAIN.           1.01796         :WPTET Tilt Y Gain
U-TILT_X_OFFSET.          -1.77103       :WPTET Tilt X Offset
U-TILT_X_GAIN.           1.00000         :WPTET Tilt X Gain
U-TILT_OFFSET_TOL.           0.00100     :WPTET Tilt Offset Calibration Tolerance
U-NO_TILT_CAL_ROTATIONS.                 3 :Number of Rotations for Tilt Calibration
HAZI .DEG        0.00000                 :Hole Azimuth
U-STD_TOL_TILT.           0.01000        :Tilt Standard Deviation Tolerance
U-GUN_POS_TOL.DEG        5.00000         :Gun Position Tolerance
ROT_ANGLE_THRESHOLD.DEG        5.00000   :Rotation Stop Angle Tolerance
STOP_ROT_ANGLE.DEG        0.00000        :Rotation Stop Angle
WITN .        MR. DHRUA ARORA            :Witness's Name
ENGI .        MORRIS MOORE               :Engineer's Name
COUN .        HARRIS                     :County or Rig Name
FN   .        WILDCAT                    :Field Name
WN   .        WPP TEST 2                 :Well Name
CN   .        SHELL INTERNATIONAL E P    :Company Name
CLAB .        County                     :County/Rig Label
SLAB .        State                      :State/Province Label
RUN  .          1                        :RUN NUMBER
PDAT .        GROUND LEVEL               :Permanent Datum
EPD  .                                   :Elevation of Permanent Datum above Mean Sea Level
LMF  .          NA                       :Logging Measured From (Name of Logging Elevation Reference)
APD  .                                   :Elevation of Depth Reference (LMF) above Permanent Datum
#-----------------------------------------------------------------------------
~CURVE INFORMATION
#MNEM.UNIT   API CODE                                  DESCRIPTION
#---- -----  --------                                  -----------------------
TIME .S                                                :TIME {F10.1}
FREQ_EMF_SL.HZ                                         :Electromagnetic Field Frequency {F13.4}
PH_SH_WPPCM_SL.DEG                                     :WPPCM Phase Shift {F13.4}
FREQ_EXC_REQ_SL.HZ                                     :Requested Exciter Frequency {F13.4}
RB_SL.DEG                                              :Relative Bearing {F13.4}
SDEV_SL.DEG                                            :Sonde Deviation {F13.4}
TILX_SL.DEG                                            :X-axis Tilt {F13.4}
TILY_SL.DEG                                            :Y-axis Tilt {F13.4}
ROTA_SL.DEG                                            :Motor Rotation Angle {F13.4}
MSPE_SL.RPM                                            :Motor Speed {F13.4}
#-----------------------------------------------------------------------------
# 
#     TIME    FREQ_EMF_SL  PH_SH_WPPCM_ FREQ_EXC_REQ    RB_SL       SDEV_SL      TILX_SL      TILY_SL      ROTA_SL      MSPE_SL
#                          SL           _SL
~A  
# ...
    1485.0    1852.8036       0.0000      50.8611     -42.8150       0.9838      -0.6662      -0.7217     122.3802       0.0005
    1486.0    1855.2111       0.0000      50.8611     -46.8146       1.0237      -0.7465      -0.7004     122.3802       0.0005
    1487.0    1857.6988       0.0000      50.8611     -43.8614       0.9377      -0.6458      -0.6785     122.3802       0.0005
    1488.0    1852.7365       0.0000      50.8611     -50.0344       1.0271      -0.7872      -0.6595     122.3802       0.0005
    1489.0    1860.1190       0.0000      50.8611     -47.7754       0.9814      -0.7267      -0.6595     122.3802       0.0005
    1490.0    1857.7923       0.0000      50.8611     -43.4568       0.9106      -0.6271      -0.6601     122.3802       0.0005
    1491.0    1852.8964       0.0000      50.8611     -44.4294       1.0090      -0.7063      -0.7205     122.3802       0.0005
    1492.0    1855.1567       0.0000      50.8611     -49.4510       0.9825      -0.7465      -0.6388     122.3802       0.0005
    1493.0    1857.6313       0.0000      50.8611     -48.8619       0.9387      -0.7063      -0.6180     122.3802       0.0005
    1494.0    1855.2111       0.0000      50.8611     -43.6508       1.0248      -0.7069      -0.7418     122.3802       0.0005
    1495.0    1852.8036       0.0000      50.8611     -44.4295       1.0098      -0.7069      -0.7211     122.3802       0.0005
    1496.0    1855.1567       0.0000      50.8611     -46.1009       0.9537      -0.6860      -0.6601     122.3802       0.0005
    1497.0    1855.1567       0.0000      50.8611     -49.7715       0.9263      -0.7069      -0.5979     122.3802       0.0005
    1498.0    1855.2111       0.0000      50.8611     -44.5808       0.9832      -0.6865      -0.7015     122.3802       0.0005
    1499.0    1855.8149       0.0000      50.8611     -44.8535       0.9310      -0.6568      -0.6595     122.3802       0.0005
    1500.0    1857.6313       0.0000      50.8611     -41.6976       0.9422      -0.6254      -0.7009     122.3802       0.0005
    1501.0    1855.2111       0.0000      50.8611     -48.2556       0.9537      -0.7063      -0.6376     122.3802       0.0005
    1502.0    1852.8036       0.0000      50.8611     -46.9014       1.0246      -0.7471      -0.6998     122.3802       0.0005
    1503.0    1855.2111       0.0000      50.8611     -42.6280       0.9532      -0.6458      -0.7004     122.3802       0.0005
    1504.0    1857.6313       0.0000      50.8611     -45.3278       0.9093      -0.6464      -0.6393     122.3802       0.0005
    1505.0    1852.8036       0.0000      50.8611     -45.9721       1.0666      -0.7669      -0.7413     122.3802       0.0005
    1506.0    1857.6313       0.0000      50.8611     -46.0563       1.0093      -0.7267      -0.7004     122.3802       0.0005
    1507.0    1855.2111       0.0000      50.8611     -45.1259       0.9682      -0.6876      -0.6802     122.3802       0.0005
    1508.0    1855.1567       0.0000      50.8611     -47.9228       0.9549      -0.7063      -0.6399     122.3802       0.0005
    1509.0    1857.6313       0.0000      50.8611     -49.5218       0.9543      -0.7261      -0.6186     122.3802       0.0005
    1510.0    1855.2111       0.0000      50.8611     -47.6312       1.0402      -0.7674      -0.6998     122.3802       0.0005
    1511.0    1855.1567       0.0000      50.8611     -48.2945       1.0141      -0.7570      -0.6746     122.3802       0.0005
    1512.0    1857.6988       0.0000      50.8611     -46.1263       1.0093      -0.7267      -0.6998     122.3802       0.0005
    1513.0    1855.2913       0.0000      50.8611     -44.4258       0.9517      -0.6662      -0.6797     122.3802       0.0005
    1514.0    1855.1567       0.0000      50.8611     -44.4774       0.9824      -0.6871      -0.6998     122.3802       0.0005
    1515.0    1855.2111       0.0000      50.8611     -41.9791       0.9975      -0.6667      -0.7418     122.3802       0.0005
    1516.0    1855.2913       0.0000      50.8611     -49.8988       0.9274      -0.7069      -0.5973     122.3802       0.0005
    1517.0    1855.2111       0.0000      50.8611     -50.9388       1.0142      -0.7872      -0.6388     122.3802       0.0005
    1518.0    1852.7365       0.0000      50.8611     -44.4080       1.0098      -0.7063      -0.7211     122.3802       0.0005
    1519.0    1862.5521       0.0000      50.8611     -41.6568       0.9105      -0.6056      -0.6797     122.3802       0.0005
    1520.0    1855.2111       0.0000      50.8611     -46.1246       0.9811      -0.7069      -0.6797     122.3802       0.0005
    1521.0    1852.8964       0.0000      50.8611     -47.7754       0.9814      -0.7267      -0.6595     122.3802       0.0005
    1522.0    1857.6988       0.0000      50.8611     -46.2926       0.9246      -0.6667      -0.6399     122.3802       0.0005
    1523.0    1860.1190       0.0000      50.8611     -44.5005       0.9808      -0.6865      -0.6998     122.3802       0.0005
    1524.0    1855.1567       0.0000      50.8611     -42.7452       0.9283      -0.6271      -0.6791     122.3802       0.0005
    1525.0    1855.2111       0.0000      50.8611     -45.2706       0.8794      -0.6254      -0.6180     122.3802       0.0005
    1526.0    1855.2111       0.0000      50.8611     -49.6196       0.9552      -0.7267      -0.6192     122.3802       0.0005
    1527.0    1860.1190       0.0000      50.8611     -39.5700       1.0147      -0.6464      -0.7822     122.3802       0.0005
    1528.0    1852.8036       0.0000      50.8611     -46.9894       0.9944      -0.7261      -0.6791     122.3802       0.0005
    1529.0    1857.6313       0.0000      50.8611     -44.2818       0.9832      -0.6876      -0.7004     122.3802       0.0005
    1530.0    1855.2913       0.0000      50.8611     -46.1009       0.9537      -0.6860      -0.6601     122.3802       0.0005
    1531.0    1857.6313       0.0000      50.8611     -45.3989       0.9687      -0.6871      -0.6791     122.3802       0.0005
    1532.0    1852.8036       0.0000      50.8611     -43.2992       0.9404      -0.6453      -0.6802     122.3802       0.0005
    1533.0    1857.6313       0.0000      50.8611     -78.7605       0.9464      -0.9264      -0.1884     122.3802       0.0005
    1534.0    1855.2111       0.0000      50.8611     -30.6873       1.0395      -0.5435      -0.8824     122.3802       0.0005
    1535.0    1856.3924       0.0000      50.8611     -51.1117       1.0026      -0.7810      -0.6284     122.3802       0.0005
    1536.0    1855.2111       0.0000      50.8611     -47.3257       0.9731      -0.7063      -0.6612     122.3802       0.0005
    1537.0    1857.6313       0.0000      50.8611     -43.9347       1.0926      -0.7482      -0.7805     122.3802       0.0005
    1538.0    1855.2111       0.0000      50.8611     -44.5852       1.0373      -0.7261      -0.7401     122.3802       0.0005
    1539.0    1850.4087       0.0000      50.8611     -50.9489       1.0175      -0.7878      -0.6382     122.3802       0.0005
    1540.0    1852.7365       0.0000      50.8611     -59.1723       0.9032      -0.7482      -0.4522     122.3802       0.0005
    1541.0    1855.1567       0.0000      50.8611     -53.8281       1.0227      -0.7476      -0.6444     122.3802       0.0005
    1542.0    1860.1997       0.0000      50.8611     -64.0576       0.8517      -0.7658      -0.3727     122.3802       0.0005
    1543.0    1857.6988       0.0000      50.8611     -49.7284       0.9810      -0.7448      -0.6197     122.3802       0.0005
    1544.0    1860.1190       0.0000      50.8611     -50.5175       0.9442      -0.7261      -0.5990     122.3802       0.0005
    1545.0    1857.6313       0.0000      50.8611     -45.1501       1.0223      -0.7256      -0.7200     122.3802       0.0005
    1546.0    1860.1190       0.0000      50.8611     -49.4186       0.9833      -0.7465      -0.6393     122.3802       0.0005
    1547.0    1858.2520       0.0000      50.8611     -46.8254       0.9349      -0.6820      -0.6393     122.3802       0.0005
