~VERSION INFORMATION
VERS.           2.0   :CWLS Log ASCII Standard - VERSION 2.0
WRAP.           NO    :One Line per depth step
PROD.  Schlumberger   :LAS Producer
PROG.  DLIS to ASCII 19C2-270                          :LAS Program name and version
CREA.        2017/09/16 17:42                          :LAS Creation date {YYYY/MM/DD hh:mm}
DLIS_CREA.  2017-Sep-15 13:45                          :DLIS Creation date and time {YYYY-MMM-DD hh:mm}
SOURCE.     LPC_S1-1_2B5.DLIS                          :DLIS File Name
FILE-ID.     PERFO_Perfo_WPGRT_026LTP                  :File Identification Number
#--------------------------------------------------
~WELL INFORMATION
#MNEM.UNIT      DATA             DESCRIPTION
#---- ------ --------------   -----------------------------
STRT .S        10666.0       :START TIME      
STOP .S        11234.0       :STOP TIME      
STEP .S            1.0       :STEP     
NULL .          -999.25      :NULL VALUE
COMP .        SHELL INTERNATIONAL E P                  :COMPANY
WELL .        WPP TEST 2                               :WELL
FLD  .        WILDCAT                                  :FIELD
LOC  .                                                 :LOCATION
CNTY .        HARRIS                                   :COUNTY
STAT .        TEXAS                                    :STATE
CTRY .                                                 :COUNTRY
API  .                                                 :API NUMBER
UWI  .                                                 :UNIQUE WELL ID
DATE .                                                 :LOG DATE
SRVC .        Schlumberger                             :SERVICE COMPANY
LATI .DEG                                              :LATITUDE
LONG .DEG                                              :LONGITUDE
GDAT .                                                 :GeoDetic Datum
#-----------------------------------------------------------------------------
~PARAMETER INFORMATION
#MNEM.UNIT    VALUE                      DESCRIPTION
#---- -----   --------------------       ------------------------
U-PHASE_B_COMP_PER_YT.                 0 :Phase B Comparator Period Yt
U-PHASE_A_COMP_PER_XT.                 0 :Phase A Comparator Period Xt
U-MAX_EXC_CUR_LIMIT.MA       240.00000   :Requested CM Current Limit
U-REQ_EXC_FQ.HZ              50          :Requested CM Frequency
U-TILT_Y_OFFSET.           0.19916       :WPTET Tilt Y Offset
U-TILT_Y_GAIN.           1.01796         :WPTET Tilt Y Gain
U-TILT_X_OFFSET.          -1.77103       :WPTET Tilt X Offset
U-TILT_X_GAIN.           1.00000         :WPTET Tilt X Gain
U-TILT_OFFSET_TOL.           0.00100     :WPTET Tilt Offset Calibration Tolerance
U-NO_TILT_CAL_ROTATIONS.                 3 :Number of Rotations for Tilt Calibration
HAZI .DEG        0.00000                 :Hole Azimuth
U-STD_TOL_TILT.           0.01000        :Tilt Standard Deviation Tolerance
U-GUN_POS_TOL.DEG        5.00000         :Gun Position Tolerance
ROT_ANGLE_THRESHOLD.DEG        5.00000   :Rotation Stop Angle Tolerance
STOP_ROT_ANGLE.DEG       80.00000        :Rotation Stop Angle
WITN .                                   :Witness's Name
ENGI .                                   :Engineer's Name
COUN .        HARRIS                     :County or Rig Name
FN   .        WILDCAT                    :Field Name
WN   .        WPP TEST 2                 :Well Name
CN   .        SHELL INTERNATIONAL E P    :Company Name
CLAB .        County                     :County/Rig Label
SLAB .        State                      :State/Province Label
RUN  .          1                        :RUN NUMBER
PDAT .        GROUND LEVEL               :Permanent Datum
EPD  .                                   :Elevation of Permanent Datum above Mean Sea Level
LMF  .                                   :Logging Measured From (Name of Logging Elevation Reference)
APD  .                                   :Elevation of Depth Reference (LMF) above Permanent Datum
#-----------------------------------------------------------------------------
~CURVE INFORMATION
#MNEM.UNIT   API CODE                                  DESCRIPTION
#---- -----  --------                                  -----------------------
TIME .S                                                :TIME {F10.1}
FREQ_EMF_SL.HZ                                         :Electromagnetic Field Frequency {F13.4}
PH_SH_WPPCM_SL.DEG                                     :WPPCM Phase Shift {F13.4}
FREQ_EXC_REQ_SL.HZ                                     :Requested Exciter Frequency {F13.4}
RB_SL.DEG                                              :Relative Bearing {F13.4}
SDEV_SL.DEG                                            :Sonde Deviation {F13.4}
TILX_SL.DEG                                            :X-axis Tilt {F13.4}
TILY_SL.DEG                                            :Y-axis Tilt {F13.4}
ROTA_SL.DEG                                            :Motor Rotation Angle {F13.4}
MSPE_SL.RPM                                            :Motor Speed {F13.4}
#-----------------------------------------------------------------------------
# 
#     TIME    FREQ_EMF_SL  PH_SH_WPPCM_ FREQ_EXC_REQ    RB_SL       SDEV_SL      TILX_SL      TILY_SL      ROTA_SL      MSPE_SL
#                          SL           _SL
~A  
# ...
   10981.0    1449.7422       0.0000      50.8611    -158.2495       3.6976      -1.3694       3.4340      62.0732       0.0005
   10982.0    1449.3992       0.0000      50.8611    -157.5509       3.6819      -1.4049       3.4025      62.0732       0.0005
   10983.0    1447.7927       0.0000      50.8611    -158.5885       3.7279      -1.3601       3.4702      62.0732       0.0005
   10984.0    1453.0836       0.0000      50.8611    -156.6278       3.7465      -1.4852       3.4387      63.1058       0.5705
   10985.0    1455.3995       0.0000      50.8611    -151.7113       3.8792      -1.8375       3.4152      67.4666       0.8562
   10986.0    1452.7377       0.0000      50.8611    -147.3086       3.9246      -2.1187       3.3019      73.2197       1.0133
   10987.0    1448.7173       0.0000      50.8611    -142.4899       3.9813      -2.4229       3.1572      79.3177       1.0226
   10988.0    1463.1071       0.0000      50.8611    -135.1603       4.0886      -2.8818       2.8978      85.4226       1.0226
   10989.0    1455.3995       0.0000      50.8611    -130.4647       4.1251      -3.1367       2.6759      91.5213       1.0226
   10990.0    1449.7422       0.0000      50.8611    -123.9720       4.2625      -3.5337       2.3803      97.6262       1.0226
   10991.0    1443.7886       0.0000      50.8611    -118.1507       4.4436      -3.9169       2.0941     103.7131       1.0226
   10992.0    1442.7720       0.0000      50.8611    -113.1408       4.4889      -4.1270       1.7623     109.8173       1.0226
   10993.0    1431.6918       0.0000      50.8611    -106.2358       4.7174      -4.5287       1.3172     116.3264       1.0226
   10994.0    1423.9953       0.0000      50.8611    -102.4841       4.6263      -4.5162       0.9995     122.4156       1.0133
   10995.0    1428.7825       0.0000      50.8611     -98.0238       4.6873      -4.6413       0.6536     128.5011       1.0226
   10996.0    1414.0863       0.0000      50.8611     -92.6294       4.7533      -4.7480       0.2180     134.6193       1.0226
   10997.0    1385.6866       0.0000      50.8611     -88.9619       4.8120      -4.8112      -0.0871     140.7106       1.0226
   10998.0    1392.3268       0.0000      50.8611     -83.0093       4.9318      -4.8948      -0.5998     146.8109       1.0226
   10999.0    1378.6765       0.0000      50.8611     -77.2493       4.9462      -4.8237      -1.0904     152.9097       1.0226
   11000.0    1367.9475       0.0000      50.8611     -73.7235       4.9516      -4.7526      -1.3861     159.0194       1.0226
   11001.0    1341.0663       0.0000      50.8611     -68.6843       5.0350      -4.6893      -1.8279     165.1189       1.0226
   11002.0    1316.2561       0.0000      50.8611     -61.2369       4.9672      -4.3523      -2.3848     171.2184       1.0226
   11003.0    1291.9648       0.0000      50.8611     -55.3826       4.9641      -4.0836      -2.8171     177.3050       1.0214
   11004.0    1268.3926       0.0000      50.8611     -52.7342       4.9862      -3.9663      -3.0169     183.4408       1.0133
   11005.0    1241.6046       0.0000      50.8611     -47.7833       5.0877      -3.7655      -3.4164     189.9461       1.0226
   11006.0    1217.2091       0.0000      50.8611     -43.5844       5.0777      -3.4982      -3.6758     196.0587       1.0226
   11007.0    1196.4960       0.0000      50.8611     -40.6270       5.1154      -3.3283      -3.8802     202.1629       1.0226
   11008.0    1183.2553       0.0000      50.8611     -34.0068       4.9356      -2.7581      -4.0894     208.2569       1.0133
   11009.0    1163.0796       0.0000      50.8611     -28.4730       4.8342      -2.3024      -4.2482     214.3543       1.0226
   11010.0    1151.2120       0.0000      50.8611     -24.9689       4.8035      -2.0259      -4.3535     220.4538       1.0226
   11011.0    1145.8013       0.0000      50.8611     -19.1446       4.8872      -1.6011      -4.6162     226.5458       1.0226
   11012.0    1136.5409       0.0000      50.8611     -12.6290       4.6990      -1.0263      -4.5847     232.6507       1.0226
   11013.0    1132.6165       0.0000      50.8611      -9.0385       4.6011      -0.7221      -4.5438     238.7380       1.0226
   11014.0    1125.4153       0.0000      50.8611      -5.2489       4.4856      -0.4100      -4.4668     244.8423       1.0226
   11015.0    1123.2029       0.0000      50.8611       1.9575       4.4647       0.1524      -4.4621     250.9487       1.0214
   11016.0    1118.6684       0.0000      50.8611       6.8163       4.3339       0.5139      -4.3032     257.0599       1.0226
   11017.0    1133.2365       0.0000      50.8611      11.9659       4.3527       0.9017      -4.2576     263.5641       1.0226
   11018.0    1131.4130       0.0000      50.8611      17.9271       4.2229       1.2987      -4.0170     269.6682       1.0226
   11019.0    1132.4563       0.0000      50.8611      23.8395       4.2326       1.7096      -3.8708     275.7722       1.0226
   11020.0    1143.5068       0.0000      50.8611      32.4583       3.7123       1.9908      -3.1316     281.8605       1.0214
   11021.0    1161.3122       0.0000      50.8611      35.1372       3.7419       2.1515      -3.0592     287.9459       1.0226
   11022.0    1169.8834       0.0000      50.8611      42.0432       3.6547       2.4465      -2.7133     294.0391       1.0133
   11023.0    1178.2191       0.0000      50.8611      48.1294       3.5623       2.6519      -2.3768     300.1424       1.0226
   11024.0    1192.2035       0.0000      50.8611      55.0271       3.4599       2.8343      -1.9820     306.2550       1.0133
   11025.0    1222.3386       0.0000      50.8611      63.4772       3.3427       2.9903      -1.4914     312.3600       1.0226
   11026.0    1239.3288       0.0000      50.8611      68.7406       3.3001       3.0753      -1.1957     318.4640       1.0226
   11027.0    1279.1454       0.0000      50.8611      76.6495       3.2530       3.1649      -0.7507     324.5531       1.0202
   11028.0    1281.2762       0.0000      50.8611      84.2439       3.0429       3.0273      -0.3056     330.6517       1.0309
   11029.0    1330.5247       0.0000      50.8611      92.8718       2.9725       2.9686       0.1489     337.1608       1.0226
   11030.0    1348.6796       0.0000      50.8611      99.0344       2.9751       2.9377       0.4666     343.2648       1.0226
   11031.0    1361.4400       0.0000      50.8611     109.3458       2.8834       2.7198       0.9525     349.3641       1.0226
   11032.0    1370.0019       0.0000      50.8611     118.9101       2.7448       2.4017       1.3266     355.4898       1.0238
   11033.0    1383.4802       0.0000      50.8611     125.7393       2.9157       2.3661       1.7026       1.5944       1.0238
   11034.0    1396.9097       0.0000      50.8611     130.6617       3.0704       2.3292       1.9982       7.7124       1.0226
   11035.0    1403.1216       0.0000      50.8611     140.1673       3.0821       1.9737       2.3662      13.8118       1.0226
   11036.0    1413.1179       0.0000      50.8611     150.6598       3.0747       1.5056       2.6792      19.8997       1.0214
   11037.0    1416.6107       0.0000      50.8611     153.0961       3.1688       1.4331       2.8254      26.0210       1.0226
   11038.0    1418.2508       0.0000      50.8611     163.2645       3.2298       0.9294       3.0928      32.1204       1.0226
   11039.0    1432.0265       0.0000      50.8611     170.3852       3.3762       0.5633       3.3287      38.2314       1.0238
   11040.0    1436.8752       0.0000      50.8611     176.8665       3.3575       0.1833       3.3522      44.3371       1.0226
   11041.0    1442.7720       0.0000      50.8611    -176.0775       3.4469      -0.2355       3.4387      50.8469       1.0226
   11042.0    1438.9041       0.0000      50.8611    -168.4450       3.5839      -0.7175       3.5111      56.9464       1.0226
   11043.0    1450.4326       0.0000      50.8611    -162.7203       3.6345      -1.0790       3.4702      63.0451       1.0226
