~VERSION INFORMATION
VERS.           2.0   :CWLS Log ASCII Standard - VERSION 2.0
WRAP.           NO    :One Line per depth step
PROD.  Schlumberger   :LAS Producer
PROG.  DLIS to ASCII 19C2-270                          :LAS Program name and version
CREA.        2017/09/16 17:42                          :LAS Creation date {YYYY/MM/DD hh:mm}
DLIS_CREA.  2017-Sep-15 20:01                          :DLIS Creation date and time {YYYY-MMM-DD hh:mm}
SOURCE.     LPC_S5-1_2BV.DLIS                          :DLIS File Name
FILE-ID.     PERFO_Perfo_WPGRT_065LTP                  :File Identification Number
#--------------------------------------------------
~WELL INFORMATION
#MNEM.UNIT      DATA             DESCRIPTION
#---- ------ --------------   -----------------------------
STRT .S         2351.0       :START TIME      
STOP .S         2776.0       :STOP TIME      
STEP .S            1.0       :STEP     
NULL .          -999.25      :NULL VALUE
COMP .        SHELL INTERNATIONAL E P                  :COMPANY
WELL .        WPP TEST 2                               :WELL
FLD  .        WILDCAT                                  :FIELD
LOC  .        NA                                       :LOCATION
CNTY .        HARRIS                                   :COUNTY
STAT .        TEXAS                                    :STATE
CTRY .                                                 :COUNTRY
API  .        NA                                       :API NUMBER
UWI  .                                                 :UNIQUE WELL ID
DATE .        15-Sep-2017                              :LOG DATE {DD-MMM-YYYY}
SRVC .        Schlumberger                             :SERVICE COMPANY
LATI .DEG                                              :LATITUDE
LONG .DEG                                              :LONGITUDE
GDAT .                                                 :GeoDetic Datum
SECT .        NA                                       :Section
RANG .        NA                                       :Range
TOWN .        NA                                       :Township
#-----------------------------------------------------------------------------
~PARAMETER INFORMATION
#MNEM.UNIT    VALUE                      DESCRIPTION
#---- -----   --------------------       ------------------------
U-PHASE_B_COMP_PER_YT.                 0 :Phase B Comparator Period Yt
U-PHASE_A_COMP_PER_XT.                 0 :Phase A Comparator Period Xt
U-MAX_EXC_CUR_LIMIT.MA       240.00000   :Requested CM Current Limit
U-REQ_EXC_FQ.HZ              50          :Requested CM Frequency
U-TILT_Y_OFFSET.           0.19916       :WPTET Tilt Y Offset
U-TILT_Y_GAIN.           1.01796         :WPTET Tilt Y Gain
U-TILT_X_OFFSET.          -1.77103       :WPTET Tilt X Offset
U-TILT_X_GAIN.           1.00000         :WPTET Tilt X Gain
U-TILT_OFFSET_TOL.           0.00100     :WPTET Tilt Offset Calibration Tolerance
U-NO_TILT_CAL_ROTATIONS.                 3 :Number of Rotations for Tilt Calibration
HAZI .DEG        0.00000                 :Hole Azimuth
U-STD_TOL_TILT.           0.01000        :Tilt Standard Deviation Tolerance
U-GUN_POS_TOL.DEG        5.00000         :Gun Position Tolerance
ROT_ANGLE_THRESHOLD.DEG        5.00000   :Rotation Stop Angle Tolerance
STOP_ROT_ANGLE.DEG        0.00000        :Rotation Stop Angle
WITN .        MR. DHRUA ARORA            :Witness's Name
ENGI .        MORRIS MOORE               :Engineer's Name
COUN .        HARRIS                     :County or Rig Name
FN   .        WILDCAT                    :Field Name
WN   .        WPP TEST 2                 :Well Name
CN   .        SHELL INTERNATIONAL E P    :Company Name
CLAB .        County                     :County/Rig Label
SLAB .        State                      :State/Province Label
RUN  .          1                        :RUN NUMBER
PDAT .        GROUND LEVEL               :Permanent Datum
EPD  .                                   :Elevation of Permanent Datum above Mean Sea Level
LMF  .          NA                       :Logging Measured From (Name of Logging Elevation Reference)
APD  .                                   :Elevation of Depth Reference (LMF) above Permanent Datum
#-----------------------------------------------------------------------------
~CURVE INFORMATION
#MNEM.UNIT   API CODE                                  DESCRIPTION
#---- -----  --------                                  -----------------------
TIME .S                                                :TIME {F10.1}
FREQ_EMF_SL.HZ                                         :Electromagnetic Field Frequency {F13.4}
PH_SH_WPPCM_SL.DEG                                     :WPPCM Phase Shift {F13.4}
FREQ_EXC_REQ_SL.HZ                                     :Requested Exciter Frequency {F13.4}
RB_SL.DEG                                              :Relative Bearing {F13.4}
SDEV_SL.DEG                                            :Sonde Deviation {F13.4}
TILX_SL.DEG                                            :X-axis Tilt {F13.4}
TILY_SL.DEG                                            :Y-axis Tilt {F13.4}
ROTA_SL.DEG                                            :Motor Rotation Angle {F13.4}
MSPE_SL.RPM                                            :Motor Speed {F13.4}
#-----------------------------------------------------------------------------
# 
#     TIME    FREQ_EMF_SL  PH_SH_WPPCM_ FREQ_EXC_REQ    RB_SL       SDEV_SL      TILX_SL      TILY_SL      ROTA_SL      MSPE_SL
#                          SL           _SL
~A  
# ...
    2603.0    1116.2320       0.0000      50.8611     -39.2007       0.9494      -0.6029      -0.7318      65.8672       1.0226
    2604.0    1096.1339       0.0000      50.8611     -39.8891       0.7692      -0.4918      -0.5872      71.9690       1.0226
    2605.0    1079.1918       0.0000      50.8611     -52.6114       0.9261      -0.7360      -0.5620      78.0732       1.0226
    2606.0    1088.1796       0.0000      50.8611     -45.1710       0.8551      -0.6062      -0.6029      84.5664       1.0226
    2607.0    1079.0483       0.0000      50.8611     -42.6015       0.7661      -0.5198      -0.5620      90.6681       1.0226
    2608.0    1078.6682       0.0000      50.8611     -42.2034       0.7459      -0.5011      -0.5525      96.7699       1.0226
    2609.0    1083.3976       0.0000      50.8611     -50.2055       0.7764      -0.5969      -0.4959     102.8594       1.0161
    2610.0    1081.0249       0.0000      50.8611     -51.8739       0.8546      -0.6711      -0.5273     108.9874       1.0226
    2611.0    1084.6827       0.0000      50.8611     -48.7051       0.6627      -0.4918      -0.4332     115.0911       1.0226
    2612.0    1096.1339       0.0000      50.8611     -54.8275       0.7056      -0.5754      -0.4047     121.1818       1.0226
    2613.0    1097.3194       0.0000      50.8611     -58.5765       0.7464      -0.6370      -0.3890     127.2832       1.0226
    2614.0    1111.4564       0.0000      50.8611     -53.5376       0.7231      -0.5814      -0.4299     133.3728       1.0226
    2615.0    1121.4115       0.0000      50.8611     -61.0933       0.7211      -0.6309      -0.3481     139.4766       1.0226
    2616.0    1134.0725       0.0000      50.8611     -66.0408       0.6805      -0.6216      -0.2758     145.5719       1.0161
    2617.0    1152.9564       0.0000      50.8611     -72.7439       0.7090      -0.6772      -0.2097     151.6682       1.0226
    2618.0    1163.9765       0.0000      50.8611     -64.8723       0.7595      -0.6865      -0.3229     158.1762       1.0226
    2619.0    1175.9448       0.0000      50.8611     -69.7223       0.8890      -0.8316      -0.2979     163.8689       1.0226
    2620.0    1201.4489       0.0000      50.8611     -67.5373       0.8033      -0.7421      -0.3072     169.9708       1.0226
    2621.0    1215.5152       0.0000      50.8611     -73.6719       0.8018      -0.7636      -0.2130     176.0727       1.0226
    2622.0    1230.0657       0.0000      50.8611     -71.4629       1.0717      -1.0167      -0.3386     182.1908       1.0226
    2623.0    1248.3781       0.0000      50.8611     -69.1769       0.8901      -0.8318      -0.3167     188.2868       1.0185
    2624.0    1274.3178       0.0000      50.8611     -71.6372       0.9744      -0.9243      -0.3010     194.3941       1.0226
    2625.0    1293.0660       0.0000      50.8611     -75.4692       0.9782      -0.9462      -0.2411     200.4960       1.0226
    2626.0    1314.6337       0.0000      50.8611     -75.2496       0.9847      -0.9523      -0.2506     206.5979       1.0226
    2627.0    1324.9474       0.0000      50.8611     -61.3551       1.1202      -0.9831      -0.5368     212.6951       1.0185
    2628.0    1346.6030       0.0000      50.8611     -70.9181       0.9998      -0.9429      -0.3262     218.8288       1.0226
    2629.0    1382.0214       0.0000      50.8611     -72.2778       0.9908      -0.9429      -0.3010     224.9319       1.0226
    2630.0    1397.2222       0.0000      50.8611     -79.9986       0.9905      -0.9738      -0.1750     231.4387       1.0226
    2631.0    1408.4173       0.0000      50.8611     -71.3070       1.1651      -1.1036      -0.3733     237.5406       1.0226
    2632.0    1428.6892       0.0000      50.8611     -70.2006       1.0550      -0.9924      -0.3576     243.6557       1.0226
    2633.0    1440.3964       0.0000      50.8611     -73.3960       1.1265      -1.0789      -0.3229     249.7576       1.0226
    2634.0    1447.2228       0.0000      50.8611     -68.6121       1.2052      -1.1223      -0.4394     255.8614       1.0226
    2635.0    1440.3964       0.0000      50.8611     -66.7352       1.2182      -1.1190      -0.4802     261.9763       1.0226
    2636.0    1446.3221       0.0000      50.8611     -66.3970       1.1613      -1.0634      -0.4646     268.0781       1.0226
    2637.0    1465.1541       0.0000      50.8611     -60.5913       1.1810      -1.0293      -0.5777     274.1800       1.0226
    2638.0    1448.3770       0.0000      50.8611     -65.2247       1.2990      -1.1779      -0.5430     280.2948       1.0226
    2639.0    1457.6065       0.0000      50.8611     -61.8098       1.2586      -1.1097      -0.5934     286.4148       1.0267
    2640.0    1462.5112       0.0000      50.8611     -58.1709       1.3281      -1.1284      -0.7004     292.5270       1.0226
    2641.0    1458.7655       0.0000      50.8611     -58.8701       1.2780      -1.0943      -0.6595     298.6426       1.0226
    2642.0    1440.1495       0.0000      50.8611     -60.7667       1.1833      -1.0326      -0.5777     305.1474       1.0226
    2643.0    1444.4839       0.0000      50.8611     -56.6839       1.2792      -1.0695      -0.7004     311.2504       1.0226
    2644.0    1421.1276       0.0000      50.8611     -59.3171       1.2300      -1.0574      -0.6281     317.3511       1.0226
    2645.0    1428.0034       0.0000      50.8611     -54.3199       1.2712      -1.0326      -0.7413     323.4482       1.0185
    2646.0    1416.4962       0.0000      50.8611     -56.0708       1.2650      -1.0480      -0.7066     329.5574       1.0226
    2647.0    1388.1279       0.0000      50.8611     -50.9956       1.2576      -0.9770      -0.7917     335.6519       1.0202
    2648.0    1368.1943       0.0000      50.8611     -58.5821       1.3249      -1.1195      -0.6624     341.7618       1.0226
    2649.0    1346.3878       0.0000      50.8611     -50.7893       1.1973      -0.9275      -0.7570     347.8512       1.0267
    2650.0    1321.6636       0.0000      50.8611     -48.7310       1.1881      -0.8934      -0.7822     353.9662       1.0226
    2651.0    1309.5825       0.0000      50.8611     -48.7299       1.2607      -0.9518      -0.8259     221.9180       1.0226
    2652.0    1280.7377       0.0000      50.8611     -45.5318       1.1882      -0.8472      -0.8325       6.1698       1.0226
    2653.0    1255.0631       0.0000      50.8611     -42.0882       1.1578      -0.7790      -0.8544      12.2728       1.0226
    2654.0    1245.5088       0.0000      50.8611     -50.4410       1.0382      -0.8009      -0.6595      18.7796       1.0226
    2655.0    1228.3367       0.0000      50.8611     -46.1466       1.1136      -0.8038      -0.7665      24.8822       1.0267
    2656.0    1200.6592       0.0000      50.8611     -47.6786       1.0791      -0.7977      -0.7256      30.9849       1.0226
    2657.0    1180.5008       0.0000      50.8611     -44.4353       1.1261      -0.7883      -0.8040      37.0743       1.0226
    2658.0    1170.6734       0.0000      50.8611     -42.8276       1.0370      -0.7052      -0.7603      43.1780       1.0226
    2659.0    1152.5785       0.0000      50.8611     -42.5636       0.9938      -0.6711      -0.7318      49.2780       1.0226
    2660.0    1141.1629       0.0000      50.8611     -39.8203       0.9690      -0.6183      -0.7351      55.3817       1.0226
    2661.0    1120.7263       0.0000      50.8611     -40.1110       0.8636      -0.5567      -0.6595      61.4866       1.0267
    2662.0    1105.5425       0.0000      50.8611     -42.1014       0.8964      -0.6029      -0.6595      67.5984       1.0226
    2663.0    1098.2364       0.0000      50.8611     -46.7568       0.8886      -0.6464      -0.6091      73.6879       1.0267
    2664.0    1084.0392       0.0000      50.8611     -38.1294       0.9038      -0.5567      -0.7099      79.7916       1.0226
    2665.0    1085.8584       0.0000      50.8611     -38.7125       0.8654      -0.5413      -0.6752      85.8811       1.0226
