~VERSION INFORMATION
VERS.           2.0   :CWLS Log ASCII Standard - VERSION 2.0
WRAP.           NO    :One Line per depth step
PROD.  Schlumberger   :LAS Producer
PROG.  DLIS to ASCII 19C2-270                          :LAS Program name and version
CREA.        2017/09/16 17:42                          :LAS Creation date {YYYY/MM/DD hh:mm}
DLIS_CREA.  2017-Sep-15 13:45                          :DLIS Creation date and time {YYYY-MMM-DD hh:mm}
SOURCE.     LPC_S1-1_2B5.DLIS                          :DLIS File Name
FILE-ID.     PERFO_Perfo_WPGRT_026LTP                  :File Identification Number
#--------------------------------------------------
~WELL INFORMATION
#MNEM.UNIT      DATA             DESCRIPTION
#---- ------ --------------   -----------------------------
STRT .S        10666.0       :START TIME      
STOP .S        11234.0       :STOP TIME      
STEP .S            1.0       :STEP     
NULL .          -999.25      :NULL VALUE
COMP .        SHELL INTERNATIONAL E P                  :COMPANY
WELL .        WPP TEST 2                               :WELL
FLD  .        WILDCAT                                  :FIELD
LOC  .                                                 :LOCATION
CNTY .        HARRIS                                   :COUNTY
STAT .        TEXAS                                    :STATE
CTRY .                                                 :COUNTRY
API  .                                                 :API NUMBER
UWI  .                                                 :UNIQUE WELL ID
DATE .                                                 :LOG DATE
SRVC .        Schlumberger                             :SERVICE COMPANY
LATI .DEG                                              :LATITUDE
LONG .DEG                                              :LONGITUDE
GDAT .                                                 :GeoDetic Datum
#-----------------------------------------------------------------------------
~PARAMETER INFORMATION
#MNEM.UNIT    VALUE                      DESCRIPTION
#---- -----   --------------------       ------------------------
U-PHASE_B_COMP_PER_YT.                 0 :Phase B Comparator Period Yt
U-PHASE_A_COMP_PER_XT.                 0 :Phase A Comparator Period Xt
U-MAX_EXC_CUR_LIMIT.MA       240.00000   :Requested CM Current Limit
U-REQ_EXC_FQ.HZ              50          :Requested CM Frequency
U-TILT_Y_OFFSET.           0.19916       :WPTET Tilt Y Offset
U-TILT_Y_GAIN.           1.01796         :WPTET Tilt Y Gain
U-TILT_X_OFFSET.          -1.77103       :WPTET Tilt X Offset
U-TILT_X_GAIN.           1.00000         :WPTET Tilt X Gain
U-TILT_OFFSET_TOL.           0.00100     :WPTET Tilt Offset Calibration Tolerance
U-NO_TILT_CAL_ROTATIONS.                 3 :Number of Rotations for Tilt Calibration
HAZI .DEG        0.00000                 :Hole Azimuth
U-STD_TOL_TILT.           0.01000        :Tilt Standard Deviation Tolerance
U-GUN_POS_TOL.DEG        5.00000         :Gun Position Tolerance
ROT_ANGLE_THRESHOLD.DEG        5.00000   :Rotation Stop Angle Tolerance
STOP_ROT_ANGLE.DEG       80.00000        :Rotation Stop Angle
WITN .                                   :Witness's Name
ENGI .                                   :Engineer's Name
COUN .        HARRIS                     :County or Rig Name
FN   .        WILDCAT                    :Field Name
WN   .        WPP TEST 2                 :Well Name
CN   .        SHELL INTERNATIONAL E P    :Company Name
CLAB .        County                     :County/Rig Label
SLAB .        State                      :State/Province Label
RUN  .          1                        :RUN NUMBER
PDAT .        GROUND LEVEL               :Permanent Datum
EPD  .                                   :Elevation of Permanent Datum above Mean Sea Level
LMF  .                                   :Logging Measured From (Name of Logging Elevation Reference)
APD  .                                   :Elevation of Depth Reference (LMF) above Permanent Datum
#-----------------------------------------------------------------------------
~CURVE INFORMATION
#MNEM.UNIT   API CODE                                  DESCRIPTION
#---- -----  --------                                  -----------------------
TIME .S                                                :TIME {F10.1}
FREQ_EMF_SL.HZ                                         :Electromagnetic Field Frequency {F13.4}
PH_SH_WPPCM_SL.DEG                                     :WPPCM Phase Shift {F13.4}
FREQ_EXC_REQ_SL.HZ                                     :Requested Exciter Frequency {F13.4}
RB_SL.DEG                                              :Relative Bearing {F13.4}
SDEV_SL.DEG                                            :Sonde Deviation {F13.4}
TILX_SL.DEG                                            :X-axis Tilt {F13.4}
TILY_SL.DEG                                            :Y-axis Tilt {F13.4}
ROTA_SL.DEG                                            :Motor Rotation Angle {F13.4}
MSPE_SL.RPM                                            :Motor Speed {F13.4}
#-----------------------------------------------------------------------------
# 
#     TIME    FREQ_EMF_SL  PH_SH_WPPCM_ FREQ_EXC_REQ    RB_SL       SDEV_SL      TILX_SL      TILY_SL      ROTA_SL      MSPE_SL
#                          SL           _SL
~A  
# ...
   10729.0    1337.6214       0.0000      50.8611     -66.9933       4.9125      -4.5208      -1.9176     157.3816       1.0214
   10730.0    1316.9976       0.0000      50.8611     -62.4495       5.0051      -4.4359      -2.3124     163.4858       1.0226
   10731.0    1285.6913       0.0000      50.8611     -57.4360       4.9853      -4.1995      -2.6804     169.5614       1.0133
   10732.0    1247.0477       0.0000      50.8611     -52.9748       5.0677      -4.0435      -3.0484     175.6526       1.0226
   10733.0    1230.4861       0.0000      50.8611     -48.8458       4.9750      -3.7438      -3.2716     181.7654       1.0226
   10734.0    1213.4201       0.0000      50.8611     -44.3392       5.0926      -3.5568      -3.6396     187.8697       1.0226
   10735.0    1195.7908       0.0000      50.8611     -31.5981       4.3514      -2.2836      -3.6946     193.9616       1.0226
   10736.0    1168.8801       0.0000      50.8611     -34.8268       4.9339      -2.8154      -4.0485     200.0612       1.0133
   10737.0    1161.3823       0.0000      50.8611     -29.8492       4.8632      -2.4183      -4.2167     206.1492       1.0226
   10738.0    1156.0195       0.0000      50.8611     -24.5542       4.7719      -1.9811      -4.3394     212.2544       1.0226
   10739.0    1139.1632       0.0000      50.8611     -19.7342       4.8516      -1.6367      -4.5659     218.7644       1.0226
   10740.0    1117.0982       0.0000      50.8611     -13.4965       4.7479      -1.1067      -4.6162     224.8639       1.0226
   10741.0    1122.0315       0.0000      50.8611      -9.5347       4.6348      -0.7669      -4.5706     230.9682       1.0226
   10742.0    1122.1794       0.0000      50.8611      -2.7866       4.6079      -0.2230      -4.6021     237.0724       1.0226
   10743.0    1113.8978       0.0000      50.8611       1.9147       4.4284       0.1477      -4.4259     243.1729       1.0226
   10744.0    1118.6684       0.0000      50.8611       5.1744       4.3667       0.3934      -4.3488     249.2616       1.0133
   10745.0    1123.4095       0.0000      50.8611      11.4039       4.0707       0.8043      -3.9902     255.3644       1.0226
   10746.0    1124.7933       0.0000      50.8611      17.7117       4.1418       1.2585      -3.9446     261.4685       1.0226
   10747.0    1129.5954       0.0000      50.8611      24.1430       3.9739       1.6247      -3.6255     267.5678       1.0226
   10748.0    1143.0793       0.0000      50.8611      29.8481       3.8779       1.9289      -3.3628     273.6804       1.0133
   10749.0    1159.3973       0.0000      50.8611      35.2325       3.7791       2.1792      -3.0860     279.7718       1.0226
   10750.0    1169.2569       0.0000      50.8611      41.1546       3.6651       2.4109      -2.7589     285.8779       1.0214
   10751.0    1181.2675       0.0000      50.8611      47.0000       3.5533       2.5979      -2.4224     292.3947       1.0226
   10752.0    1200.3446       0.0000      50.8611      54.0824       3.2865       2.6612      -1.9270     298.5258       1.0226
   10753.0    1213.8975       0.0000      50.8611      61.4929       3.2318       2.8389      -1.5416     304.6299       1.0226
   10754.0    1234.7286       0.0000      50.8611      68.5169       3.2669       3.0397      -1.1957     310.7169       1.0226
   10755.0    1257.8265       0.0000      50.8611      76.2035       3.1302       3.0397      -0.7460     316.8293       1.0226
   10756.0    1289.5951       0.0000      50.8611      82.8939       3.0587       3.0351      -0.3780     322.9086       1.0321
   10757.0    1322.7321       0.0000      50.8611      91.9934       2.9799       2.9779       0.1033     329.0387       1.0226
   10758.0    1348.6796       0.0000      50.8611      99.4734       2.9784       2.9377       0.4901     335.1511       1.0226
   10759.0    1353.0658       0.0000      50.8611     108.6116       2.9012       2.7493       0.9257     341.2504       1.0321
   10760.0    1378.0572       0.0000      50.8611     119.8464       2.9053       2.5190       1.4432     347.3683       1.0214
   10761.0    1390.7570       0.0000      50.8611     123.1371       2.8007       2.3445       1.5311     353.4601       1.0226
   10762.0    1394.1399       0.0000      50.8611     129.2722       2.7281       2.1113       1.7261     359.5594       1.0226
   10763.0    1398.1830       0.0000      50.8611     141.7441       2.9445       1.8223       2.3112       6.0822       1.0226
   10764.0    1409.3936       0.0000      50.8611     149.0340       3.0837       1.5859       2.6430      12.1864       1.0226
   10765.0    1422.3419       0.0000      50.8611     156.0267       3.1561       1.2816       2.8837      18.2859       1.0226
   10766.0    1428.4505       0.0000      50.8611     162.6258       3.2177       0.9603       3.0707      24.3853       1.0226
   10767.0    1432.0265       0.0000      50.8611     170.8815       3.3029       0.5231       3.2611      30.5013       1.0321
   10768.0    1441.1701       0.0000      50.8611     178.0245       3.3904       0.1168       3.3884      36.6069       1.0226
   10769.0    1437.5460       0.0000      50.8611    -173.6359       3.4921      -0.3869       3.4702      42.7074       1.0334
   10770.0    1447.4468       0.0000      50.8611    -168.1630       3.4992      -0.7175       3.4246      48.8199       1.0226
   10771.0    1444.8177       0.0000      50.8611    -160.6993       3.6205      -1.1948       3.4166      54.9425       1.0226
   10772.0    1456.0927       0.0000      50.8611    -154.5248       3.7140      -1.5965       3.3522      61.0674       1.0238
   10773.0    1453.4309       0.0000      50.8611    -148.9742       3.8281      -1.9719       3.2799      67.1930       1.0238
   10774.0    1456.0927       0.0000      50.8611    -143.8246       3.8948      -2.2978       3.1431      73.2924       1.0226
   10775.0    1446.7593       0.0000      50.8611    -137.7268       4.0476      -2.7212       2.9936      79.8200       1.0226
   10776.0    1455.0550       0.0000      50.8611    -132.4239       4.1297      -3.0471       2.7845      85.9201       1.0226
   10777.0    1444.8177       0.0000      50.8611    -126.0270       4.1344      -3.3421       2.4306      92.0304       1.0321
   10778.0    1438.5625       0.0000      50.8611    -121.8501       4.2722      -3.6279       2.2530      98.1360       1.0226
   10779.0    1439.8174       0.0000      50.8611    -114.8014       4.4637      -4.0513       1.8709     104.2409       1.0226
   10780.0    1439.8174       0.0000      50.8611    -110.6469       4.5115      -4.2212       1.5893     110.3396       1.0226
   10781.0    1433.2088       0.0000      50.8611    -104.0158       4.5948      -4.4576       1.1116     116.4322       1.0226
   10782.0    1420.7853       0.0000      50.8611     -99.6241       4.6483      -4.5827       0.7763     122.5186       1.0321
   10783.0    1419.7972       0.0000      50.8611     -94.9202       4.7656      -4.7480       0.4083     128.6360       1.0226
   10784.0    1402.8014       0.0000      50.8611     -88.0748       4.7554      -4.7526      -0.1594     134.7356       1.0226
   10785.0    1390.5282       0.0000      50.8611     -84.2717       4.8791      -4.8546      -0.4865     140.8351       1.0226
   10786.0    1382.0117       0.0000      50.8611     -78.9502       4.8429      -4.7526      -0.9269     146.9394       1.0133
   10787.0    1368.2542       0.0000      50.8611     -74.0907       4.8959      -4.7078      -1.3405     153.4370       1.0226
   10788.0    1329.1588       0.0000      50.8611     -68.9981       5.0008      -4.6676      -1.7902     159.5297       1.0226
   10789.0    1317.8563       0.0000      50.8611     -64.8715       5.0135      -4.5379      -2.1268     165.6293       1.0226
   10790.0    1291.2346       0.0000      50.8611     -58.5301       4.9415      -4.2134      -2.5765     171.7336       1.0226
   10791.0    1268.6537       0.0000      50.8611     -54.6732       5.0021      -4.0790      -2.8895     177.8083       1.0226
