~VERSION INFORMATION
VERS.           2.0   :CWLS Log ASCII Standard - VERSION 2.0
WRAP.           NO    :One Line per depth step
PROD.  Schlumberger   :LAS Producer
PROG.  DLIS to ASCII 19C2-270                          :LAS Program name and version
CREA.        2017/09/16 17:42                          :LAS Creation date {YYYY/MM/DD hh:mm}
DLIS_CREA.  2017-Sep-15 15:20                          :DLIS Creation date and time {YYYY-MMM-DD hh:mm}
SOURCE.     LPC_S2-1_2B5.DLIS                          :DLIS File Name
FILE-ID.     PERFO_Perfo_WPGRT_034LTP                  :File Identification Number
#--------------------------------------------------
~WELL INFORMATION
#MNEM.UNIT      DATA             DESCRIPTION
#---- ------ --------------   -----------------------------
STRT .S        16366.0       :START TIME      
STOP .S        16828.0       :STOP TIME      
STEP .S            1.0       :STEP     
NULL .          -999.25      :NULL VALUE
COMP .        SHELL INTERNATIONAL E P                  :COMPANY
WELL .        WPP TEST 2                               :WELL
FLD  .        WILDCAT                                  :FIELD
LOC  .                                                 :LOCATION
CNTY .        HARRIS                                   :COUNTY
STAT .        TEXAS                                    :STATE
CTRY .                                                 :COUNTRY
API  .                                                 :API NUMBER
UWI  .                                                 :UNIQUE WELL ID
DATE .                                                 :LOG DATE
SRVC .        Schlumberger                             :SERVICE COMPANY
LATI .DEG                                              :LATITUDE
LONG .DEG                                              :LONGITUDE
GDAT .                                                 :GeoDetic Datum
#-----------------------------------------------------------------------------
~PARAMETER INFORMATION
#MNEM.UNIT    VALUE                      DESCRIPTION
#---- -----   --------------------       ------------------------
U-PHASE_B_COMP_PER_YT.                 0 :Phase B Comparator Period Yt
U-PHASE_A_COMP_PER_XT.                 0 :Phase A Comparator Period Xt
U-MAX_EXC_CUR_LIMIT.MA       240.00000   :Requested CM Current Limit
U-REQ_EXC_FQ.HZ              50          :Requested CM Frequency
U-TILT_Y_OFFSET.           0.19916       :WPTET Tilt Y Offset
U-TILT_Y_GAIN.           1.01796         :WPTET Tilt Y Gain
U-TILT_X_OFFSET.          -1.77103       :WPTET Tilt X Offset
U-TILT_X_GAIN.           1.00000         :WPTET Tilt X Gain
U-TILT_OFFSET_TOL.           0.00100     :WPTET Tilt Offset Calibration Tolerance
U-NO_TILT_CAL_ROTATIONS.                 3 :Number of Rotations for Tilt Calibration
HAZI .DEG        0.00000                 :Hole Azimuth
U-STD_TOL_TILT.           0.01000        :Tilt Standard Deviation Tolerance
U-GUN_POS_TOL.DEG        5.00000         :Gun Position Tolerance
ROT_ANGLE_THRESHOLD.DEG        5.00000   :Rotation Stop Angle Tolerance
STOP_ROT_ANGLE.DEG       80.00000        :Rotation Stop Angle
WITN .                                   :Witness's Name
ENGI .                                   :Engineer's Name
COUN .        HARRIS                     :County or Rig Name
FN   .        WILDCAT                    :Field Name
WN   .        WPP TEST 2                 :Well Name
CN   .        SHELL INTERNATIONAL E P    :Company Name
CLAB .        County                     :County/Rig Label
SLAB .        State                      :State/Province Label
RUN  .          1                        :RUN NUMBER
PDAT .        GROUND LEVEL               :Permanent Datum
EPD  .                                   :Elevation of Permanent Datum above Mean Sea Level
LMF  .                                   :Logging Measured From (Name of Logging Elevation Reference)
APD  .                                   :Elevation of Depth Reference (LMF) above Permanent Datum
#-----------------------------------------------------------------------------
~CURVE INFORMATION
#MNEM.UNIT   API CODE                                  DESCRIPTION
#---- -----  --------                                  -----------------------
TIME .S                                                :TIME {F10.1}
FREQ_EMF_SL.HZ                                         :Electromagnetic Field Frequency {F13.4}
PH_SH_WPPCM_SL.DEG                                     :WPPCM Phase Shift {F13.4}
FREQ_EXC_REQ_SL.HZ                                     :Requested Exciter Frequency {F13.4}
RB_SL.DEG                                              :Relative Bearing {F13.4}
SDEV_SL.DEG                                            :Sonde Deviation {F13.4}
TILX_SL.DEG                                            :X-axis Tilt {F13.4}
TILY_SL.DEG                                            :Y-axis Tilt {F13.4}
ROTA_SL.DEG                                            :Motor Rotation Angle {F13.4}
MSPE_SL.RPM                                            :Motor Speed {F13.4}
#-----------------------------------------------------------------------------
# 
#     TIME    FREQ_EMF_SL  PH_SH_WPPCM_ FREQ_EXC_REQ    RB_SL       SDEV_SL      TILX_SL      TILY_SL      ROTA_SL      MSPE_SL
#                          SL           _SL
~A  
# ...
   16744.0    1279.5417       0.0000      50.8611     -57.0173       5.6326      -4.7225      -3.0621     325.6436       1.0226
   16745.0    1251.9596       0.0000      50.8611     -51.7701       5.6059      -4.4011      -3.4652     331.7446       1.0226
   16746.0    1235.4247       0.0000      50.8611     -46.5341       5.4884      -3.9802      -3.7727     337.8470       1.0226
   16747.0    1219.6159       0.0000      50.8611     -42.8851       5.5707      -3.7874      -4.0745     343.9494       1.0226
   16748.0    1202.4197       0.0000      50.8611     -37.0741       5.5835      -3.3624      -4.4523     350.0380       1.0226
   16749.0    1192.9918       0.0000      50.8611     -32.6652       5.5091      -2.9704      -4.6354     356.1390       1.0226
   16750.0    1177.0154       0.0000      50.8611     -26.0512       5.5620      -2.4402      -4.9936       2.2291       1.0226
   16751.0    1172.3470       0.0000      50.8611     -21.5040       5.4124      -1.9815      -5.0345       8.3317       1.0226
   16752.0    1166.5121       0.0000      50.8611     -16.5911       5.3656      -1.5300      -5.1416      14.4081       1.0161
   16753.0    1162.4658       0.0000      50.8611     -12.4936       5.2668      -1.1380      -5.1416      20.5262       1.0267
   16754.0    1162.9213       0.0000      50.8611      -5.8938       5.1279      -0.5259      -5.1007      26.6418       1.0226
   16755.0    1165.7809       0.0000      50.8611      -0.4964       5.0699      -0.0439      -5.0697      33.1478       1.0226
   16756.0    1171.1341       0.0000      50.8611       4.4215       5.0399       0.3883      -5.0247      39.2417       1.0293
   16757.0    1176.8301       0.0000      50.8611       7.8954       5.0668       0.6904      -5.0173      45.3524       1.0226
   16758.0    1194.3577       0.0000      50.8611      15.6056       4.8016       1.2873      -4.6240      51.4550       1.0226
   16759.0    1203.9811       0.0000      50.8611      20.4029       4.8095       1.6737      -4.5070      57.5461       1.0267
   16760.0    1219.8992       0.0000      50.8611      26.4698       4.6947       2.0906      -4.2012      63.6456       1.0226
   16761.0    1234.3764       0.0000      50.8611      32.3422       4.3949       2.3497      -3.7106      69.7612       1.0226
   16762.0    1273.7772       0.0000      50.8611      36.9656       4.2895       2.5782      -3.4243      75.8637       1.0226
   16763.0    1287.2130       0.0000      50.8611      45.2629       4.2170       2.9952      -2.9648      81.9786       1.0293
   16764.0    1315.5483       0.0000      50.8611      52.1922       4.1218       3.2554      -2.5248      88.0674       1.0161
   16765.0    1325.1019       0.0000      50.8611      58.2947       3.9511       3.3607      -2.0750      94.1625       1.0293
   16766.0    1340.8704       0.0000      50.8611      65.5740       3.8186       3.4755      -1.5787     100.2733       1.0226
   16767.0    1355.1451       0.0000      50.8611      71.1316       3.8702       3.6611      -1.2515     106.5393       1.0293
   16768.0    1361.3982       0.0000      50.8611      78.5257       3.7011       3.6266      -0.7355     112.8972       1.0226
   16769.0    1368.3312       0.0000      50.8611      86.7481       3.5871       3.5808      -0.2040     119.0047       1.0267
   16770.0    1382.7091       0.0000      50.8611      93.9621       3.5456       3.5366       0.2458     125.1238       1.0309
   16771.0    1396.8088       0.0000      50.8611     102.3541       3.5179       3.4354       0.7520     131.2674       1.0361
   16772.0    1400.4013       0.0000      50.8611     110.9004       3.5119       3.2803       1.2524     137.3579       1.0226
   16773.0    1409.2689       0.0000      50.8611     117.4125       3.5154       3.1203       1.6176     143.4605       1.0226
   16774.0    1420.4546       0.0000      50.8611     125.9828       3.5216       2.8497       2.0645     149.5494       1.0226
   16775.0    1421.5472       0.0000      50.8611     135.5372       3.5926       2.5156       2.5608     155.6506       1.0226
   16776.0    1432.0265       0.0000      50.8611     143.9671       3.4811       2.0464       2.8103     161.7532       1.0226
   16777.0    1437.8834       0.0000      50.8611     148.8417       3.6144       1.8689       3.0924     167.8559       1.0226
   16778.0    1444.5061       0.0000      50.8611     157.2641       3.7192       1.4367       3.4293     173.9594       1.0226
   16779.0    1451.5994       0.0000      50.8611     161.0121       3.8004       1.2359       3.5929     177.5671       0.0005
   16780.0    1447.1892       0.0000      50.8611     161.6572       3.8394       1.2069       3.6436     177.5671       0.0005
   16781.0    1444.9174       0.0000      50.8611     160.4706       3.7484       1.2511       3.5323     177.5671       0.0005
   16782.0    1441.9542       0.0000      50.8611     161.7491       3.7406       1.1708       3.5520     177.5671       0.0005
   16783.0    1444.5061       0.0000      50.8611     161.4041       3.8179       1.2166       3.6182     177.5671       0.0005
   16784.0    1446.7593       0.0000      50.8611     161.9496       3.8490       1.1917       3.6591     177.5671       0.0005
   16785.0    1448.1456       0.0000      50.8611     161.2350       3.7085       1.1923       3.5111     177.5671       0.0005
   16786.0    1443.0830       0.0000      50.8611     160.9209       3.6901       1.2053       3.4857     177.5671       0.0005
   16787.0    1441.9542       0.0000      50.8611     161.1611       3.7698       1.2166       3.5675     177.5671       0.0005
   16788.0    1449.3370       0.0000      50.8611     161.7412       3.7570       1.1764       3.5675     177.5671       0.0005
   16789.0    1449.7422       0.0000      50.8611     160.8830       3.7765       1.2359       3.5675     177.5671       0.0005
   16790.0    1446.0509       0.0000      50.8611     160.9067       3.7056       1.2109       3.5013     177.5671       0.0005
   16791.0    1447.8928       0.0000      50.8611     160.5511       3.7777       1.2567       3.5618     177.5671       0.0005
   16792.0    1445.6304       0.0000      50.8611     160.6192       3.8361       1.2720       3.6182     177.5671       0.0005
   16793.0    1447.4798       0.0000      50.8611     161.3748       3.7158       1.1860       3.5209     177.5671       0.0005
   16794.0    1449.0311       0.0000      50.8611     161.3501       3.7594       1.2013       3.5618     177.5671       0.0005
   16795.0    1442.3898       0.0000      50.8611     160.5967       3.7999       1.2624       3.5830     177.5671       0.0005
   16796.0    1446.3555       0.0000      50.8611     160.9277       3.8018       1.2415       3.5929     177.5671       0.0005
   16797.0    1450.4659       0.0000      50.8611     161.0051       3.7404       1.2166       3.5364     177.5671       0.0005
   16798.0    1446.7593       0.0000      50.8611     161.1611       3.7698       1.2166       3.5675     177.5671       0.0005
   16799.0    1447.8928       0.0000      50.8611     161.8872       3.7543       1.1668       3.5675     177.5671       0.0005
   16800.0    1445.6304       0.0000      50.8611     160.7553       3.8163       1.2567       3.6027     177.5671       0.0005
   16801.0    1446.0509       0.0000      50.8611     161.8210       3.7931       1.1820       3.6027     177.5671       0.0005
   16802.0    1449.7422       0.0000      50.8611     161.3919       3.7688       1.2013       3.5716     177.5671       0.0005
   16803.0    1440.1274       0.0000      50.8611     160.6318       3.7923       1.2567       3.5773     177.5671       0.0005
   16804.0    1443.7886       0.0000      50.8611     161.8256       3.7758       1.1764       3.5871     177.5671       0.0005
   16805.0    1445.6304       0.0000      50.8611     161.5881       3.8076       1.2013       3.6125     177.5671       0.0005
   16806.0    1447.8928       0.0000      50.8611     161.1869       3.7571       1.2109       3.5561     177.5671       0.0005
