~VERSION INFORMATION
VERS.           2.0   :CWLS Log ASCII Standard - VERSION 2.0
WRAP.           NO    :One Line per depth step
PROD.  Schlumberger   :LAS Producer
PROG.  DLIS to ASCII 19C2-270                          :LAS Program name and version
CREA.        2017/09/16 17:42                          :LAS Creation date {YYYY/MM/DD hh:mm}
DLIS_CREA.  2017-Sep-15 19:08                          :DLIS Creation date and time {YYYY-MMM-DD hh:mm}
SOURCE.     LPC_S5-1_B5.DLIS                           :DLIS File Name
FILE-ID.     PERFO_Perfo_WPGRT_059LTP                  :File Identification Number
#--------------------------------------------------
~WELL INFORMATION
#MNEM.UNIT      DATA             DESCRIPTION
#---- ------ --------------   -----------------------------
STRT .S         7683.0       :START TIME      
STOP .S         8122.0       :STOP TIME      
STEP .S            1.0       :STEP     
NULL .          -999.25      :NULL VALUE
COMP .        SHELL INTERNATIONAL E P                  :COMPANY
WELL .        WPP TEST 2                               :WELL
FLD  .        WILDCAT                                  :FIELD
LOC  .        NA                                       :LOCATION
CNTY .        HARRIS                                   :COUNTY
STAT .        TEXAS                                    :STATE
CTRY .                                                 :COUNTRY
API  .        NA                                       :API NUMBER
UWI  .                                                 :UNIQUE WELL ID
DATE .        15-Sep-2017                              :LOG DATE {DD-MMM-YYYY}
SRVC .        Schlumberger                             :SERVICE COMPANY
LATI .DEG                                              :LATITUDE
LONG .DEG                                              :LONGITUDE
GDAT .                                                 :GeoDetic Datum
SECT .        NA                                       :Section
RANG .        NA                                       :Range
TOWN .        NA                                       :Township
#-----------------------------------------------------------------------------
~PARAMETER INFORMATION
#MNEM.UNIT    VALUE                      DESCRIPTION
#---- -----   --------------------       ------------------------
U-PHASE_B_COMP_PER_YT.                 0 :Phase B Comparator Period Yt
U-PHASE_A_COMP_PER_XT.                 0 :Phase A Comparator Period Xt
U-MAX_EXC_CUR_LIMIT.MA       240.00000   :Requested CM Current Limit
U-REQ_EXC_FQ.HZ              50          :Requested CM Frequency
U-TILT_Y_OFFSET.           0.19916       :WPTET Tilt Y Offset
U-TILT_Y_GAIN.           1.01796         :WPTET Tilt Y Gain
U-TILT_X_OFFSET.          -1.77103       :WPTET Tilt X Offset
U-TILT_X_GAIN.           1.00000         :WPTET Tilt X Gain
U-TILT_OFFSET_TOL.           0.00100     :WPTET Tilt Offset Calibration Tolerance
U-NO_TILT_CAL_ROTATIONS.                 3 :Number of Rotations for Tilt Calibration
HAZI .DEG        0.00000                 :Hole Azimuth
U-STD_TOL_TILT.           0.01000        :Tilt Standard Deviation Tolerance
U-GUN_POS_TOL.DEG        5.00000         :Gun Position Tolerance
ROT_ANGLE_THRESHOLD.DEG        5.00000   :Rotation Stop Angle Tolerance
STOP_ROT_ANGLE.DEG        0.00000        :Rotation Stop Angle
WITN .        MR. DHRUA ARORA            :Witness's Name
ENGI .        MORRIS MOORE               :Engineer's Name
COUN .        HARRIS                     :County or Rig Name
FN   .        WILDCAT                    :Field Name
WN   .        WPP TEST 2                 :Well Name
CN   .        SHELL INTERNATIONAL E P    :Company Name
CLAB .        County                     :County/Rig Label
SLAB .        State                      :State/Province Label
RUN  .          1                        :RUN NUMBER
PDAT .        GROUND LEVEL               :Permanent Datum
EPD  .                                   :Elevation of Permanent Datum above Mean Sea Level
LMF  .          NA                       :Logging Measured From (Name of Logging Elevation Reference)
APD  .                                   :Elevation of Depth Reference (LMF) above Permanent Datum
#-----------------------------------------------------------------------------
~CURVE INFORMATION
#MNEM.UNIT   API CODE                                  DESCRIPTION
#---- -----  --------                                  -----------------------
TIME .S                                                :TIME {F10.1}
FREQ_EMF_SL.HZ                                         :Electromagnetic Field Frequency {F13.4}
PH_SH_WPPCM_SL.DEG                                     :WPPCM Phase Shift {F13.4}
FREQ_EXC_REQ_SL.HZ                                     :Requested Exciter Frequency {F13.4}
RB_SL.DEG                                              :Relative Bearing {F13.4}
SDEV_SL.DEG                                            :Sonde Deviation {F13.4}
TILX_SL.DEG                                            :X-axis Tilt {F13.4}
TILY_SL.DEG                                            :Y-axis Tilt {F13.4}
ROTA_SL.DEG                                            :Motor Rotation Angle {F13.4}
MSPE_SL.RPM                                            :Motor Speed {F13.4}
#-----------------------------------------------------------------------------
# 
#     TIME    FREQ_EMF_SL  PH_SH_WPPCM_ FREQ_EXC_REQ    RB_SL       SDEV_SL      TILX_SL      TILY_SL      ROTA_SL      MSPE_SL
#                          SL           _SL
~A  
# ...
    7998.0    1392.5941       0.0000      50.8611     -57.4863       5.4585      -4.6009      -2.9307     154.2713       1.0226
    7999.0    1375.4879       0.0000      50.8611     -51.9734       5.4872      -4.3188      -3.3698     160.3609       1.0226
    8000.0    1374.2623       0.0000      50.8611     -47.4388       5.5467      -4.0825      -3.7485     166.4891       1.0226
    8001.0    1366.4932       0.0000      50.8611     -41.6873       5.5228      -3.6694      -4.1204     172.9923       1.0168
    8002.0    1356.4593       0.0000      50.8611     -38.8448       5.3924      -3.3806      -4.1944     179.0886       1.0226
    8003.0    1339.2858       0.0000      50.8611     -32.9246       5.3275      -2.8919      -4.4698     185.1905       1.0226
    8004.0    1325.2831       0.0000      50.8611     -26.7045       5.2549      -2.3592      -4.6928     191.2924       1.0226
    8005.0    1322.5627       0.0000      50.8611     -21.5986       5.2806      -1.9422      -4.9080     197.3819       1.0226
    8006.0    1304.9769       0.0000      50.8611     -17.4113       5.2282      -1.5617      -4.9790     203.4715       1.0226
    8007.0    1287.7748       0.0000      50.8611     -12.2247       5.1064      -1.0806      -4.9897     209.5734       1.0226
    8008.0    1271.2595       0.0000      50.8611      -8.0937       5.0401      -0.7085      -4.9897     215.6753       1.0226
    8009.0    1263.3703       0.0000      50.8611      -0.4232       4.9983      -0.0362      -4.9975     221.7928       1.0226
    8010.0    1263.3703       0.0000      50.8611       4.4938       4.9049       0.3836      -4.8895     227.9070       1.0226
    8011.0    1258.8465       0.0000      50.8611       9.3245       4.7214       0.7633      -4.6587     234.0037       1.0168
    8012.0    1258.6404       0.0000      50.8611      15.7432       4.5940       1.2453      -4.4212     240.0983       1.0226
    8013.0    1258.8465       0.0000      50.8611      21.8161       4.5826       1.7015      -4.2537     246.6082       1.0226
    8014.0    1268.1439       0.0000      50.8611      26.7347       4.5099       2.0266      -4.0269     252.7109       1.0226
    8015.0    1276.5457       0.0000      50.8611      30.9907       4.3216       2.2237      -3.7037     258.8127       1.0226
    8016.0    1283.0748       0.0000      50.8611      38.1611       4.1867       2.5852      -3.2909     264.9022       1.0168
    8017.0    1303.6444       0.0000      50.8611      44.3161       4.1381       2.8883      -2.9600     270.9917       1.0226
    8018.0    1309.5937       0.0000      50.8611      52.4756       4.0992       3.2498      -2.4956     277.0935       1.0226
    8019.0    1325.5204       0.0000      50.8611      56.8616       3.8603       3.2316      -2.1091     283.1961       1.0226
    8020.0    1329.9177       0.0000      50.8611      65.0166       3.6306       3.2900      -1.5328     289.2912       1.0237
    8021.0    1329.4022       0.0000      50.8611      69.8504       3.7386       3.5090      -1.2874     295.4136       1.0226
    8022.0    1341.3747       0.0000      50.8611      81.8381       3.6522       3.6151      -0.5183     301.5154       1.0226
    8023.0    1352.1635       0.0000      50.8611      86.6023       3.4790       3.4726      -0.2058     307.6105       1.0237
    8024.0    1357.6382       0.0000      50.8611      94.1414       3.3794       3.3703       0.2439     313.7198       1.0168
    8025.0    1364.3557       0.0000      50.8611      98.6870       3.4869       3.4468       0.5263     320.2050       1.0285
    8026.0    1368.9111       0.0000      50.8611     111.3244       3.4223       3.1877       1.2437     326.3182       1.0226
    8027.0    1372.8024       0.0000      50.8611     119.7096       3.4701       3.0126       1.7198     332.4347       1.0226
    8028.0    1388.6061       0.0000      50.8611     124.6655       3.3443       2.7496       1.9018     338.5297       1.0168
    8029.0    1395.0892       0.0000      50.8611     132.7951       3.4246       2.5124       2.3253     344.6256       1.0121
    8030.0    1394.8318       0.0000      50.8611     140.6300       3.4674       2.1978       2.6787     350.7163       1.0226
    8031.0    1402.1781       0.0000      50.8611     150.2494       3.4594       1.7158       3.0019     356.8181       1.0226
    8032.0    1411.8976       0.0000      50.8611     156.7641       3.5395       1.3945       3.2511       2.9199       1.0226
    8033.0    1413.1831       0.0000      50.8611     162.1955       3.5872       1.0952       3.4147       9.0217       1.0226
    8034.0    1422.0289       0.0000      50.8611     169.0346       3.7479       0.7117       3.6785      15.1235       1.0226
    8035.0    1426.2170       0.0000      50.8611     177.2173       3.7998       0.1857       3.7934      21.2253       1.0226
    8036.0    1432.0265       0.0000      50.8611    -175.0794       3.8340      -0.3288       3.8197      27.3272       1.0226
    8037.0    1433.6265       0.0000      50.8611    -168.9183       4.0136      -0.7707       3.9385      33.8370       1.0226
    8038.0    1439.4966       0.0000      50.8611    -163.6959       4.1547      -1.1647       3.9871      39.9388       1.0285
    8039.0    1444.0762       0.0000      50.8611    -156.0472       4.2867      -1.7385       3.9161      46.0537       1.0226
    8040.0    1448.1090       0.0000      50.8611    -149.3064       4.4171      -2.2530       3.7973      52.1432       1.0226
    8041.0    1448.1090       0.0000      50.8611    -142.9699       4.4182      -2.6585       3.5257      58.2203       1.0178
    8042.0    1455.4653       0.0000      50.8611    -139.6075       4.4994      -2.9139       3.4254      64.3179       1.0178
    8043.0    1451.3822       0.0000      50.8611    -132.4364       4.6388      -3.4217       3.1285      70.4256       1.0226
    8044.0    1449.1990       0.0000      50.8611    -124.1021       4.7967      -3.9696       2.6856      76.5278       1.0237
    8045.0    1449.4645       0.0000      50.8611    -120.7428       4.8325      -4.1523       2.4665      82.6300       1.0226
    8046.0    1445.4150       0.0000      50.8611    -116.1469       4.8175      -4.3235       2.1209      88.7390       1.0275
    8047.0    1445.4150       0.0000      50.8611    -110.7798       5.1505      -4.8131       1.8230      94.8467       1.0226
    8048.0    1440.8298       0.0000      50.8611    -104.1014       5.0799      -4.9260       1.2360     100.9362       1.0178
    8049.0    1440.5555       0.0000      50.8611     -98.7737       5.1046      -5.0427       0.7784     107.4344       1.0226
    8050.0    1434.9490       0.0000      50.8611     -94.6778       5.2285      -5.2110       0.4260     113.5361       1.0226
    8051.0    1430.9978       0.0000      50.8611     -89.1315       5.4029      -5.4004      -0.0802     119.6472       1.0275
    8052.0    1421.7557       0.0000      50.8611     -83.9876       5.4313      -5.4004      -0.5670     125.7535       1.0226
    8053.0    1418.6261       0.0000      50.8611     -78.9090       5.3086      -5.2072      -1.0206     131.8553       1.0226
    8054.0    1419.1587       0.0000      50.8611     -72.5927       5.4472      -5.1957      -1.6291     137.9644       1.0275
    8055.0    1409.3878       0.0000      50.8611     -69.4965       5.4560      -5.1094      -1.9085     144.0722       1.0226
    8056.0    1397.6043       0.0000      50.8611     -63.6997       5.4844      -4.9146      -2.4254     150.1741       1.0226
    8057.0    1393.8392       0.0000      50.8611     -57.0887       5.5575      -4.6630      -3.0164     156.2777       1.0226
    8058.0    1380.8908       0.0000      50.8611     -53.2135       5.4016      -4.3235      -3.2315     162.3656       1.0226
    8059.0    1373.0415       0.0000      50.8611     -48.4635       5.5066      -4.1189      -3.6482     168.4675       1.0226
    8060.0    1357.1403       0.0000      50.8611     -45.2478       5.5995      -3.9726      -3.9383     174.5694       1.0226
