~VERSION INFORMATION
VERS.           2.0   :CWLS Log ASCII Standard - VERSION 2.0
WRAP.           NO    :One Line per depth step
PROD.  Schlumberger   :LAS Producer
PROG.  DLIS to ASCII 19C2-270                          :LAS Program name and version
CREA.        2017/09/16 17:42                          :LAS Creation date {YYYY/MM/DD hh:mm}
DLIS_CREA.  2017-Sep-15 17:32                          :DLIS Creation date and time {YYYY-MMM-DD hh:mm}
SOURCE.     LPC_S4-1_A5.DLIS                           :DLIS File Name
FILE-ID.     PERFO_Perfo_WPGRT_048LTP                  :File Identification Number
#--------------------------------------------------
~WELL INFORMATION
#MNEM.UNIT      DATA             DESCRIPTION
#---- ------ --------------   -----------------------------
STRT .S         1889.0       :START TIME      
STOP .S         2373.0       :STOP TIME      
STEP .S            1.0       :STEP     
NULL .          -999.25      :NULL VALUE
COMP .        SHELL INTERNATIONAL E P                  :COMPANY
WELL .        WPP TEST 2                               :WELL
FLD  .        WILDCAT                                  :FIELD
LOC  .        NA                                       :LOCATION
CNTY .        HARRIS                                   :COUNTY
STAT .        TEXAS                                    :STATE
CTRY .                                                 :COUNTRY
API  .        NA                                       :API NUMBER
UWI  .                                                 :UNIQUE WELL ID
DATE .        15-Sep-2017                              :LOG DATE {DD-MMM-YYYY}
SRVC .        Schlumberger                             :SERVICE COMPANY
LATI .DEG                                              :LATITUDE
LONG .DEG                                              :LONGITUDE
GDAT .                                                 :GeoDetic Datum
SECT .        NA                                       :Section
RANG .        NA                                       :Range
TOWN .        NA                                       :Township
#-----------------------------------------------------------------------------
~PARAMETER INFORMATION
#MNEM.UNIT    VALUE                      DESCRIPTION
#---- -----   --------------------       ------------------------
U-PHASE_B_COMP_PER_YT.                 0 :Phase B Comparator Period Yt
U-PHASE_A_COMP_PER_XT.                 0 :Phase A Comparator Period Xt
U-MAX_EXC_CUR_LIMIT.MA       240.00000   :Requested CM Current Limit
U-REQ_EXC_FQ.HZ              50          :Requested CM Frequency
U-TILT_Y_OFFSET.           0.19916       :WPTET Tilt Y Offset
U-TILT_Y_GAIN.           1.01796         :WPTET Tilt Y Gain
U-TILT_X_OFFSET.          -1.77103       :WPTET Tilt X Offset
U-TILT_X_GAIN.           1.00000         :WPTET Tilt X Gain
U-TILT_OFFSET_TOL.           0.00100     :WPTET Tilt Offset Calibration Tolerance
U-NO_TILT_CAL_ROTATIONS.                 3 :Number of Rotations for Tilt Calibration
HAZI .DEG        0.00000                 :Hole Azimuth
U-STD_TOL_TILT.           0.01000        :Tilt Standard Deviation Tolerance
U-GUN_POS_TOL.DEG        5.00000         :Gun Position Tolerance
ROT_ANGLE_THRESHOLD.DEG        5.00000   :Rotation Stop Angle Tolerance
STOP_ROT_ANGLE.DEG        0.00000        :Rotation Stop Angle
WITN .        MR. DHRUA ARORA            :Witness's Name
ENGI .        MORRIS MOORE               :Engineer's Name
COUN .        HARRIS                     :County or Rig Name
FN   .        WILDCAT                    :Field Name
WN   .        WPP TEST 2                 :Well Name
CN   .        SHELL INTERNATIONAL E P    :Company Name
CLAB .        County                     :County/Rig Label
SLAB .        State                      :State/Province Label
RUN  .          1                        :RUN NUMBER
PDAT .        GROUND LEVEL               :Permanent Datum
EPD  .                                   :Elevation of Permanent Datum above Mean Sea Level
LMF  .          NA                       :Logging Measured From (Name of Logging Elevation Reference)
APD  .                                   :Elevation of Depth Reference (LMF) above Permanent Datum
#-----------------------------------------------------------------------------
~CURVE INFORMATION
#MNEM.UNIT   API CODE                                  DESCRIPTION
#---- -----  --------                                  -----------------------
TIME .S                                                :TIME {F10.1}
FREQ_EMF_SL.HZ                                         :Electromagnetic Field Frequency {F13.4}
PH_SH_WPPCM_SL.DEG                                     :WPPCM Phase Shift {F13.4}
FREQ_EXC_REQ_SL.HZ                                     :Requested Exciter Frequency {F13.4}
RB_SL.DEG                                              :Relative Bearing {F13.4}
SDEV_SL.DEG                                            :Sonde Deviation {F13.4}
TILX_SL.DEG                                            :X-axis Tilt {F13.4}
TILY_SL.DEG                                            :Y-axis Tilt {F13.4}
ROTA_SL.DEG                                            :Motor Rotation Angle {F13.4}
MSPE_SL.RPM                                            :Motor Speed {F13.4}
#-----------------------------------------------------------------------------
# 
#     TIME    FREQ_EMF_SL  PH_SH_WPPCM_ FREQ_EXC_REQ    RB_SL       SDEV_SL      TILX_SL      TILY_SL      ROTA_SL      MSPE_SL
#                          SL           _SL
~A  
    1889.0    1850.5125       0.0000      50.8611     161.6810       3.8248       1.2013       3.6307     155.4161       1.0226
    1890.0    1840.5512       0.0000      50.8611     173.1536       3.7027       0.4412       3.6762     161.5026       1.0122
    1891.0    1835.7459       0.0000      50.8611     166.0575       3.1535       0.7595       3.0605     167.6045       1.0226
    1892.0    1816.9487       0.0000      50.8611     177.5495       3.6402       0.1555       3.6368     173.7064       1.0226
    1893.0    1789.1222       0.0000      50.8611    -172.8025       3.9139      -0.4902       3.8829     179.8213       1.0226
    1894.0    1770.9294       0.0000      50.8611    -161.2876       4.1367      -1.3262       3.9177     185.9232       1.0226
    1895.0    1744.4057       0.0000      50.8611    -159.9049       3.8713      -1.3292       3.6353     192.0251       1.0226
    1896.0    1698.2928       0.0000      50.8611    -158.8984       3.8060      -1.3694       3.5504     198.1270       1.0226
    1897.0    1662.0145       0.0000      50.8611    -147.4100       4.4111      -2.3743       3.7155     204.2289       1.0226
    1898.0    1616.2406       0.0000      50.8611    -138.7164       4.4568      -2.9389       3.3475     210.3308       1.0226
    1899.0    1576.3815       0.0000      50.8611    -133.6190       4.5004      -3.2564       3.1030     216.8539       1.0226
    1900.0    1521.8539       0.0000      50.8611    -132.6775       4.2177      -3.0995       2.8576     222.9558       1.0226
    1901.0    1476.9799       0.0000      50.8611    -130.1042       4.3693      -3.3405       2.8129     229.0707       1.0226
    1902.0    1434.7311       0.0000      50.8611    -117.4895       4.9461      -4.3864       2.2806     235.1857       1.0226
    1903.0    1384.1044       0.0000      50.8611    -110.8098       4.8197      -4.5046       1.7105     241.2884       1.0226
    1904.0    1344.3592       0.0000      50.8611    -108.8692       4.7979      -4.5395       1.5500     247.3900       1.0224
    1905.0    1287.5992       0.0000      50.8611    -106.3924       4.6145      -4.4265       1.3008     253.4799       1.0226
    1906.0    1189.4966       0.0000      50.8611     -99.3623       4.9728      -4.9063       0.8079     259.5815       1.0122
    1907.0    1110.3945       0.0000      50.8611     -89.4556       5.2666      -5.2663      -0.0500     265.6713       1.0226
    1908.0    1024.9355       0.0000      50.8611     -82.9229       4.4320      -4.3977      -0.5468     271.7731       1.0226
    1909.0     983.2382       0.0000      50.8611     -83.8513       5.0186      -4.9896      -0.5368     277.8625       1.0226
    1910.0     944.9187       0.0000      50.8611     -78.5670       5.4096      -5.3019      -1.0707     283.9643       1.0226
    1911.0     913.0830       0.0000      50.8611     -70.7925       5.3625      -5.0632      -1.7619     290.4742       1.0226
    1912.0     894.4130       0.0000      50.8611     -63.7416       5.3786      -4.8222      -2.3768     296.5760       1.0226
    1913.0     874.4929       0.0000      50.8611     -66.0196       5.0583      -4.6206      -2.0535     302.6654       1.0122
    1914.0     857.4499       0.0000      50.8611     -60.1849       5.2855      -4.5842      -2.6252     308.7672       1.0226
    1915.0     847.0814       0.0000      50.8611     -54.4225       5.4353      -4.4183      -3.1590     314.8821       1.0226
    1916.0     842.0470       0.0000      50.8611     -43.2206       5.2871      -3.6179      -3.8503     320.9840       1.0226
    1917.0     835.1026       0.0000      50.8611     -42.9058       5.3139      -3.6149      -3.8896     327.0989       1.0226
    1918.0     834.0933       0.0000      50.8611     -48.4204       5.6313      -4.2091      -3.7330     333.2139       1.0228
    1919.0     837.9953       0.0000      50.8611     -33.9582       5.3290      -2.9738      -4.4181     339.3287       1.0226
    1920.0     843.0756       0.0000      50.8611     -24.9077       5.0562      -2.1273      -4.5847     345.4183       1.0226
    1921.0     842.2379       0.0000      50.8611     -20.7181       4.9041      -1.7331      -4.5863     351.5078       1.0122
    1922.0     851.3381       0.0000      50.8611     -19.3176       4.9930      -1.6498      -4.7112     357.5849       1.0226
    1923.0     869.1085       0.0000      50.8611     -16.8246       5.0039      -1.4467      -4.7892       4.0947       1.0226
    1924.0     887.8263       0.0000      50.8611      -6.2456       4.8186      -0.5236      -4.7899      10.1973       1.0226
    1925.0     903.9356       0.0000      50.8611      -1.9657       4.7110      -0.1613      -4.7082      16.2991       1.0228
    1926.0     927.7676       0.0000      50.8611       2.9341       4.6711       0.2388      -4.6650      22.4140       1.0226
    1927.0     963.2346       0.0000      50.8611       7.1878       4.7852       0.5981      -4.7475      28.5158       1.0226
    1928.0     996.0075       0.0000      50.8611      12.0179       4.4377       0.9232      -4.3402      34.6176       1.0226
    1929.0    1057.6335       0.0000      50.8611      21.8225       4.3218       1.6052      -4.0115      40.7194       1.0226
    1930.0    1178.1783       0.0000      50.8611      27.0852       4.2327       1.9258      -3.7677      46.8212       1.0226
    1931.0    1262.5141       0.0000      50.8611      28.5811       4.1948       2.0054      -3.6829      52.9230       1.0228
    1932.0    1309.5418       0.0000      50.8611      34.8742       4.1433       2.3676      -3.3982      59.0259       1.0332
    1933.0    1357.4828       0.0000      50.8611      41.4849       3.8253       2.5328      -2.8644      65.1292       1.0439
    1934.0    1406.3559       0.0000      50.8611      51.7090       3.8337       3.0081      -2.3745      71.2315       1.0226
    1935.0    1449.8547       0.0000      50.8611      57.2752       3.7205       3.1293      -2.0103      77.7291       1.0122
    1936.0    1499.3814       0.0000      50.8611      59.1453       3.5982       3.0884      -1.8445      83.8443       1.0228
    1937.0    1545.6515       0.0000      50.8611      70.7500       3.4859       3.2907      -1.1486      89.9590       1.0226
    1938.0    1601.6515       0.0000      50.8611      79.3716       3.3475       3.2900      -0.6171      96.0614       1.0226
    1939.0    1646.7353       0.0000      50.8611      87.7994       3.3736       3.3711      -0.1295     102.1766       1.0334
    1940.0    1686.5348       0.0000      50.8611      91.3465       3.2901       3.2892       0.0773     108.3046       1.0334
    1941.0    1727.7398       0.0000      50.8611      96.4994       3.2274       3.2066       0.3650     114.4073       1.0228
    1942.0    1762.2180       0.0000      50.8611     111.2830       3.1430       2.9285       1.1403     120.5104       1.0332
    1943.0    1793.7722       0.0000      50.8611     118.3617       3.2792       2.8845       1.5569     126.6121       1.0226
    1944.0    1803.2349       0.0000      50.8611     124.7283       3.2217       2.6473       1.8347     132.7140       1.0226
    1945.0    1821.7451       0.0000      50.8611     127.9766       3.2524       2.5632       2.0005     138.8290       1.0332
    1946.0    1845.2917       0.0000      50.8611     140.5016       3.3326       2.1191       2.5707     144.9309       1.0226
    1947.0    1859.9355       0.0000      50.8611     150.5622       3.4235       1.6818       2.9811     151.4410       1.0226
    1948.0    1855.1195       0.0000      50.8611     157.7311       3.4859       1.3203       3.2256     157.5438       1.0332
    1949.0    1845.4724       0.0000      50.8611     159.8464       3.4799       1.1983       3.2665     163.6589       1.0228
    1950.0    1840.6414       0.0000      50.8611     169.5790       3.5308       0.6382       3.4725     169.7736       1.0226
    1951.0    1826.2101       0.0000      50.8611     170.8063       3.5985       0.1532       3.5952     175.8755       1.0226
