~VERSION INFORMATION
VERS.           2.0   :CWLS Log ASCII Standard - VERSION 2.0
WRAP.           NO    :One Line per depth step
PROD.  Schlumberger   :LAS Producer
PROG.  DLIS to ASCII 19C2-270                          :LAS Program name and version
CREA.        2017/09/16 17:42                          :LAS Creation date {YYYY/MM/DD hh:mm}
DLIS_CREA.  2017-Sep-15 17:53                          :DLIS Creation date and time {YYYY-MMM-DD hh:mm}
SOURCE.     LPC_S4-1_BV.DLIS                           :DLIS File Name
FILE-ID.     PERFO_Perfo_WPGRT_051LTP                  :File Identification Number
#--------------------------------------------------
~WELL INFORMATION
#MNEM.UNIT      DATA             DESCRIPTION
#---- ------ --------------   -----------------------------
STRT .S         3166.0       :START TIME      
STOP .S         3598.0       :STOP TIME      
STEP .S            1.0       :STEP     
NULL .          -999.25      :NULL VALUE
COMP .        SHELL INTERNATIONAL E P                  :COMPANY
WELL .        WPP TEST 2                               :WELL
FLD  .        WILDCAT                                  :FIELD
LOC  .        NA                                       :LOCATION
CNTY .        HARRIS                                   :COUNTY
STAT .        TEXAS                                    :STATE
CTRY .                                                 :COUNTRY
API  .        NA                                       :API NUMBER
UWI  .                                                 :UNIQUE WELL ID
DATE .        15-Sep-2017                              :LOG DATE {DD-MMM-YYYY}
SRVC .        Schlumberger                             :SERVICE COMPANY
LATI .DEG                                              :LATITUDE
LONG .DEG                                              :LONGITUDE
GDAT .                                                 :GeoDetic Datum
SECT .        NA                                       :Section
RANG .        NA                                       :Range
TOWN .        NA                                       :Township
#-----------------------------------------------------------------------------
~PARAMETER INFORMATION
#MNEM.UNIT    VALUE                      DESCRIPTION
#---- -----   --------------------       ------------------------
U-PHASE_B_COMP_PER_YT.                 0 :Phase B Comparator Period Yt
U-PHASE_A_COMP_PER_XT.                 0 :Phase A Comparator Period Xt
U-MAX_EXC_CUR_LIMIT.MA       240.00000   :Requested CM Current Limit
U-REQ_EXC_FQ.HZ              50          :Requested CM Frequency
U-TILT_Y_OFFSET.           0.19916       :WPTET Tilt Y Offset
U-TILT_Y_GAIN.           1.01796         :WPTET Tilt Y Gain
U-TILT_X_OFFSET.          -1.77103       :WPTET Tilt X Offset
U-TILT_X_GAIN.           1.00000         :WPTET Tilt X Gain
U-TILT_OFFSET_TOL.           0.00100     :WPTET Tilt Offset Calibration Tolerance
U-NO_TILT_CAL_ROTATIONS.                 3 :Number of Rotations for Tilt Calibration
HAZI .DEG        0.00000                 :Hole Azimuth
U-STD_TOL_TILT.           0.01000        :Tilt Standard Deviation Tolerance
U-GUN_POS_TOL.DEG        5.00000         :Gun Position Tolerance
ROT_ANGLE_THRESHOLD.DEG        5.00000   :Rotation Stop Angle Tolerance
STOP_ROT_ANGLE.DEG        0.00000        :Rotation Stop Angle
WITN .        MR. DHRUA ARORA            :Witness's Name
ENGI .        MORRIS MOORE               :Engineer's Name
COUN .        HARRIS                     :County or Rig Name
FN   .        WILDCAT                    :Field Name
WN   .        WPP TEST 2                 :Well Name
CN   .        SHELL INTERNATIONAL E P    :Company Name
CLAB .        County                     :County/Rig Label
SLAB .        State                      :State/Province Label
RUN  .          1                        :RUN NUMBER
PDAT .        GROUND LEVEL               :Permanent Datum
EPD  .                                   :Elevation of Permanent Datum above Mean Sea Level
LMF  .          NA                       :Logging Measured From (Name of Logging Elevation Reference)
APD  .                                   :Elevation of Depth Reference (LMF) above Permanent Datum
#-----------------------------------------------------------------------------
~CURVE INFORMATION
#MNEM.UNIT   API CODE                                  DESCRIPTION
#---- -----  --------                                  -----------------------
TIME .S                                                :TIME {F10.1}
FREQ_EMF_SL.HZ                                         :Electromagnetic Field Frequency {F13.4}
PH_SH_WPPCM_SL.DEG                                     :WPPCM Phase Shift {F13.4}
FREQ_EXC_REQ_SL.HZ                                     :Requested Exciter Frequency {F13.4}
RB_SL.DEG                                              :Relative Bearing {F13.4}
SDEV_SL.DEG                                            :Sonde Deviation {F13.4}
TILX_SL.DEG                                            :X-axis Tilt {F13.4}
TILY_SL.DEG                                            :Y-axis Tilt {F13.4}
ROTA_SL.DEG                                            :Motor Rotation Angle {F13.4}
MSPE_SL.RPM                                            :Motor Speed {F13.4}
#-----------------------------------------------------------------------------
# 
#     TIME    FREQ_EMF_SL  PH_SH_WPPCM_ FREQ_EXC_REQ    RB_SL       SDEV_SL      TILX_SL      TILY_SL      ROTA_SL      MSPE_SL
#                          SL           _SL
~A  
# ...
    3355.0    1765.3538       0.0000      50.8611     -84.7398       0.5686      -0.5660      -0.0522     185.0594       0.0005
    3356.0    1757.8126       0.0000      50.8611     -88.6958       0.8303      -0.8296      -0.0172     185.0594       0.0005
    3357.0    1759.1044       0.0000      50.8611     -85.4402       0.7383      -0.7326      -0.0572     185.0594       0.0005
    3358.0    1762.8656       0.0000      50.8611     -79.9087       0.6690      -0.6581      -0.1160     185.0594       0.0005
    3359.0    1762.8656       0.0000      50.8611     -86.4568       0.6713      -0.6699      -0.0402     185.0594       0.0005
    3360.0    1759.1044       0.0000      50.8611     -85.7678       0.7003      -0.6983      -0.0522     185.0594       0.0005
    3361.0    1762.8656       0.0000      50.8611     -78.4987       0.7891      -0.7727      -0.1569     185.0594       0.0005
    3362.0    1762.7034       0.0000      50.8611     -82.4497       0.5733      -0.5670      -0.0676     185.0594       0.0005
    3363.0    1758.4569       0.0000      50.8611     -82.9676       0.6409      -0.6356      -0.0751     185.0594       0.0005
    3364.0    1766.6456       0.0000      50.8611     -71.7773       0.7386      -0.6865      -0.2317     185.0594       0.0005
    3365.0    1762.8656       0.0000      50.8611     -78.0544       0.8007      -0.7777      -0.1738     185.0594       0.0005
    3366.0    1767.2965       0.0000      50.8611     -87.9028       0.7883      -0.7777      -0.0392     185.0594       0.0005
    3367.0    1765.9981       0.0000      50.8611     -84.2676       0.8789      -0.8697      -0.0921     185.0594       0.0005
    3368.0    1758.4569       0.0000      50.8611     -92.3304       0.7216      -0.7208       0.0296     185.0594       0.0005
    3369.0    1765.9981       0.0000      50.8611     -81.8551       0.7759      -0.7669      -0.1100     185.0594       0.0005
    3370.0    1769.7974       0.0000      50.8611     -80.8746       0.6631      -0.6522      -0.1040     185.0594       0.0005
    3371.0    1762.2180       0.0000      50.8611     -97.2363       0.7232      -0.7149       0.0935     185.0594       0.0005
    3372.0    1759.7553       0.0000      50.8611     -86.6997       0.8133      -0.8119      -0.0462     185.0594       0.0005
    3373.0    1766.6456       0.0000      50.8611     -80.7435       0.7441      -0.7316      -0.1110     185.0594       0.0005
    3374.0    1766.9706       0.0000      50.8611     -83.6500       0.7343      -0.7296      -0.0811     185.0594       0.0005
    3375.0    1756.6667       0.0000      50.8611     -87.0042       0.8935      -0.8923      -0.0462     185.2980       0.4255
    3376.0    1766.6456       0.0000      50.8611     -87.0061       0.7798      -0.7786      -0.0402     188.9339       0.7847
    3377.0    1775.5682       0.0000      50.8611     -86.7994       1.0953      -1.0931      -0.0581     194.2294       1.0062
    3378.0    1788.4581       0.0000      50.8611     -92.0024       0.8478      -0.8472       0.0296     200.3259       1.0318
    3379.0    1798.2737       0.0000      50.8611     -86.3463       0.8147      -0.8129      -0.0522     206.4540       1.0242
    3380.0    1793.6862       0.0000      50.8611     -92.1206       0.9625      -0.9618       0.0356     212.9050       1.0242
    3381.0    1800.8719       0.0000      50.8611     -84.2959       1.1570      -1.1509      -0.1160     219.0665       1.0226
    3382.0    1785.2454       0.0000      50.8611     -86.1796       1.0007      -0.9971      -0.0701     225.1816       1.0242
    3383.0    1764.1705       0.0000      50.8611     -89.1172       1.1916      -1.1911      -0.0172     231.2835       1.0226
    3384.0    1749.7050       0.0000      50.8611     -83.1249       1.1714      -1.1627      -0.1399     237.3854       1.0226
    3385.0    1726.9606       0.0000      50.8611     -80.1558       1.2268      -1.2087      -0.2097     243.4749       1.0226
    3386.0    1704.8480       0.0000      50.8611     -81.5498       1.2337      -1.2200      -0.1808     249.5768       1.0226
    3387.0    1671.8838       0.0000      50.8611     -75.5617       1.2839      -1.2430      -0.3204     255.6923       1.0242
    3388.0    1646.6628       0.0000      50.8611     -75.2819       1.4453      -1.3978      -0.3673     261.8068       1.0226
    3389.0    1608.4444       0.0000      50.8611     -75.7329       1.3241      -1.2832      -0.3264     267.9086       1.0226
    3390.0    1568.0385       0.0000      50.8611     -74.1648       1.3604      -1.3057      -0.3683     274.0243       1.0242
    3391.0    1537.1856       0.0000      50.8611     -69.1844       1.4286      -1.3351      -0.5079     280.1261       1.0226
    3392.0    1490.1342       0.0000      50.8611     -69.8428       1.3869      -1.3008      -0.4790     286.2279       1.0226
    3393.0    1453.6192       0.0000      50.8611     -66.4230       1.5316      -1.4037      -0.6126     292.7384       1.0226
    3394.0    1405.9310       0.0000      50.8611     -63.2272       1.5033      -1.3409      -0.6765     298.8402       1.0226
    3395.0    1375.2717       0.0000      50.8611     -59.4109       1.5373      -1.3233      -0.7822     304.9420       1.0226
    3396.0    1339.6596       0.0000      50.8611     -60.9431       1.5139      -1.3233      -0.7353     311.0438       1.0226
    3397.0    1287.1548       0.0000      50.8611     -57.3342       1.4497      -1.2204      -0.7822     317.1457       1.0226
    3398.0    1223.5369       0.0000      50.8611     -55.7746       1.5422      -1.2751      -0.8667     323.2475       1.0226
    3399.0    1144.1915       0.0000      50.8611     -54.2895       1.4112      -1.1460      -0.8230     329.3501       1.0226
    3400.0    1061.7735       0.0000      50.8611     -52.0325       1.4900      -1.1744      -0.9168     335.4519       1.0226
    3401.0    1012.7628       0.0000      50.8611     -51.7840       1.5006      -1.1793      -0.9278     341.5541       1.0226
    3402.0     976.6063       0.0000      50.8611     -48.9471       1.4143      -1.0656      -0.9278     347.6555       1.0226
    3403.0     948.1705       0.0000      50.8611     -50.8638       1.4203      -1.0990      -0.8938     353.7573       1.0226
    3404.0     928.1446       0.0000      50.8611     -43.7440       1.3667      -0.9451      -0.9866      52.5100       1.0226
    3405.0     908.7744       0.0000      50.8611     -42.4592       1.4581      -0.9844      -1.0744       6.3821       1.0226
    3406.0     897.8210       0.0000      50.8611     -38.7416       1.3543      -0.8472      -1.0564      12.4856       1.0226
    3407.0     881.5953       0.0000      50.8611     -34.3391       1.4560      -0.8188      -1.2020      18.5874       1.0226
    3408.0     880.9477       0.0000      50.8611     -39.1173       1.2793      -0.8070      -0.9926      24.6769       1.0226
    3409.0     871.5991       0.0000      50.8611     -44.6808       1.4479      -1.0187      -1.0275      30.7788       1.0226
    3410.0     870.5200       0.0000      50.8611     -34.4863       1.1620      -0.6581      -0.9577      36.8937       1.0226
    3411.0     867.2986       0.0000      50.8611     -36.7548       1.1958      -0.7149      -0.9577      42.9962       1.0136
    3412.0     869.6017       0.0000      50.8611     -31.2323       1.2354      -0.6405      -1.0564      49.0857       1.0226
    3413.0     874.9879       0.0000      50.8611     -31.8646       1.0724      -0.5660      -0.9108      55.1751       1.0226
    3414.0     885.2093       0.0000      50.8611     -29.8174       0.9890      -0.4916      -0.8580      61.2646       1.0226
    3415.0     895.2020       0.0000      50.8611     -28.2461       0.9545      -0.4514      -0.8410      67.3664       1.0226
    3416.0     911.3033       0.0000      50.8611     -33.0030       1.0800      -0.5886      -0.9048      73.4682       1.0226
    3417.0     933.2230       0.0000      50.8611     -39.8915       1.2209      -0.7884      -0.9278      79.9674       1.0136
