~VERSION INFORMATION
VERS.           2.0   :CWLS Log ASCII Standard - VERSION 2.0
WRAP.           NO    :One Line per depth step
PROD.  Schlumberger   :LAS Producer
PROG.  DLIS to ASCII 19C2-270                          :LAS Program name and version
CREA.        2017/09/16 17:42                          :LAS Creation date {YYYY/MM/DD hh:mm}
DLIS_CREA.  2017-Sep-15 11:15                          :DLIS Creation date and time {YYYY-MMM-DD hh:mm}
SOURCE.     LPC_S1-1_AV_1ST-LOG.DLIS                   :DLIS File Name
FILE-ID.     PERFO_Perfo_WPGRT_014LTP                  :File Identification Number
#--------------------------------------------------
~WELL INFORMATION
#MNEM.UNIT      DATA             DESCRIPTION
#---- ------ --------------   -----------------------------
STRT .S         1693.0       :START TIME      
STOP .S         2010.0       :STOP TIME      
STEP .S            1.0       :STEP     
NULL .          -999.25      :NULL VALUE
COMP .        SHELL INTERNATIONAL E P                  :COMPANY
WELL .        WPP TEST 2                               :WELL
FLD  .        WILDCAT                                  :FIELD
LOC  .                                                 :LOCATION
CNTY .        HARRIS                                   :COUNTY
STAT .        TEXAS                                    :STATE
CTRY .                                                 :COUNTRY
API  .                                                 :API NUMBER
UWI  .                                                 :UNIQUE WELL ID
DATE .                                                 :LOG DATE
SRVC .        Schlumberger                             :SERVICE COMPANY
LATI .DEG                                              :LATITUDE
LONG .DEG                                              :LONGITUDE
GDAT .                                                 :GeoDetic Datum
#-----------------------------------------------------------------------------
~PARAMETER INFORMATION
#MNEM.UNIT    VALUE                      DESCRIPTION
#---- -----   --------------------       ------------------------
U-PHASE_B_COMP_PER_YT.                 0 :Phase B Comparator Period Yt
U-PHASE_A_COMP_PER_XT.                 0 :Phase A Comparator Period Xt
U-MAX_EXC_CUR_LIMIT.MA       240.00000   :Requested CM Current Limit
U-REQ_EXC_FQ.HZ              50          :Requested CM Frequency
U-TILT_Y_OFFSET.           0.19916       :WPTET Tilt Y Offset
U-TILT_Y_GAIN.           1.01796         :WPTET Tilt Y Gain
U-TILT_X_OFFSET.          -1.77103       :WPTET Tilt X Offset
U-TILT_X_GAIN.           1.00000         :WPTET Tilt X Gain
U-TILT_OFFSET_TOL.           0.00100     :WPTET Tilt Offset Calibration Tolerance
U-NO_TILT_CAL_ROTATIONS.                 3 :Number of Rotations for Tilt Calibration
HAZI .DEG        0.00000                 :Hole Azimuth
U-STD_TOL_TILT.           0.01000        :Tilt Standard Deviation Tolerance
U-GUN_POS_TOL.DEG        5.00000         :Gun Position Tolerance
ROT_ANGLE_THRESHOLD.DEG        5.00000   :Rotation Stop Angle Tolerance
STOP_ROT_ANGLE.DEG        0.00000        :Rotation Stop Angle
WITN .                                   :Witness's Name
ENGI .                                   :Engineer's Name
COUN .        HARRIS                     :County or Rig Name
FN   .        WILDCAT                    :Field Name
WN   .        WPP TEST 2                 :Well Name
CN   .        SHELL INTERNATIONAL E P    :Company Name
CLAB .        County                     :County/Rig Label
SLAB .        State                      :State/Province Label
RUN  .          1                        :RUN NUMBER
PDAT .        GROUND LEVEL               :Permanent Datum
EPD  .                                   :Elevation of Permanent Datum above Mean Sea Level
LMF  .                                   :Logging Measured From (Name of Logging Elevation Reference)
APD  .                                   :Elevation of Depth Reference (LMF) above Permanent Datum
#-----------------------------------------------------------------------------
~CURVE INFORMATION
#MNEM.UNIT   API CODE                                  DESCRIPTION
#---- -----  --------                                  -----------------------
TIME .S                                                :TIME {F10.1}
FREQ_EMF_SL.HZ                                         :Electromagnetic Field Frequency {F13.4}
PH_SH_WPPCM_SL.DEG                                     :WPPCM Phase Shift {F13.4}
FREQ_EXC_REQ_SL.HZ                                     :Requested Exciter Frequency {F13.4}
RB_SL.DEG                                              :Relative Bearing {F13.4}
SDEV_SL.DEG                                            :Sonde Deviation {F13.4}
TILX_SL.DEG                                            :X-axis Tilt {F13.4}
TILY_SL.DEG                                            :Y-axis Tilt {F13.4}
ROTA_SL.DEG                                            :Motor Rotation Angle {F13.4}
MSPE_SL.RPM                                            :Motor Speed {F13.4}
#-----------------------------------------------------------------------------
# 
#     TIME    FREQ_EMF_SL  PH_SH_WPPCM_ FREQ_EXC_REQ    RB_SL       SDEV_SL      TILX_SL      TILY_SL      ROTA_SL      MSPE_SL
#                          SL           _SL
~A  
# ...
    1882.0     923.6360       0.0000      50.8611     -47.3455       0.9197      -0.6749      -0.6241     225.7910       1.0226
    1883.0     935.8922       0.0000      50.8611     -49.1777       0.9674      -0.7321      -0.6304     231.8805       1.0226
    1884.0     952.3873       0.0000      50.8611     -49.8797       1.0695      -0.8182      -0.6886     237.9824       1.0226
    1885.0     968.1486       0.0000      50.8611     -44.6278       0.9446      -0.6633      -0.6713     244.0843       1.0195
    1886.0     984.6537       0.0000      50.8611     -48.3334       0.9214      -0.6865      -0.6131     250.2002       1.0226
    1887.0    1013.9939       0.0000      50.8611     -45.5103       0.8256      -0.5892      -0.5777     256.3152       1.0226
    1888.0    1044.1087       0.0000      50.8611     -49.9898       0.8074      -0.6178      -0.5196     262.4188       1.0226
    1889.0    1092.6765       0.0000      50.8611     -49.1996       0.8229      -0.6232      -0.5368     268.5188       1.0226
    1890.0    1188.7462       0.0000      50.8611     -50.7644       0.9599      -0.7437      -0.6068     274.7375       1.0226
    1891.0    1262.0474       0.0000      50.8611     -56.4317       0.8038      -0.6696      -0.4432     281.1426       1.0226
    1892.0    1298.6660       0.0000      50.8611     -50.2888       0.8402      -0.6464      -0.5368     287.2417       1.0195
    1893.0    1330.6153       0.0000      50.8611     -59.4697       0.8645      -0.7437      -0.4378     293.3348       1.0226
    1894.0    1362.3018       0.0000      50.8611     -52.8029       0.8403      -0.6696      -0.5077     299.4366       1.0226
    1895.0    1393.9253       0.0000      50.8611     -53.6997       0.8674      -0.6981      -0.5132     305.5384       1.0226
    1896.0    1421.2849       0.0000      50.8611     -52.8009       0.8046      -0.6410      -0.4841     311.6410       1.0121
    1897.0    1443.4033       0.0000      50.8611     -58.9820       0.8490      -0.7267      -0.4378     317.7305       1.0226
    1898.0    1477.1533       0.0000      50.8611     -58.6229       0.8179      -0.6981      -0.4260     323.8323       1.0226
    1899.0    1512.0968       0.0000      50.8611     -61.6270       0.8716      -0.7669      -0.4142     329.9341       1.0226
    1900.0    1539.5410       0.0000      50.8611     -64.8715       0.7921      -0.7151      -0.3379     336.0359       1.0226
    1901.0    1563.0639       0.0000      50.8611     -64.2158       0.8680      -0.7785      -0.3796     342.1377       1.0226
    1902.0    1581.0838       0.0000      50.8611     -59.3007       0.9717      -0.8356      -0.4959     348.2526       1.0226
    1903.0    1604.2523       0.0000      50.8611     -65.5056       0.7427      -0.6749      -0.3088     354.7746       1.0226
    1904.0    1620.1036       0.0000      50.8611     -64.2358       1.0254      -0.9213      -0.4487       0.8764       1.0226
    1905.0    1623.3598       0.0000      50.8611     -59.4948       0.9437      -0.8133      -0.4787       6.9669       1.0226
    1906.0    1638.9860       0.0000      50.8611     -67.4426       0.9734      -0.8990      -0.3733      13.0678       1.0226
    1907.0    1645.5519       0.0000      50.8611     -69.2861       1.0047      -0.9391      -0.3560      19.1696       1.0226
    1908.0    1646.6628       0.0000      50.8611     -64.3958       1.0541      -0.9507      -0.4551      25.2723       1.0226
    1909.0    1642.8153       0.0000      50.8611     -62.3900       0.9563      -0.8472      -0.4432      31.3741       1.0226
    1910.0    1636.2750       0.0000      50.8611     -65.9373       1.0158      -0.9275      -0.4142      37.4768       1.0226
    1911.0    1622.7649       0.0000      50.8611     -63.2888       1.0385      -0.9275      -0.4669      43.5909       1.0226
    1912.0    1617.4547       0.0000      50.8611     -68.2421       1.0854      -1.0079      -0.4024      49.7024       1.0182
    1913.0    1599.0624       0.0000      50.8611     -69.7526       0.9991      -0.9338      -0.3505      55.8086       1.0226
    1914.0    1584.1068       0.0000      50.8611     -61.3059       1.0970      -0.9623      -0.5250      61.9104       1.0257
    1915.0    1565.9799       0.0000      50.8611     -64.8810       1.1005      -0.9963      -0.4669      68.4324       1.0257
    1916.0    1536.1774       0.0000      50.8611     -61.8038       1.1630      -1.0248      -0.5486      74.5474       1.0226
    1917.0    1514.4146       0.0000      50.8611     -62.7824       1.1210      -0.9963      -0.5132      80.6492       1.0226
    1918.0    1483.3861       0.0000      50.8611     -62.7120       1.1985      -1.0650      -0.5486      86.7518       1.0226
    1919.0    1463.0887       0.0000      50.8611     -60.6508       1.2230      -1.0658      -0.5950      92.8527       1.0226
    1920.0    1431.1860       0.0000      50.8611     -60.4377       1.2056      -1.0480      -0.5950      98.9430       1.0226
    1921.0    1406.6367       0.0000      50.8611     -63.5323       1.1390      -1.0195      -0.5077     105.0316       1.0226
    1922.0    1377.8975       0.0000      50.8611     -55.8748       1.1969      -0.9909      -0.6713     111.1342       1.0226
    1923.0    1343.6665       0.0000      50.8611     -59.2309       1.1867      -1.0195      -0.6068     117.2351       1.0226
    1924.0    1308.9945       0.0000      50.8611     -69.7205       0.8397      -0.7918      -0.2742     123.3378       1.0226
    1925.0    1263.3203       0.0000      50.8611     -58.6258       1.1296      -0.9615      -0.5841     129.4396       1.0226
    1926.0    1182.8456       0.0000      50.8611     -54.2184       1.1655      -0.9453      -0.6768     135.5283       1.0226
    1927.0    1119.1105       0.0000      50.8611     -54.4466       1.1544      -0.9391      -0.6713     142.0360       1.0226
    1928.0    1051.2337       0.0000      50.8611     -52.8285       1.1787      -0.9391      -0.7122     148.1254       1.0226
    1929.0    1011.6807       0.0000      50.8611     -55.2931       1.1075      -0.9106      -0.6304     154.2295       1.0226
    1930.0     983.7893       0.0000      50.8611     -56.4555       1.1618      -0.9677      -0.6422     160.3156       1.0195
    1931.0     959.4212       0.0000      50.8611     -52.6261       1.1827      -0.9391      -0.7177     166.4052       1.0226
    1932.0     946.8722       0.0000      50.8611     -51.2568       1.1379      -0.8874      -0.7122     172.5264       1.0226
    1933.0     931.4594       0.0000      50.8611     -53.9024       1.2888      -1.0418      -0.7585     178.6274       1.0226
    1934.0     917.9178       0.0000      50.8611     -52.7073       1.0965      -0.8704      -0.6658     184.7162       1.0226
    1935.0     908.4302       0.0000      50.8611     -51.2407       1.0944      -0.8526      -0.6831     190.8211       1.0226
    1936.0     906.4125       0.0000      50.8611     -51.2188       1.1109      -0.8642      -0.6949     196.9173       1.0151
    1937.0     904.5869       0.0000      50.8611     -49.6264       1.0368      -0.7901      -0.6713     203.0105       1.0226
    1938.0     899.5128       0.0000      50.8611     -48.8148       1.1257      -0.8472      -0.7413     209.1254       1.0226
    1939.0     905.2595       0.0000      50.8611     -45.4888       1.0286      -0.7329      -0.7177     215.6323       1.0226
    1940.0     912.8074       0.0000      50.8611     -42.1529       1.1359      -0.7615      -0.8403     221.7472       1.0226
    1941.0     920.8637       0.0000      50.8611     -45.3420       0.9975      -0.7097      -0.7004     227.8529       1.0257
    1942.0     931.1295       0.0000      50.8611     -51.4441       0.9828      -0.7669      -0.6131     233.9540       1.0226
    1943.0     943.2584       0.0000      50.8611     -50.0306       0.9633      -0.7383      -0.6186     240.0559       1.0226
    1944.0     959.6212       0.0000      50.8611     -42.5888       0.8958      -0.6062      -0.6595     246.1578       1.0226
