~VERSION INFORMATION
VERS.           2.0   :CWLS Log ASCII Standard - VERSION 2.0
WRAP.           NO    :One Line per depth step
PROD.  Schlumberger   :LAS Producer
PROG.  DLIS to ASCII 19C2-270                          :LAS Program name and version
CREA.        2017/09/16 17:42                          :LAS Creation date {YYYY/MM/DD hh:mm}
DLIS_CREA.  2017-Sep-15 18:59                          :DLIS Creation date and time {YYYY-MMM-DD hh:mm}
SOURCE.     LPC_S5-1_A5.DLIS                           :DLIS File Name
FILE-ID.     PERFO_Perfo_WPGRT_058LTP                  :File Identification Number
#--------------------------------------------------
~WELL INFORMATION
#MNEM.UNIT      DATA             DESCRIPTION
#---- ------ --------------   -----------------------------
STRT .S         7119.0       :START TIME      
STOP .S         7636.0       :STOP TIME      
STEP .S            1.0       :STEP     
NULL .          -999.25      :NULL VALUE
COMP .        SHELL INTERNATIONAL E P                  :COMPANY
WELL .        WPP TEST 2                               :WELL
FLD  .        WILDCAT                                  :FIELD
LOC  .        NA                                       :LOCATION
CNTY .        HARRIS                                   :COUNTY
STAT .        TEXAS                                    :STATE
CTRY .                                                 :COUNTRY
API  .        NA                                       :API NUMBER
UWI  .                                                 :UNIQUE WELL ID
DATE .        15-Sep-2017                              :LOG DATE {DD-MMM-YYYY}
SRVC .        Schlumberger                             :SERVICE COMPANY
LATI .DEG                                              :LATITUDE
LONG .DEG                                              :LONGITUDE
GDAT .                                                 :GeoDetic Datum
SECT .        NA                                       :Section
RANG .        NA                                       :Range
TOWN .        NA                                       :Township
#-----------------------------------------------------------------------------
~PARAMETER INFORMATION
#MNEM.UNIT    VALUE                      DESCRIPTION
#---- -----   --------------------       ------------------------
U-PHASE_B_COMP_PER_YT.                 0 :Phase B Comparator Period Yt
U-PHASE_A_COMP_PER_XT.                 0 :Phase A Comparator Period Xt
U-MAX_EXC_CUR_LIMIT.MA       240.00000   :Requested CM Current Limit
U-REQ_EXC_FQ.HZ              50          :Requested CM Frequency
U-TILT_Y_OFFSET.           0.19916       :WPTET Tilt Y Offset
U-TILT_Y_GAIN.           1.01796         :WPTET Tilt Y Gain
U-TILT_X_OFFSET.          -1.77103       :WPTET Tilt X Offset
U-TILT_X_GAIN.           1.00000         :WPTET Tilt X Gain
U-TILT_OFFSET_TOL.           0.00100     :WPTET Tilt Offset Calibration Tolerance
U-NO_TILT_CAL_ROTATIONS.                 3 :Number of Rotations for Tilt Calibration
HAZI .DEG        0.00000                 :Hole Azimuth
U-STD_TOL_TILT.           0.01000        :Tilt Standard Deviation Tolerance
U-GUN_POS_TOL.DEG        5.00000         :Gun Position Tolerance
ROT_ANGLE_THRESHOLD.DEG        5.00000   :Rotation Stop Angle Tolerance
STOP_ROT_ANGLE.DEG        0.00000        :Rotation Stop Angle
WITN .        MR. DHRUA ARORA            :Witness's Name
ENGI .        MORRIS MOORE               :Engineer's Name
COUN .        HARRIS                     :County or Rig Name
FN   .        WILDCAT                    :Field Name
WN   .        WPP TEST 2                 :Well Name
CN   .        SHELL INTERNATIONAL E P    :Company Name
CLAB .        County                     :County/Rig Label
SLAB .        State                      :State/Province Label
RUN  .          1                        :RUN NUMBER
PDAT .        GROUND LEVEL               :Permanent Datum
EPD  .                                   :Elevation of Permanent Datum above Mean Sea Level
LMF  .          NA                       :Logging Measured From (Name of Logging Elevation Reference)
APD  .                                   :Elevation of Depth Reference (LMF) above Permanent Datum
#-----------------------------------------------------------------------------
~CURVE INFORMATION
#MNEM.UNIT   API CODE                                  DESCRIPTION
#---- -----  --------                                  -----------------------
TIME .S                                                :TIME {F10.1}
FREQ_EMF_SL.HZ                                         :Electromagnetic Field Frequency {F13.4}
PH_SH_WPPCM_SL.DEG                                     :WPPCM Phase Shift {F13.4}
FREQ_EXC_REQ_SL.HZ                                     :Requested Exciter Frequency {F13.4}
RB_SL.DEG                                              :Relative Bearing {F13.4}
SDEV_SL.DEG                                            :Sonde Deviation {F13.4}
TILX_SL.DEG                                            :X-axis Tilt {F13.4}
TILY_SL.DEG                                            :Y-axis Tilt {F13.4}
ROTA_SL.DEG                                            :Motor Rotation Angle {F13.4}
MSPE_SL.RPM                                            :Motor Speed {F13.4}
#-----------------------------------------------------------------------------
# 
#     TIME    FREQ_EMF_SL  PH_SH_WPPCM_ FREQ_EXC_REQ    RB_SL       SDEV_SL      TILX_SL      TILY_SL      ROTA_SL      MSPE_SL
#                          SL           _SL
~A  
    7119.0    1502.4038       0.0000      50.8611    -172.1791       4.1632      -0.5660       4.1244     337.3723       1.0226
    7120.0    1505.1699       0.0000      50.8611    -171.5057       4.1897      -0.6190       4.1432     341.1508       1.0226
    7121.0    1510.6691       0.0000      50.8611    -163.8029       3.8628      -1.0737       3.7073     347.2526       1.0226
    7122.0    1516.7957       0.0000      50.8611    -154.4898       4.1973      -1.8064       3.7875     353.3544       1.0226
    7123.0    1522.3180       0.0000      50.8611    -148.7445       4.4721      -2.3189       3.8202     201.0562       1.0226
    7124.0    1523.7643       0.0000      50.8611    -148.3516       4.6277      -2.4265       3.9380       5.5457       1.0226
    7125.0    1529.6127       0.0000      50.8611    -139.2610       4.4882      -2.9262       3.3982      11.6353       1.0273
    7126.0    1529.6127       0.0000      50.8611    -134.1680       4.4267      -3.1753       3.0793      18.1566       1.0226
    7127.0    1519.6946       0.0000      50.8611    -125.3905       4.8350      -3.9400       2.7980      24.2584       1.0273
    7128.0    1521.9155       0.0000      50.8611    -121.5211       4.9748      -4.2389       2.5985      30.3733       1.0273
    7129.0    1511.7135       0.0000      50.8611    -118.1500       4.8854      -4.3063       2.3024      36.4848       1.0273
    7130.0    1510.6691       0.0000      50.8611    -110.2621       4.7391      -4.4445       1.6400      42.5909       1.0226
    7131.0    1504.2054       0.0000      50.8611    -104.1667       5.1133      -4.9570       1.2492      48.6934       1.0286
    7132.0    1491.4428       0.0000      50.8611     -98.9910       5.4363      -5.3692       0.8485      54.7829       1.0226
    7133.0    1470.9729       0.0000      50.8611     -94.6675       5.3060      -5.2880       0.4314      60.9036       1.0286
    7134.0    1462.1693       0.0000      50.8611     -81.2628       4.8580      -4.7787      -0.7364      66.9898       1.0226
    7135.0    1454.7952       0.0000      50.8611     -83.0986       5.2640      -5.2254      -0.6317      73.0974       1.0286
    7136.0    1434.6035       0.0000      50.8611     -79.0450       5.5636      -5.4615      -1.0553      79.2066       1.0226
    7137.0    1419.7890       0.0000      50.8611     -73.7923       5.5126      -5.2928      -1.5361      85.3097       1.0226
    7138.0    1407.8282       0.0000      50.8611     -71.3194       5.3332      -5.0502      -1.7079      91.5897       1.0226
    7139.0    1393.0103       0.0000      50.8611     -64.1750       5.3158      -4.7835      -2.3130      97.9182       1.0226
    7140.0    1374.7960       0.0000      50.8611     -58.6828       5.4343      -4.6405      -2.8216     104.0076       1.0226
    7141.0    1355.9196       0.0000      50.8611     -54.2633       5.6699      -4.5955      -3.3107     110.1118       1.0226
    7142.0    1333.7264       0.0000      50.8611     -48.5278       5.4530      -4.0830      -3.6083     116.2250       1.0286
    7143.0    1315.1781       0.0000      50.8611     -44.7276       5.2420      -3.6862      -3.7212     122.3285       1.0226
    7144.0    1276.3711       0.0000      50.8611     -39.3377       5.4606      -3.4580      -4.2208     128.4434       1.0226
    7145.0    1237.2076       0.0000      50.8611     -34.3025       5.7235      -3.2218      -4.7254     134.5453       1.0226
    7146.0    1214.6336       0.0000      50.8611     -29.2462       5.4138      -2.6418      -4.7221     140.6348       1.0226
    7147.0    1186.8299       0.0000      50.8611     -25.1887       5.1636      -2.1952      -4.6714     146.7367       1.0226
    7148.0    1166.8970       0.0000      50.8611     -18.9375       5.2319      -1.6955      -4.9478     152.8383       1.0226
    7149.0    1152.0664       0.0000      50.8611     -13.8089       5.4088      -1.2890      -5.2520     158.9309       1.0226
    7150.0    1138.6741       0.0000      50.8611      -8.6537       5.1256      -0.7733      -5.0623     165.2227       1.0226
    7151.0    1129.0579       0.0000      50.8611      -5.0814       4.8906      -0.4327      -4.8710     171.5592       1.0240
    7152.0    1120.4115       0.0000      50.8611       1.5139       4.8861       0.1297      -4.8840     177.6673       1.0286
    7153.0    1115.8616       0.0000      50.8611       8.4309       4.9716       0.7273      -4.9167     183.7569       1.0180
    7154.0    1115.7346       0.0000      50.8611      13.4478       4.8086       1.1162      -4.6763     189.8609       1.0226
    7155.0    1118.8426       0.0000      50.8611      17.5656       4.5762       1.3796      -4.3623     195.9746       1.0286
    7156.0    1122.5948       0.0000      50.8611      23.2306       4.4524       1.7540      -4.0900     202.0658       1.0167
    7157.0    1143.8946       0.0000      50.8611      29.1163       4.6089       2.2408      -4.0254     208.1677       1.0226
    7158.0    1154.7460       0.0000      50.8611      37.2881       4.4401       2.6875      -3.5315     214.2642       1.0167
    7159.0    1168.3898       0.0000      50.8611      41.0945       4.0297       2.6473      -3.0359     220.3592       1.0226
    7160.0    1190.2176       0.0000      50.8611      46.4229       3.9575       2.8658      -2.7268     226.4611       1.0226
    7161.0    1214.3783       0.0000      50.8611      54.2582       4.0493       3.2852      -2.3637     232.5651       1.0226
    7162.0    1240.5408       0.0000      50.8611      61.3728       3.9585       3.4731      -1.8959     238.6687       1.0226
    7163.0    1277.8682       0.0000      50.8611      69.0348       3.6096       3.3703      -1.2908     245.1624       1.0286
    7164.0    1302.8653       0.0000      50.8611      73.7197       3.5433       3.4008      -0.9915     251.2651       1.0226
    7165.0    1326.9561       0.0000      50.8611      82.5367       3.5517       3.5213      -0.4600     257.3669       1.0226
    7166.0    1341.8416       0.0000      50.8611      90.8466       3.6616       3.6611       0.0536     263.4836       1.0226
    7167.0    1355.3221       0.0000      50.8611      99.5280       3.3998       3.3526       0.5622     269.5968       1.0226
    7168.0    1368.8112       0.0000      50.8611     106.7258       3.3147       3.1743       0.9531     275.7003       1.0226
    7169.0    1382.9079       0.0000      50.8611     114.3034       3.4536       3.1470       1.4209     281.8021       1.0226
    7170.0    1397.5349       0.0000      50.8611     122.9271       3.5699       2.9960       1.9393     287.9191       1.0226
    7171.0    1411.5631       0.0000      50.8611     130.3103       3.3793       2.5766       2.1847     294.0209       1.0226
    7172.0    1422.9901       0.0000      50.8611     139.8158       3.4192       2.2055       2.6115     300.1359       1.0226
    7173.0    1434.6035       0.0000      50.8611     143.7309       3.4588       2.0448       2.7882     306.2254       1.0226
    7174.0    1448.0718       0.0000      50.8611     152.3983       3.7321       1.7283       3.3066     312.3218       1.0180
    7175.0    1470.6100       0.0000      50.8611     160.3486       3.6675       1.2334       3.4522     318.8311       1.0167
    7176.0    1478.8948       0.0000      50.8611     167.3145       3.6647       0.8045       3.5749     324.9338       1.0180
    7177.0    1489.2995       0.0000      50.8611     174.7370       3.8147       0.3498       3.7973     331.0363       1.0180
    7178.0    1502.4038       0.0000      50.8611    -179.1801       4.0664      -0.0567       4.0655     337.1295       1.0226
    7179.0    1505.6210       0.0000      50.8611    -172.7825       4.0817      -0.5114       4.0475     343.2331       1.0226
    7180.0    1515.3556       0.0000      50.8611    -163.7704       4.0403      -1.1284       3.8791     349.3349       1.0226
    7181.0    1519.6946       0.0000      50.8611    -160.2050       4.1870      -1.4176       3.9380     355.4367       1.0226
