~VERSION INFORMATION
VERS.           2.0   :CWLS Log ASCII Standard - VERSION 2.0
WRAP.           NO    :One Line per depth step
PROD.  Schlumberger   :LAS Producer
PROG.  DLIS to ASCII 19C2-270                          :LAS Program name and version
CREA.        2017/09/16 17:42                          :LAS Creation date {YYYY/MM/DD hh:mm}
DLIS_CREA.  2017-Sep-15 12:43                          :DLIS Creation date and time {YYYY-MMM-DD hh:mm}
SOURCE.     LPC_S1-1_BV.DLIS                           :DLIS File Name
FILE-ID.     PERFO_Perfo_WPGRT_021LTP                  :File Identification Number
#--------------------------------------------------
~WELL INFORMATION
#MNEM.UNIT      DATA             DESCRIPTION
#---- ------ --------------   -----------------------------
STRT .S         6992.0       :START TIME      
STOP .S         7825.0       :STOP TIME      
STEP .S            1.0       :STEP     
NULL .          -999.25      :NULL VALUE
COMP .        SHELL INTERNATIONAL E P                  :COMPANY
WELL .        WPP TEST 2                               :WELL
FLD  .        WILDCAT                                  :FIELD
LOC  .                                                 :LOCATION
CNTY .        HARRIS                                   :COUNTY
STAT .        TEXAS                                    :STATE
CTRY .                                                 :COUNTRY
API  .                                                 :API NUMBER
UWI  .                                                 :UNIQUE WELL ID
DATE .                                                 :LOG DATE
SRVC .        Schlumberger                             :SERVICE COMPANY
LATI .DEG                                              :LATITUDE
LONG .DEG                                              :LONGITUDE
GDAT .                                                 :GeoDetic Datum
#-----------------------------------------------------------------------------
~PARAMETER INFORMATION
#MNEM.UNIT    VALUE                      DESCRIPTION
#---- -----   --------------------       ------------------------
U-PHASE_B_COMP_PER_YT.                 0 :Phase B Comparator Period Yt
U-PHASE_A_COMP_PER_XT.                 0 :Phase A Comparator Period Xt
U-MAX_EXC_CUR_LIMIT.MA       240.00000   :Requested CM Current Limit
U-REQ_EXC_FQ.HZ              50          :Requested CM Frequency
U-TILT_Y_OFFSET.           0.19916       :WPTET Tilt Y Offset
U-TILT_Y_GAIN.           1.01796         :WPTET Tilt Y Gain
U-TILT_X_OFFSET.          -1.77103       :WPTET Tilt X Offset
U-TILT_X_GAIN.           1.00000         :WPTET Tilt X Gain
U-TILT_OFFSET_TOL.           0.00100     :WPTET Tilt Offset Calibration Tolerance
U-NO_TILT_CAL_ROTATIONS.                 3 :Number of Rotations for Tilt Calibration
HAZI .DEG        0.00000                 :Hole Azimuth
U-STD_TOL_TILT.           0.01000        :Tilt Standard Deviation Tolerance
U-GUN_POS_TOL.DEG        5.00000         :Gun Position Tolerance
ROT_ANGLE_THRESHOLD.DEG        5.00000   :Rotation Stop Angle Tolerance
STOP_ROT_ANGLE.DEG       80.00000        :Rotation Stop Angle
WITN .                                   :Witness's Name
ENGI .                                   :Engineer's Name
COUN .        HARRIS                     :County or Rig Name
FN   .        WILDCAT                    :Field Name
WN   .        WPP TEST 2                 :Well Name
CN   .        SHELL INTERNATIONAL E P    :Company Name
CLAB .        County                     :County/Rig Label
SLAB .        State                      :State/Province Label
RUN  .          1                        :RUN NUMBER
PDAT .        GROUND LEVEL               :Permanent Datum
EPD  .                                   :Elevation of Permanent Datum above Mean Sea Level
LMF  .                                   :Logging Measured From (Name of Logging Elevation Reference)
APD  .                                   :Elevation of Depth Reference (LMF) above Permanent Datum
#-----------------------------------------------------------------------------
~CURVE INFORMATION
#MNEM.UNIT   API CODE                                  DESCRIPTION
#---- -----  --------                                  -----------------------
TIME .S                                                :TIME {F10.1}
FREQ_EMF_SL.HZ                                         :Electromagnetic Field Frequency {F13.4}
PH_SH_WPPCM_SL.DEG                                     :WPPCM Phase Shift {F13.4}
FREQ_EXC_REQ_SL.HZ                                     :Requested Exciter Frequency {F13.4}
RB_SL.DEG                                              :Relative Bearing {F13.4}
SDEV_SL.DEG                                            :Sonde Deviation {F13.4}
TILX_SL.DEG                                            :X-axis Tilt {F13.4}
TILY_SL.DEG                                            :Y-axis Tilt {F13.4}
ROTA_SL.DEG                                            :Motor Rotation Angle {F13.4}
MSPE_SL.RPM                                            :Motor Speed {F13.4}
#-----------------------------------------------------------------------------
# 
#     TIME    FREQ_EMF_SL  PH_SH_WPPCM_ FREQ_EXC_REQ    RB_SL       SDEV_SL      TILX_SL      TILY_SL      ROTA_SL      MSPE_SL
#                          SL           _SL
~A  
# ...
    7244.0    1321.5892       0.0000      50.8611     -70.8003       0.8974      -0.8472      -0.2952      15.9278       1.0226
    7245.0    1304.7181       0.0000      50.8611     -67.4105       1.2887      -1.1906      -0.4923      22.0174       1.0330
    7246.0    1290.4237       0.0000      50.8611     -64.1830       0.9428      -0.8484      -0.4105      28.1323       1.0226
    7247.0    1273.7772       0.0000      50.8611     -69.3853       0.9507      -0.8898      -0.3348      34.6430       1.0327
    7248.0    1249.0235       0.0000      50.8611     -61.7611       0.9644      -0.8496      -0.4563      40.7432       1.0226
    7249.0    1202.2339       0.0000      50.8611     -68.0774       0.9998      -0.9275      -0.3733      46.8476       1.0226
    7250.0    1170.1012       0.0000      50.8611     -68.8409       1.2582      -1.1733      -0.4538      52.9494       1.0226
    7251.0    1145.0431       0.0000      50.8611     -62.0769       1.1382      -1.0054      -0.5331      59.0512       1.0226
    7252.0    1119.6794       0.0000      50.8611     -67.5439       1.0907      -1.0079      -0.4166      65.1407       1.0226
    7253.0    1098.8401       0.0000      50.8611     -62.8204       0.9989      -0.8886      -0.4563      71.2555       1.0226
    7254.0    1086.7465       0.0000      50.8611     -62.9493       1.0879      -0.9689      -0.4947      77.3573       1.0226
    7255.0    1071.8860       0.0000      50.8611     -60.1592       1.0749      -0.9323      -0.5344      83.4467       1.0226
    7256.0    1060.6167       0.0000      50.8611     -53.7431       1.1083      -0.8934      -0.6546      89.5485       1.0226
    7257.0    1057.1884       0.0000      50.8611     -58.4584       1.1826      -1.0079      -0.6186      95.6503       1.0226
    7258.0    1055.7433       0.0000      50.8611     -60.9558       1.1083      -0.9689      -0.5381     101.7521       1.0226
    7259.0    1065.4381       0.0000      50.8611     -55.8223       0.8883      -0.7351      -0.4984     108.2750       1.0226
    7260.0    1083.1491       0.0000      50.8611     -54.1680       1.1966      -0.9701      -0.7004     114.3645       1.0327
    7261.0    1101.6673       0.0000      50.8611     -59.3532       1.2139      -1.0444      -0.6186     120.4793       1.0330
    7262.0    1122.9359       0.0000      50.8611     -55.6628       1.1735      -0.9689      -0.6619     126.5941       1.0226
    7263.0    1145.0431       0.0000      50.8611     -57.5119       1.1446      -0.9653      -0.6149     132.6960       1.0226
    7264.0    1181.3689       0.0000      50.8611     -56.3751       1.2505      -1.0408      -0.6930     138.8111       1.0226
    7265.0    1231.1353       0.0000      50.8611     -57.3742       1.0067      -0.8472      -0.5430     144.9006       1.0327
    7266.0    1259.7450       0.0000      50.8611     -46.0961       1.1267      -0.8118      -0.7809     151.0156       1.0330
    7267.0    1276.0889       0.0000      50.8611     -52.9176       1.1596      -0.9251      -0.6992     157.1308       1.0226
    7268.0    1295.1053       0.0000      50.8611     -54.5365       1.1388      -0.9275      -0.6607     163.2453       1.0229
    7269.0    1321.2944       0.0000      50.8611     -53.3941       1.1039      -0.8862      -0.6583     169.3476       1.0330
    7270.0    1341.4611       0.0000      50.8611     -50.7444       1.0422      -0.8070      -0.6595     175.4625       1.0226
    7271.0    1352.0856       0.0000      50.8611     -52.4751       1.0176      -0.8070      -0.6198     181.9724       1.0226
    7272.0    1370.5340       0.0000      50.8611     -47.4367       1.0941      -0.8058      -0.7400     188.0743       1.0226
    7273.0    1394.8416       0.0000      50.8611     -46.0074       1.0084      -0.7255      -0.7004     194.1762       1.0226
    7274.0    1411.7282       0.0000      50.8611     -46.1262       1.0642      -0.7669      -0.7376     200.2781       1.0226
    7275.0    1412.1543       0.0000      50.8611     -52.5287       1.0169      -0.8070      -0.6186     206.3932       1.0226
    7276.0    1437.9718       0.0000      50.8611     -44.4241       0.9269      -0.6488      -0.6619     212.4951       1.0226
    7277.0    1455.6777       0.0000      50.8611     -48.9556       1.0677      -0.8052      -0.7010     218.5970       1.0226
    7278.0    1467.8101       0.0000      50.8611     -40.9836       0.9279      -0.6086      -0.7004     224.6865       1.0330
    7279.0    1486.4280       0.0000      50.8611     -56.7276       0.9119      -0.7620      -0.4996     230.8015       1.0226
    7280.0    1499.2004       0.0000      50.8611     -48.4135       0.8690      -0.6500      -0.5765     236.9034       1.0226
    7281.0    1508.6585       0.0000      50.8611     -48.2026       0.8686      -0.6476      -0.5789     243.0053       1.0226
    7282.0    1515.2578       0.0000      50.8611     -42.6928       0.8992      -0.6098      -0.6607     249.1072       1.0226
    7283.0    1515.5524       0.0000      50.8611     -63.8890       1.2940      -1.1613      -0.5704     255.6019       1.0226
    7284.0    1528.4332       0.0000      50.8611     -51.8802       0.8679      -0.6829      -0.5356     261.7189       1.0226
    7285.0    1528.5327       0.0000      50.8611     -55.5513       0.7444      -0.6134      -0.4215     267.8339       1.0229
    7286.0    1525.3164       0.0000      50.8611     -53.5256       0.7132      -0.5721      -0.4252     273.9358       1.0226
    7287.0    1522.0146       0.0000      50.8611     -46.9974       0.7242      -0.5295      -0.4935     280.0376       1.0226
    7288.0    1525.1179       0.0000      50.8611     -53.3965       0.7598      -0.6098      -0.4526     286.1531       1.0334
    7289.0    1514.3689       0.0000      50.8611     -60.3859       0.8962      -0.7790      -0.4427     292.2612       1.0226
    7290.0    1499.5873       0.0000      50.8611     -41.2401       0.8160      -0.5367      -0.6100     298.3702       1.0229
    7291.0    1493.0253       0.0000      50.8611     -57.3959       0.7687      -0.6476      -0.4142     304.4476       1.0223
    7292.0    1483.3861       0.0000      50.8611     -62.5979       0.9080      -0.8058      -0.4178     310.5490       1.0226
    7293.0    1477.0604       0.0000      50.8611     -60.2627       0.8398      -0.7291      -0.4166     316.6516       1.0226
    7294.0    1467.9019       0.0000      50.8611     -66.5842       0.8396      -0.7705      -0.3336     322.7440       1.0226
    7295.0    1455.7454       0.0000      50.8611     -61.8265       0.9584      -0.8448      -0.4526     329.2387       1.0226
    7296.0    1443.7886       0.0000      50.8611     -56.3862       0.6863      -0.5708      -0.3806     335.3532       1.0330
    7297.0    1423.4166       0.0000      50.8611     -64.9537       1.0657      -0.9653      -0.4514     341.4554       1.0226
    7298.0    1414.8240       0.0000      50.8611     -73.1046       0.8864      -0.8472      -0.2580     347.5712       1.0229
    7299.0    1400.7313       0.0000      50.8611     -64.2737       0.6797      -0.6122      -0.2952     353.6734       1.0330
    7300.0    1386.7525       0.0000      50.8611     -72.7200       0.8477      -0.8094      -0.2518     359.7756       1.0226
    7301.0    1366.7379       0.0000      50.8611     -63.0140       1.0410      -0.9275      -0.4724       5.8781       1.0229
    7302.0    1346.9828       0.0000      50.8611     -57.9769       1.0040      -0.8508      -0.5319      11.9803       1.0226
    7303.0    1334.2030       0.0000      50.8611     -62.5546       0.9961      -0.8837      -0.4587      18.0953       1.0127
    7304.0    1309.7267       0.0000      50.8611     -78.8728       0.8611      -0.8448      -0.1664      24.1851       1.0226
    7305.0    1295.0331       0.0000      50.8611     -80.3380       1.0163      -1.0018      -0.1701      30.2869       1.0226
    7306.0    1287.5637       0.0000      50.8611     -54.5684       0.9949      -0.8106      -0.5765      36.3888       1.0330
