~VERSION INFORMATION
VERS.           2.0   :CWLS Log ASCII Standard - VERSION 2.0
WRAP.           NO    :One Line per depth step
PROD.  Schlumberger   :LAS Producer
PROG.  DLIS to ASCII 19C2-270                          :LAS Program name and version
CREA.        2017/09/16 17:42                          :LAS Creation date {YYYY/MM/DD hh:mm}
DLIS_CREA.  2017-Sep-15 13:29                          :DLIS Creation date and time {YYYY-MMM-DD hh:mm}
SOURCE.     LPC_S1-1_2A5.DLIS                          :DLIS File Name
FILE-ID.     PERFO_Perfo_WPGRT_025LTP                  :File Identification Number
#--------------------------------------------------
~WELL INFORMATION
#MNEM.UNIT      DATA             DESCRIPTION
#---- ------ --------------   -----------------------------
STRT .S         9747.0       :START TIME      
STOP .S        10374.0       :STOP TIME      
STEP .S            1.0       :STEP     
NULL .          -999.25      :NULL VALUE
COMP .        SHELL INTERNATIONAL E P                  :COMPANY
WELL .        WPP TEST 2                               :WELL
FLD  .        WILDCAT                                  :FIELD
LOC  .                                                 :LOCATION
CNTY .        HARRIS                                   :COUNTY
STAT .        TEXAS                                    :STATE
CTRY .                                                 :COUNTRY
API  .                                                 :API NUMBER
UWI  .                                                 :UNIQUE WELL ID
DATE .                                                 :LOG DATE
SRVC .        Schlumberger                             :SERVICE COMPANY
LATI .DEG                                              :LATITUDE
LONG .DEG                                              :LONGITUDE
GDAT .                                                 :GeoDetic Datum
#-----------------------------------------------------------------------------
~PARAMETER INFORMATION
#MNEM.UNIT    VALUE                      DESCRIPTION
#---- -----   --------------------       ------------------------
U-PHASE_B_COMP_PER_YT.                 0 :Phase B Comparator Period Yt
U-PHASE_A_COMP_PER_XT.                 0 :Phase A Comparator Period Xt
U-MAX_EXC_CUR_LIMIT.MA       240.00000   :Requested CM Current Limit
U-REQ_EXC_FQ.HZ              40          :Requested CM Frequency
U-TILT_Y_OFFSET.           0.19916       :WPTET Tilt Y Offset
U-TILT_Y_GAIN.           1.01796         :WPTET Tilt Y Gain
U-TILT_X_OFFSET.          -1.77103       :WPTET Tilt X Offset
U-TILT_X_GAIN.           1.00000         :WPTET Tilt X Gain
U-TILT_OFFSET_TOL.           0.00100     :WPTET Tilt Offset Calibration Tolerance
U-NO_TILT_CAL_ROTATIONS.                 3 :Number of Rotations for Tilt Calibration
HAZI .DEG        0.00000                 :Hole Azimuth
U-STD_TOL_TILT.           0.01000        :Tilt Standard Deviation Tolerance
U-GUN_POS_TOL.DEG        5.00000         :Gun Position Tolerance
ROT_ANGLE_THRESHOLD.DEG        5.00000   :Rotation Stop Angle Tolerance
STOP_ROT_ANGLE.DEG       80.00000        :Rotation Stop Angle
WITN .                                   :Witness's Name
ENGI .                                   :Engineer's Name
COUN .        HARRIS                     :County or Rig Name
FN   .        WILDCAT                    :Field Name
WN   .        WPP TEST 2                 :Well Name
CN   .        SHELL INTERNATIONAL E P    :Company Name
CLAB .        County                     :County/Rig Label
SLAB .        State                      :State/Province Label
RUN  .          1                        :RUN NUMBER
PDAT .        GROUND LEVEL               :Permanent Datum
EPD  .                                   :Elevation of Permanent Datum above Mean Sea Level
LMF  .                                   :Logging Measured From (Name of Logging Elevation Reference)
APD  .                                   :Elevation of Depth Reference (LMF) above Permanent Datum
#-----------------------------------------------------------------------------
~CURVE INFORMATION
#MNEM.UNIT   API CODE                                  DESCRIPTION
#---- -----  --------                                  -----------------------
TIME .S                                                :TIME {F10.1}
FREQ_EMF_SL.HZ                                         :Electromagnetic Field Frequency {F13.4}
PH_SH_WPPCM_SL.DEG                                     :WPPCM Phase Shift {F13.4}
FREQ_EXC_REQ_SL.HZ                                     :Requested Exciter Frequency {F13.4}
RB_SL.DEG                                              :Relative Bearing {F13.4}
SDEV_SL.DEG                                            :Sonde Deviation {F13.4}
TILX_SL.DEG                                            :X-axis Tilt {F13.4}
TILY_SL.DEG                                            :Y-axis Tilt {F13.4}
ROTA_SL.DEG                                            :Motor Rotation Angle {F13.4}
MSPE_SL.RPM                                            :Motor Speed {F13.4}
#-----------------------------------------------------------------------------
# 
#     TIME    FREQ_EMF_SL  PH_SH_WPPCM_ FREQ_EXC_REQ    RB_SL       SDEV_SL      TILX_SL      TILY_SL      ROTA_SL      MSPE_SL
#                          SL           _SL
~A  
# ...
   10062.0    1516.7630       0.0000      40.6889    -128.8107       4.2626      -3.3203       2.6700      70.5875       0.0005
   10063.0    1512.0968       0.0000      40.6889    -129.5685       4.3313      -3.3375       2.7575      70.5875       0.0005
   10064.0    1515.3556       0.0000      40.6889    -128.1069       4.2433      -3.3375       2.6173      70.5875       0.0005
   10065.0    1511.6485       0.0000      40.6889    -128.2405       4.3825      -3.4408       2.7109      70.5875       0.0005
   10066.0    1517.6935       0.0000      40.6889    -128.5044       4.3477      -3.4006       2.7052      70.5875       0.0005
   10067.0    1511.6485       0.0000      40.6889    -129.8335       4.2433      -3.2572       2.7166      70.5875       0.0005
   10068.0    1513.9543       0.0000      40.6889    -128.0240       4.3557      -3.4295       2.6819      70.5875       0.0005
   10069.0    1512.5590       0.0000      40.6889    -128.4844       4.3680      -3.4179       2.7166      70.5875       0.0005
   10070.0    1513.9543       0.0000      40.6889    -129.0365       4.4091      -3.4235       2.7751      70.5875       0.0005
   10071.0    1515.3556       0.0000      40.6889    -128.2033       4.3290      -3.4006       2.6757      70.5875       0.0005
   10072.0    1510.7015       0.0000      40.6889    -128.5302       4.3265      -3.3833       2.6933      70.5875       0.0005
   10073.0    1516.7630       0.0000      40.6889    -128.8534       4.3611      -3.3950       2.7342      70.5875       0.0005
   10074.0    1515.3556       0.0000      40.6889    -128.5505       4.3069      -3.3660       2.6819      70.5875       0.0005
   10075.0    1513.9543       0.0000      40.6889    -128.3068       4.3200      -3.3889       2.6757      70.5875       0.0005
   10076.0    1514.9054       0.0000      40.6889    -129.2116       4.2807      -3.3146       2.7048      70.5875       0.0005
   10077.0    1512.0968       0.0000      40.6889    -127.9610       4.3146      -3.4006       2.6524      70.5875       0.0005
   10078.0    1514.9054       0.0000      40.6889    -129.7479       4.3425      -3.3375       2.7751      70.5875       0.0005
   10079.0    1514.9054       0.0000      40.6889    -126.7391       4.3456      -3.4753       2.6005      70.5875       0.0005
   10080.0    1513.7292       0.0000      40.6889    -129.4113       4.4312      -3.4222       2.8116      70.5875       0.0005
   10081.0    1513.0559       0.0000      40.6889    -127.6241       4.2894      -3.3950       2.6177      70.5875       0.0005
   10082.0    1515.8199       0.0000      40.6889    -128.7743       4.3121      -3.3604       2.6990      70.5875       0.0005
   10083.0    1514.9054       0.0000      40.6889    -127.9231       4.2039      -3.3146       2.5825      70.5875       0.0005
   10084.0    1512.0968       0.0000      40.6889    -126.9860       4.3549      -3.4693       2.6181      70.5875       0.0005
   10085.0    1515.3556       0.0000      40.6889    -127.9801       4.3318      -3.4122       2.6639      70.5875       0.0005
   10086.0    1513.0559       0.0000      40.6889    -128.2711       4.2682      -3.3488       2.6410      70.5875       0.0005
   10087.0    1510.7015       0.0000      40.6889    -129.4776       4.3568      -3.3604       2.7690      70.5875       0.0005
   10088.0    1516.7630       0.0000      40.6889    -128.6523       4.3341      -3.3837       2.7052      70.5875       0.0005
   10089.0    1510.2472       0.0000      40.6889    -126.7782       4.4051      -3.5271       2.6349      70.5875       0.0005
   10090.0    1514.4246       0.0000      40.6889    -131.2480       4.2652      -3.2058       2.8103      70.5875       0.0005
   10091.0    1513.9543       0.0000      40.6889    -130.4856       4.3230      -3.2861       2.8041      70.5875       0.0005
   10092.0    1513.1472       0.0000      40.6889    -128.9487       4.3486      -3.3803       2.7325      70.5875       0.0005
   10093.0    1514.9054       0.0000      40.6889    -128.8459       4.4358      -3.4524       2.7812      70.5875       0.0005
   10094.0    1513.4981       0.0000      40.6889    -127.1147       4.2536      -3.3893       2.5645      70.5875       0.0005
   10095.0    1515.3556       0.0000      40.6889    -128.6685       4.2898      -3.3436       2.6823      70.5875       0.0005
   10096.0    1512.0968       0.0000      40.6889    -128.6869       4.3012      -3.3548       2.6872      70.5875       0.0005
   10097.0    1513.9543       0.0000      40.6889    -128.4566       4.3359      -3.3946       2.6933      70.5875       0.0005
   10098.0    1515.3556       0.0000      40.6889    -127.8936       4.3976      -3.4693       2.6990      71.9666       0.5770
   10099.0    1517.2212       0.0000      40.6889    -122.7796       4.4827      -3.7677       2.4247      76.4184       0.8543
   10100.0    1514.9054       0.0000      40.6889    -118.3786       4.4534      -3.9171       2.1152      82.1370       1.0226
   10101.0    1513.9543       0.0000      40.6889    -112.4574       4.5931      -4.2441       1.7529      88.2517       1.0272
   10102.0    1511.6485       0.0000      40.6889    -107.3892       4.6595      -4.4449       1.3910      94.3663       1.0272
   10103.0    1504.2376       0.0000      40.6889    -102.6730       4.7209      -4.6056       1.0345     100.4635       1.0287
   10104.0    1512.0939       0.0000      40.6889     -96.5789       4.8159      -4.7833       0.5499     106.5844       1.0226
   10105.0    1501.9613       0.0000      40.6889     -91.6045       4.8256      -4.8237       0.1350     112.6733       1.0226
   10106.0    1502.8601       0.0000      40.6889     -87.9704       4.9302      -4.9269      -0.1746     118.7746       1.0226
   10107.0    1500.1431       0.0000      40.6889     -81.0304       5.0230      -4.9615      -0.7822     124.8769       1.0226
   10108.0    1495.1031       0.0000      40.6889     -76.7529       4.9740      -4.8410      -1.1383     130.9791       1.0226
   10109.0    1492.8344       0.0000      40.6889     -72.1629       5.0798      -4.8349      -1.5533     137.0806       1.0226
   10110.0    1486.0889       0.0000      40.6889     -67.4319       5.0881      -4.6976      -1.9503     143.1821       1.0226
   10111.0    1482.0433       0.0000      40.6889     -61.4924       5.2312      -4.5943      -2.4933     149.6887       1.0287
   10112.0    1478.4906       0.0000      40.6889     -57.7914       5.1004      -4.3132      -2.7153     155.7844       1.0272
   10113.0    1469.2224       0.0000      40.6889     -51.8923       5.1049      -4.0147      -3.1479     161.8858       1.0226
   10114.0    1469.2224       0.0000      40.6889     -46.2941       5.0257      -3.6299      -3.4693     167.9759       1.0226
   10115.0    1461.7983       0.0000      40.6889     -42.8631       5.0788      -3.4524      -3.7204     174.0735       1.0287
   10116.0    1458.3345       0.0000      40.6889     -37.8947       5.1018      -3.1310      -4.0241     180.1807       1.0226
   10117.0    1452.3236       0.0000      40.6889     -33.6791       4.9778      -2.7579      -4.1407     186.2821       1.0226
   10118.0    1445.4819       0.0000      40.6889     -27.5360       5.0154      -2.3165      -4.4445     192.4030       1.0226
   10119.0    1449.7422       0.0000      40.6889     -22.2836       5.0134      -1.8976      -4.6371     198.5018       1.0226
   10120.0    1442.1021       0.0000      40.6889     -18.4600       4.9330      -1.5589      -4.6780     204.6163       1.0226
   10121.0    1442.9427       0.0000      40.6889     -11.9389       4.6331      -0.9564      -4.5320     210.7178       1.0226
   10122.0    1438.7500       0.0000      40.6889      -7.4879       4.7426      -0.6178      -4.7017     216.8201       1.0226
   10123.0    1435.3649       0.0000      40.6889      -2.4866       4.5892      -0.1989      -4.5847     223.3431       1.0226
   10124.0    1433.2832       0.0000      40.6889       3.5892       4.5296       0.2831      -4.5205     229.4454       1.0226
