~VERSION INFORMATION
VERS.           2.0   :CWLS Log ASCII Standard - VERSION 2.0
WRAP.           NO    :One Line per depth step
PROD.  Schlumberger   :LAS Producer
PROG.  DLIS to ASCII 19C2-270                          :LAS Program name and version
CREA.        2017/09/16 17:42                          :LAS Creation date {YYYY/MM/DD hh:mm}
DLIS_CREA.  2017-Sep-15 15:20                          :DLIS Creation date and time {YYYY-MMM-DD hh:mm}
SOURCE.     LPC_S2-1_2B5.DLIS                          :DLIS File Name
FILE-ID.     PERFO_Perfo_WPGRT_034LTP                  :File Identification Number
#--------------------------------------------------
~WELL INFORMATION
#MNEM.UNIT      DATA             DESCRIPTION
#---- ------ --------------   -----------------------------
STRT .S        16366.0       :START TIME      
STOP .S        16828.0       :STOP TIME      
STEP .S            1.0       :STEP     
NULL .          -999.25      :NULL VALUE
COMP .        SHELL INTERNATIONAL E P                  :COMPANY
WELL .        WPP TEST 2                               :WELL
FLD  .        WILDCAT                                  :FIELD
LOC  .                                                 :LOCATION
CNTY .        HARRIS                                   :COUNTY
STAT .        TEXAS                                    :STATE
CTRY .                                                 :COUNTRY
API  .                                                 :API NUMBER
UWI  .                                                 :UNIQUE WELL ID
DATE .                                                 :LOG DATE
SRVC .        Schlumberger                             :SERVICE COMPANY
LATI .DEG                                              :LATITUDE
LONG .DEG                                              :LONGITUDE
GDAT .                                                 :GeoDetic Datum
#-----------------------------------------------------------------------------
~PARAMETER INFORMATION
#MNEM.UNIT    VALUE                      DESCRIPTION
#---- -----   --------------------       ------------------------
U-PHASE_B_COMP_PER_YT.                 0 :Phase B Comparator Period Yt
U-PHASE_A_COMP_PER_XT.                 0 :Phase A Comparator Period Xt
U-MAX_EXC_CUR_LIMIT.MA       240.00000   :Requested CM Current Limit
U-REQ_EXC_FQ.HZ              50          :Requested CM Frequency
U-TILT_Y_OFFSET.           0.19916       :WPTET Tilt Y Offset
U-TILT_Y_GAIN.           1.01796         :WPTET Tilt Y Gain
U-TILT_X_OFFSET.          -1.77103       :WPTET Tilt X Offset
U-TILT_X_GAIN.           1.00000         :WPTET Tilt X Gain
U-TILT_OFFSET_TOL.           0.00100     :WPTET Tilt Offset Calibration Tolerance
U-NO_TILT_CAL_ROTATIONS.                 3 :Number of Rotations for Tilt Calibration
HAZI .DEG        0.00000                 :Hole Azimuth
U-STD_TOL_TILT.           0.01000        :Tilt Standard Deviation Tolerance
U-GUN_POS_TOL.DEG        5.00000         :Gun Position Tolerance
ROT_ANGLE_THRESHOLD.DEG        5.00000   :Rotation Stop Angle Tolerance
STOP_ROT_ANGLE.DEG       80.00000        :Rotation Stop Angle
WITN .                                   :Witness's Name
ENGI .                                   :Engineer's Name
COUN .        HARRIS                     :County or Rig Name
FN   .        WILDCAT                    :Field Name
WN   .        WPP TEST 2                 :Well Name
CN   .        SHELL INTERNATIONAL E P    :Company Name
CLAB .        County                     :County/Rig Label
SLAB .        State                      :State/Province Label
RUN  .          1                        :RUN NUMBER
PDAT .        GROUND LEVEL               :Permanent Datum
EPD  .                                   :Elevation of Permanent Datum above Mean Sea Level
LMF  .                                   :Logging Measured From (Name of Logging Elevation Reference)
APD  .                                   :Elevation of Depth Reference (LMF) above Permanent Datum
#-----------------------------------------------------------------------------
~CURVE INFORMATION
#MNEM.UNIT   API CODE                                  DESCRIPTION
#---- -----  --------                                  -----------------------
TIME .S                                                :TIME {F10.1}
FREQ_EMF_SL.HZ                                         :Electromagnetic Field Frequency {F13.4}
PH_SH_WPPCM_SL.DEG                                     :WPPCM Phase Shift {F13.4}
FREQ_EXC_REQ_SL.HZ                                     :Requested Exciter Frequency {F13.4}
RB_SL.DEG                                              :Relative Bearing {F13.4}
SDEV_SL.DEG                                            :Sonde Deviation {F13.4}
TILX_SL.DEG                                            :X-axis Tilt {F13.4}
TILY_SL.DEG                                            :Y-axis Tilt {F13.4}
ROTA_SL.DEG                                            :Motor Rotation Angle {F13.4}
MSPE_SL.RPM                                            :Motor Speed {F13.4}
#-----------------------------------------------------------------------------
# 
#     TIME    FREQ_EMF_SL  PH_SH_WPPCM_ FREQ_EXC_REQ    RB_SL       SDEV_SL      TILX_SL      TILY_SL      ROTA_SL      MSPE_SL
#                          SL           _SL
~A  
# ...
   16555.0    1454.6024       0.0000      50.8611     172.5030       3.8615       0.5032       3.8284     174.5570       0.0005
   16556.0    1446.0509       0.0000      50.8611     171.8821       3.9188       0.5530       3.8791     174.5570       0.0005
   16557.0    1448.6087       0.0000      50.8611     171.8540       3.9034       0.5530       3.8635     174.5570       0.0005
   16558.0    1451.5994       0.0000      50.8611     172.7733       3.9259       0.4936       3.8946     174.5570       0.0005
   16559.0    1447.8928       0.0000      50.8611     172.4891       3.9494       0.5145       3.9142     174.5570       0.0005
   16560.0    1447.8928       0.0000      50.8611     173.1387       3.8412       0.4590       3.8128     174.5570       0.0005
   16561.0    1446.7593       0.0000      50.8611     172.2230       3.9565       0.5297       3.9183     174.5570       0.0005
   16562.0    1449.3370       0.0000      50.8611     173.2294       3.8496       0.4534       3.8226     174.5570       0.0005
   16563.0    1451.5994       0.0000      50.8611     171.5496       3.9200       0.5739       3.8774     174.5570       0.0005
   16564.0    1446.0509       0.0000      50.8611     171.6639       3.8577       0.5586       3.8169     174.5570       0.0005
   16565.0    1444.9174       0.0000      50.8611     172.0513       3.9118       0.5394       3.8734     174.5570       0.0005
   16566.0    1445.6304       0.0000      50.8611     172.0605       3.8359       0.5297       3.7973     174.5570       0.0005
   16567.0    1453.8806       0.0000      50.8611     172.6936       3.8459       0.4896       3.8128     174.5570       0.0005
   16568.0    1449.3370       0.0000      50.8611     171.6190       3.8702       0.5643       3.8284     174.5570       0.0005
   16569.0    1449.7422       0.0000      50.8611     172.1759       3.9255       0.5337       3.8889     174.5570       0.0005
   16570.0    1447.1892       0.0000      50.8611     172.2061       3.8286       0.5185       3.7932     174.5570       0.0005
   16571.0    1447.4798       0.0000      50.8611     172.1830       3.8917       0.5297       3.8537     174.5570       0.0005
   16572.0    1448.6087       0.0000      50.8611     172.3513       3.8690       0.5129       3.8341     174.5570       0.0005
   16573.0    1450.8805       0.0000      50.8611     171.8541       4.0114       0.5683       3.9707     174.5570       0.0005
   16574.0    1449.7422       0.0000      50.8611     172.0524       3.8862       0.5378       3.8480     174.5570       0.0005
   16575.0    1443.7886       0.0000      50.8611     172.1853       3.8843       0.5281       3.8480     174.5570       0.0005
   16576.0    1448.6087       0.0000      50.8611     172.7503       3.8694       0.4879       3.8382     174.5570       0.0005
   16577.0    1454.6024       0.0000      50.8611     171.9967       3.9074       0.5434       3.8693     174.5570       0.0005
   16578.0    1449.0311       0.0000      50.8611     171.8897       3.8929       0.5490       3.8537     174.5570       0.0005
   16579.0    1446.0509       0.0000      50.8611     171.9124       3.8669       0.5434       3.8284     174.5570       0.0005
   16580.0    1453.4642       0.0000      50.8611     173.2582       3.9473       0.4630       3.9200     174.5570       0.0005
   16581.0    1452.7377       0.0000      50.8611     173.0450       3.8768       0.4687       3.8480     174.5570       0.0005
   16582.0    1449.0311       0.0000      50.8611     173.0450       3.8768       0.4687       3.8480     174.5570       0.0005
   16583.0    1444.9174       0.0000      50.8611     172.9195       3.8834       0.4783       3.8537     174.5570       0.0005
   16584.0    1449.3370       0.0000      50.8611     172.9535       3.9029       0.4783       3.8734     174.5570       0.0005
   16585.0    1450.4659       0.0000      50.8611     172.8103       3.8691       0.4839       3.8382     174.5570       0.0005
   16586.0    1449.0311       0.0000      50.8611     171.7458       3.9613       0.5683       3.9200     174.5570       0.0005
   16587.0    1447.8928       0.0000      50.8611     172.6361       3.8545       0.4936       3.8226     174.5570       0.0005
   16588.0    1449.3370       0.0000      50.8611     172.1062       3.8496       0.5281       3.8128     174.5570       0.0005
   16589.0    1451.5994       0.0000      50.8611     172.8759       3.9408       0.4879       3.9102     174.5570       0.0005
   16590.0    1444.9174       0.0000      50.8611     173.0951       3.8564       0.4630       3.8284     174.5570       0.0005
   16591.0    1447.8928       0.0000      50.8611     172.1273       3.9004       0.5337       3.8635     174.5570       0.0005
   16592.0    1447.1892       0.0000      50.8611     172.6820       3.8797       0.4936       3.8480     174.5570       0.0005
   16593.0    1446.0509       0.0000      50.8611     171.2181       3.9252       0.5988       3.8791     174.5570       0.0005
   16594.0    1452.3306       0.0000      50.8611     173.0283       3.9093       0.4743       3.8791     174.5570       0.0005
   16595.0    1452.3306       0.0000      50.8611     172.0420       3.9268       0.5434       3.8889     174.5570       0.0005
   16596.0    1449.0311       0.0000      50.8611     173.1363       3.9230       0.4687       3.8946     174.5570       0.0005
   16597.0    1450.8805       0.0000      50.8611     172.3014       3.9149       0.5241       3.8791     174.5570       0.0005
   16598.0    1448.6087       0.0000      50.8611     172.7503       3.8694       0.4879       3.8382     174.5570       0.0005
   16599.0    1452.3306       0.0000      50.8611     172.7435       3.9105       0.4936       3.8791     174.5570       0.0005
   16600.0    1452.0234       0.0000      50.8611     173.0739       3.9180       0.4727       3.8889     174.5570       0.0005
   16601.0    1450.8805       0.0000      50.8611     173.3533       3.9252       0.4534       3.8987     174.5570       0.0005
   16602.0    1448.2127       0.0000      50.8611     174.8138       3.8897       0.3522       3.8734     176.1249       0.6030
   16603.0    1456.4749       0.0000      50.8611     178.5366       3.9720       0.1015       3.9707     180.7174       0.8873
   16604.0    1444.6710       0.0000      50.8611    -173.8674       4.0817      -0.4359       4.0582     186.5858       1.0161
   16605.0    1452.7377       0.0000      50.8611    -166.8445       4.1685      -0.9484       4.0582     192.6869       1.0226
   16606.0    1452.7377       0.0000      50.8611    -160.3975       4.2657      -1.4304       4.0173     198.7902       1.0226
   16607.0    1455.7454       0.0000      50.8611    -155.3684       4.3860      -1.8265       3.9862     204.8680       1.0161
   16608.0    1453.8806       0.0000      50.8611    -149.1938       4.4634      -2.2836       3.8325     210.9645       1.0186
   16609.0    1442.3898       0.0000      50.8611    -142.4398       4.6055      -2.8057       3.6493     217.0579       1.0226
   16610.0    1449.3370       0.0000      50.8611    -137.0227       4.6563      -3.1728       3.4040     223.5646       1.0186
   16611.0    1438.5951       0.0000      50.8611    -130.0401       4.8375      -3.7006       3.1063     229.6712       1.0226
   16612.0    1430.2219       0.0000      50.8611    -125.7262       4.8437      -3.9304       2.8258     235.7724       1.0226
   16613.0    1419.7717       0.0000      50.8611    -120.1393       4.9822      -4.3071       2.4987     241.8750       1.0226
   16614.0    1410.8224       0.0000      50.8611    -115.0887       4.9960      -4.5232       2.1152     247.9654       1.0226
   16615.0    1402.3808       0.0000      50.8611    -108.3585       5.0832      -4.8237       1.5992     254.0749       1.0186
   16616.0    1404.8102       0.0000      50.8611    -103.6256       5.2317      -5.0840       1.2312     260.1683       1.0226
   16617.0    1391.2811       0.0000      50.8611     -98.0733       5.2836      -5.2310       0.7405     266.2661       1.0161
