~VERSION INFORMATION
VERS.           2.0   :CWLS Log ASCII Standard - VERSION 2.0
WRAP.           NO    :One Line per depth step
PROD.  Schlumberger   :LAS Producer
PROG.  DLIS to ASCII 19C2-270                          :LAS Program name and version
CREA.        2017/09/16 17:42                          :LAS Creation date {YYYY/MM/DD hh:mm}
DLIS_CREA.  2017-Sep-15 19:44                          :DLIS Creation date and time {YYYY-MMM-DD hh:mm}
SOURCE.     LPC_S5-1_2A5.DLIS                          :DLIS File Name
FILE-ID.     PERFO_Perfo_WPGRT_063LTP                  :File Identification Number
#--------------------------------------------------
~WELL INFORMATION
#MNEM.UNIT      DATA             DESCRIPTION
#---- ------ --------------   -----------------------------
STRT .S         1302.0       :START TIME      
STOP .S         1712.0       :STOP TIME      
STEP .S            1.0       :STEP     
NULL .          -999.25      :NULL VALUE
COMP .        SHELL INTERNATIONAL E P                  :COMPANY
WELL .        WPP TEST 2                               :WELL
FLD  .        WILDCAT                                  :FIELD
LOC  .        NA                                       :LOCATION
CNTY .        HARRIS                                   :COUNTY
STAT .        TEXAS                                    :STATE
CTRY .                                                 :COUNTRY
API  .        NA                                       :API NUMBER
UWI  .                                                 :UNIQUE WELL ID
DATE .        15-Sep-2017                              :LOG DATE {DD-MMM-YYYY}
SRVC .        Schlumberger                             :SERVICE COMPANY
LATI .DEG                                              :LATITUDE
LONG .DEG                                              :LONGITUDE
GDAT .                                                 :GeoDetic Datum
SECT .        NA                                       :Section
RANG .        NA                                       :Range
TOWN .        NA                                       :Township
#-----------------------------------------------------------------------------
~PARAMETER INFORMATION
#MNEM.UNIT    VALUE                      DESCRIPTION
#---- -----   --------------------       ------------------------
U-PHASE_B_COMP_PER_YT.                 0 :Phase B Comparator Period Yt
U-PHASE_A_COMP_PER_XT.                 0 :Phase A Comparator Period Xt
U-MAX_EXC_CUR_LIMIT.MA       240.00000   :Requested CM Current Limit
U-REQ_EXC_FQ.HZ              50          :Requested CM Frequency
U-TILT_Y_OFFSET.           0.19916       :WPTET Tilt Y Offset
U-TILT_Y_GAIN.           1.01796         :WPTET Tilt Y Gain
U-TILT_X_OFFSET.          -1.77103       :WPTET Tilt X Offset
U-TILT_X_GAIN.           1.00000         :WPTET Tilt X Gain
U-TILT_OFFSET_TOL.           0.00100     :WPTET Tilt Offset Calibration Tolerance
U-NO_TILT_CAL_ROTATIONS.                 3 :Number of Rotations for Tilt Calibration
HAZI .DEG        0.00000                 :Hole Azimuth
U-STD_TOL_TILT.           0.01000        :Tilt Standard Deviation Tolerance
U-GUN_POS_TOL.DEG        5.00000         :Gun Position Tolerance
ROT_ANGLE_THRESHOLD.DEG        5.00000   :Rotation Stop Angle Tolerance
STOP_ROT_ANGLE.DEG        0.00000        :Rotation Stop Angle
WITN .        MR. DHRUA ARORA            :Witness's Name
ENGI .        MORRIS MOORE               :Engineer's Name
COUN .        HARRIS                     :County or Rig Name
FN   .        WILDCAT                    :Field Name
WN   .        WPP TEST 2                 :Well Name
CN   .        SHELL INTERNATIONAL E P    :Company Name
CLAB .        County                     :County/Rig Label
SLAB .        State                      :State/Province Label
RUN  .          1                        :RUN NUMBER
PDAT .        GROUND LEVEL               :Permanent Datum
EPD  .                                   :Elevation of Permanent Datum above Mean Sea Level
LMF  .          NA                       :Logging Measured From (Name of Logging Elevation Reference)
APD  .                                   :Elevation of Depth Reference (LMF) above Permanent Datum
#-----------------------------------------------------------------------------
~CURVE INFORMATION
#MNEM.UNIT   API CODE                                  DESCRIPTION
#---- -----  --------                                  -----------------------
TIME .S                                                :TIME {F10.1}
FREQ_EMF_SL.HZ                                         :Electromagnetic Field Frequency {F13.4}
PH_SH_WPPCM_SL.DEG                                     :WPPCM Phase Shift {F13.4}
FREQ_EXC_REQ_SL.HZ                                     :Requested Exciter Frequency {F13.4}
RB_SL.DEG                                              :Relative Bearing {F13.4}
SDEV_SL.DEG                                            :Sonde Deviation {F13.4}
TILX_SL.DEG                                            :X-axis Tilt {F13.4}
TILY_SL.DEG                                            :Y-axis Tilt {F13.4}
ROTA_SL.DEG                                            :Motor Rotation Angle {F13.4}
MSPE_SL.RPM                                            :Motor Speed {F13.4}
#-----------------------------------------------------------------------------
# 
#     TIME    FREQ_EMF_SL  PH_SH_WPPCM_ FREQ_EXC_REQ    RB_SL       SDEV_SL      TILX_SL      TILY_SL      ROTA_SL      MSPE_SL
#                          SL           _SL
~A  
# ...
    1428.0    1332.9333       0.0000      50.8611    -103.5437       5.8643      -5.7006       1.3712     276.1397       1.0226
    1429.0    1316.7585       0.0000      50.8611     -98.3384       5.9917      -5.9281       0.8671     282.2415       1.0226
    1430.0    1315.4983       0.0000      50.8611     -92.5412       6.0417      -6.0354       0.2675     288.3433       1.0226
    1431.0    1297.2786       0.0000      50.8611     -85.4536       6.1832      -6.1627      -0.4887     294.4451       1.0226
    1432.0    1288.5708       0.0000      50.8611     -79.7439       6.0864      -5.9885      -1.0818     300.5474       1.0226
    1433.0    1261.6785       0.0000      50.8611     -75.1522       6.1205      -5.9149      -1.5655     306.6492       1.0226
    1434.0    1235.7206       0.0000      50.8611     -70.7342       6.3881      -6.0287      -2.1040     312.7513       1.0226
    1435.0    1218.5875       0.0000      50.8611     -66.0974       6.1790      -5.6473      -2.4994     318.8407       1.0226
    1436.0    1204.6647       0.0000      50.8611     -60.0642       6.2883      -5.4465      -3.1330     324.9302       1.0226
    1437.0    1188.3881       0.0000      50.8611     -54.7488       6.2636      -5.1116      -3.6103     331.4400       1.0226
    1438.0    1176.1254       0.0000      50.8611     -51.3969       6.3405      -4.9509      -3.9512     337.5346       1.0226
    1439.0    1170.9119       0.0000      50.8611     -46.2317       6.2502      -4.5091      -4.3191     343.6189       1.0226
    1440.0    1147.6541       0.0000      50.8611     -40.9102       6.2793      -4.1074      -4.7414     349.7207       1.0226
    1441.0    1141.4368       0.0000      50.8611     -35.3257       6.2666      -3.6187      -5.1094     355.8103       1.0226
    1442.0    1140.2098       0.0000      50.8611     -31.5165       6.2529      -3.2639      -5.3276       1.9121       1.0226
    1443.0    1128.0251       0.0000      50.8611     -23.9148       6.0464      -2.4475      -5.5252       8.0016       1.0226
    1444.0    1128.9166       0.0000      50.8611     -19.3064       5.9939      -1.9790      -5.6547      14.0912       1.0226
    1445.0    1125.8964       0.0000      50.8611     -13.3047       6.0494      -1.3896      -5.8863      20.1917       1.0244
    1446.0    1114.8876       0.0000      50.8611     -10.6264       6.0932      -1.1216      -5.9883      26.2957       1.0315
    1447.0    1120.2272       0.0000      50.8611      -4.5905       5.9059      -0.4725      -5.8866      32.4237       1.0244
    1448.0    1112.8360       0.0000      50.8611       0.6381       5.6620       0.0631      -5.6616      38.5255       1.0226
    1449.0    1128.0044       0.0000      50.8611       8.0350       5.6845       0.7925      -5.6276      45.0354       1.0226
    1450.0    1126.4998       0.0000      50.8611      12.0502       5.6992       1.1882      -5.5729      51.1381       1.0226
    1451.0    1134.3805       0.0000      50.8611      18.6851       5.3884       1.7231      -5.1029      57.2275       1.0208
    1452.0    1145.7839       0.0000      50.8611      24.1137       5.3239       2.1717      -4.8576      63.3293       1.0226
    1453.0    1158.9931       0.0000      50.8611      32.1857       5.2138       2.7739      -4.4078      69.4443       1.0226
    1454.0    1168.3023       0.0000      50.8611      37.2106       5.2664       3.1823      -4.1896      75.5338       1.0138
    1455.0    1187.2904       0.0000      50.8611      43.4031       5.1875       3.5623      -3.7653      81.6232       1.0226
    1456.0    1196.4769       0.0000      50.8611      46.5734       4.8186       3.4976      -3.3103      87.7250       1.0226
    1457.0    1218.2331       0.0000      50.8611      53.5829       4.8223       3.8790      -2.8606      93.8144       1.0226
    1458.0    1229.5952       0.0000      50.8611      61.2077       4.7563       4.1672      -2.2881      99.9167       1.0226
    1459.0    1240.4477       0.0000      50.8611      67.6135       4.5875       4.2412      -1.7428     106.0180       1.0226
    1460.0    1266.8918       0.0000      50.8611      73.8342       4.5273       4.3478      -1.2591     112.1203       1.0226
    1461.0    1285.0262       0.0000      50.8611      81.3405       4.3844       4.3343      -0.6595     118.6296       1.0226
    1462.0    1299.6765       0.0000      50.8611      88.4258       4.4096       4.4079      -0.1211     124.7314       1.0226
    1463.0    1322.9019       0.0000      50.8611      96.3317       4.2802       4.2540       0.4716     130.8337       1.0226
    1464.0    1355.6354       0.0000      50.8611     103.3651       4.1663       4.0531       0.9623     136.9351       1.0226
    1465.0    1375.0766       0.0000      50.8611     112.1787       4.2125       3.8992       1.5890     143.0246       1.0226
    1466.0    1387.7578       0.0000      50.8611     118.9541       4.2974       3.7585       2.0796     149.1274       1.0226
    1467.0    1415.5660       0.0000      50.8611     130.2363       4.2223       3.2201       2.7235     155.2067       1.0138
    1468.0    1435.9220       0.0000      50.8611     135.8116       4.3004       2.9957       3.0816     161.3197       1.0226
    1469.0    1440.3345       0.0000      50.8611     142.9909       4.2013       2.5268       3.3540     167.4216       1.0226
    1470.0    1444.7895       0.0000      50.8611     148.3609       4.3734       2.2926       3.7224     173.5366       1.0226
    1471.0    1449.2407       0.0000      50.8611     155.0076       4.5441       1.9176       4.1179     179.6262       1.0226
    1472.0    1460.2750       0.0000      50.8611     164.4770       4.4931       1.2013       4.3288     185.7272       1.0244
    1473.0    1460.7807       0.0000      50.8611     169.9831       4.4862       0.7797       4.4175     192.1702       1.0226
    1474.0    1453.7511       0.0000      50.8611     176.2138       4.6187       0.3045       4.6082     196.9331       0.0005
    1475.0    1460.8179       0.0000      50.8611     177.1251       4.7368       0.2373       4.7308     196.9331       0.0005
    1476.0    1469.4304       0.0000      50.8611     176.0351       4.5989       0.3176       4.5879     196.9331       0.0005
    1477.0    1463.8218       0.0000      50.8611     177.5513       4.6193       0.1971       4.6151     196.9331       0.0005
    1478.0    1462.8245       0.0000      50.8611     176.5807       4.6574       0.2775       4.6491     196.9331       0.0005
    1479.0    1467.2648       0.0000      50.8611     175.4206       4.7413       0.3777       4.7260     196.9331       0.0005
    1480.0    1467.3877       0.0000      50.8611     177.0092       4.5532       0.2373       4.5470     196.9331       0.0005
    1481.0    1467.3877       0.0000      50.8611     174.6214       4.6083       0.4314       4.5879     196.9331       0.0005
    1482.0    1461.7983       0.0000      50.8611     175.0663       4.7012       0.4044       4.6831     196.9331       0.0005
    1483.0    1461.7983       0.0000      50.8611     175.3385       4.7329       0.3845       4.7171     196.9331       0.0005
    1484.0    1464.8438       0.0000      50.8611     175.6718       4.6555       0.3511       4.6422     196.9331       0.0005
    1485.0    1468.4182       0.0000      50.8611     175.9020       4.5318       0.3240       4.5195     196.9331       0.0005
    1486.0    1461.7983       0.0000      50.8611     174.7774       4.7437       0.4314       4.7240     196.9331       0.0005
    1487.0    1464.8438       0.0000      50.8611     176.3699       4.6996       0.2974       4.6900     196.9331       0.0005
    1488.0    1467.9019       0.0000      50.8611     175.9095       4.5518       0.3244       4.5402     196.9331       0.0005
    1489.0    1462.3103       0.0000      50.8611     176.0273       4.4967       0.3109       4.4859     196.9331       0.0005
    1490.0    1465.3579       0.0000      50.8611     178.2013       4.7948       0.1502       4.7924     196.9331       0.0005
