~VERSION INFORMATION
VERS.           2.0   :CWLS Log ASCII Standard - VERSION 2.0
WRAP.           NO    :One Line per depth step
PROD.  Schlumberger   :LAS Producer
PROG.  DLIS to ASCII 19C2-270                          :LAS Program name and version
CREA.        2017/09/16 17:42                          :LAS Creation date {YYYY/MM/DD hh:mm}
DLIS_CREA.  2017-Sep-15 18:24                          :DLIS Creation date and time {YYYY-MMM-DD hh:mm}
SOURCE.     LPC_S4-1_2B5.DLIS                          :DLIS File Name
FILE-ID.     PERFO_Perfo_WPGRT_055LTP                  :File Identification Number
#--------------------------------------------------
~WELL INFORMATION
#MNEM.UNIT      DATA             DESCRIPTION
#---- ------ --------------   -----------------------------
STRT .S         5021.0       :START TIME      
STOP .S         5478.0       :STOP TIME      
STEP .S            1.0       :STEP     
NULL .          -999.25      :NULL VALUE
COMP .        SHELL INTERNATIONAL E P                  :COMPANY
WELL .        WPP TEST 2                               :WELL
FLD  .        WILDCAT                                  :FIELD
LOC  .        NA                                       :LOCATION
CNTY .        HARRIS                                   :COUNTY
STAT .        TEXAS                                    :STATE
CTRY .                                                 :COUNTRY
API  .        NA                                       :API NUMBER
UWI  .                                                 :UNIQUE WELL ID
DATE .        15-Sep-2017                              :LOG DATE {DD-MMM-YYYY}
SRVC .        Schlumberger                             :SERVICE COMPANY
LATI .DEG                                              :LATITUDE
LONG .DEG                                              :LONGITUDE
GDAT .                                                 :GeoDetic Datum
SECT .        NA                                       :Section
RANG .        NA                                       :Range
TOWN .        NA                                       :Township
#-----------------------------------------------------------------------------
~PARAMETER INFORMATION
#MNEM.UNIT    VALUE                      DESCRIPTION
#---- -----   --------------------       ------------------------
U-PHASE_B_COMP_PER_YT.                 0 :Phase B Comparator Period Yt
U-PHASE_A_COMP_PER_XT.                 0 :Phase A Comparator Period Xt
U-MAX_EXC_CUR_LIMIT.MA       240.00000   :Requested CM Current Limit
U-REQ_EXC_FQ.HZ              50          :Requested CM Frequency
U-TILT_Y_OFFSET.           0.19916       :WPTET Tilt Y Offset
U-TILT_Y_GAIN.           1.01796         :WPTET Tilt Y Gain
U-TILT_X_OFFSET.          -1.77103       :WPTET Tilt X Offset
U-TILT_X_GAIN.           1.00000         :WPTET Tilt X Gain
U-TILT_OFFSET_TOL.           0.00100     :WPTET Tilt Offset Calibration Tolerance
U-NO_TILT_CAL_ROTATIONS.                 3 :Number of Rotations for Tilt Calibration
HAZI .DEG        0.00000                 :Hole Azimuth
U-STD_TOL_TILT.           0.01000        :Tilt Standard Deviation Tolerance
U-GUN_POS_TOL.DEG        5.00000         :Gun Position Tolerance
ROT_ANGLE_THRESHOLD.DEG        5.00000   :Rotation Stop Angle Tolerance
STOP_ROT_ANGLE.DEG        0.00000        :Rotation Stop Angle
WITN .        MR. DHRUA ARORA            :Witness's Name
ENGI .        MORRIS MOORE               :Engineer's Name
COUN .        HARRIS                     :County or Rig Name
FN   .        WILDCAT                    :Field Name
WN   .        WPP TEST 2                 :Well Name
CN   .        SHELL INTERNATIONAL E P    :Company Name
CLAB .        County                     :County/Rig Label
SLAB .        State                      :State/Province Label
RUN  .          1                        :RUN NUMBER
PDAT .        GROUND LEVEL               :Permanent Datum
EPD  .                                   :Elevation of Permanent Datum above Mean Sea Level
LMF  .          NA                       :Logging Measured From (Name of Logging Elevation Reference)
APD  .                                   :Elevation of Depth Reference (LMF) above Permanent Datum
#-----------------------------------------------------------------------------
~CURVE INFORMATION
#MNEM.UNIT   API CODE                                  DESCRIPTION
#---- -----  --------                                  -----------------------
TIME .S                                                :TIME {F10.1}
FREQ_EMF_SL.HZ                                         :Electromagnetic Field Frequency {F13.4}
PH_SH_WPPCM_SL.DEG                                     :WPPCM Phase Shift {F13.4}
FREQ_EXC_REQ_SL.HZ                                     :Requested Exciter Frequency {F13.4}
RB_SL.DEG                                              :Relative Bearing {F13.4}
SDEV_SL.DEG                                            :Sonde Deviation {F13.4}
TILX_SL.DEG                                            :X-axis Tilt {F13.4}
TILY_SL.DEG                                            :Y-axis Tilt {F13.4}
ROTA_SL.DEG                                            :Motor Rotation Angle {F13.4}
MSPE_SL.RPM                                            :Motor Speed {F13.4}
#-----------------------------------------------------------------------------
# 
#     TIME    FREQ_EMF_SL  PH_SH_WPPCM_ FREQ_EXC_REQ    RB_SL       SDEV_SL      TILX_SL      TILY_SL      ROTA_SL      MSPE_SL
#                          SL           _SL
~A  
# ...
    5210.0    1449.6588       0.0000      50.8611     162.0282       4.2287       1.3035       4.0216     263.9407       0.0005
    5211.0    1445.2294       0.0000      50.8611     161.1194       4.2090       1.3608       3.9819     263.9407       0.0005
    5212.0    1448.5113       0.0000      50.8611     161.4532       4.2201       1.3413       4.0005     263.9407       0.0005
    5213.0    1451.1950       0.0000      50.8611     161.5262       4.2405       1.3425       4.0216     263.9407       0.0005
    5214.0    1449.6588       0.0000      50.8611     161.6298       4.3254       1.3620       4.1046     263.9407       0.0005
    5215.0    1445.3185       0.0000      50.8611     162.2189       4.2680       1.3023       4.0637     263.9407       0.0005
    5216.0    1451.3871       0.0000      50.8611     160.7496       4.2604       1.4033       4.0216     263.9407       0.0005
    5217.0    1451.2849       0.0000      50.8611     161.6256       4.1974       1.3218       3.9831     263.9407       0.0005
    5218.0    1448.1289       0.0000      50.8611     163.0851       4.2038       1.2220       4.0216     263.9407       0.0005
    5219.0    1448.2955       0.0000      50.8611     160.7506       4.2623       1.4046       4.0228     263.9407       0.0005
    5220.0    1443.9907       0.0000      50.8611     161.0990       4.1438       1.3413       3.9200     263.9407       0.0005
    5221.0    1449.7422       0.0000      50.8611     161.6341       4.2613       1.3413       4.0439     263.9407       0.0005
    5222.0    1449.6588       0.0000      50.8611     161.8897       4.3190       1.3413       4.1046     263.9407       0.0005
    5223.0    1449.6588       0.0000      50.8611     161.9573       4.3382       1.3425       4.1244     263.9407       0.0005
    5224.0    1449.7422       0.0000      50.8611     161.3469       4.2035       1.3437       3.9819     263.9407       0.0005
    5225.0    1445.4197       0.0000      50.8611     162.0541       4.2302       1.3023       4.0240     263.9407       0.0005
    5226.0    1449.7422       0.0000      50.8611     161.6183       4.1951       1.3218       3.9807     263.9407       0.0005
    5227.0    1445.3185       0.0000      50.8611     161.5547       4.3078       1.3608       4.0860     263.9407       0.0005
    5228.0    1449.6588       0.0000      50.8611     161.6256       4.1974       1.3218       3.9831     263.9407       0.0005
    5229.0    1448.2955       0.0000      50.8611     160.8212       4.2137       1.3827       3.9795     263.9407       0.0005
    5230.0    1448.3974       0.0000      50.8611     161.0301       4.2530       1.3815       4.0216     263.9407       0.0005
    5231.0    1449.6588       0.0000      50.8611     162.2014       4.3295       1.3218       4.1220     263.9407       0.0005
    5232.0    1448.0639       0.0000      50.8611     161.6084       4.2594       1.3425       4.0414     263.9407       0.0005
    5233.0    1446.7593       0.0000      50.8611     160.7837       4.2621       1.4009       4.0240     263.9407       0.0005
    5234.0    1446.6761       0.0000      50.8611     162.6236       4.2355       1.2634       4.0414     266.7980       0.5997
    5235.0    1455.2944       0.0000      50.8611     168.7110       4.3089       0.8411       4.2235     271.3384       0.8905
    5236.0    1449.6588       0.0000      50.8611     175.9097       4.4432       0.3164       4.4317     277.2216       1.0226
    5237.0    1451.2849       0.0000      50.8611    -177.3782       4.4576      -0.2033       4.4527     283.3234       1.0226
    5238.0    1454.3892       0.0000      50.8611    -172.6187       4.5504      -0.5843       4.5122     289.4261       1.0226
    5239.0    1458.7655       0.0000      50.8611    -163.9376       4.6554      -1.2866       4.4726     295.5358       1.0281
    5240.0    1445.1523       0.0000      50.8611    -157.5511       4.7949      -1.8295       4.4304     301.6623       1.0281
    5241.0    1451.2849       0.0000      50.8611    -152.7414       4.9648      -2.2713       4.4118     307.9697       1.0226
    5242.0    1451.3871       0.0000      50.8611    -146.8315       4.8564      -2.6547       4.0637     314.2816       1.0226
    5243.0    1449.7422       0.0000      50.8611    -140.6703       5.0453      -3.1951       3.9001     320.3710       1.0226
    5244.0    1442.3536       0.0000      50.8611    -134.1519       5.1028      -3.6589       3.5520     326.4876       1.0226
    5245.0    1433.4439       0.0000      50.8611    -129.1448       5.3135      -4.1178       3.3500     332.5878       1.0226
    5246.0    1425.0252       0.0000      50.8611    -123.4803       5.4477      -4.5413       3.0018     338.6896       1.0226
    5247.0    1427.4595       0.0000      50.8611    -118.1689       5.3670      -4.7300       2.5298     344.7914       1.0226
    5248.0    1417.5908       0.0000      50.8611    -111.5809       5.5570      -5.1657       2.0416     350.9004       1.0175
    5249.0    1414.9322       0.0000      50.8611    -106.8342       5.7135      -5.4676       1.6525     356.9842       1.0226
    5250.0    1410.4405       0.0000      50.8611    -101.0797       5.7361      -5.6282       1.1011       3.0737       1.0226
    5251.0    1393.7494       0.0000      50.8611     -96.5011       5.7646      -5.7268       0.6514       9.1755       1.0226
    5252.0    1389.6630       0.0000      50.8611     -89.9674       5.9501      -5.9496      -0.0028      15.2805       1.0226
    5253.0    1370.6140       0.0000      50.8611     -85.5954       5.9068      -5.8887      -0.4526      21.3791       1.0226
    5254.0    1358.5889       0.0000      50.8611     -80.5125       5.8670      -5.7865      -0.9655      27.8890       1.0226
    5255.0    1350.8269       0.0000      50.8611     -75.6597       5.8891      -5.7049      -1.4562      33.9908       1.0226
    5256.0    1334.2838       0.0000      50.8611     -69.7249       5.9770      -5.6051      -2.0683      40.1056       1.0226
    5257.0    1315.5198       0.0000      50.8611     -63.0098       6.0467      -5.3848      -2.7411      46.1952       1.0172
    5258.0    1299.5501       0.0000      50.8611     -60.2548       6.0223      -5.2242      -2.9852      52.2970       1.0226
    5259.0    1289.3562       0.0000      50.8611     -54.8751       6.0872      -4.9746      -3.4981      58.3988       1.0226
    5260.0    1269.3328       0.0000      50.8611     -47.2916       5.8616      -4.3039      -3.9714      64.5006       1.0226
    5261.0    1263.5122       0.0000      50.8611     -44.3484       6.0461      -4.2224      -4.3196      70.6024       1.0226
    5262.0    1254.4949       0.0000      50.8611     -38.8302       6.1019      -3.8219      -4.7495      76.7050       1.0226
    5263.0    1232.5773       0.0000      50.8611     -34.8507       5.9905      -3.4191      -4.9131      82.8068       1.0226
    5264.0    1230.5000       0.0000      50.8611     -31.4585       5.7882      -3.0162      -4.9354      88.8994       1.0226
    5265.0    1224.0733       0.0000      50.8611     -23.4238       5.9858      -2.3783      -5.4892      94.9989       1.0226
    5266.0    1220.5907       0.0000      50.8611     -18.3756       5.8252      -1.8343      -5.5264     101.5087       1.0226
    5267.0    1221.7327       0.0000      50.8611     -13.2916       5.6153      -1.2890      -5.4644     107.6105       1.0226
    5268.0    1232.3828       0.0000      50.8611      -8.6627       5.6511      -0.8496      -5.5859     113.7123       1.0226
    5269.0    1230.2836       0.0000      50.8611      -3.3805       5.5362      -0.3262      -5.5264     119.8140       1.0175
    5270.0    1231.2322       0.0000      50.8611       3.5095       5.5145       0.3371      -5.5041     125.9167       1.0226
    5271.0    1243.1855       0.0000      50.8611       7.3159       5.4667       0.6962      -5.4211     132.0186       1.0226
    5272.0    1252.1938       0.0000      50.8611      10.3479       5.3461       0.9591      -5.2588     138.1205       1.0226
