~VERSION INFORMATION
VERS.           2.0   :CWLS Log ASCII Standard - VERSION 2.0
WRAP.           NO    :One Line per depth step
PROD.  Schlumberger   :LAS Producer
PROG.  DLIS to ASCII 19C2-270                          :LAS Program name and version
CREA.        2017/09/16 17:42                          :LAS Creation date {YYYY/MM/DD hh:mm}
DLIS_CREA.  2017-Sep-15 13:07                          :DLIS Creation date and time {YYYY-MMM-DD hh:mm}
SOURCE.     LPC_S1-1_2AV.DLIS                          :DLIS File Name
FILE-ID.     PERFO_Perfo_WPGRT_022LTP                  :File Identification Number
#--------------------------------------------------
~WELL INFORMATION
#MNEM.UNIT      DATA             DESCRIPTION
#---- ------ --------------   -----------------------------
STRT .S         8392.0       :START TIME      
STOP .S         9264.0       :STOP TIME      
STEP .S            1.0       :STEP     
NULL .          -999.25      :NULL VALUE
COMP .        SHELL INTERNATIONAL E P                  :COMPANY
WELL .        WPP TEST 2                               :WELL
FLD  .        WILDCAT                                  :FIELD
LOC  .                                                 :LOCATION
CNTY .        HARRIS                                   :COUNTY
STAT .        TEXAS                                    :STATE
CTRY .                                                 :COUNTRY
API  .                                                 :API NUMBER
UWI  .                                                 :UNIQUE WELL ID
DATE .                                                 :LOG DATE
SRVC .        Schlumberger                             :SERVICE COMPANY
LATI .DEG                                              :LATITUDE
LONG .DEG                                              :LONGITUDE
GDAT .                                                 :GeoDetic Datum
#-----------------------------------------------------------------------------
~PARAMETER INFORMATION
#MNEM.UNIT    VALUE                      DESCRIPTION
#---- -----   --------------------       ------------------------
U-PHASE_B_COMP_PER_YT.                 0 :Phase B Comparator Period Yt
U-PHASE_A_COMP_PER_XT.                 0 :Phase A Comparator Period Xt
U-MAX_EXC_CUR_LIMIT.MA       240.00000   :Requested CM Current Limit
U-REQ_EXC_FQ.HZ              50          :Requested CM Frequency
U-TILT_Y_OFFSET.           0.19916       :WPTET Tilt Y Offset
U-TILT_Y_GAIN.           1.01796         :WPTET Tilt Y Gain
U-TILT_X_OFFSET.          -1.77103       :WPTET Tilt X Offset
U-TILT_X_GAIN.           1.00000         :WPTET Tilt X Gain
U-TILT_OFFSET_TOL.           0.00100     :WPTET Tilt Offset Calibration Tolerance
U-NO_TILT_CAL_ROTATIONS.                 3 :Number of Rotations for Tilt Calibration
HAZI .DEG        0.00000                 :Hole Azimuth
U-STD_TOL_TILT.           0.01000        :Tilt Standard Deviation Tolerance
U-GUN_POS_TOL.DEG        5.00000         :Gun Position Tolerance
ROT_ANGLE_THRESHOLD.DEG        5.00000   :Rotation Stop Angle Tolerance
STOP_ROT_ANGLE.DEG       80.00000        :Rotation Stop Angle
WITN .                                   :Witness's Name
ENGI .                                   :Engineer's Name
COUN .        HARRIS                     :County or Rig Name
FN   .        WILDCAT                    :Field Name
WN   .        WPP TEST 2                 :Well Name
CN   .        SHELL INTERNATIONAL E P    :Company Name
CLAB .        County                     :County/Rig Label
SLAB .        State                      :State/Province Label
RUN  .          1                        :RUN NUMBER
PDAT .        GROUND LEVEL               :Permanent Datum
EPD  .                                   :Elevation of Permanent Datum above Mean Sea Level
LMF  .                                   :Logging Measured From (Name of Logging Elevation Reference)
APD  .                                   :Elevation of Depth Reference (LMF) above Permanent Datum
#-----------------------------------------------------------------------------
~CURVE INFORMATION
#MNEM.UNIT   API CODE                                  DESCRIPTION
#---- -----  --------                                  -----------------------
TIME .S                                                :TIME {F10.1}
FREQ_EMF_SL.HZ                                         :Electromagnetic Field Frequency {F13.4}
PH_SH_WPPCM_SL.DEG                                     :WPPCM Phase Shift {F13.4}
FREQ_EXC_REQ_SL.HZ                                     :Requested Exciter Frequency {F13.4}
RB_SL.DEG                                              :Relative Bearing {F13.4}
SDEV_SL.DEG                                            :Sonde Deviation {F13.4}
TILX_SL.DEG                                            :X-axis Tilt {F13.4}
TILY_SL.DEG                                            :Y-axis Tilt {F13.4}
ROTA_SL.DEG                                            :Motor Rotation Angle {F13.4}
MSPE_SL.RPM                                            :Motor Speed {F13.4}
#-----------------------------------------------------------------------------
# 
#     TIME    FREQ_EMF_SL  PH_SH_WPPCM_ FREQ_EXC_REQ    RB_SL       SDEV_SL      TILX_SL      TILY_SL      ROTA_SL      MSPE_SL
#                          SL           _SL
~A  
# ...
    8518.0    1367.0461       0.0000      50.8611     -57.5487       0.9877      -0.8335      -0.5299     274.8614       1.0226
    8519.0    1363.0952       0.0000      50.8611     -51.7689       0.9338      -0.7335      -0.5777     280.9782       1.0226
    8520.0    1365.7428       0.0000      50.8611     -47.9554       1.2496      -0.9275      -0.8369     287.0897       1.0244
    8521.0    1374.6132       0.0000      50.8611     -54.1414       0.9295      -0.7532      -0.5438     293.1905       1.0226
    8522.0    1370.1607       0.0000      50.8611     -51.3519       1.0455      -0.8155      -0.6542     299.2942       1.0226
    8523.0    1374.2066       0.0000      50.8611     -54.5240       1.0077      -0.8207      -0.5847     305.3979       1.0226
    8524.0    1374.6670       0.0000      50.8611     -45.0282       0.9236      -0.6532      -0.6525     311.9144       1.0315
    8525.0    1387.2637       0.0000      50.8611     -55.6214       0.9527      -0.7865      -0.5368     318.0203       1.0226
    8526.0    1380.9246       0.0000      50.8611     -53.7938       0.9090      -0.7335      -0.5368     324.1240       1.0226
    8527.0    1382.7773       0.0000      50.8611     -54.4947       0.9604      -0.7805      -0.5569     330.2236       1.0226
    8528.0    1384.5685       0.0000      50.8611     -59.8660       0.9338      -0.8070      -0.4690     336.3341       1.0315
    8529.0    1389.1092       0.0000      50.8611     -55.1221       0.9265      -0.7600      -0.5299     342.4400       1.0226
    8530.0    1392.7964       0.0000      50.8611     -60.8159       1.0226      -0.8934      -0.4959     348.5437       1.0226
    8531.0    1394.1518       0.0000      50.8611     -56.4938       0.9598      -0.8002      -0.5299     354.6434       1.0226
    8532.0    1394.1518       0.0000      50.8611     -60.2702       0.9614      -0.8335      -0.4759      61.9430       1.0226
    8533.0    1393.2679       0.0000      50.8611     -57.2843       0.9680      -0.8139      -0.5229       6.8346       1.0226
    8534.0    1394.6196       0.0000      50.8611     -61.6983       0.8028      -0.7070      -0.3802      12.9262       1.0226
    8535.0    1397.3913       0.0000      50.8611     -59.3659       0.9465      -0.8139      -0.4820      19.0260       1.0226
    8536.0    1390.0429       0.0000      50.8611     -55.5718       0.8894      -0.7335      -0.5029      25.5358       1.0226
    8537.0    1389.5751       0.0000      50.8611     -55.6540       0.9516      -0.7805      -0.5360      31.6272       1.0226
    8538.0    1392.3268       0.0000      50.8611     -62.6277       0.9011      -0.8002      -0.4142      37.7270       1.0226
    8539.0    1384.5685       0.0000      50.8611     -57.7919       1.1202      -0.9472      -0.5977      43.8267       1.0226
    8540.0    1386.3703       0.0000      50.8611     -60.7823       0.9325      -0.8139      -0.4551      49.9306       1.0226
    8541.0    1384.1044       0.0000      50.8611     -56.3368       0.9312      -0.7737      -0.5160      56.0344       1.0226
    8542.0    1382.7773       0.0000      50.8611     -63.0942       1.0992      -0.9805      -0.4959      62.1342       1.0226
    8543.0    1375.5216       0.0000      50.8611     -59.7426       1.0372      -0.8942      -0.5237      68.2339       1.0226
    8544.0    1373.7119       0.0000      50.8611     -62.6945       1.0813      -0.9609      -0.4959      74.3377       1.0226
    8545.0    1363.0952       0.0000      50.8611     -64.0275       1.0393      -0.9344      -0.4551      80.4293       1.0226
    8546.0    1363.5467       0.0000      50.8611     -73.2335       1.4012      -1.3412      -0.3941      86.5189       1.0208
    8547.0    1369.2593       0.0000      50.8611     -60.4729       0.9512      -0.8275      -0.4690      92.6165       1.0226
    8548.0    1364.8415       0.0000      50.8611     -63.0104       1.1239      -1.0010      -0.5098      99.1130       1.0226
    8549.0    1352.6064       0.0000      50.8611     -60.2815       1.0836      -0.9412      -0.5368     105.2056       1.0226
    8550.0    1346.6134       0.0000      50.8611     -60.1959       1.0833      -0.9404      -0.5368     111.3062       1.0244
    8551.0    1352.1635       0.0000      50.8611     -69.0578       1.2521      -1.1677      -0.4420     117.4100       1.0226
    8552.0    1343.1038       0.0000      50.8611     -62.7201       1.1715      -1.0412      -0.5368     123.5138       1.0226
    8553.0    1336.3084       0.0000      50.8611     -60.0845       1.0623      -0.9207      -0.5299     129.6266       1.0226
    8554.0    1336.3084       0.0000      50.8611     -57.8981       1.3955      -1.1822      -0.7413     135.7265       1.0226
    8555.0    1329.5868       0.0000      50.8611     -55.0516       1.1161      -0.9147      -0.6395     141.8435       1.0226
    8556.0    1327.9347       0.0000      50.8611     -60.9711       1.1908      -1.0412      -0.5777     147.9474       1.0226
    8557.0    1331.2482       0.0000      50.8611     -57.0144       1.0741      -0.9010      -0.5847     154.0473       1.0226
    8558.0    1324.1526       0.0000      50.8611     -57.2213       1.1428      -0.9609      -0.6186     160.1349       1.0226
    8559.0    1322.0867       0.0000      50.8611     -55.9075       1.1768      -0.9745      -0.6595     166.2388       1.0226
    8560.0    1322.9378       0.0000      50.8611     -54.4769       1.1810      -0.9609      -0.6865     172.7364       1.0226
    8561.0    1324.5773       0.0000      50.8611     -54.8932       1.2067      -0.9874      -0.6934     178.8239       1.0226
    8562.0    1326.6509       0.0000      50.8611     -58.9055       1.0678      -0.9139      -0.5507     184.9305       1.0138
    8563.0    1329.1588       0.0000      50.8611     -52.4005       1.0695      -0.8472      -0.6525     191.0454       1.0244
    8564.0    1330.0163       0.0000      50.8611     -49.3081       1.1265      -0.8540      -0.7343     197.1452       1.0226
    8565.0    1334.6342       0.0000      50.8611     -52.0811       1.1166      -0.8805      -0.6865     203.2451       1.0226
    8566.0    1334.5998       0.0000      50.8611     -53.8634       1.0490      -0.8472      -0.6186     209.3490       1.0226
    8567.0    1337.9921       0.0000      50.8611     -53.3949       1.0382      -0.8335      -0.6186     215.4540       1.0226
    8568.0    1334.7178       0.0000      50.8611     -53.8774       1.1315      -0.9139      -0.6664     221.5405       1.0226
    8569.0    1342.2777       0.0000      50.8611     -51.0733       1.0627      -0.8267      -0.6664     227.6513       1.0244
    8570.0    1347.3873       0.0000      50.8611     -50.7776       1.0852      -0.8404      -0.6865     233.7601       1.0138
    8571.0    1341.4071       0.0000      50.8611     -54.0838       0.9967      -0.8070      -0.5847     239.8619       1.0226
    8572.0    1342.2777       0.0000      50.8611     -49.7891       0.9693      -0.7403      -0.6256     246.3810       1.0226
    8573.0    1347.4223       0.0000      50.8611     -49.9571       1.0557      -0.8070      -0.6795     252.4850       1.0226
    8574.0    1360.4222       0.0000      50.8611     -52.5670       0.9838      -0.7805      -0.5986     258.6019       1.0226
    8575.0    1359.5634       0.0000      50.8611     -49.4066       0.7984      -0.6078      -0.5176     264.7148       1.0226
    8576.0    1353.4973       0.0000      50.8611     -51.1123       1.0217      -0.7942      -0.6386     270.8275       1.0226
    8577.0    1364.8415       0.0000      50.8611     -50.9141       0.9276      -0.7199      -0.5847     276.9442       1.0226
    8578.0    1372.8359       0.0000      50.8611     -48.8651       1.0440      -0.7865      -0.6865     283.0616       1.0226
    8579.0    1367.0461       0.0000      50.8611     -51.5619       0.8244      -0.6472      -0.5098     289.1612       1.0226
    8580.0    1367.9475       0.0000      50.8611     -48.7096       1.0060      -0.7532      -0.6656     295.2609       1.0226
