~VERSION INFORMATION
VERS.           2.0   :CWLS Log ASCII Standard - VERSION 2.0
WRAP.           NO    :One Line per depth step
PROD.  Schlumberger   :LAS Producer
PROG.  DLIS to ASCII 19C2-270                          :LAS Program name and version
CREA.        2017/09/16 17:42                          :LAS Creation date {YYYY/MM/DD hh:mm}
DLIS_CREA.  2017-Sep-15 20:01                          :DLIS Creation date and time {YYYY-MMM-DD hh:mm}
SOURCE.     LPC_S5-1_2BV.DLIS                          :DLIS File Name
FILE-ID.     PERFO_Perfo_WPGRT_065LTP                  :File Identification Number
#--------------------------------------------------
~WELL INFORMATION
#MNEM.UNIT      DATA             DESCRIPTION
#---- ------ --------------   -----------------------------
STRT .S         2351.0       :START TIME      
STOP .S         2776.0       :STOP TIME      
STEP .S            1.0       :STEP     
NULL .          -999.25      :NULL VALUE
COMP .        SHELL INTERNATIONAL E P                  :COMPANY
WELL .        WPP TEST 2                               :WELL
FLD  .        WILDCAT                                  :FIELD
LOC  .        NA                                       :LOCATION
CNTY .        HARRIS                                   :COUNTY
STAT .        TEXAS                                    :STATE
CTRY .                                                 :COUNTRY
API  .        NA                                       :API NUMBER
UWI  .                                                 :UNIQUE WELL ID
DATE .        15-Sep-2017                              :LOG DATE {DD-MMM-YYYY}
SRVC .        Schlumberger                             :SERVICE COMPANY
LATI .DEG                                              :LATITUDE
LONG .DEG                                              :LONGITUDE
GDAT .                                                 :GeoDetic Datum
SECT .        NA                                       :Section
RANG .        NA                                       :Range
TOWN .        NA                                       :Township
#-----------------------------------------------------------------------------
~PARAMETER INFORMATION
#MNEM.UNIT    VALUE                      DESCRIPTION
#---- -----   --------------------       ------------------------
U-PHASE_B_COMP_PER_YT.                 0 :Phase B Comparator Period Yt
U-PHASE_A_COMP_PER_XT.                 0 :Phase A Comparator Period Xt
U-MAX_EXC_CUR_LIMIT.MA       240.00000   :Requested CM Current Limit
U-REQ_EXC_FQ.HZ              50          :Requested CM Frequency
U-TILT_Y_OFFSET.           0.19916       :WPTET Tilt Y Offset
U-TILT_Y_GAIN.           1.01796         :WPTET Tilt Y Gain
U-TILT_X_OFFSET.          -1.77103       :WPTET Tilt X Offset
U-TILT_X_GAIN.           1.00000         :WPTET Tilt X Gain
U-TILT_OFFSET_TOL.           0.00100     :WPTET Tilt Offset Calibration Tolerance
U-NO_TILT_CAL_ROTATIONS.                 3 :Number of Rotations for Tilt Calibration
HAZI .DEG        0.00000                 :Hole Azimuth
U-STD_TOL_TILT.           0.01000        :Tilt Standard Deviation Tolerance
U-GUN_POS_TOL.DEG        5.00000         :Gun Position Tolerance
ROT_ANGLE_THRESHOLD.DEG        5.00000   :Rotation Stop Angle Tolerance
STOP_ROT_ANGLE.DEG        0.00000        :Rotation Stop Angle
WITN .        MR. DHRUA ARORA            :Witness's Name
ENGI .        MORRIS MOORE               :Engineer's Name
COUN .        HARRIS                     :County or Rig Name
FN   .        WILDCAT                    :Field Name
WN   .        WPP TEST 2                 :Well Name
CN   .        SHELL INTERNATIONAL E P    :Company Name
CLAB .        County                     :County/Rig Label
SLAB .        State                      :State/Province Label
RUN  .          1                        :RUN NUMBER
PDAT .        GROUND LEVEL               :Permanent Datum
EPD  .                                   :Elevation of Permanent Datum above Mean Sea Level
LMF  .          NA                       :Logging Measured From (Name of Logging Elevation Reference)
APD  .                                   :Elevation of Depth Reference (LMF) above Permanent Datum
#-----------------------------------------------------------------------------
~CURVE INFORMATION
#MNEM.UNIT   API CODE                                  DESCRIPTION
#---- -----  --------                                  -----------------------
TIME .S                                                :TIME {F10.1}
FREQ_EMF_SL.HZ                                         :Electromagnetic Field Frequency {F13.4}
PH_SH_WPPCM_SL.DEG                                     :WPPCM Phase Shift {F13.4}
FREQ_EXC_REQ_SL.HZ                                     :Requested Exciter Frequency {F13.4}
RB_SL.DEG                                              :Relative Bearing {F13.4}
SDEV_SL.DEG                                            :Sonde Deviation {F13.4}
TILX_SL.DEG                                            :X-axis Tilt {F13.4}
TILY_SL.DEG                                            :Y-axis Tilt {F13.4}
ROTA_SL.DEG                                            :Motor Rotation Angle {F13.4}
MSPE_SL.RPM                                            :Motor Speed {F13.4}
#-----------------------------------------------------------------------------
# 
#     TIME    FREQ_EMF_SL  PH_SH_WPPCM_ FREQ_EXC_REQ    RB_SL       SDEV_SL      TILX_SL      TILY_SL      ROTA_SL      MSPE_SL
#                          SL           _SL
~A  
    2351.0    1420.3801       0.0000      50.8584     175.2995       0.4460       0.0365       0.4445     299.4110       1.0225
    2352.0    1425.3922       0.0000      50.8611     -78.7607       0.9762      -0.9117      -0.2563     304.7845       1.0185
    2353.0    1408.2624       0.0000      50.8611     -51.6830       1.5096      -1.1839      -0.9362     310.8739       1.0185
    2354.0    1395.3467       0.0000      50.8611     -35.0309       1.7109      -0.9710      -1.3983     316.9832       1.0226
    2355.0    1383.4762       0.0000      50.8611     -83.9295       0.8608      -0.8346      -0.1213     323.0858       1.0226
    2356.0    1360.0098       0.0000      50.8611     -57.5668       1.1830      -0.9985      -0.6343     329.1876       1.0226
    2357.0    1334.7965       0.0000      50.8611     -44.5078       1.3091      -0.9149      -0.9238     335.2906       1.0226
    2358.0    1302.6484       0.0000      50.8611     -47.9203       1.3671      -1.0139      -0.9143     341.3912       1.0185
    2359.0    1285.0743       0.0000      50.8611     -49.8625       1.2778      -0.9770      -0.8230     347.4827       1.0226
    2360.0    1269.3893       0.0000      50.8611     -50.7907       1.0848      -0.8411      -0.6847     353.5845       1.0226
    2361.0    1248.7330       0.0000      50.8611     -46.7330       1.2166      -0.8841      -0.8354     221.5364       1.0226
    2362.0    1229.7429       0.0000      50.8611     -36.5909       1.1814      -0.7052      -0.9457       5.7882       1.0226
    2363.0    1211.1809       0.0000      50.8611     -41.1980       1.0814      -0.7113      -0.8135      11.8900       1.0185
    2364.0    1187.4150       0.0000      50.8611     -44.8743       1.0537      -0.7421      -0.7475      18.3845       1.0226
    2365.0    1171.5865       0.0000      50.8611     -42.5906       1.0970      -0.7421      -0.8074      24.4894       1.0226
    2366.0    1153.3903       0.0000      50.8611     -40.0733       1.0430      -0.6711      -0.7978      30.5776       1.0185
    2367.0    1132.6732       0.0000      50.8611     -48.5153       1.1340      -0.8439      -0.7446      36.6671       1.0185
    2368.0    1125.0000       0.0000      50.8611     -41.8731       0.9488      -0.6309      -0.7066      42.7589       1.0185
    2369.0    1114.7161       0.0000      50.8611     -33.2840       0.9656      -0.5133      -0.7950      48.8482       1.0226
    2370.0    1099.5621       0.0000      50.8611     -41.9319       0.9075      -0.6062      -0.6752      54.9489       1.0226
    2371.0    1098.5531       0.0000      50.8611     -40.9119       0.7917      -0.5165      -0.5996      61.0507       1.0226
    2372.0    1086.4981       0.0000      50.8611     -37.2139       0.8284      -0.5011      -0.6595      67.1525       1.0226
    2373.0    1080.9672       0.0000      50.8611     -45.0527       0.9917      -0.7019      -0.7004      73.2555       1.0226
    2374.0    1072.8453       0.0000      50.8611     -45.6244       0.8264      -0.5908      -0.5777      79.3525       1.0161
    2375.0    1074.1031       0.0000      50.8611     -47.1662       0.8134      -0.5969      -0.5525      85.4467       1.0226
    2376.0    1084.0392       0.0000      50.8611     -51.1430       0.6876      -0.5352      -0.4299      91.9553       1.0226
    2377.0    1077.0159       0.0000      50.8611     -50.6547       0.7194      -0.5567      -0.4551      98.0702       1.0226
    2378.0    1084.9487       0.0000      50.8611     -50.4372       0.7546      -0.5814      -0.4802     104.1852       1.0226
    2379.0    1091.8090       0.0000      50.8611     -46.8236       0.7283      -0.5319      -0.4959     110.2823       1.0161
    2380.0    1103.1430       0.0000      50.8611     -51.1792       0.6444      -0.5011      -0.4047     116.3765       1.0226
    2381.0    1111.4564       0.0000      50.8611     -53.1126       0.6538      -0.5226      -0.3828     122.4792       1.0226
    2382.0    1118.1207       0.0000      50.8611     -63.3657       0.6889      -0.6155      -0.3072     128.5810       1.0226
    2383.0    1129.5926       0.0000      50.8611     -67.8007       0.8561      -0.7916      -0.3229     134.6978       1.0226
    2384.0    1146.1649       0.0000      50.8611     -68.0954       0.7466      -0.6926      -0.2758     140.7990       1.0226
    2385.0    1162.6399       0.0000      50.8611     -70.3394       0.7454      -0.7019      -0.2506     146.9009       1.0226
    2386.0    1178.9815       0.0000      50.8611     -67.9016       0.7603      -0.7019      -0.2853     153.0035       1.0226
    2387.0    1194.0746       0.0000      50.8611     -68.1423       0.7830      -0.7267      -0.2915     159.1054       1.0226
    2388.0    1217.1474       0.0000      50.8611     -65.1958       0.8792      -0.7823      -0.3704     165.6205       1.0185
    2389.0    1231.5898       0.0000      50.8611     -71.5255       0.9377      -0.8874      -0.2977     171.7167       1.0226
    2390.0    1259.2157       0.0000      50.8611     -71.0210       0.9230      -0.8719      -0.3010     177.8162       1.0185
    2391.0    1270.9434       0.0000      50.8611     -76.7893       0.9846      -0.9584      -0.2254     183.9080       1.0226
    2392.0    1286.1684       0.0000      50.8611     -74.7281       0.9551      -0.9215      -0.2506     190.0099       1.0226
    2393.0    1303.9409       0.0000      50.8611     -74.4677       0.8475      -0.8131      -0.2316     196.1142       1.0226
    2394.0    1332.6458       0.0000      50.8611     -71.9811       0.9550      -0.9028      -0.2948     202.2149       1.0226
    2395.0    1360.4185       0.0000      50.8611     -71.4233       1.0162      -0.9616      -0.3262     208.3310       1.0226
    2396.0    1382.2522       0.0000      50.8611     -75.0620       1.0689      -1.0326      -0.2758     214.4318       1.0226
    2397.0    1407.3315       0.0000      50.8611     -70.3263       1.0341      -0.9738      -0.3481     220.5337       1.0226
    2398.0    1420.9011       0.0000      50.8611     -71.8896       1.1190      -1.0634      -0.3481     226.6355       1.0226
    2399.0    1426.8955       0.0000      50.8611     -69.6270       1.1149      -1.0448      -0.3828     232.7301       1.0292
    2400.0    1439.0141       0.0000      50.8611     -72.0853       1.1373      -1.0821      -0.3481     239.2469       1.0226
    2401.0    1434.9490       0.0000      50.8611     -70.7266       1.1445      -1.0789      -0.3795     245.3345       1.0161
    2402.0    1445.6193       0.0000      50.8611     -67.7040       1.1329      -1.0480      -0.4299     251.4364       1.0267
    2403.0    1466.7283       0.0000      50.8611     -66.8202       1.2208      -1.1223      -0.4802     257.5533       1.0226
    2404.0    1452.0459       0.0000      50.8611     -63.5272       1.2607      -1.1284      -0.5620     263.6551       1.0226
    2405.0    1460.6345       0.0000      50.8611     -63.8550       1.3467      -1.2087      -0.5934     269.7569       1.0226
    2406.0    1461.0980       0.0000      50.8611     -64.0800       1.2745      -1.1438      -0.5587     275.8719       1.0226
    2407.0    1448.3770       0.0000      50.8611     -63.4671       1.2802      -1.1438      -0.5715     281.9749       1.0226
    2408.0    1450.0215       0.0000      50.8611     -63.7922       1.3605      -1.2180      -0.5996     288.0767       1.0226
    2409.0    1464.3958       0.0000      50.8611     -61.9205       1.3661      -1.2026      -0.6405     294.1785       1.0226
    2410.0    1439.6991       0.0000      50.8611     -57.1070       1.3688      -1.1498      -0.7413     300.2815       1.0226
    2411.0    1432.7105       0.0000      50.8611     -56.5823       1.3769      -1.1498      -0.7570     306.3941       1.0226
    2412.0    1425.7921       0.0000      50.8611     -56.2490       1.2377      -1.0293      -0.6847     312.8916       1.0226
    2413.0    1403.7038       0.0000      50.8611     -52.7242       1.3173      -1.0480      -0.7978     318.9915       1.0226
