~VERSION INFORMATION
VERS.           2.0   :CWLS Log ASCII Standard - VERSION 2.0
WRAP.           NO    :One Line per depth step
PROD.  Schlumberger   :LAS Producer
PROG.  DLIS to ASCII 19C2-270                          :LAS Program name and version
CREA.        2017/09/16 17:42                          :LAS Creation date {YYYY/MM/DD hh:mm}
DLIS_CREA.  2017-Sep-15 11:37                          :DLIS Creation date and time {YYYY-MMM-DD hh:mm}
SOURCE.     LPC_S1-1_AV_3RD-LOG.DLIS                   :DLIS File Name
FILE-ID.     PERFO_Perfo_WPGRT_016LTP                  :File Identification Number
#--------------------------------------------------
~WELL INFORMATION
#MNEM.UNIT      DATA             DESCRIPTION
#---- ------ --------------   -----------------------------
STRT .S         2984.0       :START TIME      
STOP .S         3331.0       :STOP TIME      
STEP .S            1.0       :STEP     
NULL .          -999.25      :NULL VALUE
COMP .        SHELL INTERNATIONAL E P                  :COMPANY
WELL .        WPP TEST 2                               :WELL
FLD  .        WILDCAT                                  :FIELD
LOC  .                                                 :LOCATION
CNTY .        HARRIS                                   :COUNTY
STAT .        TEXAS                                    :STATE
CTRY .                                                 :COUNTRY
API  .                                                 :API NUMBER
UWI  .                                                 :UNIQUE WELL ID
DATE .                                                 :LOG DATE
SRVC .        Schlumberger                             :SERVICE COMPANY
LATI .DEG                                              :LATITUDE
LONG .DEG                                              :LONGITUDE
GDAT .                                                 :GeoDetic Datum
#-----------------------------------------------------------------------------
~PARAMETER INFORMATION
#MNEM.UNIT    VALUE                      DESCRIPTION
#---- -----   --------------------       ------------------------
U-PHASE_B_COMP_PER_YT.                 0 :Phase B Comparator Period Yt
U-PHASE_A_COMP_PER_XT.                 0 :Phase A Comparator Period Xt
U-MAX_EXC_CUR_LIMIT.MA       240.00000   :Requested CM Current Limit
U-REQ_EXC_FQ.HZ              50          :Requested CM Frequency
U-TILT_Y_OFFSET.           0.19916       :WPTET Tilt Y Offset
U-TILT_Y_GAIN.           1.01796         :WPTET Tilt Y Gain
U-TILT_X_OFFSET.          -1.77103       :WPTET Tilt X Offset
U-TILT_X_GAIN.           1.00000         :WPTET Tilt X Gain
U-TILT_OFFSET_TOL.           0.00100     :WPTET Tilt Offset Calibration Tolerance
U-NO_TILT_CAL_ROTATIONS.                 3 :Number of Rotations for Tilt Calibration
HAZI .DEG        0.00000                 :Hole Azimuth
U-STD_TOL_TILT.           0.01000        :Tilt Standard Deviation Tolerance
U-GUN_POS_TOL.DEG        5.00000         :Gun Position Tolerance
ROT_ANGLE_THRESHOLD.DEG        5.00000   :Rotation Stop Angle Tolerance
STOP_ROT_ANGLE.DEG       52.00000        :Rotation Stop Angle
WITN .                                   :Witness's Name
ENGI .                                   :Engineer's Name
COUN .        HARRIS                     :County or Rig Name
FN   .        WILDCAT                    :Field Name
WN   .        WPP TEST 2                 :Well Name
CN   .        SHELL INTERNATIONAL E P    :Company Name
CLAB .        County                     :County/Rig Label
SLAB .        State                      :State/Province Label
RUN  .          1                        :RUN NUMBER
PDAT .        GROUND LEVEL               :Permanent Datum
EPD  .                                   :Elevation of Permanent Datum above Mean Sea Level
LMF  .                                   :Logging Measured From (Name of Logging Elevation Reference)
APD  .                                   :Elevation of Depth Reference (LMF) above Permanent Datum
#-----------------------------------------------------------------------------
~CURVE INFORMATION
#MNEM.UNIT   API CODE                                  DESCRIPTION
#---- -----  --------                                  -----------------------
TIME .S                                                :TIME {F10.1}
FREQ_EMF_SL.HZ                                         :Electromagnetic Field Frequency {F13.4}
PH_SH_WPPCM_SL.DEG                                     :WPPCM Phase Shift {F13.4}
FREQ_EXC_REQ_SL.HZ                                     :Requested Exciter Frequency {F13.4}
RB_SL.DEG                                              :Relative Bearing {F13.4}
SDEV_SL.DEG                                            :Sonde Deviation {F13.4}
TILX_SL.DEG                                            :X-axis Tilt {F13.4}
TILY_SL.DEG                                            :Y-axis Tilt {F13.4}
ROTA_SL.DEG                                            :Motor Rotation Angle {F13.4}
MSPE_SL.RPM                                            :Motor Speed {F13.4}
#-----------------------------------------------------------------------------
# 
#     TIME    FREQ_EMF_SL  PH_SH_WPPCM_ FREQ_EXC_REQ    RB_SL       SDEV_SL      TILX_SL      TILY_SL      ROTA_SL      MSPE_SL
#                          SL           _SL
~A  
# ...
    3047.0    1604.5421       0.0000      50.8611     -69.7518       1.0787      -1.0121      -0.3733     102.2207       1.0322
    3048.0    1577.6344       0.0000      50.8611     -67.1562       1.0894      -1.0036      -0.4227     108.3232       1.0226
    3049.0    1566.7156       0.0000      50.8611     -60.8340       1.0355      -0.9042      -0.5045     114.8461       1.0226
    3050.0    1547.6660       0.0000      50.8611     -65.6146       1.0233      -0.9317      -0.4227     120.9479       1.0226
    3051.0    1522.2622       0.0000      50.8611     -59.8076       1.2129      -1.0480      -0.6100     127.0497       1.0226
    3052.0    1490.3372       0.0000      50.8611     -61.3633       1.1391      -0.9994      -0.5454     133.1516       1.0226
    3053.0    1465.8111       0.0000      50.8611     -60.3506       1.0677      -0.9275      -0.5282     139.2535       1.0226
    3054.0    1449.4290       0.0000      50.8611     -59.1836       1.2004      -1.0312      -0.6143     145.3562       1.0226
    3055.0    1418.4966       0.0000      50.8611     -62.8992       1.2090      -1.0755      -0.5497     151.4585       1.0226
    3056.0    1385.5490       0.0000      50.8611     -59.4636       1.1558      -0.9952      -0.5863     157.5600       1.0226
    3057.0    1352.7116       0.0000      50.8611     -60.0170       1.1326      -0.9803      -0.5648     163.6650       1.0226
    3058.0    1324.1526       0.0000      50.8611     -55.9975       1.0419      -0.8641      -0.5820     169.7638       1.0226
    3059.0    1277.5640       0.0000      50.8611     -58.0118       1.0986      -0.9317      -0.5820     175.8657       1.0226
    3060.0    1205.9598       0.0000      50.8611     -57.4808       1.1427      -0.9635      -0.6143     181.9676       1.0226
    3061.0    1128.5343       0.0000      50.8611     -55.1478       1.1311      -0.9275      -0.6466     188.4775       1.0226
    3062.0    1067.9869       0.0000      50.8611     -55.8577       1.1106      -0.9191      -0.6229     194.5671       1.0226
    3063.0    1018.7985       0.0000      50.8611     -49.5016       1.0725      -0.8155      -0.6961     200.6566       1.0121
    3064.0     991.6519       0.0000      50.8611     -46.9277       1.1742      -0.8556      -0.8016     206.7464       1.0226
    3065.0     972.7936       0.0000      50.8611     -49.7500       1.2041      -0.9191      -0.7779     212.8474       1.0226
    3066.0     951.7258       0.0000      50.8611     -52.3642       1.1553      -0.9149      -0.7047     218.9625       1.0322
    3067.0     931.6815       0.0000      50.8611     -55.5529       0.9917      -0.8155      -0.5626     225.0657       1.0226
    3068.0     923.9487       0.0000      50.8611     -49.6048       1.2010      -0.9149      -0.7779     231.1670       1.0143
    3069.0     912.2140       0.0000      50.8611     -50.4189       1.0992      -0.8472      -0.7004     237.2580       1.0226
    3070.0     908.8014       0.0000      50.8611     -49.0737       1.0626      -0.8028      -0.6961     243.3717       1.0237
    3071.0     908.0620       0.0000      50.8611     -57.2425       1.0078      -0.8472      -0.5454     249.4750       1.0226
    3072.0     907.0129       0.0000      50.8611     -47.7563       0.9874      -0.7309      -0.6638     255.5886       1.0237
    3073.0     907.3811       0.0000      50.8611     -47.7563       0.9874      -0.7309      -0.6638     262.1005       1.0311
    3074.0     913.5244       0.0000      50.8611     -44.9667       0.9267      -0.6548      -0.6552     268.1900       1.0226
    3075.0     923.8214       0.0000      50.8611     -51.1130       1.1238      -0.8747      -0.7047     274.3049       1.0226
    3076.0     935.7309       0.0000      50.8611     -55.7780       1.0195      -0.8430      -0.5734     280.4067       1.0226
    3077.0     948.2189       0.0000      50.8611     -44.9667       0.9267      -0.6548      -0.6552     286.5085       1.0226
    3078.0     962.0057       0.0000      50.8611     -46.2968       0.7952      -0.5745      -0.5497     292.5980       1.0226
    3079.0     988.1989       0.0000      50.8611     -54.2926       0.9288      -0.7542      -0.5411     298.6876       1.0226
    3080.0    1011.7865       0.0000      50.8611     -56.5210       0.9149      -0.7626      -0.5045     304.7894       1.0226
    3081.0    1029.3076       0.0000      50.8611     -49.9190       0.8973      -0.6865      -0.5777     310.8912       1.0226
    3082.0    1066.6186       0.0000      50.8611     -54.0916       0.8529      -0.6907      -0.5002     316.9930       1.0226
    3083.0    1150.7118       0.0000      50.8611     -46.9126       0.7864      -0.5745      -0.5368     323.0948       1.0226
    3084.0    1247.2795       0.0000      50.8611     -55.9910       0.8287      -0.6865      -0.4636     329.1966       1.0226
    3085.0    1289.1506       0.0000      50.8611     -52.0248       0.9327      -0.7351      -0.5734     335.7064       1.0226
    3086.0    1318.6660       0.0000      50.8611     -62.4210       0.7441      -0.6590      -0.3453     341.8214       1.0237
    3087.0    1343.8696       0.0000      50.8611     -61.0963       0.7894      -0.6907      -0.3819     347.9232       1.0132
    3088.0    1380.5351       0.0000      50.8611     -57.2962       0.9016      -0.7584      -0.4874     354.0245       1.0237
    3089.0    1408.1841       0.0000      50.8611     -59.3148       0.8917      -0.7669      -0.4551      37.9408       1.0226
    3090.0    1432.0265       0.0000      50.8611     -56.5651       0.8770      -0.7309      -0.4831       6.2427       1.0226
    3091.0    1463.5726       0.0000      50.8611     -63.3159       0.8228      -0.7351      -0.3690      12.3563       1.0237
    3092.0    1492.5023       0.0000      50.8611     -67.6133       0.9995      -0.9255      -0.3733      18.4726       1.0226
    3093.0    1516.0444       0.0000      50.8611     -63.5480       0.8570      -0.7669      -0.3819      24.6007       1.0226
    3094.0    1548.7335       0.0000      50.8611     -64.9312       0.8911      -0.8070      -0.3776      30.7031       1.0226
    3095.0    1568.3793       0.0000      50.8611     -70.3204       0.9959      -0.9382      -0.3324      36.8050       1.0226
    3096.0    1583.9902       0.0000      50.8611     -61.0854       0.8403      -0.7351      -0.4056      42.9200       1.0226
    3097.0    1608.5960       0.0000      50.8611     -66.1912       0.9352      -0.8556      -0.3776      49.4429       1.0226
    3098.0    1630.1964       0.0000      50.8611     -63.7171       0.9450      -0.8472      -0.4185      55.5212       1.0132
    3099.0    1627.6041       0.0000      50.8611     -68.8851       0.9471      -0.8831      -0.3410      61.6218       1.0226
    3100.0    1638.5858       0.0000      50.8611     -62.9623       1.0912      -0.9719      -0.4959      67.7236       1.0132
    3101.0    1643.6252       0.0000      50.8611     -59.1458       1.0387      -0.8916      -0.5325      73.8262       1.0132
    3102.0    1643.2193       0.0000      50.8611     -62.9566       1.0010      -0.8916      -0.4551      79.9157       1.0226
    3103.0    1643.0171       0.0000      50.8611     -67.4567       0.9688      -0.8947      -0.3711      86.0178       1.0226
    3104.0    1632.5811       0.0000      50.8611     -66.5602       1.1331      -1.0396      -0.4508      92.1192       1.0226
    3105.0    1624.6365       0.0000      50.8611     -64.1774       1.0352      -0.9317      -0.4508      98.2210       1.0226
    3106.0    1618.9358       0.0000      50.8611     -62.0763       1.0498      -0.9275      -0.4916     104.3228       1.0226
    3107.0    1595.5344       0.0000      50.8611     -60.1523       1.1523      -0.9994      -0.5734     110.4249       1.0226
    3108.0    1573.3569       0.0000      50.8611     -66.3299       1.0220      -0.9360      -0.4099     116.5264       1.0226
    3109.0    1555.5862       0.0000      50.8611     -67.2543       1.0932      -1.0079      -0.4227     123.0371       1.0237
