~VERSION INFORMATION
VERS.           2.0   :CWLS Log ASCII Standard - VERSION 2.0
WRAP.           NO    :One Line per depth step
PROD.  Schlumberger   :LAS Producer
PROG.  DLIS to ASCII 19C2-270                          :LAS Program name and version
CREA.        2017/09/16 17:42                          :LAS Creation date {YYYY/MM/DD hh:mm}
DLIS_CREA.  2017-Sep-15 18:02                          :DLIS Creation date and time {YYYY-MMM-DD hh:mm}
SOURCE.     LPC_S4-1_2AV.DLIS                          :DLIS File Name
FILE-ID.     PERFO_Perfo_WPGRT_052LTP                  :File Identification Number
#--------------------------------------------------
~WELL INFORMATION
#MNEM.UNIT      DATA             DESCRIPTION
#---- ------ --------------   -----------------------------
STRT .S         3713.0       :START TIME      
STOP .S         4115.0       :STOP TIME      
STEP .S            1.0       :STEP     
NULL .          -999.25      :NULL VALUE
COMP .        SHELL INTERNATIONAL E P                  :COMPANY
WELL .        WPP TEST 2                               :WELL
FLD  .        WILDCAT                                  :FIELD
LOC  .        NA                                       :LOCATION
CNTY .        HARRIS                                   :COUNTY
STAT .        TEXAS                                    :STATE
CTRY .                                                 :COUNTRY
API  .        NA                                       :API NUMBER
UWI  .                                                 :UNIQUE WELL ID
DATE .        15-Sep-2017                              :LOG DATE {DD-MMM-YYYY}
SRVC .        Schlumberger                             :SERVICE COMPANY
LATI .DEG                                              :LATITUDE
LONG .DEG                                              :LONGITUDE
GDAT .                                                 :GeoDetic Datum
SECT .        NA                                       :Section
RANG .        NA                                       :Range
TOWN .        NA                                       :Township
#-----------------------------------------------------------------------------
~PARAMETER INFORMATION
#MNEM.UNIT    VALUE                      DESCRIPTION
#---- -----   --------------------       ------------------------
U-PHASE_B_COMP_PER_YT.                 0 :Phase B Comparator Period Yt
U-PHASE_A_COMP_PER_XT.                 0 :Phase A Comparator Period Xt
U-MAX_EXC_CUR_LIMIT.MA       240.00000   :Requested CM Current Limit
U-REQ_EXC_FQ.HZ              50          :Requested CM Frequency
U-TILT_Y_OFFSET.           0.19916       :WPTET Tilt Y Offset
U-TILT_Y_GAIN.           1.01796         :WPTET Tilt Y Gain
U-TILT_X_OFFSET.          -1.77103       :WPTET Tilt X Offset
U-TILT_X_GAIN.           1.00000         :WPTET Tilt X Gain
U-TILT_OFFSET_TOL.           0.00100     :WPTET Tilt Offset Calibration Tolerance
U-NO_TILT_CAL_ROTATIONS.                 3 :Number of Rotations for Tilt Calibration
HAZI .DEG        0.00000                 :Hole Azimuth
U-STD_TOL_TILT.           0.01000        :Tilt Standard Deviation Tolerance
U-GUN_POS_TOL.DEG        5.00000         :Gun Position Tolerance
ROT_ANGLE_THRESHOLD.DEG        5.00000   :Rotation Stop Angle Tolerance
STOP_ROT_ANGLE.DEG        0.00000        :Rotation Stop Angle
WITN .        MR. DHRUA ARORA            :Witness's Name
ENGI .        MORRIS MOORE               :Engineer's Name
COUN .        HARRIS                     :County or Rig Name
FN   .        WILDCAT                    :Field Name
WN   .        WPP TEST 2                 :Well Name
CN   .        SHELL INTERNATIONAL E P    :Company Name
CLAB .        County                     :County/Rig Label
SLAB .        State                      :State/Province Label
RUN  .          1                        :RUN NUMBER
PDAT .        GROUND LEVEL               :Permanent Datum
EPD  .                                   :Elevation of Permanent Datum above Mean Sea Level
LMF  .          NA                       :Logging Measured From (Name of Logging Elevation Reference)
APD  .                                   :Elevation of Depth Reference (LMF) above Permanent Datum
#-----------------------------------------------------------------------------
~CURVE INFORMATION
#MNEM.UNIT   API CODE                                  DESCRIPTION
#---- -----  --------                                  -----------------------
TIME .S                                                :TIME {F10.1}
FREQ_EMF_SL.HZ                                         :Electromagnetic Field Frequency {F13.4}
PH_SH_WPPCM_SL.DEG                                     :WPPCM Phase Shift {F13.4}
FREQ_EXC_REQ_SL.HZ                                     :Requested Exciter Frequency {F13.4}
RB_SL.DEG                                              :Relative Bearing {F13.4}
SDEV_SL.DEG                                            :Sonde Deviation {F13.4}
TILX_SL.DEG                                            :X-axis Tilt {F13.4}
TILY_SL.DEG                                            :Y-axis Tilt {F13.4}
ROTA_SL.DEG                                            :Motor Rotation Angle {F13.4}
MSPE_SL.RPM                                            :Motor Speed {F13.4}
#-----------------------------------------------------------------------------
# 
#     TIME    FREQ_EMF_SL  PH_SH_WPPCM_ FREQ_EXC_REQ    RB_SL       SDEV_SL      TILX_SL      TILY_SL      ROTA_SL      MSPE_SL
#                          SL           _SL
~A  
# ...
    3839.0    1418.0652       0.0000      50.8611     -64.6363       1.4505      -1.3095      -0.6182     289.7632       1.0279
    3840.0    1412.8318       0.0000      50.8611     -62.5033       1.5461      -1.3694      -0.7145     295.8761       1.0226
    3841.0    1402.5820       0.0000      50.8611     -60.9723       1.4437      -1.2624      -0.7004     301.9676       1.0226
    3842.0    1394.1604       0.0000      50.8611     -57.4405       1.5294      -1.2890      -0.8230     308.0694       1.0226
    3843.0    1383.2174       0.0000      50.8611     -54.6782       1.5165      -1.2357      -0.8780     314.1712       1.0226
    3844.0    1367.9475       0.0000      50.8611     -55.0018       1.6055      -1.3153      -0.9186     320.2861       1.0297
    3845.0    1361.7857       0.0000      50.8611     -54.0551       1.4776      -1.1948      -0.8643     326.7816       1.0226
    3846.0    1341.8416       0.0000      50.8611     -53.2460       1.2601      -1.0082      -0.7554     332.8835       1.0226
    3847.0    1344.4016       0.0000      50.8611     -47.0357       1.4294      -1.0473      -0.9725     338.9862       1.0226
    3848.0    1330.0432       0.0000      50.8611     -44.7401       1.5822      -1.1145      -1.1226     345.0880       1.0190
    3849.0    1302.0711       0.0000      50.8611     -42.9403       1.4596      -0.9944      -1.0684     351.1754       1.0190
    3850.0    1296.4690       0.0000      50.8611     -47.4726       1.4024      -1.0342      -0.9457     357.2690       1.0226
    3851.0    1281.8955       0.0000      50.8611     -37.9991       1.4323      -0.8805      -1.1293       3.3708       1.0190
    3852.0    1266.1257       0.0000      50.8611     -43.2590       1.3566      -0.9279      -0.9862       9.4571       1.0190
    3853.0    1246.0468       0.0000      50.8611     -36.2427       1.3423      -0.7939      -1.0821      15.5628       1.0226
    3854.0    1245.1932       0.0000      50.8611     -36.2330       1.2068      -0.7135      -0.9732      21.6646       1.0226
    3855.0    1233.5526       0.0000      50.8611     -37.2842       1.1555      -0.6997      -0.9186      27.7894       1.0190
    3856.0    1229.2395       0.0000      50.8611     -33.9156       1.1582      -0.6460      -0.9595      33.4750       1.0226
    3857.0    1218.6134       0.0000      50.8611     -27.1576       1.0938      -0.4992      -0.9732      39.7007       1.0226
    3858.0    1219.2828       0.0000      50.8611     -30.5465       1.1140      -0.5660      -0.9595      46.0713       1.0226
    3859.0    1219.9855       0.0000      50.8611     -37.0596       1.1167      -0.6730      -0.8911      52.1731       1.0190
    3860.0    1222.1333       0.0000      50.8611     -27.2559       1.0019      -0.4587      -0.8907      58.2715       1.0190
    3861.0    1225.7065       0.0000      50.8611     -29.7418       1.0599      -0.5255      -0.9186      64.3550       1.0226
    3862.0    1233.5413       0.0000      50.8611     -25.8567       0.9299      -0.4054      -0.8368      70.4444       1.0226
    3863.0    1254.8278       0.0000      50.8611     -27.1264       0.9147      -0.4151      -0.8131      76.5326       1.0226
    3864.0    1268.4325       0.0000      50.8611     -34.0831       0.8636      -0.4853      -0.7138      82.6364       1.0226
    3865.0    1283.8636       0.0000      50.8611     -29.5071       0.7419      -0.3652      -0.6457      88.7392       1.0190
    3866.0    1303.6868       0.0000      50.8611     -29.7214       0.7114      -0.3517      -0.6182      94.8286       1.0190
    3867.0    1320.8546       0.0000      50.8611     -36.9200       0.6550      -0.3919      -0.5234     100.9312       1.0226
    3868.0    1338.4296       0.0000      50.8611     -34.2268       0.6493      -0.3652      -0.5368     107.0330       1.0190
    3869.0    1346.1168       0.0000      50.8611     -37.9475       0.5944      -0.3652      -0.4688     113.2718       1.0226
    3870.0    1358.2475       0.0000      50.8611     -46.8076       0.6093      -0.4452      -0.4142     119.6423       1.0226
    3871.0    1362.7328       0.0000      50.8611     -46.7444       0.5418      -0.3919      -0.3729     125.7441       1.0226
    3872.0    1372.4178       0.0000      50.8611     -53.2189       0.4892      -0.3922      -0.2915     131.8611       1.0226
    3873.0    1387.7355       0.0000      50.8611     -60.2444       0.5294      -0.4587      -0.2640     137.9761       1.0226
    3874.0    1398.7785       0.0000      50.8611     -55.7520       0.5408      -0.4455      -0.3049     144.0780       1.0226
    3875.0    1410.7357       0.0000      50.8611     -69.3581       0.5085      -0.4759      -0.1791     150.1931       1.0226
    3876.0    1411.0263       0.0000      50.8611     -81.1582       0.5724      -0.5657      -0.0871     156.2960       1.0226
    3877.0    1425.2406       0.0000      50.8611     -76.8620       0.4848      -0.4736      -0.1008     162.3979       1.0226
    3878.0    1433.0092       0.0000      50.8611     -88.5100       0.6607      -0.6602      -0.0190     168.4998       1.0226
    3879.0    1439.8690       0.0000      50.8611     -73.4493       0.7862      -0.7534      -0.2235     174.6017       1.0226
    3880.0    1446.7593       0.0000      50.8611     -84.2292       0.7314      -0.7267      -0.0737     180.7167       1.0226
    3881.0    1453.7268       0.0000      50.8611     -82.5157       0.7737      -0.7669      -0.1008     186.8226       1.0226
    3882.0    1461.7983       0.0000      50.8611     -85.2317       0.8771      -0.8739      -0.0733     193.3272       1.0226
    3883.0    1458.7655       0.0000      50.8611     -78.4519       0.9133      -0.8881      -0.1681     199.4442       1.0226
    3884.0    1457.7807       0.0000      50.8611     -86.6621       1.0233      -1.0214      -0.0599     205.5451       1.0226
    3885.0    1460.7785       0.0000      50.8611     -85.2700       1.0127      -1.0075      -0.0867     211.6470       1.0226
    3886.0    1470.9588       0.0000      50.8611     -77.7053       1.1028      -1.0747      -0.2365     217.7447       1.0190
    3887.0    1465.8720       0.0000      50.8611     -84.1548       0.9865      -0.9812      -0.1008     221.4081       0.0005
    3888.0    1466.9047       0.0000      50.8611     -83.3633       0.9753      -0.9680      -0.1146     221.4081       0.0005
    3889.0    1468.9345       0.0000      50.8611     -81.0901       1.0070      -0.9947      -0.1551     221.4081       0.0005
    3890.0    1465.8720       0.0000      50.8611     -84.3067       1.1482      -1.1419      -0.1146     221.4081       0.0005
    3891.0    1464.8438       0.0000      50.8611     -84.5315       1.0535      -1.0480      -0.1004     221.4081       0.0005
    3892.0    1471.9871       0.0000      50.8611     -85.9060       1.0377      -1.0349      -0.0733     221.4081       0.0005
    3893.0    1469.9403       0.0000      50.8611     -86.7288       1.0499      -1.0480      -0.0599     221.4081       0.0005
    3894.0    1465.8720       0.0000      50.8611     -81.4924       1.0462      -1.0345      -0.1551     221.4081       0.0005
    3895.0    1466.8682       0.0000      50.8611     -82.4417       1.0851      -1.0750      -0.1413     221.4081       0.0005
    3896.0    1468.9120       0.0000      50.8611     -82.5831       1.0975      -1.0882      -0.1417     221.4081       0.0005
    3897.0    1467.9416       0.0000      50.8611     -83.7140       1.0549      -1.0484      -0.1142     221.4081       0.0005
    3898.0    1467.9019       0.0000      50.8611     -84.0106       1.0943      -1.0882      -0.1142     221.4081       0.0005
    3899.0    1468.9120       0.0000      50.8611     -83.8886       1.0674      -1.0612      -0.1142     221.4081       0.0005
    3900.0    1471.9871       0.0000      50.8611     -86.7272       1.0631      -1.0612      -0.0599     221.4081       0.0005
    3901.0    1468.9345       0.0000      50.8611     -80.8917       1.0630      -1.0480      -0.1685     221.4081       0.0005
