~VERSION INFORMATION
VERS.           2.0   :CWLS Log ASCII Standard - VERSION 2.0
WRAP.           NO    :One Line per depth step
PROD.  Schlumberger   :LAS Producer
PROG.  DLIS to ASCII 19C2-270                          :LAS Program name and version
CREA.        2017/09/16 17:42                          :LAS Creation date {YYYY/MM/DD hh:mm}
DLIS_CREA.  2017-Sep-15 12:00                          :DLIS Creation date and time {YYYY-MMM-DD hh:mm}
SOURCE.     LPC_S1-1_A5.DLIS                           :DLIS File Name
FILE-ID.     PERFO_Perfo_WPGRT_019LTP                  :File Identification Number
#--------------------------------------------------
~WELL INFORMATION
#MNEM.UNIT      DATA             DESCRIPTION
#---- ------ --------------   -----------------------------
STRT .S         4414.0       :START TIME      
STOP .S         5447.0       :STOP TIME      
STEP .S            1.0       :STEP     
NULL .          -999.25      :NULL VALUE
COMP .        SHELL INTERNATIONAL E P                  :COMPANY
WELL .        WPP TEST 2                               :WELL
FLD  .        WILDCAT                                  :FIELD
LOC  .                                                 :LOCATION
CNTY .        HARRIS                                   :COUNTY
STAT .        TEXAS                                    :STATE
CTRY .                                                 :COUNTRY
API  .                                                 :API NUMBER
UWI  .                                                 :UNIQUE WELL ID
DATE .                                                 :LOG DATE
SRVC .        Schlumberger                             :SERVICE COMPANY
LATI .DEG                                              :LATITUDE
LONG .DEG                                              :LONGITUDE
GDAT .                                                 :GeoDetic Datum
#-----------------------------------------------------------------------------
~PARAMETER INFORMATION
#MNEM.UNIT    VALUE                      DESCRIPTION
#---- -----   --------------------       ------------------------
U-PHASE_B_COMP_PER_YT.                 0 :Phase B Comparator Period Yt
U-PHASE_A_COMP_PER_XT.                 0 :Phase A Comparator Period Xt
U-MAX_EXC_CUR_LIMIT.MA       240.00000   :Requested CM Current Limit
U-REQ_EXC_FQ.HZ              50          :Requested CM Frequency
U-TILT_Y_OFFSET.           0.19916       :WPTET Tilt Y Offset
U-TILT_Y_GAIN.           1.01796         :WPTET Tilt Y Gain
U-TILT_X_OFFSET.          -1.77103       :WPTET Tilt X Offset
U-TILT_X_GAIN.           1.00000         :WPTET Tilt X Gain
U-TILT_OFFSET_TOL.           0.00100     :WPTET Tilt Offset Calibration Tolerance
U-NO_TILT_CAL_ROTATIONS.                 3 :Number of Rotations for Tilt Calibration
HAZI .DEG        0.00000                 :Hole Azimuth
U-STD_TOL_TILT.           0.01000        :Tilt Standard Deviation Tolerance
U-GUN_POS_TOL.DEG        5.00000         :Gun Position Tolerance
ROT_ANGLE_THRESHOLD.DEG        5.00000   :Rotation Stop Angle Tolerance
STOP_ROT_ANGLE.DEG       80.00000        :Rotation Stop Angle
WITN .                                   :Witness's Name
ENGI .                                   :Engineer's Name
COUN .        HARRIS                     :County or Rig Name
FN   .        WILDCAT                    :Field Name
WN   .        WPP TEST 2                 :Well Name
CN   .        SHELL INTERNATIONAL E P    :Company Name
CLAB .        County                     :County/Rig Label
SLAB .        State                      :State/Province Label
RUN  .          1                        :RUN NUMBER
PDAT .        GROUND LEVEL               :Permanent Datum
EPD  .                                   :Elevation of Permanent Datum above Mean Sea Level
LMF  .                                   :Logging Measured From (Name of Logging Elevation Reference)
APD  .                                   :Elevation of Depth Reference (LMF) above Permanent Datum
#-----------------------------------------------------------------------------
~CURVE INFORMATION
#MNEM.UNIT   API CODE                                  DESCRIPTION
#---- -----  --------                                  -----------------------
TIME .S                                                :TIME {F10.1}
FREQ_EMF_SL.HZ                                         :Electromagnetic Field Frequency {F13.4}
PH_SH_WPPCM_SL.DEG                                     :WPPCM Phase Shift {F13.4}
FREQ_EXC_REQ_SL.HZ                                     :Requested Exciter Frequency {F13.4}
RB_SL.DEG                                              :Relative Bearing {F13.4}
SDEV_SL.DEG                                            :Sonde Deviation {F13.4}
TILX_SL.DEG                                            :X-axis Tilt {F13.4}
TILY_SL.DEG                                            :Y-axis Tilt {F13.4}
ROTA_SL.DEG                                            :Motor Rotation Angle {F13.4}
MSPE_SL.RPM                                            :Motor Speed {F13.4}
#-----------------------------------------------------------------------------
# 
#     TIME    FREQ_EMF_SL  PH_SH_WPPCM_ FREQ_EXC_REQ    RB_SL       SDEV_SL      TILX_SL      TILY_SL      ROTA_SL      MSPE_SL
#                          SL           _SL
~A  
# ...
    5296.0    1002.7063       0.0000      50.8611     -69.1071       5.2697      -4.9223      -1.8768     320.8083       1.0226
    5297.0     981.7066       0.0000      50.8611     -64.6968       5.4060      -4.8857      -2.3080     326.9232       1.0226
    5298.0     958.8304       0.0000      50.8611     -59.1908       5.5250      -4.7434      -2.8266     333.0381       1.0226
    5299.0     937.9671       0.0000      50.8611     -53.0441       5.5654      -4.4439      -3.3432     339.1348       1.0121
    5300.0     934.3307       0.0000      50.8611     -48.9891       5.1369      -3.8744      -3.3674     345.2310       1.0226
    5301.0     924.7305       0.0000      50.8611     -43.7105       5.4287      -3.7483      -3.9212     351.3460       1.0226
    5302.0     913.0470       0.0000      50.8611     -40.0703       5.2997      -3.4087      -4.0532     357.4354       1.0202
    5303.0     919.6658       0.0000      50.8611     -36.3953       5.2813      -3.1312      -4.2483       3.5396       1.0226
    5304.0     912.5046       0.0000      50.8611     -29.6969       5.2839      -2.6145      -4.5884       9.6319       1.0226
    5305.0     919.2302       0.0000      50.8611     -24.5076       5.1993      -2.1544      -4.7297      16.1373       1.0226
    5306.0     922.4611       0.0000      50.8611     -18.3339       5.0173      -1.5757      -4.7613      22.2384       1.0226
    5307.0     929.3907       0.0000      50.8611     -14.1543       5.0991      -1.2452      -4.9434      28.3403       1.0226
    5308.0     941.6679       0.0000      50.8611      -9.6749       4.8870      -0.8198      -4.8171      34.4325       1.0144
    5309.0     954.8704       0.0000      50.8611      -3.0816       4.8158      -0.2594      -4.8078      40.5315       1.0226
    5310.0     969.6518       0.0000      50.8611       0.3220       4.7986       0.0273      -4.7985      46.6210       1.0202
    5311.0     993.6247       0.0000      50.8611       6.9738       4.6299       0.5600      -4.5950      52.7366       1.0226
    5312.0    1013.2857       0.0000      50.8611      10.6800       4.5371       0.8398      -4.4584      58.8385       1.0226
    5313.0    1040.6180       0.0000      50.8611      18.5361       4.4146       1.4021      -4.1852      64.9279       1.0226
    5314.0    1105.3154       0.0000      50.8611      23.0377       4.3608       1.7052      -4.0123      71.0201       1.0202
    5315.0    1183.2227       0.0000      50.8611      27.5569       4.3170       1.9955      -3.8265      77.1091       1.0226
    5316.0    1253.7891       0.0000      50.8611      34.1066       4.1669       2.3351      -3.4492      83.2109       1.0226
    5317.0    1289.0644       0.0000      50.8611      40.1258       3.9725       2.5578      -3.0366      89.7176       1.0226
    5318.0    1319.7480       0.0000      50.8611      46.4638       3.9003       2.8263      -2.6853      95.8194       1.0226
    5319.0    1357.0461       0.0000      50.8611      53.4880       3.8220       3.0709      -2.2727     101.9219       1.0226
    5320.0    1378.9346       0.0000      50.8611      59.9209       3.7205       3.2188      -1.8638     108.0360       1.0226
    5321.0    1401.5426       0.0000      50.8611      67.0101       3.5409       3.2589      -1.3825     114.1263       1.0226
    5322.0    1432.0265       0.0000      50.8611      73.8808       3.3932       3.2589      -0.9420     120.2151       1.0226
    5323.0    1460.4213       0.0000      50.8611      81.9432       3.5072       3.4725      -0.4913     126.3169       1.0226
    5324.0    1490.6849       0.0000      50.8611      92.3515       3.3998       3.3968       0.1397     132.1035       1.0309
    5325.0    1519.6818       0.0000      50.8611      96.1191       3.3181       3.2991       0.3534     138.1365       1.0309
    5326.0    1537.8025       0.0000      50.8611     104.9029       3.1968       3.0891       0.8218     144.2414       1.0226
    5327.0    1568.6802       0.0000      50.8611     113.4866       3.2583       2.9869       1.2975     150.3457       1.0226
    5328.0    1582.8053       0.0000      50.8611     120.7419       3.2888       2.8263       1.6804     156.4454       1.0309
    5329.0    1598.0114       0.0000      50.8611     129.5218       3.2617       2.5141       2.0744     162.8631       1.0309
    5330.0    1622.1468       0.0000      50.8611     137.3939       3.3493       2.2639       2.4647     169.0579       1.0226
    5331.0    1630.5214       0.0000      50.8611     144.2656       3.3967       1.9828       2.7565     175.1598       1.0226
    5332.0    1636.0416       0.0000      50.8611     152.5470       3.4507       1.5902       3.0613     181.2617       1.0226
    5333.0    1645.7875       0.0000      50.8611     158.5151       3.6117       1.3218       3.3605     187.3774       1.0226
    5334.0    1647.5422       0.0000      50.8611     168.8548       3.6110       0.6974       3.5427     193.4786       1.0226
    5335.0    1646.5327       0.0000      50.8611     174.2560       3.7002       0.3697       3.6811     199.5805       1.0226
    5336.0    1638.9860       0.0000      50.8611    -179.4793       3.8514      -0.0347       3.8512     205.6824       1.0226
    5337.0    1633.1107       0.0000      50.8611    -172.2742       3.9147      -0.5259       3.8791     211.7850       1.0226
    5338.0    1620.9549       0.0000      50.8611    -164.5095       3.9738      -1.0608       3.8289     217.8746       1.0226
    5339.0    1609.8213       0.0000      50.8611    -159.2439       4.0415      -1.4314       3.7787     223.9826       1.0202
    5340.0    1583.3167       0.0000      50.8611    -153.8660       4.1643      -1.8331       3.7378     230.0840       1.0226
    5341.0    1571.0766       0.0000      50.8611    -146.4807       4.2509      -2.3461       3.5427     236.4964       1.0226
    5342.0    1544.5586       0.0000      50.8611    -139.8039       4.2788      -2.7605       3.2658     242.6904       1.0226
    5343.0    1515.3556       0.0000      50.8611    -135.5963       4.4147      -3.0874       3.1524     248.7923       1.0226
    5344.0    1487.9581       0.0000      50.8611    -129.4540       4.6129      -3.5602       2.9293     254.8949       1.0226
    5345.0    1470.0066       0.0000      50.8611    -124.2727       4.7366      -3.9126       2.6654     260.9968       1.0250
    5346.0    1443.7886       0.0000      50.8611    -119.6267       4.6598      -4.0478       2.3011     267.0871       1.0226
    5347.0    1417.1394       0.0000      50.8611    -112.5459       4.7942      -4.4270       1.8361     273.1861       1.0226
    5348.0    1378.4482       0.0000      50.8611    -108.2751       4.8132      -4.5699       1.5076     279.2916       1.0226
    5349.0    1355.1500       0.0000      50.8611    -102.2396       4.9778      -4.8639       1.0541     285.3857       1.0226
    5350.0    1325.8642       0.0000      50.8611     -96.5886       4.9495      -4.9168       0.5671     291.4959       1.0144
    5351.0    1263.7225       0.0000      50.8611     -92.1758       5.3502      -5.3459       0.2028     297.5979       1.0250
    5352.0    1188.3233       0.0000      50.8611     -86.8323       5.2828      -5.2747      -0.2915     303.6903       1.0226
    5353.0    1132.9310       0.0000      50.8611     -81.5834       5.1664      -5.1104      -0.7542     309.8052       1.0226
    5354.0    1070.5766       0.0000      50.8611     -77.4242       5.2027      -5.0774      -1.1315     316.3152       1.0250
    5355.0    1016.9657       0.0000      50.8611     -70.3779       5.2698      -4.9625      -1.7671     322.4155       1.0226
    5356.0     987.8511       0.0000      50.8611     -66.9178       5.5007      -5.0592      -2.1537     328.5181       1.0250
    5357.0     965.2290       0.0000      50.8611     -61.2138       5.1494      -4.5115      -2.4772     334.6199       1.0226
    5358.0     953.4492       0.0000      50.8611     -57.3098       5.4325      -4.5699      -2.9306     340.7217       1.0144
