~VERSION INFORMATION
VERS.           2.0   :CWLS Log ASCII Standard - VERSION 2.0
WRAP.           NO    :One Line per depth step
PROD.  Schlumberger   :LAS Producer
PROG.  DLIS to ASCII 19C2-270                          :LAS Program name and version
CREA.        2017/09/16 17:42                          :LAS Creation date {YYYY/MM/DD hh:mm}
DLIS_CREA.  2017-Sep-15 11:37                          :DLIS Creation date and time {YYYY-MMM-DD hh:mm}
SOURCE.     LPC_S1-1_AV_3RD-LOG.DLIS                   :DLIS File Name
FILE-ID.     PERFO_Perfo_WPGRT_016LTP                  :File Identification Number
#--------------------------------------------------
~WELL INFORMATION
#MNEM.UNIT      DATA             DESCRIPTION
#---- ------ --------------   -----------------------------
STRT .S         2984.0       :START TIME      
STOP .S         3331.0       :STOP TIME      
STEP .S            1.0       :STEP     
NULL .          -999.25      :NULL VALUE
COMP .        SHELL INTERNATIONAL E P                  :COMPANY
WELL .        WPP TEST 2                               :WELL
FLD  .        WILDCAT                                  :FIELD
LOC  .                                                 :LOCATION
CNTY .        HARRIS                                   :COUNTY
STAT .        TEXAS                                    :STATE
CTRY .                                                 :COUNTRY
API  .                                                 :API NUMBER
UWI  .                                                 :UNIQUE WELL ID
DATE .                                                 :LOG DATE
SRVC .        Schlumberger                             :SERVICE COMPANY
LATI .DEG                                              :LATITUDE
LONG .DEG                                              :LONGITUDE
GDAT .                                                 :GeoDetic Datum
#-----------------------------------------------------------------------------
~PARAMETER INFORMATION
#MNEM.UNIT    VALUE                      DESCRIPTION
#---- -----   --------------------       ------------------------
U-PHASE_B_COMP_PER_YT.                 0 :Phase B Comparator Period Yt
U-PHASE_A_COMP_PER_XT.                 0 :Phase A Comparator Period Xt
U-MAX_EXC_CUR_LIMIT.MA       240.00000   :Requested CM Current Limit
U-REQ_EXC_FQ.HZ              50          :Requested CM Frequency
U-TILT_Y_OFFSET.           0.19916       :WPTET Tilt Y Offset
U-TILT_Y_GAIN.           1.01796         :WPTET Tilt Y Gain
U-TILT_X_OFFSET.          -1.77103       :WPTET Tilt X Offset
U-TILT_X_GAIN.           1.00000         :WPTET Tilt X Gain
U-TILT_OFFSET_TOL.           0.00100     :WPTET Tilt Offset Calibration Tolerance
U-NO_TILT_CAL_ROTATIONS.                 3 :Number of Rotations for Tilt Calibration
HAZI .DEG        0.00000                 :Hole Azimuth
U-STD_TOL_TILT.           0.01000        :Tilt Standard Deviation Tolerance
U-GUN_POS_TOL.DEG        5.00000         :Gun Position Tolerance
ROT_ANGLE_THRESHOLD.DEG        5.00000   :Rotation Stop Angle Tolerance
STOP_ROT_ANGLE.DEG       52.00000        :Rotation Stop Angle
WITN .                                   :Witness's Name
ENGI .                                   :Engineer's Name
COUN .        HARRIS                     :County or Rig Name
FN   .        WILDCAT                    :Field Name
WN   .        WPP TEST 2                 :Well Name
CN   .        SHELL INTERNATIONAL E P    :Company Name
CLAB .        County                     :County/Rig Label
SLAB .        State                      :State/Province Label
RUN  .          1                        :RUN NUMBER
PDAT .        GROUND LEVEL               :Permanent Datum
EPD  .                                   :Elevation of Permanent Datum above Mean Sea Level
LMF  .                                   :Logging Measured From (Name of Logging Elevation Reference)
APD  .                                   :Elevation of Depth Reference (LMF) above Permanent Datum
#-----------------------------------------------------------------------------
~CURVE INFORMATION
#MNEM.UNIT   API CODE                                  DESCRIPTION
#---- -----  --------                                  -----------------------
TIME .S                                                :TIME {F10.1}
FREQ_EMF_SL.HZ                                         :Electromagnetic Field Frequency {F13.4}
PH_SH_WPPCM_SL.DEG                                     :WPPCM Phase Shift {F13.4}
FREQ_EXC_REQ_SL.HZ                                     :Requested Exciter Frequency {F13.4}
RB_SL.DEG                                              :Relative Bearing {F13.4}
SDEV_SL.DEG                                            :Sonde Deviation {F13.4}
TILX_SL.DEG                                            :X-axis Tilt {F13.4}
TILY_SL.DEG                                            :Y-axis Tilt {F13.4}
ROTA_SL.DEG                                            :Motor Rotation Angle {F13.4}
MSPE_SL.RPM                                            :Motor Speed {F13.4}
#-----------------------------------------------------------------------------
# 
#     TIME    FREQ_EMF_SL  PH_SH_WPPCM_ FREQ_EXC_REQ    RB_SL       SDEV_SL      TILX_SL      TILY_SL      ROTA_SL      MSPE_SL
#                          SL           _SL
~A  
# ...
    3173.0    1449.7422       0.0000      50.8611     -65.1200       1.1117      -1.0079      -0.4679     155.6245       1.0226
    3174.0    1412.1959       0.0000      50.8611     -57.2600       1.0479      -0.8809      -0.5605     161.7395       1.0237
    3175.0    1384.3910       0.0000      50.8611     -60.9960       1.1161      -0.9761      -0.5411     167.8545       1.0226
    3176.0    1357.9366       0.0000      50.8611     -58.1672       1.0562      -0.8958      -0.5583     173.9564       1.0226
    3177.0    1319.9679       0.0000      50.8611     -59.8215       1.0681      -0.9233      -0.5368     180.0610       1.0132
    3178.0    1272.6919       0.0000      50.8611     -60.1407       1.2351      -1.0713      -0.6143     186.1356       1.0226
    3179.0    1193.2398       0.0000      50.8611     -47.1055       1.1265      -0.8239      -0.7650     192.2375       1.0132
    3180.0    1127.3124       0.0000      50.8611     -54.2479       1.1433      -0.9275      -0.6681     198.3271       1.0226
    3181.0    1062.8003       0.0000      50.8611     -55.3441       1.1609      -0.9550      -0.6595     204.4290       1.0226
    3182.0    1016.6968       0.0000      50.8611     -57.2777       1.0934      -0.9191      -0.5906     210.9266       1.0226
    3183.0     987.9739       0.0000      50.8611     -56.5680       1.1975      -0.9994      -0.6595     217.0285       1.0226
    3184.0     968.4918       0.0000      50.8611     -60.6231       1.5217      -1.3272      -0.7413     223.1056       1.0226
    3185.0     950.1689       0.0000      50.8611     -53.0687       1.1050      -0.8831      -0.6638     229.2075       1.0226
    3186.0     934.1571       0.0000      50.8611     -54.3248       1.1313      -0.9191      -0.6595     235.3094       1.0226
    3187.0     926.5117       0.0000      50.8611     -50.9337       1.0608      -0.8239      -0.6681     241.4113       1.0226
    3188.0     915.4023       0.0000      50.8611     -50.5662       1.0450      -0.8070      -0.6638     247.5132       1.0132
    3189.0     909.9776       0.0000      50.8611     -51.8935       1.0823      -0.8514      -0.6681     253.6027       1.0226
    3190.0     909.7292       0.0000      50.8611     -51.7802       1.0731      -0.8430      -0.6638     259.7046       1.0226
    3191.0     912.4081       0.0000      50.8611     -52.3413       1.0195      -0.8070      -0.6229     265.8195       1.0226
    3192.0     907.6282       0.0000      50.8611     -53.7936       1.0125      -0.8155      -0.5992     271.9213       1.0226
    3193.0     915.7783       0.0000      50.8611     -44.2573       0.9839      -0.6865      -0.7047     278.0231       1.0226
    3194.0     927.3492       0.0000      50.8611     -52.7801       0.9026      -0.7183      -0.5454     284.5207       1.0226
    3195.0     936.8481       0.0000      50.8611     -52.4060       1.0592      -0.8388      -0.6466     290.6228       1.0226
    3196.0     949.9000       0.0000      50.8611     -46.5121       0.9522      -0.6907      -0.6552     296.7243       1.0226
    3197.0     965.6919       0.0000      50.8611     -46.6803       0.8890      -0.6464      -0.6100     302.8261       1.0226
    3198.0     986.1500       0.0000      50.8611     -46.2458       0.9007      -0.6506      -0.6229     308.9279       1.0226
    3199.0    1012.2366       0.0000      50.8611     -48.9846       0.9992      -0.7542      -0.6552     315.0297       1.0226
    3200.0    1037.3158       0.0000      50.8611     -51.5512       1.0323      -0.8070      -0.6423     321.1315       1.0132
    3201.0    1084.3705       0.0000      50.8611     -50.2998       0.8979      -0.6907      -0.5734     327.2211       1.0226
    3202.0    1191.0538       0.0000      50.8611     -51.5720       0.7852      -0.6146      -0.4874     333.3256       1.0226
    3203.0    1255.1112       0.0000      50.8611     -56.0461       0.8227      -0.6823      -0.4593     339.4247       1.0226
    3204.0    1287.7748       0.0000      50.8611     -47.2333       0.9385      -0.6865      -0.6380     345.5265       1.0226
    3205.0    1320.8854       0.0000      50.8611     -52.7467       0.8736      -0.6950      -0.5282     351.6414       1.0226
    3206.0    1354.2227       0.0000      50.8611     -54.3880       0.8598      -0.6992      -0.5002     358.1512       1.0226
    3207.0    1385.9778       0.0000      50.8611     -57.6613       0.7749      -0.6548      -0.4142       4.2531       1.0226
    3208.0    1411.8976       0.0000      50.8611     -59.4534       0.7510      -0.6464      -0.3819      10.3549       1.0226
    3209.0    1434.6421       0.0000      50.8611     -55.0778       0.9302      -0.7626      -0.5325      16.4685       1.0237
    3210.0    1467.2610       0.0000      50.8611     -61.4829       0.7909      -0.6950      -0.3776      22.5720       1.0226
    3211.0    1495.0143       0.0000      50.8611     -69.7644       0.8557      -0.8028      -0.2958      28.6735       1.0226
    3212.0    1521.2267       0.0000      50.8611     -55.8281       0.9331      -0.7711      -0.5239      34.7756       1.0226
    3213.0    1548.0203       0.0000      50.8611     -60.4991       0.9999      -0.8705      -0.4916      40.8771       1.0226
    3214.0    1575.0420       0.0000      50.8611     -58.0828       1.0081      -0.8556      -0.5325      46.9789       1.0226
    3215.0    1592.8829       0.0000      50.8611     -71.4088       0.8347      -0.7902      -0.2635      53.0808       1.0226
    3216.0    1609.3692       0.0000      50.8611     -67.7154       0.8767      -0.8112      -0.3324      59.1957       1.0226
    3217.0    1623.4525       0.0000      50.8611     -63.7034       0.9355      -0.8388      -0.4142      65.2975       1.0226
    3218.0    1634.3796       0.0000      50.8611     -64.4687       0.8953      -0.8070      -0.3862      71.8205       1.0226
    3219.0    1638.5858       0.0000      50.8611     -68.7563       1.0201      -0.9444      -0.3753      77.9223       1.0226
    3220.0    1643.2193       0.0000      50.8611     -66.1114       0.9219      -0.8430      -0.3733      84.0241       1.0226
    3221.0    1636.7866       0.0000      50.8611     -67.8527       1.0015      -0.9275      -0.3776      90.1135       1.0226
    3222.0    1638.9860       0.0000      50.8611     -62.8499       0.9973      -0.8874      -0.4551      96.2029       1.0226
    3223.0    1627.6041       0.0000      50.8611     -65.6146       1.0233      -0.9317      -0.4227     102.3081       1.0226
    3224.0    1617.1632       0.0000      50.8611     -66.5177       1.0506      -0.9635      -0.4185     108.4099       1.0226
    3225.0    1608.9817       0.0000      50.8611     -64.2996       0.9679      -0.8725      -0.4185     114.5221       1.0132
    3226.0    1590.7806       0.0000      50.8611     -61.9480       1.1325      -0.9994      -0.5325     120.6116       1.0226
    3227.0    1577.2591       0.0000      50.8611     -66.0277       1.1236      -1.0269      -0.4551     126.7134       1.0226
    3228.0    1552.8751       0.0000      50.8611     -63.9512       1.0464      -0.9402      -0.4593     132.8153       1.0132
    3229.0    1522.6103       0.0000      50.8611     -61.8549       1.1382      -1.0036      -0.5368     138.9048       1.0132
    3230.0    1502.7416       0.0000      50.8611     -63.6563       1.0351      -0.9275      -0.4593     145.3920       1.0143
    3231.0    1475.3655       0.0000      50.8611     -59.3338       1.1155      -0.9593      -0.5691     151.5057       1.0226
    3232.0    1450.3725       0.0000      50.8611     -56.7058       1.1198      -0.9360      -0.6143     157.6076       1.0226
    3233.0    1421.3640       0.0000      50.8611     -58.5323       1.1768      -1.0036      -0.6143     163.6972       1.0226
    3234.0    1400.9410       0.0000      50.8611     -59.1267       1.1176      -0.9593      -0.5734     169.8125       1.0226
    3235.0    1368.7908       0.0000      50.8611     -56.7900       1.1140      -0.9317      -0.6100     175.9258       1.0322
