~VERSION INFORMATION
VERS.           2.0   :CWLS Log ASCII Standard - VERSION 2.0
WRAP.           NO    :One Line per depth step
PROD.  Schlumberger   :LAS Producer
PROG.  DLIS to ASCII 19C2-270                          :LAS Program name and version
CREA.        2017/09/16 17:42                          :LAS Creation date {YYYY/MM/DD hh:mm}
DLIS_CREA.  2017-Sep-15 13:29                          :DLIS Creation date and time {YYYY-MMM-DD hh:mm}
SOURCE.     LPC_S1-1_2A5.DLIS                          :DLIS File Name
FILE-ID.     PERFO_Perfo_WPGRT_025LTP                  :File Identification Number
#--------------------------------------------------
~WELL INFORMATION
#MNEM.UNIT      DATA             DESCRIPTION
#---- ------ --------------   -----------------------------
STRT .S         9747.0       :START TIME      
STOP .S        10374.0       :STOP TIME      
STEP .S            1.0       :STEP     
NULL .          -999.25      :NULL VALUE
COMP .        SHELL INTERNATIONAL E P                  :COMPANY
WELL .        WPP TEST 2                               :WELL
FLD  .        WILDCAT                                  :FIELD
LOC  .                                                 :LOCATION
CNTY .        HARRIS                                   :COUNTY
STAT .        TEXAS                                    :STATE
CTRY .                                                 :COUNTRY
API  .                                                 :API NUMBER
UWI  .                                                 :UNIQUE WELL ID
DATE .                                                 :LOG DATE
SRVC .        Schlumberger                             :SERVICE COMPANY
LATI .DEG                                              :LATITUDE
LONG .DEG                                              :LONGITUDE
GDAT .                                                 :GeoDetic Datum
#-----------------------------------------------------------------------------
~PARAMETER INFORMATION
#MNEM.UNIT    VALUE                      DESCRIPTION
#---- -----   --------------------       ------------------------
U-PHASE_B_COMP_PER_YT.                 0 :Phase B Comparator Period Yt
U-PHASE_A_COMP_PER_XT.                 0 :Phase A Comparator Period Xt
U-MAX_EXC_CUR_LIMIT.MA       240.00000   :Requested CM Current Limit
U-REQ_EXC_FQ.HZ              40          :Requested CM Frequency
U-TILT_Y_OFFSET.           0.19916       :WPTET Tilt Y Offset
U-TILT_Y_GAIN.           1.01796         :WPTET Tilt Y Gain
U-TILT_X_OFFSET.          -1.77103       :WPTET Tilt X Offset
U-TILT_X_GAIN.           1.00000         :WPTET Tilt X Gain
U-TILT_OFFSET_TOL.           0.00100     :WPTET Tilt Offset Calibration Tolerance
U-NO_TILT_CAL_ROTATIONS.                 3 :Number of Rotations for Tilt Calibration
HAZI .DEG        0.00000                 :Hole Azimuth
U-STD_TOL_TILT.           0.01000        :Tilt Standard Deviation Tolerance
U-GUN_POS_TOL.DEG        5.00000         :Gun Position Tolerance
ROT_ANGLE_THRESHOLD.DEG        5.00000   :Rotation Stop Angle Tolerance
STOP_ROT_ANGLE.DEG       80.00000        :Rotation Stop Angle
WITN .                                   :Witness's Name
ENGI .                                   :Engineer's Name
COUN .        HARRIS                     :County or Rig Name
FN   .        WILDCAT                    :Field Name
WN   .        WPP TEST 2                 :Well Name
CN   .        SHELL INTERNATIONAL E P    :Company Name
CLAB .        County                     :County/Rig Label
SLAB .        State                      :State/Province Label
RUN  .          1                        :RUN NUMBER
PDAT .        GROUND LEVEL               :Permanent Datum
EPD  .                                   :Elevation of Permanent Datum above Mean Sea Level
LMF  .                                   :Logging Measured From (Name of Logging Elevation Reference)
APD  .                                   :Elevation of Depth Reference (LMF) above Permanent Datum
#-----------------------------------------------------------------------------
~CURVE INFORMATION
#MNEM.UNIT   API CODE                                  DESCRIPTION
#---- -----  --------                                  -----------------------
TIME .S                                                :TIME {F10.1}
FREQ_EMF_SL.HZ                                         :Electromagnetic Field Frequency {F13.4}
PH_SH_WPPCM_SL.DEG                                     :WPPCM Phase Shift {F13.4}
FREQ_EXC_REQ_SL.HZ                                     :Requested Exciter Frequency {F13.4}
RB_SL.DEG                                              :Relative Bearing {F13.4}
SDEV_SL.DEG                                            :Sonde Deviation {F13.4}
TILX_SL.DEG                                            :X-axis Tilt {F13.4}
TILY_SL.DEG                                            :Y-axis Tilt {F13.4}
ROTA_SL.DEG                                            :Motor Rotation Angle {F13.4}
MSPE_SL.RPM                                            :Motor Speed {F13.4}
#-----------------------------------------------------------------------------
# 
#     TIME    FREQ_EMF_SL  PH_SH_WPPCM_ FREQ_EXC_REQ    RB_SL       SDEV_SL      TILX_SL      TILY_SL      ROTA_SL      MSPE_SL
#                          SL           _SL
~A  
# ...
   10251.0    1338.9335       0.0000      50.8611      51.4714       3.6489       2.8538      -2.2717     288.6575       1.0226
   10252.0    1343.7072       0.0000      50.8611      57.9289       3.4768       2.9457      -1.8452     294.7726       1.0226
   10253.0    1355.5199       0.0000      50.8611      62.5636       3.3971       3.0144      -1.5648     300.8739       1.0226
   10254.0    1355.5199       0.0000      50.8611      72.6764       3.1734       3.0261      -0.9461     306.9833       1.0226
   10255.0    1358.5132       0.0000      50.8611      77.6587       3.1977       3.1237      -0.6828     313.0986       1.0272
   10256.0    1366.0719       0.0000      50.8611      86.1584       3.1357       3.1233      -0.2044     319.6017       1.0226
   10257.0    1365.6676       0.0000      50.8611      94.6659       3.1122       3.1008       0.2515     325.7030       1.0226
   10258.0    1368.3252       0.0000      50.8611     102.7330       3.1317       3.0546       0.6898     331.8051       1.0226
   10259.0    1370.6140       0.0000      50.8611     110.9292       3.0928       2.8883       1.1044     337.9202       1.0226
   10260.0    1378.3033       0.0000      50.8611     119.2670       3.0022       2.6188       1.4667     344.0225       1.0272
   10261.0    1380.2204       0.0000      50.8611     133.5957       2.8939       2.0625       1.9913     350.1237       1.0226
   10262.0    1381.3850       0.0000      50.8611     137.0441       3.1387       2.1368       2.2959     356.2135       1.0226
   10263.0    1385.6605       0.0000      50.8611     143.9517       3.0868       1.8155       2.4946       2.3157       1.0226
   10264.0    1386.8344       0.0000      50.8611     151.5525       3.2566       1.5512       2.8626       8.4074       1.0181
   10265.0    1389.5751       0.0000      50.8611     158.5270       3.3156       1.2130       3.0846      14.5070       1.0181
   10266.0    1397.4793       0.0000      50.8611     166.5499       3.3165       0.7711       3.2249      20.6092       1.0226
   10267.0    1390.7583       0.0000      50.8611     173.9213       3.4846       0.3695       3.4645      26.7246       1.0226
   10268.0    1396.2819       0.0000      50.8611     179.4083       3.5346       0.0365       3.5344      33.2335       1.0226
   10269.0    1397.4793       0.0000      50.8611    -173.8173       3.6082      -0.3881       3.5871      39.3488       1.0226
   10270.0    1409.9000       0.0000      50.8611    -166.0673       3.7143      -0.8930       3.6047      45.4518       1.0226
   10271.0    1408.2622       0.0000      50.8611    -159.6986       3.8502      -1.3348       3.6104      51.5532       1.0226
   10272.0    1404.2499       0.0000      50.8611    -154.9080       3.9612      -1.6790       3.5867      57.6546       1.0226
   10273.0    1407.0785       0.0000      50.8611    -146.9540       4.0290      -2.1956       3.3766      63.7709       1.0226
   10274.0    1411.5064       0.0000      50.8611    -141.8688       4.1918      -2.5856       3.2952      69.8660       1.0181
   10275.0    1409.4691       0.0000      50.8611    -137.0298       4.2668      -2.9069       3.1198      75.9620       1.0226
   10276.0    1408.6793       0.0000      50.8611    -130.7641       4.2794      -3.2399       2.7927      82.0386       1.0226
   10277.0    1407.4618       0.0000      50.8611    -125.3031       4.4212      -3.6070       2.5531      88.1408       1.0226
   10278.0    1408.6785       0.0000      50.8611    -120.0027       4.4909      -3.8882       2.2436      94.2387       1.0181
   10279.0    1410.6810       0.0000      50.8611    -113.3965       4.6125      -4.2324       1.8290     100.3233       1.0181
   10280.0    1409.4691       0.0000      50.8611    -108.6852       4.6930      -4.4449       1.5018     106.8305       1.0226
   10281.0    1401.8496       0.0000      50.8611    -103.1703       4.7245      -4.6000       1.0754     112.9327       1.0226
   10282.0    1403.0566       0.0000      50.8611     -98.3178       4.8181      -4.7663       0.6959     119.0423       1.0287
   10283.0    1407.8564       0.0000      50.8611     -92.5537       4.8744      -4.8695       0.2167     125.1493       1.0226
   10284.0    1397.0696       0.0000      50.8611     -88.0279       4.9126      -4.9096      -0.1688     131.2646       1.0226
   10285.0    1394.7073       0.0000      50.8611     -84.6911       5.0586      -5.0362      -0.4665     137.3669       1.0226
   10286.0    1390.7583       0.0000      50.8611     -77.7511       5.0420      -4.9269      -1.0684     143.4684       1.0226
   10287.0    1394.7073       0.0000      50.8611     -72.1403       5.0759      -4.8297      -1.5529     149.5734       1.0226
   10288.0    1381.3850       0.0000      50.8611     -67.9481       5.1871      -4.8068      -1.9446     155.6607       1.0226
   10289.0    1379.0602       0.0000      50.8611     -64.2032       5.0912      -4.5827      -2.2132     161.7787       1.0226
   10290.0    1374.4466       0.0000      50.8611     -58.1713       5.1867      -4.4048      -2.7329     167.8932       1.0166
   10291.0    1369.4674       0.0000      50.8611     -53.6137       5.2127      -4.1927      -3.0891     173.9964       1.0226
   10292.0    1357.0224       0.0000      50.8611     -51.1183       5.4864      -4.2678      -3.4337     180.5036       1.0226
   10293.0    1362.6454       0.0000      50.8611     -43.4544       5.0480      -3.4697      -3.6619     186.5854       1.0242
   10294.0    1347.7250       0.0000      50.8611     -36.4679       5.0096      -2.9768      -4.0180     192.6955       1.0226
   10295.0    1342.5955       0.0000      50.8611     -33.8244       5.0512      -2.8093      -4.1934     198.7855       1.0181
   10296.0    1344.0523       0.0000      50.8611     -28.6881       5.0215      -2.4081      -4.4036     204.8782       1.0226
   10297.0    1329.8813       0.0000      50.8611     -25.1518       4.9123      -2.0863      -4.4445     210.9723       1.0272
   10298.0    1324.5063       0.0000      50.8611     -19.5727       4.9041      -1.6393      -4.6195     217.0803       1.0226
   10299.0    1314.9752       0.0000      50.8611     -13.3554       4.7907      -1.1055      -4.6608     223.1957       1.0287
   10300.0    1312.1956       0.0000      50.8611      -8.7176       4.7627      -0.7211      -4.7074     229.3137       1.0226
   10301.0    1322.3778       0.0000      50.8611      -3.0467       4.6088      -0.2447      -4.6023     235.4152       1.0226
   10302.0    1322.3778       0.0000      50.8611       1.8285       4.5347       0.1453      -4.5320     241.5307       1.0226
   10303.0    1312.8547       0.0000      50.8611       7.3319       4.4642       0.5699      -4.4269     247.6296       1.0226
   10304.0    1320.9866       0.0000      50.8611      13.3740       4.3773       1.0117      -4.2576     254.1401       1.0226
   10305.0    1321.6636       0.0000      50.8611      18.1457       4.2292       1.3162      -4.0184     260.2291       1.0226
   10306.0    1333.4799       0.0000      50.8611      24.4449       4.1974       1.7347      -3.8197     266.3312       1.0226
   10307.0    1331.6761       0.0000      50.8611      29.1600       4.0473       1.9701      -3.5335     272.4341       1.0226
   10308.0    1341.1442       0.0000      50.8611      36.5345       3.9192       2.3316      -3.1479     278.5380       1.0226
   10309.0    1344.7721       0.0000      50.8611      41.4843       3.7985       2.5152      -2.8441     284.6366       1.0226
   10310.0    1347.3490       0.0000      50.8611      48.3370       3.5680       2.6646      -2.3711     290.7387       1.0226
   10311.0    1347.3490       0.0000      50.8611      54.2714       3.4734       2.8192      -2.0264     296.8591       1.0226
   10312.0    1346.9828       0.0000      50.8611      53.8565       3.1296       2.5268      -1.8452     302.9710       1.0166
   10313.0    1355.1393       0.0000      50.8611      69.2440       3.4144       3.1928      -1.2086     309.0702       1.0226
