~VERSION INFORMATION
VERS.           2.0   :CWLS Log ASCII Standard - VERSION 2.0
WRAP.           NO    :One Line per depth step
PROD.  Schlumberger   :LAS Producer
PROG.  DLIS to ASCII 19C2-270                          :LAS Program name and version
CREA.        2017/09/16 17:42                          :LAS Creation date {YYYY/MM/DD hh:mm}
DLIS_CREA.  2017-Sep-15 11:29                          :DLIS Creation date and time {YYYY-MMM-DD hh:mm}
SOURCE.     LPC_SL_AV_2ND-LOG.DLIS                     :DLIS File Name
FILE-ID.     PERFO_Perfo_WPGRT_015LTP                  :File Identification Number
#--------------------------------------------------
~WELL INFORMATION
#MNEM.UNIT      DATA             DESCRIPTION
#---- ------ --------------   -----------------------------
STRT .S         2513.0       :START TIME      
STOP .S         2855.0       :STOP TIME      
STEP .S            1.0       :STEP     
NULL .          -999.25      :NULL VALUE
COMP .        SHELL INTERNATIONAL E P                  :COMPANY
WELL .        WPP TEST 2                               :WELL
FLD  .        WILDCAT                                  :FIELD
LOC  .                                                 :LOCATION
CNTY .        HARRIS                                   :COUNTY
STAT .        TEXAS                                    :STATE
CTRY .                                                 :COUNTRY
API  .                                                 :API NUMBER
UWI  .                                                 :UNIQUE WELL ID
DATE .                                                 :LOG DATE
SRVC .        Schlumberger                             :SERVICE COMPANY
LATI .DEG                                              :LATITUDE
LONG .DEG                                              :LONGITUDE
GDAT .                                                 :GeoDetic Datum
#-----------------------------------------------------------------------------
~PARAMETER INFORMATION
#MNEM.UNIT    VALUE                      DESCRIPTION
#---- -----   --------------------       ------------------------
U-PHASE_B_COMP_PER_YT.                 0 :Phase B Comparator Period Yt
U-PHASE_A_COMP_PER_XT.                 0 :Phase A Comparator Period Xt
U-MAX_EXC_CUR_LIMIT.MA       240.00000   :Requested CM Current Limit
U-REQ_EXC_FQ.HZ              50          :Requested CM Frequency
U-TILT_Y_OFFSET.           0.19916       :WPTET Tilt Y Offset
U-TILT_Y_GAIN.           1.01796         :WPTET Tilt Y Gain
U-TILT_X_OFFSET.          -1.77103       :WPTET Tilt X Offset
U-TILT_X_GAIN.           1.00000         :WPTET Tilt X Gain
U-TILT_OFFSET_TOL.           0.00100     :WPTET Tilt Offset Calibration Tolerance
U-NO_TILT_CAL_ROTATIONS.                 3 :Number of Rotations for Tilt Calibration
HAZI .DEG        0.00000                 :Hole Azimuth
U-STD_TOL_TILT.           0.01000        :Tilt Standard Deviation Tolerance
U-GUN_POS_TOL.DEG        5.00000         :Gun Position Tolerance
ROT_ANGLE_THRESHOLD.DEG        5.00000   :Rotation Stop Angle Tolerance
STOP_ROT_ANGLE.DEG       11.00000        :Rotation Stop Angle
WITN .                                   :Witness's Name
ENGI .                                   :Engineer's Name
COUN .        HARRIS                     :County or Rig Name
FN   .        WILDCAT                    :Field Name
WN   .        WPP TEST 2                 :Well Name
CN   .        SHELL INTERNATIONAL E P    :Company Name
CLAB .        County                     :County/Rig Label
SLAB .        State                      :State/Province Label
RUN  .          1                        :RUN NUMBER
PDAT .        GROUND LEVEL               :Permanent Datum
EPD  .                                   :Elevation of Permanent Datum above Mean Sea Level
LMF  .                                   :Logging Measured From (Name of Logging Elevation Reference)
APD  .                                   :Elevation of Depth Reference (LMF) above Permanent Datum
#-----------------------------------------------------------------------------
~CURVE INFORMATION
#MNEM.UNIT   API CODE                                  DESCRIPTION
#---- -----  --------                                  -----------------------
TIME .S                                                :TIME {F10.1}
FREQ_EMF_SL.HZ                                         :Electromagnetic Field Frequency {F13.4}
PH_SH_WPPCM_SL.DEG                                     :WPPCM Phase Shift {F13.4}
FREQ_EXC_REQ_SL.HZ                                     :Requested Exciter Frequency {F13.4}
RB_SL.DEG                                              :Relative Bearing {F13.4}
SDEV_SL.DEG                                            :Sonde Deviation {F13.4}
TILX_SL.DEG                                            :X-axis Tilt {F13.4}
TILY_SL.DEG                                            :Y-axis Tilt {F13.4}
ROTA_SL.DEG                                            :Motor Rotation Angle {F13.4}
MSPE_SL.RPM                                            :Motor Speed {F13.4}
#-----------------------------------------------------------------------------
# 
#     TIME    FREQ_EMF_SL  PH_SH_WPPCM_ FREQ_EXC_REQ    RB_SL       SDEV_SL      TILX_SL      TILY_SL      ROTA_SL      MSPE_SL
#                          SL           _SL
~A  
    2513.0    1627.3608       0.0000      50.8535     -62.8233       0.9070 9999999.9999      -0.4141      47.8404       1.0224
    2514.0    1646.1963       0.0000      50.8611     -68.6539       1.0391      -0.9677      -0.3782      51.2609       1.0226
    2515.0    1638.5238       0.0000      50.8611     -68.5170       1.0455      -0.9726      -0.3832      57.3631       1.0133
    2516.0    1617.2845       0.0000      50.8611     -68.0522       1.0390      -0.9628      -0.3881      63.4782       1.0226
    2517.0    1604.8648       0.0000      50.8611     -60.4063       1.0780      -0.9373      -0.5319      69.5800       1.0226
    2518.0    1593.0815       0.0000      50.8611     -66.0454       1.0203      -0.9324      -0.4142      75.6845       1.0226
    2519.0    1571.7151       0.0000      50.8611     -63.0712       1.0169      -0.9068      -0.4600      81.7862       1.0226
    2520.0    1541.1244       0.0000      50.8611     -63.7448       1.0397      -0.9324      -0.4600      87.8761       1.0226
    2521.0    1519.9398       0.0000      50.8611     -63.0838       1.0961      -0.9774      -0.4959      93.9782       1.0226
    2522.0    1492.0690       0.0000      50.8611     -62.0675       1.1353      -1.0030      -0.5319     100.0804       1.0226
    2523.0    1467.5311       0.0000      50.8611     -63.5754       1.1256      -1.0079      -0.5009     106.1699       1.0226
    2524.0    1443.0726       0.0000      50.8611     -60.2747       1.1550      -1.0030      -0.5728     112.2717       1.0226
    2525.0    1414.0509       0.0000      50.8611     -65.2637       1.1321      -1.0273      -0.4749     118.7784       1.0226
    2526.0    1383.1191       0.0000      50.8611     -60.2046       1.1105      -0.9628      -0.5517     124.8802       1.0226
    2527.0    1354.4529       0.0000      50.8611     -60.4027       1.1703      -1.0176      -0.5777     130.9820       1.0226
    2528.0    1325.4460       0.0000      50.8611     -61.0053       1.1483      -1.0030      -0.5567     137.0839       1.0226
    2529.0    1292.8913       0.0000      50.8611     -57.8786       1.3198      -1.1198      -0.6954     143.1763       1.0226
    2530.0    1220.7915       0.0000      50.8611     -56.0908       1.1177      -0.9275      -0.6236     149.2782       1.0226
    2531.0    1142.4930       0.0000      50.8611     -56.2405       1.2668      -1.0541      -0.7004     155.3785       1.0239
    2532.0    1063.1465       0.0000      50.8611     -55.0535       1.0886      -0.8922      -0.6236     161.4959       1.0226
    2533.0    1013.3257       0.0000      50.8611     -64.0661       1.3333      -1.1990      -0.5827     167.5985       1.0226
    2534.0     990.1480       0.0000      50.8611     -55.1283       1.0994      -0.9020      -0.6285     173.6997       1.0226
    2535.0     974.0711       0.0000      50.8611     -52.9429       1.1623      -0.9275      -0.7004     179.8004       1.0213
    2536.0     952.5876       0.0000      50.8611     -50.6372       1.0630      -0.8216      -0.6744     185.8915       1.0226
    2537.0     933.6148       0.0000      50.8611     -49.3281       1.0830      -0.8216      -0.7053     192.3737       1.0133
    2538.0     921.0893       0.0000      50.8611     -50.1760       1.1163      -0.8569      -0.7153     198.4886       1.0226
    2539.0     918.2504       0.0000      50.8611     -52.6781       1.0975      -0.8727      -0.6644     204.5905       1.0226
    2540.0     909.0024       0.0000      50.8611     -48.2829       1.1082      -0.8277      -0.7363     210.6932       1.0226
    2541.0     905.4906       0.0000      50.8611     -48.5064       1.0438      -0.7815      -0.6905     216.7943       1.0226
    2542.0     905.0642       0.0000      50.8611     -47.8015       1.0353      -0.7669      -0.6954     222.9014       1.0334
    2543.0     909.0377       0.0000      50.8611     -46.8011       0.9126      -0.6658      -0.6236     229.0148       1.0226
    2544.0     912.3969       0.0000      50.8611     -48.4804       1.1116      -0.8326      -0.7363     235.1271       1.0321
    2545.0     919.9986       0.0000      50.8611     -51.1705       1.0624      -0.8277      -0.6644     241.2333       1.0321
    2546.0     932.5266       0.0000      50.8611     -45.0936       0.9706      -0.6865      -0.6855     247.3467       1.0226
    2547.0     947.1452       0.0000      50.8611     -50.7036       0.9848      -0.7620      -0.6236     253.4490       1.0226
    2548.0     962.3479       0.0000      50.8611     -48.1398       0.9347      -0.6963      -0.6236     259.5385       1.0213
    2549.0     980.1154       0.0000      50.8611     -44.8083       0.9374      -0.6610      -0.6644     266.0330       1.0226
    2550.0    1002.2985       0.0000      50.8611     -47.9543       0.9311      -0.6914      -0.6236     272.1348       1.0226
    2551.0    1028.8784       0.0000      50.8611     -46.7458       0.8881      -0.6464      -0.6087     278.2366       1.0226
    2552.0    1071.0003       0.0000      50.8611     -47.8280       0.9675      -0.7170      -0.6496     284.3411       1.0226
    2553.0    1138.8592       0.0000      50.8611     -50.1684       0.8942      -0.6865      -0.5728     290.4402       1.0226
    2554.0    1231.3536       0.0000      50.8611     -50.5173       0.8843      -0.6817      -0.5628     296.5420       1.0226
    2555.0    1280.3421       0.0000      50.8611     -53.2374       0.7909      -0.6336      -0.4730     302.6465       1.0226
    2556.0    1313.6009       0.0000      50.8611     -56.1083       0.8333      -0.6914      -0.4650     308.7614       1.0226
    2557.0    1347.6109       0.0000      50.8611     -55.2246       0.8323      -0.6817      -0.4749     314.8639       1.0226
    2558.0    1381.0566       0.0000      50.8611     -56.3327       0.8975      -0.7474      -0.4959     320.9551       1.0321
    2559.0    1409.7557       0.0000      50.8611     -57.7823       0.9243      -0.7827      -0.4910     327.0816       1.0226
    2560.0    1428.7078       0.0000      50.8611     -59.8518       0.8349      -0.7218      -0.4191     333.1834       1.0226
    2561.0    1459.5025       0.0000      50.8611     -60.6242       0.8450      -0.7364      -0.4142     339.6905       1.0226
    2562.0    1489.6716       0.0000      50.8611     -57.0687       0.8185      -0.6865      -0.4451     345.7804       1.0226
    2563.0    1524.8166       0.0000      50.8611     -61.6075       0.8606      -0.7571      -0.4092     351.8819       1.0226
    2564.0    1546.5732       0.0000      50.8611     -58.0954       0.9391      -0.7973      -0.4959     357.9837       1.0226
    2565.0    1569.4755       0.0000      50.8611     -62.1201       0.8286      -0.7316      -0.3881       4.0855       1.0226
    2566.0    1589.9118       0.0000      50.8611     -54.5985       0.7630      -0.6208      -0.4402      10.1881       1.0226
    2567.0    1605.7536       0.0000      50.8611     -62.2986       0.9120      -0.8070      -0.4241      16.2942       1.0297
    2568.0    1620.1036       0.0000      50.8611     -62.3727       0.9727      -0.8618      -0.4501      22.4180       1.0226
    2569.0    1638.9860       0.0000      50.8611     -66.9415       0.9538      -0.8776      -0.3733      28.5210       1.0133
    2570.0    1641.8889       0.0000      50.8611     -64.8583       1.0475      -0.9482      -0.4451      34.6119       1.0226
    2571.0    1643.2818       0.0000      50.8611     -64.4478       0.9499      -0.8569      -0.4092      40.7137       1.0226
    2572.0    1640.3855       0.0000      50.8611     -59.8764       0.8979      -0.7766      -0.4501      46.8156       1.0226
    2573.0    1638.5238       0.0000      50.8611     -59.6583       0.9427      -0.8119      -0.4761      52.9669       1.0226
    2574.0    1638.5238       0.0000      50.8611     -63.7638       1.0750      -0.9628      -0.4761      59.4245       1.0226
    2575.0    1630.9226       0.0000      50.8611     -64.5778       1.0715      -0.9677      -0.4600      65.5263       1.0226
