~VERSION INFORMATION
VERS.           2.0   :CWLS Log ASCII Standard - VERSION 2.0
WRAP.           NO    :One Line per depth step
PROD.  Schlumberger   :LAS Producer
PROG.  DLIS to ASCII 19C2-270                          :LAS Program name and version
CREA.        2017/09/16 17:42                          :LAS Creation date {YYYY/MM/DD hh:mm}
DLIS_CREA.  2017-Sep-15 16:01                          :DLIS Creation date and time {YYYY-MMM-DD hh:mm}
SOURCE.     LPC_S3-1_A5.DLIS                           :DLIS File Name
FILE-ID.     PERFO_Perfo_WPGRT_038LTP                  :File Identification Number
#--------------------------------------------------
~WELL INFORMATION
#MNEM.UNIT      DATA             DESCRIPTION
#---- ------ --------------   -----------------------------
STRT .S         1883.0       :START TIME      
STOP .S         2380.0       :STOP TIME      
STEP .S            1.0       :STEP     
NULL .          -999.25      :NULL VALUE
COMP .        SHELL INTERNATIONAL E P                  :COMPANY
WELL .        WPP TEST 2                               :WELL
FLD  .        WILDCAT                                  :FIELD
LOC  .                                                 :LOCATION
CNTY .        HARRIS                                   :COUNTY
STAT .        TEXAS                                    :STATE
CTRY .                                                 :COUNTRY
API  .                                                 :API NUMBER
UWI  .                                                 :UNIQUE WELL ID
DATE .                                                 :LOG DATE
SRVC .        Schlumberger                             :SERVICE COMPANY
LATI .DEG                                              :LATITUDE
LONG .DEG                                              :LONGITUDE
GDAT .                                                 :GeoDetic Datum
#-----------------------------------------------------------------------------
~PARAMETER INFORMATION
#MNEM.UNIT    VALUE                      DESCRIPTION
#---- -----   --------------------       ------------------------
U-PHASE_B_COMP_PER_YT.                 0 :Phase B Comparator Period Yt
U-PHASE_A_COMP_PER_XT.                 0 :Phase A Comparator Period Xt
U-MAX_EXC_CUR_LIMIT.MA       240.00000   :Requested CM Current Limit
U-REQ_EXC_FQ.HZ              50          :Requested CM Frequency
U-TILT_Y_OFFSET.           0.19916       :WPTET Tilt Y Offset
U-TILT_Y_GAIN.           1.01796         :WPTET Tilt Y Gain
U-TILT_X_OFFSET.          -1.77103       :WPTET Tilt X Offset
U-TILT_X_GAIN.           1.00000         :WPTET Tilt X Gain
U-TILT_OFFSET_TOL.           0.00100     :WPTET Tilt Offset Calibration Tolerance
U-NO_TILT_CAL_ROTATIONS.                 3 :Number of Rotations for Tilt Calibration
HAZI .DEG        0.00000                 :Hole Azimuth
U-STD_TOL_TILT.           0.01000        :Tilt Standard Deviation Tolerance
U-GUN_POS_TOL.DEG        5.00000         :Gun Position Tolerance
ROT_ANGLE_THRESHOLD.DEG        5.00000   :Rotation Stop Angle Tolerance
STOP_ROT_ANGLE.DEG        0.00000        :Rotation Stop Angle
WITN .                                   :Witness's Name
ENGI .                                   :Engineer's Name
COUN .        HARRIS                     :County or Rig Name
FN   .        WILDCAT                    :Field Name
WN   .        WPP TEST 2                 :Well Name
CN   .        SHELL INTERNATIONAL E P    :Company Name
CLAB .        County                     :County/Rig Label
SLAB .        State                      :State/Province Label
RUN  .          1                        :RUN NUMBER
PDAT .        GROUND LEVEL               :Permanent Datum
EPD  .                                   :Elevation of Permanent Datum above Mean Sea Level
LMF  .                                   :Logging Measured From (Name of Logging Elevation Reference)
APD  .                                   :Elevation of Depth Reference (LMF) above Permanent Datum
#-----------------------------------------------------------------------------
~CURVE INFORMATION
#MNEM.UNIT   API CODE                                  DESCRIPTION
#---- -----  --------                                  -----------------------
TIME .S                                                :TIME {F10.1}
FREQ_EMF_SL.HZ                                         :Electromagnetic Field Frequency {F13.4}
PH_SH_WPPCM_SL.DEG                                     :WPPCM Phase Shift {F13.4}
FREQ_EXC_REQ_SL.HZ                                     :Requested Exciter Frequency {F13.4}
RB_SL.DEG                                              :Relative Bearing {F13.4}
SDEV_SL.DEG                                            :Sonde Deviation {F13.4}
TILX_SL.DEG                                            :X-axis Tilt {F13.4}
TILY_SL.DEG                                            :Y-axis Tilt {F13.4}
ROTA_SL.DEG                                            :Motor Rotation Angle {F13.4}
MSPE_SL.RPM                                            :Motor Speed {F13.4}
#-----------------------------------------------------------------------------
# 
#     TIME    FREQ_EMF_SL  PH_SH_WPPCM_ FREQ_EXC_REQ    RB_SL       SDEV_SL      TILX_SL      TILY_SL      ROTA_SL      MSPE_SL
#                          SL           _SL
~A  
# ...
    2198.0    1539.5981       0.0000      50.8611     141.8191       3.5396       2.1871       2.7813      49.0800       1.0226
    2199.0    1548.2144       0.0000      50.8611     148.0058       3.6104       1.9121       3.0613      55.1839       1.0242
    2200.0    1555.0625       0.0000      50.8611     155.8070       3.5741       1.4641       3.2595      61.2967       1.0242
    2201.0    1549.2549       0.0000      50.8611     164.2565       3.4977       0.9481       3.3662      67.3976       1.0137
    2202.0    1548.2144       0.0000      50.8611     169.1602       3.6653       0.6887       3.5991      73.4915       1.0226
    2203.0    1554.8574       0.0000      50.8611     177.2668       3.8315       0.1825       3.8271      79.5906       1.0226
    2204.0    1542.9767       0.0000      50.8611    -176.7434       3.9266      -0.2229       3.9200      85.6932       1.0317
    2205.0    1541.9408       0.0000      50.8611    -167.7901       3.8755      -0.8193       3.7876      91.7970       1.0317
    2206.0    1539.8961       0.0000      50.8611    -160.9421       4.1111      -1.3414       3.8853      97.9229       1.0317
    2207.0    1527.0223       0.0000      50.8611    -155.7947       4.1710      -1.7091       3.8035     104.0247       1.0226
    2208.0    1512.0968       0.0000      50.8611    -149.9577       4.3737      -2.1884       3.7848     110.1291       1.0226
    2209.0    1501.9153       0.0000      50.8611    -142.4510       4.3787      -2.6669       3.4702     116.6363       1.0226
    2210.0    1495.5262       0.0000      50.8611    -138.0482       4.5332      -3.0284       3.3697     122.7381       1.0226
    2211.0    1485.5676       0.0000      50.8611    -131.4461       4.7231      -3.5384       3.1244     128.8407       1.0226
    2212.0    1467.4355       0.0000      50.8611    -127.1756       4.7686      -3.7977       2.8791     134.9425       1.0226
    2213.0    1440.8298       0.0000      50.8611    -121.0092       4.8658      -4.1688       2.5048     141.0444       1.0226
    2214.0    1434.3538       0.0000      50.8611    -115.1784       4.8500      -4.3880       2.0613     147.1463       1.0226
    2215.0    1411.0363       0.0000      50.8611    -109.7249       5.0558      -4.7580       1.7044     153.2482       1.0226
    2216.0    1387.2523       0.0000      50.8611    -103.5286       5.0794      -4.9381       1.1867     159.3501       1.0226
    2217.0    1372.0711       0.0000      50.8611     -99.2582       5.0565      -4.9905       0.8125     165.4520       1.0226
    2218.0    1344.4073       0.0000      50.8611     -93.8568       5.1228      -5.1110       0.3440     171.5565       1.0226
    2219.0    1331.2923       0.0000      50.8611     -89.3528       5.1917      -5.1913      -0.0586     177.6584       1.0226
    2220.0    1288.8598       0.0000      50.8611     -81.8807       5.3257      -5.2717      -0.7510     183.7577       1.0226
    2221.0    1256.1260       0.0000      50.8611     -79.1399       5.3746      -5.2778      -1.0115     189.9223       1.0226
    2222.0    1217.8392       0.0000      50.8611     -73.8597       5.3440      -5.1328      -1.4835     196.3592       1.0242
    2223.0    1182.2053       0.0000      50.8611     -68.5603       5.5390      -5.1546      -2.0213     202.4351       1.0226
    2224.0    1140.3137       0.0000      50.8611     -64.8462       5.5947      -5.0620      -2.3733     208.5501       1.0226
    2225.0    1106.6628       0.0000      50.8611     -58.2388       5.5195      -4.6909      -2.9021     214.6396       1.0210
    2226.0    1079.5646       0.0000      50.8611     -54.5867       5.4971      -4.4779      -3.1821     220.7220       1.0226
    2227.0    1058.0765       0.0000      50.8611     -49.1025       5.3424      -4.0357      -3.4948     226.8195       1.0317
    2228.0    1047.6384       0.0000      50.8611     -44.4529       5.5203      -3.8631      -3.9368     232.9090       1.0226
    2229.0    1033.4193       0.0000      50.8611     -39.5616       5.4441      -3.4642      -4.1946     239.0135       1.0226
    2230.0    1027.7317       0.0000      50.8611     -34.8039       5.3874      -3.0720      -4.4212     245.1117       1.0226
    2231.0    1030.9751       0.0000      50.8611     -29.1322       5.3514      -2.6023      -4.6727     251.2083       1.0226
    2232.0    1029.4656       0.0000      50.8611     -24.7024       5.2486      -2.1911      -4.7670     257.3050       1.0226
    2233.0    1037.0575       0.0000      50.8611     -19.0572       5.2788      -1.7220      -4.9874     263.4716       1.0226
    2234.0    1031.6698       0.0000      50.8611     -13.7044       5.0562      -1.1964      -4.9118     269.9166       1.0210
    2235.0    1042.5072       0.0000      50.8611      -8.5844       5.0630      -0.7546      -5.0061     276.0191       1.0210
    2236.0    1070.8463       0.0000      50.8611      -3.8085       5.0400      -0.3346      -5.0283     282.1269       1.0226
    2237.0    1082.4956       0.0000      50.8611       1.8366       4.9688       0.1597      -4.9652     288.2236       1.0226
    2238.0    1103.9412       0.0000      50.8611       7.3457       4.8389       0.6172      -4.7989     294.3258       1.0226
    2239.0    1130.4262       0.0000      50.8611      12.9456       4.6854       1.0483      -4.5660     300.4253       1.0214
    2240.0    1180.3456       0.0000      50.8611      17.5262       4.6111       1.3865      -4.3962     306.5147       1.0153
    2241.0    1216.6446       0.0000      50.8611      25.0675       4.5766       1.9366      -4.1447     312.6069       1.0226
    2242.0    1252.8249       0.0000      50.8611      28.9221       4.4237       2.1374      -3.8709     318.7122       1.0226
    2243.0    1288.4968       0.0000      50.8611      36.3204       4.1538       2.4587      -3.3456     324.8147       1.0226
    2244.0    1325.8903       0.0000      50.8611      40.5538       4.1653       2.7059      -3.1634     330.8919       1.0226
    2245.0    1345.1944       0.0000      50.8611      47.6842       4.1353       3.0551      -2.7829     337.0068       1.0226
    2246.0    1361.2203       0.0000      50.8611      55.0382       3.9249       3.2158      -2.2479     343.5140       1.0226
    2247.0    1382.2160       0.0000      50.8611      61.0847       3.7342       3.2682      -1.8044     349.6298       1.0226
    2248.0    1405.8220       0.0000      50.8611      66.8569       3.6118       3.3206      -1.4177     355.7448       1.0226
    2249.0    1418.9063       0.0000      50.8611      75.5417       3.4870       3.3764      -0.8702       1.8597       1.0226
    2250.0    1432.9197       0.0000      50.8611      83.0358       3.5454       3.5187      -0.4301       7.9369       1.0226
    2251.0    1453.1963       0.0000      50.8611      90.9332       3.4996       3.4988       0.0559      14.0387       1.0226
    2252.0    1474.0566       0.0000      50.8611      99.1936       3.3737       3.3301       0.5387      20.1307       1.0226
    2253.0    1479.0624       0.0000      50.8611     106.9617       3.3686       3.2219       0.9823      26.2307       1.0210
    2254.0    1495.5262       0.0000      50.8611     112.6616       3.3970       3.1327       1.3059      32.3352       1.0226
    2255.0    1511.6020       0.0000      50.8611     122.3868       3.3735       2.8481       1.8063      38.4371       1.0226
    2256.0    1525.2169       0.0000      50.8611     130.7010       3.3258       2.5207       2.1680      44.5390       1.0301
    2257.0    1531.0942       0.0000      50.8611     137.2421       3.3687       2.2858       2.4729      50.6415       1.0226
    2258.0    1542.4576       0.0000      50.8611     146.1684       3.4970       1.9461       2.9040      57.1492       1.0210
    2259.0    1558.5095       0.0000      50.8611     154.0696       3.5479       1.5506       3.1902      63.2514       1.0226
    2260.0    1552.1523       0.0000      50.8611     160.5963       3.5433       1.1768       3.3413      69.3286       1.0137
