~VERSION INFORMATION
VERS.           2.0   :CWLS Log ASCII Standard - VERSION 2.0
WRAP.           NO    :One Line per depth step
PROD.  Schlumberger   :LAS Producer
PROG.  DLIS to ASCII 19C2-270                          :LAS Program name and version
CREA.        2017/09/16 17:42                          :LAS Creation date {YYYY/MM/DD hh:mm}
DLIS_CREA.  2017-Sep-15 16:20                          :DLIS Creation date and time {YYYY-MMM-DD hh:mm}
SOURCE.     LPC_S3-1_BV.DLIS                           :DLIS File Name
FILE-ID.     PERFO_Perfo_WPGRT_040LTP                  :File Identification Number
#--------------------------------------------------
~WELL INFORMATION
#MNEM.UNIT      DATA             DESCRIPTION
#---- ------ --------------   -----------------------------
STRT .S         2992.0       :START TIME      
STOP .S         3401.0       :STOP TIME      
STEP .S            1.0       :STEP     
NULL .          -999.25      :NULL VALUE
COMP .        SHELL INTERNATIONAL E P                  :COMPANY
WELL .        WPP TEST 2                               :WELL
FLD  .        WILDCAT                                  :FIELD
LOC  .                                                 :LOCATION
CNTY .        HARRIS                                   :COUNTY
STAT .        TEXAS                                    :STATE
CTRY .                                                 :COUNTRY
API  .                                                 :API NUMBER
UWI  .                                                 :UNIQUE WELL ID
DATE .                                                 :LOG DATE
SRVC .        Schlumberger                             :SERVICE COMPANY
LATI .DEG                                              :LATITUDE
LONG .DEG                                              :LONGITUDE
GDAT .                                                 :GeoDetic Datum
#-----------------------------------------------------------------------------
~PARAMETER INFORMATION
#MNEM.UNIT    VALUE                      DESCRIPTION
#---- -----   --------------------       ------------------------
U-PHASE_B_COMP_PER_YT.                 0 :Phase B Comparator Period Yt
U-PHASE_A_COMP_PER_XT.                 0 :Phase A Comparator Period Xt
U-MAX_EXC_CUR_LIMIT.MA       240.00000   :Requested CM Current Limit
U-REQ_EXC_FQ.HZ              50          :Requested CM Frequency
U-TILT_Y_OFFSET.           0.19916       :WPTET Tilt Y Offset
U-TILT_Y_GAIN.           1.01796         :WPTET Tilt Y Gain
U-TILT_X_OFFSET.          -1.77103       :WPTET Tilt X Offset
U-TILT_X_GAIN.           1.00000         :WPTET Tilt X Gain
U-TILT_OFFSET_TOL.           0.00100     :WPTET Tilt Offset Calibration Tolerance
U-NO_TILT_CAL_ROTATIONS.                 3 :Number of Rotations for Tilt Calibration
HAZI .DEG        0.00000                 :Hole Azimuth
U-STD_TOL_TILT.           0.01000        :Tilt Standard Deviation Tolerance
U-GUN_POS_TOL.DEG        5.00000         :Gun Position Tolerance
ROT_ANGLE_THRESHOLD.DEG        5.00000   :Rotation Stop Angle Tolerance
STOP_ROT_ANGLE.DEG        0.00000        :Rotation Stop Angle
WITN .                                   :Witness's Name
ENGI .                                   :Engineer's Name
COUN .        HARRIS                     :County or Rig Name
FN   .        WILDCAT                    :Field Name
WN   .        WPP TEST 2                 :Well Name
CN   .        SHELL INTERNATIONAL E P    :Company Name
CLAB .        County                     :County/Rig Label
SLAB .        State                      :State/Province Label
RUN  .          1                        :RUN NUMBER
PDAT .        GROUND LEVEL               :Permanent Datum
EPD  .                                   :Elevation of Permanent Datum above Mean Sea Level
LMF  .                                   :Logging Measured From (Name of Logging Elevation Reference)
APD  .                                   :Elevation of Depth Reference (LMF) above Permanent Datum
#-----------------------------------------------------------------------------
~CURVE INFORMATION
#MNEM.UNIT   API CODE                                  DESCRIPTION
#---- -----  --------                                  -----------------------
TIME .S                                                :TIME {F10.1}
FREQ_EMF_SL.HZ                                         :Electromagnetic Field Frequency {F13.4}
PH_SH_WPPCM_SL.DEG                                     :WPPCM Phase Shift {F13.4}
FREQ_EXC_REQ_SL.HZ                                     :Requested Exciter Frequency {F13.4}
RB_SL.DEG                                              :Relative Bearing {F13.4}
SDEV_SL.DEG                                            :Sonde Deviation {F13.4}
TILX_SL.DEG                                            :X-axis Tilt {F13.4}
TILY_SL.DEG                                            :Y-axis Tilt {F13.4}
ROTA_SL.DEG                                            :Motor Rotation Angle {F13.4}
MSPE_SL.RPM                                            :Motor Speed {F13.4}
#-----------------------------------------------------------------------------
# 
#     TIME    FREQ_EMF_SL  PH_SH_WPPCM_ FREQ_EXC_REQ    RB_SL       SDEV_SL      TILX_SL      TILY_SL      ROTA_SL      MSPE_SL
#                          SL           _SL
~A  
# ...
    3244.0    1188.2412       0.0000      50.8611     -56.3617       0.8749      -0.7267      -0.4853      89.0367       1.0307
    3245.0    1242.9120       0.0000      50.8611     -53.3157       0.8950      -0.7162      -0.5362       6.4932       1.0146
    3246.0    1286.6781       0.0000      50.8611     -55.4158       0.9312      -0.7675      -0.5268      12.5789       1.0307
    3247.0    1318.5755       0.0000      50.8611     -52.6397       0.9523      -0.7570      -0.5777      19.0925       1.0146
    3248.0    1351.5244       0.0000      50.8611     -56.4235       0.9209      -0.7675      -0.5060      25.1988       1.0307
    3249.0    1379.3919       0.0000      50.8611     -53.6190       0.8530      -0.6865      -0.5060      31.3302       1.0280
    3250.0    1397.9209       0.0000      50.8611     -64.7801       0.8496      -0.7669      -0.3626      37.4360       1.0200
    3251.0    1414.0389       0.0000      50.8611     -60.5298       0.8383      -0.7267      -0.4135      43.5378       1.0307
    3252.0    1439.3376       0.0000      50.8611     -58.2532       0.9252      -0.7866      -0.4859      49.6406       1.0146
    3253.0    1466.5860       0.0000      50.8611     -63.0530       0.8971      -0.7996      -0.4066      55.7301       1.0226
    3254.0    1485.7499       0.0000      50.8611     -71.9604       0.9030      -0.8571      -0.2808      61.8319       1.0226
    3255.0    1506.4166       0.0000      50.8611     -54.1021       0.7592      -0.6155      -0.4444      67.9337       1.0226
    3256.0    1523.5945       0.0000      50.8611     -65.1728       0.9890      -0.8979      -0.4142      74.0355       1.0226
    3257.0    1540.2827       0.0000      50.8611     -65.7678       0.8948      -0.8163      -0.3632      80.1373       1.0226
    3258.0    1559.0355       0.0000      50.8611     -68.1748       1.0319      -0.9578      -0.3833      86.2521       1.0226
    3259.0    1573.8551       0.0000      50.8611     -70.5163       1.0266      -0.9677      -0.3425      92.7619       1.0226
    3260.0    1588.1398       0.0000      50.8611     -61.6274       1.0305      -0.8972      -0.4947      98.8637       1.0226
    3261.0    1590.7806       0.0000      50.8611     -53.3820       0.8789      -0.7057      -0.5167     104.9655       1.0226
    3262.0    1595.2800       0.0000      50.8611     -63.6681       0.9799      -0.8775      -0.4343     111.0549       1.0226
    3263.0    1604.4078       0.0000      50.8611     -62.8688       1.0429      -0.9275      -0.4758     117.1666       1.0307
    3264.0    1603.4566       0.0000      50.8611     -64.1859       0.9749      -0.8775      -0.4242     123.2716       1.0226
    3265.0    1593.0089       0.0000      50.8611     -60.4461       1.0133      -0.8818      -0.4985     129.3833       1.0307
    3266.0    1581.8128       0.0000      50.8611     -59.9382       1.0717      -0.9275      -0.5368     135.4983       1.0307
    3267.0    1583.6149       0.0000      50.8611     -66.8997       1.1608      -1.0678      -0.4551     141.6041       1.0226
    3268.0    1568.6147       0.0000      50.8611     -62.4002       1.0921      -0.9677      -0.5060     147.6936       1.0226
    3269.0    1554.7406       0.0000      50.8611     -56.7502       1.0368      -0.8670      -0.5676     153.7948       1.0226
    3270.0    1542.7753       0.0000      50.8611     -63.6803       0.9786      -0.8769      -0.4343     159.9013       1.0226
    3271.0    1534.3838       0.0000      50.8611     -64.9273       1.1463      -1.0381      -0.4859     166.2938       1.0226
    3272.0    1511.2978       0.0000      50.8611     -58.0328       1.1296      -0.9578      -0.5985     172.4985       1.0226
    3273.0    1494.4020       0.0000      50.8611     -59.2678       1.0090      -0.8670      -0.5161     178.5988       1.0252
    3274.0    1479.4604       0.0000      50.8611     -63.2348       1.1293      -1.0085      -0.5060     184.6768       1.0226
    3275.0    1464.0938       0.0000      50.8611     -61.6722       1.1111      -0.9782      -0.5268     190.7779       1.0226
    3276.0    1438.6620       0.0000      50.8611     -59.9971       1.0939      -0.9473      -0.5469     196.8675       1.0226
    3277.0    1414.5355       0.0000      50.8611     -54.0695       1.1644      -0.9424      -0.6828     202.9793       1.0246
    3278.0    1387.4924       0.0000      50.8611     -61.4404       1.0797      -0.9479      -0.5167     209.0844       1.0226
    3279.0    1365.2913       0.0000      50.8611     -61.3033       1.1548      -1.0079      -0.5564     215.1863       1.0226
    3280.0    1334.8276       0.0000      50.8611     -54.4671       1.1520      -0.9374      -0.6696     221.2882       1.0226
    3281.0    1296.0683       0.0000      50.8611     -59.2599       1.0914      -0.9374      -0.5576     227.3909       1.0226
    3282.0    1256.6789       0.0000      50.8611     -58.7512       1.0742      -0.9176      -0.5570     233.4796       1.0226
    3283.0    1196.2774       0.0000      50.8611     -52.9302       1.2130      -0.9677      -0.7312     239.8891       1.0226
    3284.0    1154.0668       0.0000      50.8611     -54.7543       1.0992      -0.8966      -0.6293     246.0915       1.0226
    3285.0    1116.0519       0.0000      50.8611     -55.3746       1.1406      -0.9374      -0.6488     252.1811       1.0226
    3286.0    1077.9849       0.0000      50.8611     -53.0008       1.1129      -0.8874      -0.6702     258.2829       1.0226
    3287.0    1043.9767       0.0000      50.8611     -52.3859       1.0172      -0.8064      -0.6186     264.3724       1.0226
    3288.0    1017.1849       0.0000      50.8611     -53.6865       1.0644      -0.8577      -0.6287     270.4742       1.0226
    3289.0    1000.6976       0.0000      50.8611     -53.6292       1.0182      -0.8198      -0.6032     276.5760       1.0226
    3290.0     990.6609       0.0000      50.8611     -48.4245       0.9685      -0.7156      -0.6299     282.6778       1.0226
    3291.0     980.9738       0.0000      50.8611     -56.5369       1.1240      -0.9380      -0.6186     288.7796       1.0226
    3292.0     980.3122       0.0000      50.8611     -53.7763       1.0889      -0.8781      -0.6387     294.8846       1.0226
    3293.0     974.2130       0.0000      50.8611     -51.5125       1.0439      -0.8169      -0.6494     300.9856       1.0226
    3294.0     971.8497       0.0000      50.8611     -54.2234       0.9556      -0.7761      -0.5570     307.0965       1.0252
    3295.0     979.9564       0.0000      50.8611     -51.6780       0.9483      -0.7273      -0.5866     313.2023       1.0226
    3296.0     980.9858       0.0000      50.8611     -54.0587       0.9845      -0.7971      -0.5777     319.6868       1.0226
    3297.0     991.1034       0.0000      50.8611     -48.8993       0.9749      -0.7360      -0.6387     325.8016       1.0226
    3298.0     994.8901       0.0000      50.8611     -47.4514       0.9170      -0.6760      -0.6186     331.9042       1.0226
    3299.0    1011.6906       0.0000      50.8611     -50.2163       0.9988      -0.7669      -0.6394     338.0184       1.0226
    3300.0    1027.9896       0.0000      50.8611     -48.1139       0.8969      -0.6667      -0.5979     344.1202       1.0226
    3301.0    1064.4169       0.0000      50.8611     -54.0988       0.8195      -0.6638      -0.4805     350.2097       1.0226
    3302.0    1108.2136       0.0000      50.8611     -49.5934       0.9544      -0.7267      -0.6186     356.3138       1.0146
    3303.0    1154.0906       0.0000      50.8611     -52.0935       0.9581      -0.7564      -0.5878       2.4141       1.0146
    3304.0    1213.9102       0.0000      50.8611     -55.0275       0.8996      -0.7366      -0.5161       8.5037       1.0226
    3305.0    1270.4045       0.0000      50.8611     -54.9418       0.8277      -0.6766      -0.4752      14.6055       1.0226
    3306.0    1311.8506       0.0000      50.8611     -54.6465       0.9281      -0.7570      -0.5368      20.7111       1.0200
