~VERSION INFORMATION
VERS.           2.0   :CWLS Log ASCII Standard - VERSION 2.0
WRAP.           NO    :One Line per depth step
PROD.  Schlumberger   :LAS Producer
PROG.  DLIS to ASCII 19C2-270                          :LAS Program name and version
CREA.        2017/09/16 17:42                          :LAS Creation date {YYYY/MM/DD hh:mm}
DLIS_CREA.  2017-Sep-15 14:39                          :DLIS Creation date and time {YYYY-MMM-DD hh:mm}
SOURCE.     LPC_S2-1_B5.DLIS                           :DLIS File Name
FILE-ID.     PERFO_Perfo_WPGRT_030LTP                  :File Identification Number
#--------------------------------------------------
~WELL INFORMATION
#MNEM.UNIT      DATA             DESCRIPTION
#---- ------ --------------   -----------------------------
STRT .S        13946.0       :START TIME      
STOP .S        14402.0       :STOP TIME      
STEP .S            1.0       :STEP     
NULL .          -999.25      :NULL VALUE
COMP .        SHELL INTERNATIONAL E P                  :COMPANY
WELL .        WPP TEST 2                               :WELL
FLD  .        WILDCAT                                  :FIELD
LOC  .                                                 :LOCATION
CNTY .        HARRIS                                   :COUNTY
STAT .        TEXAS                                    :STATE
CTRY .                                                 :COUNTRY
API  .                                                 :API NUMBER
UWI  .                                                 :UNIQUE WELL ID
DATE .                                                 :LOG DATE
SRVC .        Schlumberger                             :SERVICE COMPANY
LATI .DEG                                              :LATITUDE
LONG .DEG                                              :LONGITUDE
GDAT .                                                 :GeoDetic Datum
#-----------------------------------------------------------------------------
~PARAMETER INFORMATION
#MNEM.UNIT    VALUE                      DESCRIPTION
#---- -----   --------------------       ------------------------
U-PHASE_B_COMP_PER_YT.                 0 :Phase B Comparator Period Yt
U-PHASE_A_COMP_PER_XT.                 0 :Phase A Comparator Period Xt
U-MAX_EXC_CUR_LIMIT.MA       240.00000   :Requested CM Current Limit
U-REQ_EXC_FQ.HZ              50          :Requested CM Frequency
U-TILT_Y_OFFSET.           0.19916       :WPTET Tilt Y Offset
U-TILT_Y_GAIN.           1.01796         :WPTET Tilt Y Gain
U-TILT_X_OFFSET.          -1.77103       :WPTET Tilt X Offset
U-TILT_X_GAIN.           1.00000         :WPTET Tilt X Gain
U-TILT_OFFSET_TOL.           0.00100     :WPTET Tilt Offset Calibration Tolerance
U-NO_TILT_CAL_ROTATIONS.                 3 :Number of Rotations for Tilt Calibration
HAZI .DEG        0.00000                 :Hole Azimuth
U-STD_TOL_TILT.           0.01000        :Tilt Standard Deviation Tolerance
U-GUN_POS_TOL.DEG        5.00000         :Gun Position Tolerance
ROT_ANGLE_THRESHOLD.DEG        5.00000   :Rotation Stop Angle Tolerance
STOP_ROT_ANGLE.DEG       80.00000        :Rotation Stop Angle
WITN .                                   :Witness's Name
ENGI .                                   :Engineer's Name
COUN .        HARRIS                     :County or Rig Name
FN   .        WILDCAT                    :Field Name
WN   .        WPP TEST 2                 :Well Name
CN   .        SHELL INTERNATIONAL E P    :Company Name
CLAB .        County                     :County/Rig Label
SLAB .        State                      :State/Province Label
RUN  .          1                        :RUN NUMBER
PDAT .        GROUND LEVEL               :Permanent Datum
EPD  .                                   :Elevation of Permanent Datum above Mean Sea Level
LMF  .                                   :Logging Measured From (Name of Logging Elevation Reference)
APD  .                                   :Elevation of Depth Reference (LMF) above Permanent Datum
#-----------------------------------------------------------------------------
~CURVE INFORMATION
#MNEM.UNIT   API CODE                                  DESCRIPTION
#---- -----  --------                                  -----------------------
TIME .S                                                :TIME {F10.1}
FREQ_EMF_SL.HZ                                         :Electromagnetic Field Frequency {F13.4}
PH_SH_WPPCM_SL.DEG                                     :WPPCM Phase Shift {F13.4}
FREQ_EXC_REQ_SL.HZ                                     :Requested Exciter Frequency {F13.4}
RB_SL.DEG                                              :Relative Bearing {F13.4}
SDEV_SL.DEG                                            :Sonde Deviation {F13.4}
TILX_SL.DEG                                            :X-axis Tilt {F13.4}
TILY_SL.DEG                                            :Y-axis Tilt {F13.4}
ROTA_SL.DEG                                            :Motor Rotation Angle {F13.4}
MSPE_SL.RPM                                            :Motor Speed {F13.4}
#-----------------------------------------------------------------------------
# 
#     TIME    FREQ_EMF_SL  PH_SH_WPPCM_ FREQ_EXC_REQ    RB_SL       SDEV_SL      TILX_SL      TILY_SL      ROTA_SL      MSPE_SL
#                          SL           _SL
~A  
# ...
   14198.0    1586.6534       0.0000      50.8611     177.6027       3.4611       0.1449       3.4579     121.8071       1.0226
   14199.0    1581.1263       0.0000      50.8611    -175.2931       3.3999      -0.2788       3.3884     127.9243       1.0226
   14200.0    1570.0021       0.0000      50.8611    -168.0696       3.5176      -0.7267       3.4416     134.0293       1.0226
   14201.0    1563.0220       0.0000      50.8611    -162.6631       3.7151      -1.1063       3.5458     140.1212       1.0049
   14202.0    1546.3530       0.0000      50.8611    -154.5043       3.6673      -1.5777       3.3097     146.2294       1.0226
   14203.0    1524.4132       0.0000      50.8611    -148.9095       3.9648      -2.0462       3.3946     152.3335       1.0226
   14204.0    1516.3396       0.0000      50.8611    -141.7853       3.9943      -2.4699       3.1370     158.4384       1.0226
   14205.0    1498.2455       0.0000      50.8611    -137.9990       3.9090      -2.6145       2.9039     164.5257       1.0226
   14206.0    1477.6198       0.0000      50.8611    -131.3784       4.2437      -3.1829       2.8037     170.6175       1.0226
   14207.0    1449.4719       0.0000      50.8611    -125.8262       4.0266      -3.2632       2.3560     176.7215       1.0226
   14208.0    1432.9050       0.0000      50.8611    -120.4370       4.4569      -3.8416       2.2558     183.1532       1.0226
   14209.0    1422.8987       0.0000      50.8611    -114.1824       4.4827      -4.0886       1.8347     189.3320       1.0226
   14210.0    1389.9878       0.0000      50.8611    -110.3049       4.5015      -4.2212       1.5607     195.4314       1.0226
   14211.0    1365.4563       0.0000      50.8611    -104.4407       4.7388      -4.5887       1.1805     201.5354       1.0226
   14212.0    1360.0098       0.0000      50.8611    -100.2282       4.6856      -4.6108       0.8309     207.6361       1.0226
   14213.0    1328.7826       0.0000      50.8611     -93.5466       4.7465      -4.7373       0.2932     213.7355       1.0226
   14214.0    1301.2743       0.0000      50.8611     -88.4113       4.7365      -4.7338      -0.1320     219.8299       1.0210
   14215.0    1275.1719       0.0000      50.8611     -83.2421       4.9956      -4.9603      -0.5879     225.9330       1.0136
   14216.0    1224.1110       0.0000      50.8611     -78.9515       4.8456      -4.7554      -0.9273     232.0205       1.0226
   14217.0    1174.5519       0.0000      50.8611     -74.4916       4.9648      -4.7835      -1.3260     238.1246       1.0226
   14218.0    1137.8535       0.0000      50.8611     -67.3588       4.9053      -4.5265      -1.8861     244.2161       1.0136
   14219.0    1099.2619       0.0000      50.8611     -64.1859       5.1103      -4.5988      -2.2235     250.3299       1.0242
   14220.0    1073.0717       0.0000      50.8611     -56.9968       5.0185      -4.2051      -2.7305     256.7739       1.0226
   14221.0    1043.4447       0.0000      50.8611     -55.0782       4.9008      -4.0163      -2.8020     262.9139       1.0195
   14222.0    1006.2061       0.0000      50.8611     -48.0697       5.0290      -3.7392      -3.3581     269.0317       1.0226
   14223.0     997.5529       0.0000      50.8611     -46.5479       4.9961      -3.6247      -3.4337     275.1085       1.0302
   14224.0     985.3922       0.0000      50.8611     -40.5494       4.9521      -3.2170      -3.7608     281.2061       1.0226
   14225.0     980.8540       0.0000      50.8611     -37.3290       5.1728      -3.1347      -4.1104     287.3342       1.0317
   14226.0     979.8325       0.0000      50.8611     -30.6712       4.8669      -2.4805      -4.1845     293.4540       1.0226
   14227.0     980.2394       0.0000      50.8611     -23.6205       4.6279      -1.8554      -4.2351     299.5535       1.0226
   14228.0     977.7935       0.0000      50.8611     -21.1065       4.7333      -1.7027      -4.4151     305.6573       1.0226
   14229.0     989.0721       0.0000      50.8611     -14.9099       4.7025      -1.2087      -4.5438     311.7612       1.0136
   14230.0     993.6798       0.0000      50.8611     -10.5276       4.5515      -0.8311      -4.4743     317.8625       1.0226
   14231.0    1021.0522       0.0000      50.8611      -4.7860       4.5250      -0.3772      -4.5091     323.9620       1.0226
   14232.0    1032.2619       0.0000      50.8611       0.3837       4.4908       0.0304      -4.4907     330.0791       1.0226
   14233.0    1081.4815       0.0000      50.8611       4.6028       4.3126       0.3458      -4.2985     336.5765       1.0226
   14234.0    1121.3397       0.0000      50.8611      12.4845       4.2781       0.9242      -4.1759     342.6760       1.0226
   14235.0    1161.8317       0.0000      50.8611      12.8130       4.2347       0.9382      -4.1288     348.7746       1.0226
   14236.0    1212.8187       0.0000      50.8611      20.8227       4.0438       1.4363      -3.7792     354.8773       1.0242
   14237.0    1247.6755       0.0000      50.8611      26.3398       3.8461       1.7054      -3.4460      54.9840       1.0317
   14238.0    1285.0687       0.0000      50.8611      36.5382       3.8487       2.2898      -3.0903       7.0967       1.0226
   14239.0    1314.8813       0.0000      50.8611      42.1262       3.7267       2.4987      -2.7632      13.2007       1.0317
   14240.0    1334.2030       0.0000      50.8611      45.0396       3.5728       2.5268      -2.5240      19.2828       1.0136
   14241.0    1358.8328       0.0000      50.8611      52.5408       3.3439       2.6533      -2.0333      25.3683       1.0226
   14242.0    1378.2718       0.0000      50.8611      58.0288       3.3438       2.8361      -1.7696      31.4555       1.0226
   14243.0    1405.8290       0.0000      50.8611      65.4416       3.2071       2.9164      -1.3321      37.5516       1.0210
   14244.0    1420.8859       0.0000      50.8611      75.4188       3.1610       3.0590      -0.7944      43.6278       1.0226
   14245.0    1443.7886       0.0000      50.8611      81.3565       3.1085       3.0731      -0.4673      50.1433       1.0411
   14246.0    1472.6747       0.0000      50.8611      88.3195       2.9699       2.9686      -0.0871      56.2580       1.0317
   14247.0    1495.0598       0.0000      50.8611     101.0163       2.8332       2.7758       0.5344      62.3772       1.0226
   14248.0    1506.5923       0.0000      50.8611     106.2249       2.9540       2.8361       0.8247      68.4961       1.0259
   14249.0    1531.8628       0.0000      50.8611     115.1391       2.9446       2.6654       1.2500      74.5946       1.0317
   14250.0    1551.1289       0.0000      50.8611     121.4455       2.9692       2.5328       1.5485      80.7013       1.0242
   14251.0    1559.5552       0.0000      50.8611     130.5388       2.9115       2.2115       1.8919      86.8068       1.0242
   14252.0    1572.4599       0.0000      50.8611     141.1741       2.9619       1.8560       2.3069      92.9064       1.0226
   14253.0    1585.5882       0.0000      50.8611     144.8654       3.0866       1.7757       2.5236      99.0061       1.0226
   14254.0    1586.1196       0.0000      50.8611     153.1849       3.0960       1.3961       2.7628     105.1361       1.0242
   14255.0    1586.6534       0.0000      50.8611     160.2700       3.2395       1.0929       3.0490     111.2400       1.0226
   14256.0    1585.2308       0.0000      50.8611     167.6723       3.2111       0.6852       3.1370     117.3527       1.0226
   14257.0    1593.8466       0.0000      50.8611     175.9533       3.2801       0.2313       3.2719     123.8684       1.0242
   14258.0    1585.5882       0.0000      50.8611    -175.9741       3.4890      -0.2447       3.4804     129.9744       1.0226
   14259.0    1577.5786       0.0000      50.8611    -169.5488       3.5995      -0.6524       3.5397     136.0793       1.0226
   14260.0    1563.5463       0.0000      50.8611    -164.4916       3.6440      -0.9737       3.5111     142.1791       1.0226
