~VERSION INFORMATION
VERS.           2.0   :CWLS Log ASCII Standard - VERSION 2.0
WRAP.           NO    :One Line per depth step
PROD.  Schlumberger   :LAS Producer
PROG.  DLIS to ASCII 19C2-270                          :LAS Program name and version
CREA.        2017/09/16 17:42                          :LAS Creation date {YYYY/MM/DD hh:mm}
DLIS_CREA.  2017-Sep-15 15:33                          :DLIS Creation date and time {YYYY-MMM-DD hh:mm}
SOURCE.     LPC_S2-1_2BV.DLIS                          :DLIS File Name
FILE-ID.     PERFO_Perfo_WPGRT_036LTP                  :File Identification Number
#--------------------------------------------------
~WELL INFORMATION
#MNEM.UNIT      DATA             DESCRIPTION
#---- ------ --------------   -----------------------------
STRT .S          212.0       :START TIME      
STOP .S          624.0       :STOP TIME      
STEP .S            1.0       :STEP     
NULL .          -999.25      :NULL VALUE
COMP .        SHELL INTERNATIONAL E P                  :COMPANY
WELL .        WPP TEST 2                               :WELL
FLD  .        WILDCAT                                  :FIELD
LOC  .                                                 :LOCATION
CNTY .        HARRIS                                   :COUNTY
STAT .        TEXAS                                    :STATE
CTRY .                                                 :COUNTRY
API  .                                                 :API NUMBER
UWI  .                                                 :UNIQUE WELL ID
DATE .                                                 :LOG DATE
SRVC .        Schlumberger                             :SERVICE COMPANY
LATI .DEG                                              :LATITUDE
LONG .DEG                                              :LONGITUDE
GDAT .                                                 :GeoDetic Datum
#-----------------------------------------------------------------------------
~PARAMETER INFORMATION
#MNEM.UNIT    VALUE                      DESCRIPTION
#---- -----   --------------------       ------------------------
U-PHASE_B_COMP_PER_YT.                 0 :Phase B Comparator Period Yt
U-PHASE_A_COMP_PER_XT.                 0 :Phase A Comparator Period Xt
U-MAX_EXC_CUR_LIMIT.MA       240.00000   :Requested CM Current Limit
U-REQ_EXC_FQ.HZ              50          :Requested CM Frequency
U-TILT_Y_OFFSET.           0.19916       :WPTET Tilt Y Offset
U-TILT_Y_GAIN.           1.01796         :WPTET Tilt Y Gain
U-TILT_X_OFFSET.          -1.77103       :WPTET Tilt X Offset
U-TILT_X_GAIN.           1.00000         :WPTET Tilt X Gain
U-TILT_OFFSET_TOL.           0.00100     :WPTET Tilt Offset Calibration Tolerance
U-NO_TILT_CAL_ROTATIONS.                 3 :Number of Rotations for Tilt Calibration
HAZI .DEG        0.00000                 :Hole Azimuth
U-STD_TOL_TILT.           0.01000        :Tilt Standard Deviation Tolerance
U-GUN_POS_TOL.DEG        5.00000         :Gun Position Tolerance
ROT_ANGLE_THRESHOLD.DEG        5.00000   :Rotation Stop Angle Tolerance
STOP_ROT_ANGLE.DEG        0.00000        :Rotation Stop Angle
WITN .                                   :Witness's Name
ENGI .                                   :Engineer's Name
COUN .        HARRIS                     :County or Rig Name
FN   .        WILDCAT                    :Field Name
WN   .        WPP TEST 2                 :Well Name
CN   .        SHELL INTERNATIONAL E P    :Company Name
CLAB .        County                     :County/Rig Label
SLAB .        State                      :State/Province Label
RUN  .          1                        :RUN NUMBER
PDAT .        GROUND LEVEL               :Permanent Datum
EPD  .                                   :Elevation of Permanent Datum above Mean Sea Level
LMF  .                                   :Logging Measured From (Name of Logging Elevation Reference)
APD  .                                   :Elevation of Depth Reference (LMF) above Permanent Datum
#-----------------------------------------------------------------------------
~CURVE INFORMATION
#MNEM.UNIT   API CODE                                  DESCRIPTION
#---- -----  --------                                  -----------------------
TIME .S                                                :TIME {F10.1}
FREQ_EMF_SL.HZ                                         :Electromagnetic Field Frequency {F13.4}
PH_SH_WPPCM_SL.DEG                                     :WPPCM Phase Shift {F13.4}
FREQ_EXC_REQ_SL.HZ                                     :Requested Exciter Frequency {F13.4}
RB_SL.DEG                                              :Relative Bearing {F13.4}
SDEV_SL.DEG                                            :Sonde Deviation {F13.4}
TILX_SL.DEG                                            :X-axis Tilt {F13.4}
TILY_SL.DEG                                            :Y-axis Tilt {F13.4}
ROTA_SL.DEG                                            :Motor Rotation Angle {F13.4}
MSPE_SL.RPM                                            :Motor Speed {F13.4}
#-----------------------------------------------------------------------------
# 
#     TIME    FREQ_EMF_SL  PH_SH_WPPCM_ FREQ_EXC_REQ    RB_SL       SDEV_SL      TILX_SL      TILY_SL      ROTA_SL      MSPE_SL
#                          SL           _SL
~A  
# ...
     338.0    1457.8519       0.0000      50.8611     -57.9757       0.8109      -0.6865      -0.4303      30.8072       1.0226
     339.0    1458.7655       0.0000      50.8611     -59.3148       0.8917      -0.7669      -0.4551      36.9221       1.0226
     340.0    1456.6590       0.0000      50.8611     -60.3790       0.8964      -0.7790      -0.4427      43.0240       1.0226
     341.0    1453.6475       0.0000      50.8611     -61.6298       0.9042      -0.7949      -0.4303      49.1258       1.0226
     342.0    1459.9673       0.0000      50.8611     -56.9525       0.9667      -0.8070      -0.5282      55.2276       1.0226
     343.0    1446.7593       0.0000      50.8611     -58.1592       0.9173      -0.7790      -0.4836      61.7374       1.0226
     344.0    1447.6616       0.0000      50.8611     -56.3400       0.8685      -0.7277      -0.4674      67.8371       1.0226
     345.0    1457.8519       0.0000      50.8611     -75.6692       0.7719      -0.7473      -0.1850      73.9410       1.0226
     346.0    1451.2334       0.0000      50.8611     -58.6362       0.9886      -0.8435      -0.5121      80.0406       1.0226
     347.0    1440.8298       0.0000      50.8611     -60.9534       0.9700      -0.8472      -0.4712      86.1556       1.0226
     348.0    1436.3476       0.0000      50.8611     -64.4284       0.9823      -0.8855      -0.4232      92.2472       1.0194
     349.0    1434.6895       0.0000      50.8611     -62.6410       0.9041      -0.8033      -0.4142      98.3489       1.0226
     350.0    1416.7280       0.0000      50.8611     -62.8327       0.9071      -0.8070      -0.4142     104.4507       1.0226
     351.0    1413.8791       0.0000      50.8611     -67.5158       0.9774      -0.9032      -0.3733     110.5525       1.0226
     352.0    1398.4654       0.0000      50.8611     -69.4982       1.0210      -0.9555      -0.3571     116.6543       1.0152
     353.0    1389.5751       0.0000      50.8611     -64.2972       0.9749      -0.8752      -0.4227     122.7569       1.0301
     354.0    1378.6765       0.0000      50.8611     -66.2210       0.9258      -0.8472      -0.3733     128.8474       1.0226
     355.0    1377.8604       0.0000      50.8611     -66.5176       0.9677      -0.8874      -0.3856     135.3552       1.0226
     356.0    1362.4109       0.0000      50.8611     -64.3049       1.0252      -0.9238      -0.4427     141.4701       1.0226
     357.0    1348.5499       0.0000      50.8611     -63.2141       1.1017      -0.9836      -0.4959     147.5597       1.0194
     358.0    1331.9185       0.0000      50.8611     -64.5070       1.0857      -0.9798      -0.4674     153.6646       1.0226
     359.0    1333.4386       0.0000      50.8611     -65.5976       1.0320      -0.9397      -0.4265     159.7927       1.0226
     360.0    1303.7683       0.0000      50.8611     -62.7159       1.0844      -0.9640      -0.4959     165.8860       1.0194
     361.0    1298.3448       0.0000      50.8611     -68.6645       1.1267      -1.0480      -0.4104     171.9718       1.0226
     362.0    1274.8040       0.0000      50.8611     -53.6124       1.1530      -0.9275      -0.6842     178.0613       1.0226
     363.0    1249.3692       0.0000      50.8611     -64.6245       1.1291      -1.0200      -0.4836     184.1510       1.0226
     364.0    1241.6075       0.0000      50.8611     -58.5475       0.9552      -0.8155      -0.4959     190.2529       1.0226
     365.0    1221.3453       0.0000      50.8611     -60.6363       1.2068      -1.0517      -0.5901     196.3548       1.0226
     366.0    1218.3992       0.0000      50.8611     -63.6766       1.2790      -1.1442      -0.5691     202.4567       1.0226
     367.0    1206.0464       0.0000      50.8611     -50.5741       1.3118      -1.0106      -0.8031     208.9543       1.0226
     368.0    1202.9441       0.0000      50.8611     -59.1960       1.1306      -0.9714      -0.5777     215.0540       1.0226
     369.0    1196.4070       0.0000      50.8611     -55.1542       1.1150      -0.9117      -0.6396     221.1581       1.0226
     370.0    1191.5570       0.0000      50.8611     -58.8211       1.2257      -1.0480      -0.6348     227.2924       1.0367
     371.0    1198.4462       0.0000      50.8611     -58.6837       1.2453      -1.0639      -0.6471     233.4013       1.0226
     372.0    1202.7381       0.0000      50.8611     -60.1658       1.1150      -0.9640      -0.5578     239.4878       1.0269
     373.0    1201.1150       0.0000      50.8611     -55.1016       1.1953      -0.9798      -0.6842     245.5937       1.0226
     374.0    1205.8617       0.0000      50.8611     -55.8703       1.1624      -0.9630      -0.6509     251.7001       1.0194
     375.0    1231.3923       0.0000      50.8611     -51.7161       1.1305      -0.8874      -0.7004     257.7951       1.0258
     376.0    1249.9930       0.0000      50.8611     -49.6657       1.1643      -0.8874      -0.7536     263.9009       1.0226
     377.0    1251.1122       0.0000      50.8611     -60.1658       1.1150      -0.9640      -0.5578     270.0295       1.0185
     378.0    1275.3896       0.0000      50.8611     -47.2553       0.9898      -0.7267      -0.6719     276.1068       1.0194
     379.0    1300.6299       0.0000      50.8611     -49.7489       1.1045      -0.8435      -0.7127     282.6389       1.0258
     380.0    1310.3252       0.0000      50.8611     -49.6550       1.1315      -0.8593      -0.7327     288.7709       1.0258
     381.0    1330.9147       0.0000      50.8611     -52.8764       1.1131      -0.8874      -0.6719     294.8728       1.0226
     382.0    1344.6544       0.0000      50.8611     -55.1178       1.0055      -0.8229      -0.5739     300.9877       1.0226
     383.0    1361.0539       0.0000      50.8611     -50.0448       1.0014      -0.7669      -0.6433     307.0895       1.0226
     384.0    1361.6074       0.0000      50.8611     -53.7715       1.0212      -0.8229      -0.6025     313.1913       1.0226
     385.0    1383.0334       0.0000      50.8611     -44.2043       1.0362      -0.7230      -0.7413     319.2939       1.0226
     386.0    1387.9202       0.0000      50.8611     -55.1001       0.8999      -0.7341      -0.5045     325.3957       1.0226
     387.0    1394.2536       0.0000      50.8611     -49.6919       0.9371      -0.7145      -0.6062     331.4975       1.0226
     388.0    1400.3999       0.0000      50.8611     -41.7850       0.9029      -0.6025      -0.6719     337.5961       1.0258
     389.0    1408.8177       0.0000      50.8611     -44.9462       0.9321      -0.6585      -0.6595     343.7019       1.0226
     390.0    1421.5939       0.0000      50.8611     -53.8269       0.9510      -0.7669      -0.5616     349.8006       1.0258
     391.0    1428.2390       0.0000      50.8611     -55.6290       0.8522      -0.7024      -0.4798     356.3123       1.0226
     392.0    1423.0746       0.0000      50.8611     -57.8834       1.0336      -0.8752      -0.5492       2.4293       1.0258
     393.0    1442.6235       0.0000      50.8611     -61.6513       1.1351      -0.9994      -0.5368       8.5443       1.0226
     394.0    1453.9294       0.0000      50.8611     -61.7155       1.0789      -0.9471      -0.5045      14.6461       1.0226
     395.0    1444.6872       0.0000      50.8611     -50.0426       0.7262      -0.5613      -0.4588      20.7479       1.0226
     396.0    1451.5581       0.0000      50.8611     -52.7273       0.9364      -0.7426      -0.5691      26.8497       1.0226
     397.0    1450.6483       0.0000      50.8611     -54.9065       0.8430      -0.6902      -0.4836      31.2869       0.0005
     398.0    1455.1336       0.0000      50.8611     -53.9140       0.9855      -0.7949      -0.5815      31.2869       0.0005
     399.0    1453.9294       0.0000      50.8611     -54.5290       0.9302      -0.7584      -0.5368      31.2869       0.0005
     400.0    1455.7454       0.0000      50.8611     -55.2906       0.8999      -0.7388      -0.5121      31.2869       0.0005
