~VERSION INFORMATION
VERS.           2.0   :CWLS Log ASCII Standard - VERSION 2.0
WRAP.           NO    :One Line per depth step
PROD.  Schlumberger   :LAS Producer
PROG.  DLIS to ASCII 19C2-270                          :LAS Program name and version
CREA.        2017/09/16 17:42                          :LAS Creation date {YYYY/MM/DD hh:mm}
DLIS_CREA.  2017-Sep-15 17:02                          :DLIS Creation date and time {YYYY-MMM-DD hh:mm}
SOURCE.     LPC_S3-1_2BV.DLIS                          :DLIS File Name
FILE-ID.     PERFO_Perfo_WPGRT_045LTP                  :File Identification Number
#--------------------------------------------------
~WELL INFORMATION
#MNEM.UNIT      DATA             DESCRIPTION
#---- ------ --------------   -----------------------------
STRT .S          126.0       :START TIME      
STOP .S          554.0       :STOP TIME      
STEP .S            1.0       :STEP     
NULL .          -999.25      :NULL VALUE
COMP .        SHELL INTERNATIONAL E P                  :COMPANY
WELL .        WPP TEST 2                               :WELL
FLD  .        WILDCAT                                  :FIELD
LOC  .        NA                                       :LOCATION
CNTY .        HARRIS                                   :COUNTY
STAT .        TEXAS                                    :STATE
CTRY .                                                 :COUNTRY
API  .        NA                                       :API NUMBER
UWI  .                                                 :UNIQUE WELL ID
DATE .        15-Sep-2017                              :LOG DATE {DD-MMM-YYYY}
SRVC .        Schlumberger                             :SERVICE COMPANY
LATI .DEG                                              :LATITUDE
LONG .DEG                                              :LONGITUDE
GDAT .                                                 :GeoDetic Datum
SECT .        NA                                       :Section
RANG .        NA                                       :Range
TOWN .        NA                                       :Township
#-----------------------------------------------------------------------------
~PARAMETER INFORMATION
#MNEM.UNIT    VALUE                      DESCRIPTION
#---- -----   --------------------       ------------------------
U-PHASE_B_COMP_PER_YT.                 0 :Phase B Comparator Period Yt
U-PHASE_A_COMP_PER_XT.                 0 :Phase A Comparator Period Xt
U-MAX_EXC_CUR_LIMIT.MA       240.00000   :Requested CM Current Limit
U-REQ_EXC_FQ.HZ              50          :Requested CM Frequency
U-TILT_Y_OFFSET.           0.19916       :WPTET Tilt Y Offset
U-TILT_Y_GAIN.           1.01796         :WPTET Tilt Y Gain
U-TILT_X_OFFSET.          -1.77103       :WPTET Tilt X Offset
U-TILT_X_GAIN.           1.00000         :WPTET Tilt X Gain
U-TILT_OFFSET_TOL.           0.00100     :WPTET Tilt Offset Calibration Tolerance
U-NO_TILT_CAL_ROTATIONS.                 3 :Number of Rotations for Tilt Calibration
HAZI .DEG        0.00000                 :Hole Azimuth
U-STD_TOL_TILT.           0.01000        :Tilt Standard Deviation Tolerance
U-GUN_POS_TOL.DEG        5.00000         :Gun Position Tolerance
ROT_ANGLE_THRESHOLD.DEG        5.00000   :Rotation Stop Angle Tolerance
STOP_ROT_ANGLE.DEG        0.00000        :Rotation Stop Angle
WITN .        MR. DHRUA ARORA            :Witness's Name
ENGI .        MORRIS MOORE               :Engineer's Name
COUN .        HARRIS                     :County or Rig Name
FN   .        WILDCAT                    :Field Name
WN   .        WPP TEST 2                 :Well Name
CN   .        SHELL INTERNATIONAL E P    :Company Name
CLAB .        County                     :County/Rig Label
SLAB .        State                      :State/Province Label
RUN  .          1                        :RUN NUMBER
PDAT .        GROUND LEVEL               :Permanent Datum
EPD  .                                   :Elevation of Permanent Datum above Mean Sea Level
LMF  .          NA                       :Logging Measured From (Name of Logging Elevation Reference)
APD  .                                   :Elevation of Depth Reference (LMF) above Permanent Datum
#-----------------------------------------------------------------------------
~CURVE INFORMATION
#MNEM.UNIT   API CODE                                  DESCRIPTION
#---- -----  --------                                  -----------------------
TIME .S                                                :TIME {F10.1}
FREQ_EMF_SL.HZ                                         :Electromagnetic Field Frequency {F13.4}
PH_SH_WPPCM_SL.DEG                                     :WPPCM Phase Shift {F13.4}
FREQ_EXC_REQ_SL.HZ                                     :Requested Exciter Frequency {F13.4}
RB_SL.DEG                                              :Relative Bearing {F13.4}
SDEV_SL.DEG                                            :Sonde Deviation {F13.4}
TILX_SL.DEG                                            :X-axis Tilt {F13.4}
TILY_SL.DEG                                            :Y-axis Tilt {F13.4}
ROTA_SL.DEG                                            :Motor Rotation Angle {F13.4}
MSPE_SL.RPM                                            :Motor Speed {F13.4}
#-----------------------------------------------------------------------------
# 
#     TIME    FREQ_EMF_SL  PH_SH_WPPCM_ FREQ_EXC_REQ    RB_SL       SDEV_SL      TILX_SL      TILY_SL      ROTA_SL      MSPE_SL
#                          SL           _SL
~A  
# ...
     189.0    1432.0265       0.0000      50.8611     -64.7860       1.4695      -1.3292      -0.6261     243.1406       1.0127
     190.0    1417.9405       0.0000      50.8611     -63.1048       1.4860      -1.3243      -0.6719     249.2572       1.0226
     191.0    1420.6298       0.0000      50.8611     -62.1137       1.4102      -1.2464      -0.6595     255.3612       1.0213
     192.0    1408.7255       0.0000      50.8611     -63.2598       1.3153      -1.1734      -0.5927     261.4495       1.0226
     193.0    1402.7657       0.0000      50.8611     -55.6447       1.4672      -1.2111      -0.8280     267.5513       1.0226
     194.0    1389.2417       0.0000      50.8611     -55.5157       1.4668      -1.2087      -0.8305     273.6531       1.0226
     195.0    1362.6454       0.0000      50.8611     -51.3520       1.4449      -1.1284      -0.9023     280.1629       1.0226
     196.0    1356.9079       0.0000      50.8611     -48.8821       1.4850      -1.1186      -0.9766     286.2647       1.0226
     197.0    1333.7428       0.0000      50.8611     -46.8164       1.3856      -1.0103      -0.9482     292.3541       1.0226
     198.0    1321.2120       0.0000      50.8611     -45.6081       1.4139      -1.0103      -0.9891     298.4439       1.0226
     199.0    1303.9134       0.0000      50.8611     -43.1097       1.3022      -0.8898      -0.9507     304.5455       1.0226
     200.0    1273.4970       0.0000      50.8611     -46.8490       1.3231      -0.9652      -0.9048     310.6466       1.0127
     201.0    1268.3501       0.0000      50.8611     -36.6599       1.2682      -0.7497      -1.0165     316.7369       1.0226
     202.0    1238.1627       0.0000      50.8611     -35.9047       1.3162      -0.7718      -1.0659     322.8387       1.0226
     203.0    1220.9623       0.0000      50.8611     -41.5433       1.2705      -0.8423      -0.9507     328.9397       1.0127
     204.0    1218.4591       0.0000      50.8611     -41.5815       1.2163      -0.8070      -0.9098     335.0430       1.0226
     205.0    1211.4036       0.0000      50.8611     -37.0267       1.0890      -0.6561      -0.8689     341.1581       1.0226
     206.0    1189.8437       0.0000      50.8611     -34.7003       1.1445      -0.6513      -0.9407     347.2597       1.0226
     207.0    1176.2768       0.0000      50.8611     -25.5270       1.0455      -0.4504      -0.9432     353.7827       1.0226
     208.0    1179.4994       0.0000      50.8611     -33.2671       1.1740      -0.6439      -0.9816     337.9470       1.0226
     209.0    1173.4748       0.0000      50.8611     -36.4052       1.0133      -0.6013      -0.8156       5.9756       1.0133
     210.0    1174.0709       0.0000      50.8611     -32.3790       0.9776      -0.5234      -0.8255      12.1028       1.0226
     211.0    1166.6389       0.0000      50.8611     -31.2839       0.8799      -0.4578      -0.7512      18.2075       1.0226
     212.0    1166.0448       0.0000      50.8611     -26.6487       0.9156      -0.4103      -0.8181      24.3065       1.0226
     213.0    1173.9509       0.0000      50.8611     -34.8721       0.8538      -0.4881      -0.7004      30.3960       1.0226
     214.0    1177.8842       0.0000      50.8611     -34.5505       0.9810      -0.5562      -0.8081      36.4978       1.0226
     215.0    1183.9558       0.0000      50.8611     -29.5603       0.7593      -0.3750      -0.6595      42.5996       1.0226
     216.0    1196.0395       0.0000      50.8611     -36.6502       0.5679      -0.3397      -0.4526      48.7277       1.0226
     217.0    1208.2452       0.0000      50.8611     -31.4287       0.6323      -0.3299      -0.5393      54.8295       1.0226
     218.0    1214.5063       0.0000      50.8611     -34.4348       0.6542      -0.3701      -0.5393      60.9183       1.0127
     219.0    1220.5742       0.0000      50.8611     -52.5672       0.6057      -0.4808      -0.3683      67.4297       1.0226
     220.0    1244.6036       0.0000      50.8611     -39.6946       0.5783      -0.3676      -0.4451      73.5314       1.0226
     221.0    1266.8918       0.0000      50.8611     -41.8538       0.4952      -0.3299      -0.3683      79.6332       1.0226
     222.0    1295.0351       0.0000      50.8611     -57.6086       0.4811      -0.4054      -0.2581      85.7227       1.0226
     223.0    1302.5266       0.0000      50.8611     -65.0499       0.6646      -0.6013      -0.2815      91.8369       1.0220
     224.0    1317.4719       0.0000      50.8611     -68.3428       0.5684      -0.5283      -0.2097      97.9404       1.0226
     225.0    1345.6424       0.0000      50.8611     -83.7126       0.5384      -0.5328      -0.0586     104.0582       1.0226
     226.0    1355.2488       0.0000      50.8611     -72.6412       0.5612      -0.5356      -0.1663     110.1564       1.0133
     227.0    1367.3038       0.0000      50.8611     -76.2261       0.5567      -0.5405      -0.1329     116.2859       1.0226
     228.0    1384.1044       0.0000      50.8611     -82.3288       0.6522      -0.6464      -0.0871     122.3877       1.0226
     229.0    1385.4539       0.0000      50.8611     -89.2674       0.7368      -0.7365      -0.0103     128.4895       1.0226
     230.0    1403.6142       0.0000      50.8611     -89.9789       0.8474      -0.8472      -0.0003     134.5922       1.0127
     231.0    1416.8997       0.0000      50.8611     -89.2879       0.7745      -0.7742      -0.0103     141.1021       1.0226
     232.0    1420.4546       0.0000      50.8611     -81.6200       0.9331      -0.9226      -0.1354     147.2040       1.0226
     233.0    1423.1547       0.0000      50.8611     -83.4405       1.0406      -1.0333      -0.1205     153.3051       1.0127
     234.0    1418.1165       0.0000      50.8611     -80.8204       1.2983      -1.2817      -0.2072     159.3962       1.0232
     235.0    1431.6725       0.0000      50.8611     -85.7389       1.0167      -1.0128      -0.0746     165.5104       1.0226
     236.0    1445.8615       0.0000      50.8611     -84.7502       1.0556      -1.0505      -0.0970     171.6123       1.0226
     237.0    1444.1059       0.0000      50.8611     -82.5414       1.0595      -1.0499      -0.1379     177.7152       1.0231
     238.0    1446.5783       0.0000      50.8611     -81.2766       1.1158      -1.1029      -0.1688     183.8292       1.0226
     239.0    1441.1912       0.0000      50.8611     -84.9037       1.1033      -1.0980      -0.0995     189.9442       1.0327
     240.0    1444.1514       0.0000      50.8611     -79.3580       1.1607      -1.1406      -0.2147     196.0461       1.0226
     241.0    1449.3794       0.0000      50.8611     -81.7556       1.2266      -1.2136      -0.1763     202.1480       1.0226
     242.0    1443.7886       0.0000      50.8611     -74.3750       1.2605      -1.2136      -0.3399     208.2404       1.0226
     243.0    1452.5551       0.0000      50.8611     -76.5130       1.3664      -1.3243      -0.3189     214.3643       1.0226
     244.0    1438.4243       0.0000      50.8611     -75.9064       1.3654      -1.3243      -0.3324     220.8494       1.0226
     245.0    1438.2433       0.0000      50.8611     -69.5019       1.4164      -1.3267      -0.4959     226.9513       1.0226
     246.0    1443.2499       0.0000      50.8611     -67.1145       1.3885      -1.2792      -0.5393     233.0532       1.0226
     247.0    1434.5935       0.0000      50.8611     -67.0450       1.2849      -1.1832      -0.5009     239.1587       1.0226
     248.0    1435.1278       0.0000      50.8611     -63.4538       1.5730      -1.4071      -0.7029     245.2578       1.0226
     249.0    1419.9331       0.0000      50.8611     -61.5118       1.4028      -1.2324      -0.6695     251.3597       1.0226
     250.0    1419.9331       0.0000      50.8611     -55.8656       1.3787      -1.1406      -0.7722     257.4615       1.0226
     251.0    1395.5983       0.0000      50.8611     -60.8056       1.4362      -1.2538      -0.7004     263.5626       1.0226
