~VERSION INFORMATION
VERS.           2.0   :CWLS Log ASCII Standard - VERSION 2.0
WRAP.           NO    :One Line per depth step
PROD.  Schlumberger   :LAS Producer
PROG.  DLIS to ASCII 19C2-270                          :LAS Program name and version
CREA.        2017/09/16 17:42                          :LAS Creation date {YYYY/MM/DD hh:mm}
DLIS_CREA.  2017-Sep-15 11:29                          :DLIS Creation date and time {YYYY-MMM-DD hh:mm}
SOURCE.     LPC_SL_AV_2ND-LOG.DLIS                     :DLIS File Name
FILE-ID.     PERFO_Perfo_WPGRT_015LTP                  :File Identification Number
#--------------------------------------------------
~WELL INFORMATION
#MNEM.UNIT      DATA             DESCRIPTION
#---- ------ --------------   -----------------------------
STRT .S         2513.0       :START TIME      
STOP .S         2855.0       :STOP TIME      
STEP .S            1.0       :STEP     
NULL .          -999.25      :NULL VALUE
COMP .        SHELL INTERNATIONAL E P                  :COMPANY
WELL .        WPP TEST 2                               :WELL
FLD  .        WILDCAT                                  :FIELD
LOC  .                                                 :LOCATION
CNTY .        HARRIS                                   :COUNTY
STAT .        TEXAS                                    :STATE
CTRY .                                                 :COUNTRY
API  .                                                 :API NUMBER
UWI  .                                                 :UNIQUE WELL ID
DATE .                                                 :LOG DATE
SRVC .        Schlumberger                             :SERVICE COMPANY
LATI .DEG                                              :LATITUDE
LONG .DEG                                              :LONGITUDE
GDAT .                                                 :GeoDetic Datum
#-----------------------------------------------------------------------------
~PARAMETER INFORMATION
#MNEM.UNIT    VALUE                      DESCRIPTION
#---- -----   --------------------       ------------------------
U-PHASE_B_COMP_PER_YT.                 0 :Phase B Comparator Period Yt
U-PHASE_A_COMP_PER_XT.                 0 :Phase A Comparator Period Xt
U-MAX_EXC_CUR_LIMIT.MA       240.00000   :Requested CM Current Limit
U-REQ_EXC_FQ.HZ              50          :Requested CM Frequency
U-TILT_Y_OFFSET.           0.19916       :WPTET Tilt Y Offset
U-TILT_Y_GAIN.           1.01796         :WPTET Tilt Y Gain
U-TILT_X_OFFSET.          -1.77103       :WPTET Tilt X Offset
U-TILT_X_GAIN.           1.00000         :WPTET Tilt X Gain
U-TILT_OFFSET_TOL.           0.00100     :WPTET Tilt Offset Calibration Tolerance
U-NO_TILT_CAL_ROTATIONS.                 3 :Number of Rotations for Tilt Calibration
HAZI .DEG        0.00000                 :Hole Azimuth
U-STD_TOL_TILT.           0.01000        :Tilt Standard Deviation Tolerance
U-GUN_POS_TOL.DEG        5.00000         :Gun Position Tolerance
ROT_ANGLE_THRESHOLD.DEG        5.00000   :Rotation Stop Angle Tolerance
STOP_ROT_ANGLE.DEG       11.00000        :Rotation Stop Angle
WITN .                                   :Witness's Name
ENGI .                                   :Engineer's Name
COUN .        HARRIS                     :County or Rig Name
FN   .        WILDCAT                    :Field Name
WN   .        WPP TEST 2                 :Well Name
CN   .        SHELL INTERNATIONAL E P    :Company Name
CLAB .        County                     :County/Rig Label
SLAB .        State                      :State/Province Label
RUN  .          1                        :RUN NUMBER
PDAT .        GROUND LEVEL               :Permanent Datum
EPD  .                                   :Elevation of Permanent Datum above Mean Sea Level
LMF  .                                   :Logging Measured From (Name of Logging Elevation Reference)
APD  .                                   :Elevation of Depth Reference (LMF) above Permanent Datum
#-----------------------------------------------------------------------------
~CURVE INFORMATION
#MNEM.UNIT   API CODE                                  DESCRIPTION
#---- -----  --------                                  -----------------------
TIME .S                                                :TIME {F10.1}
FREQ_EMF_SL.HZ                                         :Electromagnetic Field Frequency {F13.4}
PH_SH_WPPCM_SL.DEG                                     :WPPCM Phase Shift {F13.4}
FREQ_EXC_REQ_SL.HZ                                     :Requested Exciter Frequency {F13.4}
RB_SL.DEG                                              :Relative Bearing {F13.4}
SDEV_SL.DEG                                            :Sonde Deviation {F13.4}
TILX_SL.DEG                                            :X-axis Tilt {F13.4}
TILY_SL.DEG                                            :Y-axis Tilt {F13.4}
ROTA_SL.DEG                                            :Motor Rotation Angle {F13.4}
MSPE_SL.RPM                                            :Motor Speed {F13.4}
#-----------------------------------------------------------------------------
# 
#     TIME    FREQ_EMF_SL  PH_SH_WPPCM_ FREQ_EXC_REQ    RB_SL       SDEV_SL      TILX_SL      TILY_SL      ROTA_SL      MSPE_SL
#                          SL           _SL
~A  
# ...
    2639.0    1542.3517       0.0000      50.8611     -59.8304       1.1310      -0.9774      -0.5678      98.1335       1.0226
    2640.0    1514.5670       0.0000      50.8611     -63.9049       1.1277      -1.0127      -0.4959     104.2352       1.0226
    2641.0    1489.2897       0.0000      50.8611     -61.0492       1.0252      -0.8971      -0.4959     110.3378       1.0226
    2642.0    1464.8438       0.0000      50.8611     -61.8663       1.0518      -0.9275      -0.4959     116.4396       1.0226
    2643.0    1440.1168       0.0000      50.8611     -59.9672       1.0826      -0.9373      -0.5418     122.5418       1.0226
    2644.0    1411.2128       0.0000      50.8611     -54.9282       1.1394      -0.9324      -0.6545     128.6432       1.0226
    2645.0    1378.3494       0.0000      50.8611     -62.6650       1.1799      -1.0480      -0.5418     134.7478       1.0226
    2646.0    1343.4776       0.0000      50.8611     -57.8661       1.0954      -0.9275      -0.5827     141.2550       1.0226
    2647.0    1321.0634       0.0000      50.8611     -55.6613       1.1779      -0.9726      -0.6644     147.3569       1.0226
    2648.0    1277.2900       0.0000      50.8611     -54.3634       1.2026      -0.9774      -0.7004     153.4465       1.0226
    2649.0    1195.6347       0.0000      50.8611     -65.4548       1.0311      -0.9373      -0.4290     159.5511       1.0213
    2650.0    1127.0911       0.0000      50.8611     -55.5230       1.0940      -0.9020      -0.6186     165.6380       1.0226
    2651.0    1056.7551       0.0000      50.8611     -50.4671       1.1570      -0.8922      -0.7363     171.7153       1.0226
    2652.0    1013.3257       0.0000      50.8611     -52.8948       1.1692      -0.9324      -0.7053     177.7917       1.0043
    2653.0     984.6019       0.0000      50.8611     -53.0802       1.0843      -0.8667      -0.6496     183.8704       1.0226
    2654.0     966.0412       0.0000      50.8611     -55.5280       1.1739      -0.9677      -0.6644     189.9723       1.0226
    2655.0     948.2689       0.0000      50.8611     -50.7779       1.1000      -0.8521      -0.6954     196.0620       1.0226
    2656.0     930.3586       0.0000      50.8611     -51.7583       1.1814      -0.9275      -0.7314     202.1516       1.0226
    2657.0     919.4098       0.0000      50.8611     -52.7781       1.0316      -0.8216      -0.6236     208.2535       1.0226
    2658.0     917.1960       0.0000      50.8611     -48.8331       1.0788      -0.8119      -0.7103     214.7634       1.0226
    2659.0     911.6789       0.0000      50.8611     -53.5414       1.1294      -0.9080      -0.6694     220.8653       1.0226
    2660.0     905.6334       0.0000      50.8611     -49.5720       1.0731      -0.8168      -0.6954     226.9672       1.0226
    2661.0     903.0226       0.0000      50.8611     -47.5941       1.0386      -0.7669      -0.7004     233.0691       1.0226
    2662.0     909.6055       0.0000      50.8611     -52.7000       1.0906      -0.8679      -0.6595     239.1710       1.0226
    2663.0     917.4836       0.0000      50.8611     -49.1192       1.0078      -0.7620      -0.6595     245.2864       1.0226
    2664.0     924.5407       0.0000      50.8611     -48.7128       1.0008      -0.7522      -0.6595     251.3879       1.0226
    2665.0     934.3696       0.0000      50.8611     -49.2965       1.0585      -0.8022      -0.6905     257.5030       1.0226
    2666.0     948.8867       0.0000      50.8611     -45.0468       0.8768      -0.6208      -0.6186     263.6048       1.0226
    2667.0     965.1514       0.0000      50.8611     -46.3994       0.9191      -0.6658      -0.6335     269.7066       1.0226
    2668.0     985.7808       0.0000      50.8611     -52.1377       1.0162      -0.8022      -0.6236     275.8073       1.0133
    2669.0    1008.4014       0.0000      50.8611     -49.8823       0.9443      -0.7218      -0.6087     281.9005       1.0226
    2670.0    1036.0875       0.0000      50.8611     -53.0723       0.9533      -0.7620      -0.5728     288.4076       1.0239
    2671.0    1083.5723       0.0000      50.8611     -44.4195       0.8661      -0.6062      -0.6186     294.5225       1.0226
    2672.0    1170.8621       0.0000      50.8611     -52.6326       0.9525      -0.7571      -0.5777     300.6243       1.0226
    2673.0    1255.8527       0.0000      50.8611     -53.8990       0.8938      -0.7218      -0.5269     306.7261       1.0226
    2674.0    1291.0034       0.0000      50.8611     -57.1654       0.8660      -0.7267      -0.4699     312.8173       1.0146
    2675.0    1324.4555       0.0000      50.8611     -51.9810       0.8210      -0.6464      -0.5059     318.9305       1.0226
    2676.0    1352.7965       0.0000      50.8611     -56.3681       0.8305      -0.6914      -0.4600     325.0324       1.0226
    2677.0    1391.9931       0.0000      50.8611     -50.7123       0.8883      -0.6865      -0.5628     331.1342       1.0226
    2678.0    1417.5908       0.0000      50.8611     -57.7414       0.7869      -0.6658      -0.4191     337.2387       1.0226
    2679.0    1439.6845       0.0000      50.8611     -59.6110       0.9002      -0.7766      -0.4551     343.3378       1.0213
    2680.0    1466.7134       0.0000      50.8611     -60.7911       1.2239      -1.0699      -0.5938     349.4432       1.0226
    2681.0    1499.5888       0.0000      50.8611     -64.7274       0.8761      -0.7924      -0.3733     355.5423       1.0226
    2682.0    1531.8628       0.0000      50.8611     -64.0721       0.9474      -0.8521      -0.4142       2.0521       1.0226
    2683.0    1556.8464       0.0000      50.8611     -69.3888       0.8684      -0.8119      -0.3064       8.1540       1.0226
    2684.0    1570.3288       0.0000      50.8611     -67.2519       0.8113      -0.7462      -0.3163      14.2543       1.0213
    2685.0    1590.7806       0.0000      50.8611     -60.4585       0.8298      -0.7218      -0.4092      20.3456       1.0226
    2686.0    1615.0369       0.0000      50.8611     -61.7710       0.9726      -0.8569      -0.4600      26.4470       1.0226
    2687.0    1628.0620       0.0000      50.8611     -57.1416       1.3500      -1.1296      -0.7375      32.5496       1.0121
    2688.0    1636.4724       0.0000      50.8611     -67.1504       0.9150      -0.8432      -0.3553      38.6391       1.0226
    2689.0    1645.7320       0.0000      50.8611     -66.7825       0.9712      -0.8922      -0.3832      44.7394       1.0133
    2690.0    1635.6366       0.0000      50.8611     -60.7726       1.0056      -0.8776      -0.4910      50.8181       1.0133
    2691.0    1642.3510       0.0000      50.8611     -67.9260       1.0062      -0.9324      -0.3782      56.9316       1.0133
    2692.0    1636.1009       0.0000      50.8611     -65.5630       1.0136      -0.9227      -0.4191      63.0211       1.0133
    2693.0    1628.0620       0.0000      50.8611     -64.0886       1.0420      -0.9373      -0.4551      69.1120       1.0226
    2694.0    1617.7403       0.0000      50.8611     -68.2573       0.9229      -0.8569      -0.3423      75.6218       1.0226
    2695.0    1605.3082       0.0000      50.8611     -60.9282       1.0208      -0.8922      -0.4959      81.7367       1.0226
    2696.0    1593.5149       0.0000      50.8611     -66.5287       1.1426      -1.0480      -0.4551      87.8388       1.0226
    2697.0    1572.9866       0.0000      50.8611     -62.4113       1.1376      -1.0079      -0.5269      93.9403       1.0226
    2698.0    1551.7378       0.0000      50.8611     -60.6164       1.1571      -1.0079      -0.5678     100.0552       1.0226
    2699.0    1525.6190       0.0000      50.8611     -59.8157       0.9968      -0.8618      -0.5009     106.1570       1.0226
    2700.0    1500.8600       0.0000      50.8611     -59.7588       1.0851      -0.9373      -0.5467     112.2588       1.0226
    2701.0    1479.1367       0.0000      50.8611     -56.8661       1.1139      -0.9324      -0.6087     118.3606       1.0226
