~VERSION INFORMATION
VERS.           2.0   :CWLS Log ASCII Standard - VERSION 2.0
WRAP.           NO    :One Line per depth step
PROD.  Schlumberger   :LAS Producer
PROG.  DLIS to ASCII 19C2-270                          :LAS Program name and version
CREA.        2017/09/16 17:42                          :LAS Creation date {YYYY/MM/DD hh:mm}
DLIS_CREA.  2017-Sep-15 12:00                          :DLIS Creation date and time {YYYY-MMM-DD hh:mm}
SOURCE.     LPC_S1-1_A5.DLIS                           :DLIS File Name
FILE-ID.     PERFO_Perfo_WPGRT_019LTP                  :File Identification Number
#--------------------------------------------------
~WELL INFORMATION
#MNEM.UNIT      DATA             DESCRIPTION
#---- ------ --------------   -----------------------------
STRT .S         4414.0       :START TIME      
STOP .S         5447.0       :STOP TIME      
STEP .S            1.0       :STEP     
NULL .          -999.25      :NULL VALUE
COMP .        SHELL INTERNATIONAL E P                  :COMPANY
WELL .        WPP TEST 2                               :WELL
FLD  .        WILDCAT                                  :FIELD
LOC  .                                                 :LOCATION
CNTY .        HARRIS                                   :COUNTY
STAT .        TEXAS                                    :STATE
CTRY .                                                 :COUNTRY
API  .                                                 :API NUMBER
UWI  .                                                 :UNIQUE WELL ID
DATE .                                                 :LOG DATE
SRVC .        Schlumberger                             :SERVICE COMPANY
LATI .DEG                                              :LATITUDE
LONG .DEG                                              :LONGITUDE
GDAT .                                                 :GeoDetic Datum
#-----------------------------------------------------------------------------
~PARAMETER INFORMATION
#MNEM.UNIT    VALUE                      DESCRIPTION
#---- -----   --------------------       ------------------------
U-PHASE_B_COMP_PER_YT.                 0 :Phase B Comparator Period Yt
U-PHASE_A_COMP_PER_XT.                 0 :Phase A Comparator Period Xt
U-MAX_EXC_CUR_LIMIT.MA       240.00000   :Requested CM Current Limit
U-REQ_EXC_FQ.HZ              50          :Requested CM Frequency
U-TILT_Y_OFFSET.           0.19916       :WPTET Tilt Y Offset
U-TILT_Y_GAIN.           1.01796         :WPTET Tilt Y Gain
U-TILT_X_OFFSET.          -1.77103       :WPTET Tilt X Offset
U-TILT_X_GAIN.           1.00000         :WPTET Tilt X Gain
U-TILT_OFFSET_TOL.           0.00100     :WPTET Tilt Offset Calibration Tolerance
U-NO_TILT_CAL_ROTATIONS.                 3 :Number of Rotations for Tilt Calibration
HAZI .DEG        0.00000                 :Hole Azimuth
U-STD_TOL_TILT.           0.01000        :Tilt Standard Deviation Tolerance
U-GUN_POS_TOL.DEG        5.00000         :Gun Position Tolerance
ROT_ANGLE_THRESHOLD.DEG        5.00000   :Rotation Stop Angle Tolerance
STOP_ROT_ANGLE.DEG       80.00000        :Rotation Stop Angle
WITN .                                   :Witness's Name
ENGI .                                   :Engineer's Name
COUN .        HARRIS                     :County or Rig Name
FN   .        WILDCAT                    :Field Name
WN   .        WPP TEST 2                 :Well Name
CN   .        SHELL INTERNATIONAL E P    :Company Name
CLAB .        County                     :County/Rig Label
SLAB .        State                      :State/Province Label
RUN  .          1                        :RUN NUMBER
PDAT .        GROUND LEVEL               :Permanent Datum
EPD  .                                   :Elevation of Permanent Datum above Mean Sea Level
LMF  .                                   :Logging Measured From (Name of Logging Elevation Reference)
APD  .                                   :Elevation of Depth Reference (LMF) above Permanent Datum
#-----------------------------------------------------------------------------
~CURVE INFORMATION
#MNEM.UNIT   API CODE                                  DESCRIPTION
#---- -----  --------                                  -----------------------
TIME .S                                                :TIME {F10.1}
FREQ_EMF_SL.HZ                                         :Electromagnetic Field Frequency {F13.4}
PH_SH_WPPCM_SL.DEG                                     :WPPCM Phase Shift {F13.4}
FREQ_EXC_REQ_SL.HZ                                     :Requested Exciter Frequency {F13.4}
RB_SL.DEG                                              :Relative Bearing {F13.4}
SDEV_SL.DEG                                            :Sonde Deviation {F13.4}
TILX_SL.DEG                                            :X-axis Tilt {F13.4}
TILY_SL.DEG                                            :Y-axis Tilt {F13.4}
ROTA_SL.DEG                                            :Motor Rotation Angle {F13.4}
MSPE_SL.RPM                                            :Motor Speed {F13.4}
#-----------------------------------------------------------------------------
# 
#     TIME    FREQ_EMF_SL  PH_SH_WPPCM_ FREQ_EXC_REQ    RB_SL       SDEV_SL      TILX_SL      TILY_SL      ROTA_SL      MSPE_SL
#                          SL           _SL
~A  
# ...
    4918.0     971.1672       0.0000      50.8611       0.3707       4.7900       0.0310      -4.7892      19.4701       1.0202
    4919.0     986.4651       0.0000      50.8611       6.9649       4.7203       0.5714      -4.6851      25.5691       1.0226
    4920.0    1011.8276       0.0000      50.8611      10.1720       4.5022       0.7941      -4.4305      31.6614       1.0144
    4921.0    1041.1181       0.0000      50.8611      16.1088       4.6357       1.2853      -4.4528      37.7508       1.0202
    4922.0    1087.2653       0.0000      50.8611      21.4494       4.2881       1.5664      -3.9900      43.8498       1.0226
    4923.0    1171.8282       0.0000      50.8611      26.0165       4.2485       1.8623      -3.8172      49.9647       1.0226
    4924.0    1252.4275       0.0000      50.8611      34.1087       4.1160       2.3054      -3.4069      56.0678       1.0291
    4925.0    1289.0644       0.0000      50.8611      38.5618       4.0059       2.4958      -3.1314      62.1575       1.0309
    4926.0    1318.6218       0.0000      50.8611      46.4915       3.8533       2.7933      -2.6500      68.2724       1.0226
    4927.0    1352.4116       0.0000      50.8611      53.9415       3.8652       3.1238      -2.2727      74.3843       1.0309
    4928.0    1381.0353       0.0000      50.8611      59.0878       3.6068       3.0928      -1.8509      80.4890       1.0226
    4929.0    1405.6114       0.0000      50.8611      65.4805       3.6066       3.2808      -1.4959      86.6047       1.0250
    4930.0    1434.2841       0.0000      50.8611      73.1442       3.5358       3.3831      -1.0238      93.0210       1.0226
    4931.0    1459.7370       0.0000      50.8611      80.2875       3.3475       3.2991      -0.5647      99.2149       1.0226
    4932.0    1493.1385       0.0000      50.8611      87.8604       3.3113       3.3083      -0.1243     105.3167       1.0226
    4933.0    1516.4044       0.0000      50.8611      94.6453       3.2479       3.2371       0.2623     111.4286       1.0309
    4934.0    1536.7392       0.0000      50.8611     104.6697       3.1388       3.0362       0.7939     117.5211       1.0202
    4935.0    1564.4000       0.0000      50.8611     111.6670       3.2240       2.9961       1.1898     123.6112       1.0202
    4936.0    1589.0362       0.0000      50.8611     123.9388       3.1506       2.6127       1.7566     129.7130       1.0226
    4937.0    1602.8238       0.0000      50.8611     130.1095       3.2643       2.4958       2.1023     135.8185       1.0226
    4938.0    1614.3628       0.0000      50.8611     136.1661       3.2118       2.2238       2.3160     141.9308       1.0226
    4939.0    1627.6041       0.0000      50.8611     143.9386       3.2702       1.9243       2.6431     148.0327       1.0226
    4940.0    1638.9860       0.0000      50.8611     153.8938       3.4265       1.5063       3.0743     154.1369       1.0226
    4941.0    1633.1107       0.0000      50.8611     158.7318       3.6742       1.3309       3.4237     160.2316       1.0285
    4942.0    1643.6906       0.0000      50.8611     167.1687       3.4440       0.7650       3.3568     166.6321       1.0178
    4943.0    1642.8153       0.0000      50.8611     172.4583       3.5552       0.4656       3.5241     172.8233       1.0226
    4944.0    1638.9860       0.0000      50.8611    -179.4453       3.6526      -0.0347       3.6524     178.9383       1.0226
    4945.0    1624.7005       0.0000      50.8611    -171.6494       3.7981      -0.5514       3.7564     185.0379       1.0309
    4946.0    1616.0692       0.0000      50.8611    -168.1813       4.0053      -0.8198       3.9200     191.1529       1.0250
    4947.0    1608.9817       0.0000      50.8611    -158.6822       4.0581      -1.4752       3.7787     197.2585       1.0226
    4948.0    1584.4281       0.0000      50.8611    -153.3018       4.0143      -1.7993       3.5855     203.3480       1.0226
    4949.0    1567.5739       0.0000      50.8611    -146.7669       4.2103      -2.3059       3.5204     209.4499       1.0226
    4950.0    1545.3296       0.0000      50.8611    -141.2454       4.1674      -2.6054       3.2491     215.5619       1.0250
    4951.0    1516.8480       0.0000      50.8611    -136.6254       4.4260      -3.0381       3.2156     221.6668       1.0226
    4952.0    1491.8394       0.0000      50.8611    -128.7162       4.3619      -3.3996       2.7269     227.7687       1.0226
    4953.0    1469.3021       0.0000      50.8611    -123.6598       4.7173      -3.9254       2.6115     233.8684       1.0309
    4954.0    1443.7886       0.0000      50.8611    -119.3099       4.6435      -4.0478       2.2715     239.9756       1.0226
    4955.0    1415.3873       0.0000      50.8611    -112.7677       4.7468      -4.3763       1.8347     246.4825       1.0226
    4956.0    1383.8743       0.0000      50.8611    -109.1154       4.7356      -4.4713       1.5504     252.5844       1.0226
    4957.0    1355.3638       0.0000      50.8611    -102.2335       4.8913      -4.7799       1.0355     258.6862       1.0226
    4958.0    1330.3064       0.0000      50.8611     -96.9735       5.0793      -5.0409       0.6137     264.7888       1.0226
    4959.0    1280.3660       0.0000      50.8611     -92.6263       5.1601      -5.1542       0.2364     270.8999       1.0309
    4960.0    1200.9770       0.0000      50.8611     -87.6927       5.4209      -5.4160      -0.2213     277.0054       1.0226
    4961.0    1128.2001       0.0000      50.8611     -81.7799       5.1495      -5.0957      -0.7356     283.1072       1.0226
    4962.0    1063.9612       0.0000      50.8611     -75.8406       5.3115      -5.1486      -1.2988     289.2192       1.0250
    4963.0    1010.3359       0.0000      50.8611     -71.7684       5.3952      -5.1231      -1.6854     295.3264       1.0226
    4964.0     986.6675       0.0000      50.8611     -67.3757       5.1696      -4.7708      -1.9865     301.4359       1.0250
    4965.0     968.1887       0.0000      50.8611     -62.0585       5.2803      -4.6630      -2.4715     307.5407       1.0226
    4966.0     946.3324       0.0000      50.8611     -57.3439       5.3610      -4.5115      -2.8897     313.6449       1.0226
    4967.0     932.3225       0.0000      50.8611     -51.4005       5.3879      -4.2084      -3.3581     320.1517       1.0226
    4968.0     926.3834       0.0000      50.8611     -46.8320       5.2910      -3.8561      -3.6164     326.2535       1.0226
    4969.0     918.8447       0.0000      50.8611     -43.1759       5.1694      -3.5347      -3.7670     332.3589       1.0144
    4970.0     914.0667       0.0000      50.8611     -37.5385       5.3016      -3.2262      -4.2018     338.4455       1.0226
    4971.0     910.9527       0.0000      50.8611     -32.1730       5.2518      -2.7935      -4.4435     344.5605       1.0250
    4972.0     913.6904       0.0000      50.8611     -27.4213       5.1312      -2.3608      -4.5532     350.6631       1.0250
    4973.0     920.0470       0.0000      50.8611     -22.5063       5.0426      -1.9281      -4.6572     356.7650       1.0226
    4974.0     927.3275       0.0000      50.8611     -18.4209       4.9628      -1.5666      -4.7074       2.8675       1.0144
    4975.0     935.5739       0.0000      50.8611     -11.9118       4.9329      -1.0170      -4.8264       8.9700       1.0226
    4976.0     948.7181       0.0000      50.8611      -7.9263       4.9181      -0.6774      -4.8710      15.0718       1.0226
    4977.0     961.5684       0.0000      50.8611      -0.9299       4.8010      -0.0768      -4.7985      21.1760       1.0226
    4978.0     981.0860       0.0000      50.8611       2.8889       4.6286       0.2318      -4.6219      27.2778       1.0226
    4979.0    1001.7367       0.0000      50.8611       7.6732       4.6264       0.6171      -4.5847      33.7722       1.0226
    4980.0    1027.7635       0.0000      50.8611      14.1282       4.4849       1.0936      -4.3487      39.8618       1.0202
