~VERSION INFORMATION
VERS.           2.0   :CWLS Log ASCII Standard - VERSION 2.0
WRAP.           NO    :One Line per depth step
PROD.  Schlumberger   :LAS Producer
PROG.  DLIS to ASCII 19C2-270                          :LAS Program name and version
CREA.        2017/09/16 17:42                          :LAS Creation date {YYYY/MM/DD hh:mm}
DLIS_CREA.  2017-Sep-15 18:33                          :DLIS Creation date and time {YYYY-MMM-DD hh:mm}
SOURCE.     LPC_S4-1_2BV.DLIS                          :DLIS File Name
FILE-ID.     PERFO_Perfo_WPGRT_056LTP                  :File Identification Number
#--------------------------------------------------
~WELL INFORMATION
#MNEM.UNIT      DATA             DESCRIPTION
#---- ------ --------------   -----------------------------
STRT .S         5560.0       :START TIME      
STOP .S         6042.0       :STOP TIME      
STEP .S            1.0       :STEP     
NULL .          -999.25      :NULL VALUE
COMP .        SHELL INTERNATIONAL E P                  :COMPANY
WELL .        WPP TEST 2                               :WELL
FLD  .        WILDCAT                                  :FIELD
LOC  .        NA                                       :LOCATION
CNTY .        HARRIS                                   :COUNTY
STAT .        TEXAS                                    :STATE
CTRY .                                                 :COUNTRY
API  .        NA                                       :API NUMBER
UWI  .                                                 :UNIQUE WELL ID
DATE .        15-Sep-2017                              :LOG DATE {DD-MMM-YYYY}
SRVC .        Schlumberger                             :SERVICE COMPANY
LATI .DEG                                              :LATITUDE
LONG .DEG                                              :LONGITUDE
GDAT .                                                 :GeoDetic Datum
SECT .        NA                                       :Section
RANG .        NA                                       :Range
TOWN .        NA                                       :Township
#-----------------------------------------------------------------------------
~PARAMETER INFORMATION
#MNEM.UNIT    VALUE                      DESCRIPTION
#---- -----   --------------------       ------------------------
U-PHASE_B_COMP_PER_YT.                 0 :Phase B Comparator Period Yt
U-PHASE_A_COMP_PER_XT.                 0 :Phase A Comparator Period Xt
U-MAX_EXC_CUR_LIMIT.MA       240.00000   :Requested CM Current Limit
U-REQ_EXC_FQ.HZ              50          :Requested CM Frequency
U-TILT_Y_OFFSET.           0.19916       :WPTET Tilt Y Offset
U-TILT_Y_GAIN.           1.01796         :WPTET Tilt Y Gain
U-TILT_X_OFFSET.          -1.77103       :WPTET Tilt X Offset
U-TILT_X_GAIN.           1.00000         :WPTET Tilt X Gain
U-TILT_OFFSET_TOL.           0.00100     :WPTET Tilt Offset Calibration Tolerance
U-NO_TILT_CAL_ROTATIONS.                 3 :Number of Rotations for Tilt Calibration
HAZI .DEG        0.00000                 :Hole Azimuth
U-STD_TOL_TILT.           0.01000        :Tilt Standard Deviation Tolerance
U-GUN_POS_TOL.DEG        5.00000         :Gun Position Tolerance
ROT_ANGLE_THRESHOLD.DEG        5.00000   :Rotation Stop Angle Tolerance
STOP_ROT_ANGLE.DEG        0.00000        :Rotation Stop Angle
WITN .        MR. DHRUA ARORA            :Witness's Name
ENGI .        MORRIS MOORE               :Engineer's Name
COUN .        HARRIS                     :County or Rig Name
FN   .        WILDCAT                    :Field Name
WN   .        WPP TEST 2                 :Well Name
CN   .        SHELL INTERNATIONAL E P    :Company Name
CLAB .        County                     :County/Rig Label
SLAB .        State                      :State/Province Label
RUN  .          1                        :RUN NUMBER
PDAT .        GROUND LEVEL               :Permanent Datum
EPD  .                                   :Elevation of Permanent Datum above Mean Sea Level
LMF  .          NA                       :Logging Measured From (Name of Logging Elevation Reference)
APD  .                                   :Elevation of Depth Reference (LMF) above Permanent Datum
#-----------------------------------------------------------------------------
~CURVE INFORMATION
#MNEM.UNIT   API CODE                                  DESCRIPTION
#---- -----  --------                                  -----------------------
TIME .S                                                :TIME {F10.1}
FREQ_EMF_SL.HZ                                         :Electromagnetic Field Frequency {F13.4}
PH_SH_WPPCM_SL.DEG                                     :WPPCM Phase Shift {F13.4}
FREQ_EXC_REQ_SL.HZ                                     :Requested Exciter Frequency {F13.4}
RB_SL.DEG                                              :Relative Bearing {F13.4}
SDEV_SL.DEG                                            :Sonde Deviation {F13.4}
TILX_SL.DEG                                            :X-axis Tilt {F13.4}
TILY_SL.DEG                                            :Y-axis Tilt {F13.4}
ROTA_SL.DEG                                            :Motor Rotation Angle {F13.4}
MSPE_SL.RPM                                            :Motor Speed {F13.4}
#-----------------------------------------------------------------------------
# 
#     TIME    FREQ_EMF_SL  PH_SH_WPPCM_ FREQ_EXC_REQ    RB_SL       SDEV_SL      TILX_SL      TILY_SL      ROTA_SL      MSPE_SL
#                          SL           _SL
~A  
# ...
    5686.0    1439.0325       0.0000      50.8611     -57.1022       0.8845      -0.7424      -0.4800     340.8209       1.0226
    5687.0    1442.3470       0.0000      50.8611     -54.9906       1.0018      -0.8188      -0.5748     346.9227       1.0226
    5688.0    1429.7608       0.0000      50.8611     -64.7634       0.9562      -0.8629      -0.4072     353.0376       1.0226
    5689.0    1437.7723       0.0000      50.8611     -66.1526       0.9353      -0.8540      -0.3802     359.1394       1.0226
    5690.0    1428.4827       0.0000      50.8611     -65.9240       1.0773      -0.9834      -0.4391       5.2412       1.0226
    5691.0    1422.2086       0.0000      50.8611     -74.4406       1.0053      -0.9609      -0.2645      11.3430       1.0292
    5692.0    1409.5605       0.0000      50.8611     -63.1231       1.1014      -0.9813      -0.4890      17.4580       1.0226
    5693.0    1399.4419       0.0000      50.8611     -60.9906       1.0345      -0.9030      -0.5029      23.8087       1.0226
    5694.0    1404.5378       0.0000      50.8611     -62.1852       1.0850      -0.9589      -0.5049      30.0696       1.0226
    5695.0    1389.1200       0.0000      50.8611     -56.8195       0.9351      -0.7825      -0.5119      36.1845       1.0226
    5696.0    1373.8146       0.0000      50.8611     -62.6177       1.0166      -0.9020      -0.4640      41.8783       1.0226
    5697.0    1378.5729       0.0000      50.8611     -59.3708       1.3576      -1.1549      -0.7045      47.9801       1.0226
    5698.0    1354.6683       0.0000      50.8611     -62.6993       1.1168      -0.9922      -0.5119      54.0958       1.0268
    5699.0    1346.9828       0.0000      50.8611     -62.5037       1.0487      -0.9302      -0.4835      60.1976       1.0226
    5700.0    1331.2577       0.0000      50.8611     -64.5987       1.1338      -1.0235      -0.4869      66.2871       1.0226
    5701.0    1314.6799       0.0000      50.8611     -58.8998       1.1173      -0.9520      -0.5798      72.3889       1.0226
    5702.0    1307.8730       0.0000      50.8611     -55.2708       1.0694      -0.8785      -0.6096      78.4906       1.0226
    5703.0    1288.1851       0.0000      50.8611     -56.3258       1.0930      -0.9099      -0.6027      84.5924       1.0226
    5704.0    1283.0748       0.0000      50.8611     -52.1710       1.0229      -0.8070      -0.6276      90.6951       1.0226
    5705.0    1272.3721       0.0000      50.8611     -54.5659       1.1998      -0.9745      -0.6983      96.7969       1.0226
    5706.0    1250.2455       0.0000      50.8611     -54.3040       1.1034      -0.8962      -0.6435     103.2944       1.0226
    5707.0    1250.3894       0.0000      50.8611     -42.8535       0.9983      -0.6825      -0.7094     109.3962       1.0226
    5708.0    1246.6755       0.0000      50.8611     -55.2073       1.1417      -0.9364      -0.6525     115.4904       1.0162
    5709.0    1238.7476       0.0000      50.8611     -55.1601       1.1113      -0.9119      -0.6345     121.5799       1.0162
    5710.0    1237.0477       0.0000      50.8611     -57.4561       1.1803      -0.9922      -0.6366     127.6825       1.0226
    5711.0    1231.5776       0.0000      50.8611     -51.9902       1.1655      -0.9194      -0.7128     133.7673       1.0185
    5712.0    1237.4205       0.0000      50.8611     -48.1076       1.0074      -0.7492      -0.6685     139.8691       1.0226
    5713.0    1231.0338       0.0000      50.8611     -44.8777       1.0117      -0.7110      -0.7184     145.9719       1.0226
    5714.0    1245.3296       0.0000      50.8611     -55.0819       1.0784      -0.8805      -0.6206     152.0738       1.0226
    5715.0    1242.6519       0.0000      50.8611     -54.8733       1.1125      -0.9159      -0.6186     158.1757       1.0226
    5716.0    1254.7075       0.0000      50.8611     -52.1334       0.9824      -0.7757      -0.6027     164.2652       1.0226
    5717.0    1271.0919       0.0000      50.8611     -53.3428       1.0365      -0.8315      -0.6186     170.3671       1.0226
    5718.0    1283.5942       0.0000      50.8611     -51.2102       1.1183      -0.8717      -0.7004     176.8771       1.0226
    5719.0    1303.0255       0.0000      50.8611     -54.8650       0.9779      -0.8002      -0.5618     182.9790       1.0226
    5720.0    1314.7973       0.0000      50.8611     -48.7082       0.9997      -0.7512      -0.6595     189.0685       1.0226
    5721.0    1333.2175       0.0000      50.8611     -53.5454       0.9035      -0.7267      -0.5368     195.1580       1.0226
    5722.0    1340.6304       0.0000      50.8611     -54.8706       0.9878      -0.8070      -0.5687     201.2742       1.0226
    5723.0    1346.4200       0.0000      50.8611     -52.0855       1.1155      -0.8805      -0.6844     207.3749       1.0226
    5724.0    1362.6454       0.0000      50.8611     -54.8131       1.0747      -0.8785      -0.6186     213.4663       1.0162
    5725.0    1373.2910       0.0000      50.8611     -53.2764       0.9675      -0.7757      -0.5777     219.5802       1.0226
    5726.0    1381.3850       0.0000      50.8611     -51.3913       0.9068      -0.7090      -0.5618     225.6821       1.0226
    5727.0    1391.2536       0.0000      50.8611     -47.1919       0.9603      -0.7022      -0.6525     231.7840       1.0226
    5728.0    1394.6306       0.0000      50.8611     -53.5540       1.0441      -0.8404      -0.6186     237.8859       1.0292
    5729.0    1401.7378       0.0000      50.8611     -58.1160       0.9988      -0.8472      -0.5278     244.0033       1.0226
    5730.0    1404.0650       0.0000      50.8611     -60.4109       0.9953      -0.8649      -0.4869     250.5165       1.0162
    5731.0    1410.1717       0.0000      50.8611     -58.0550       0.9117      -0.7737      -0.4800     256.6136       1.0226
    5732.0    1418.7077       0.0000      50.8611     -52.6412       0.9534      -0.7580      -0.5777     262.7154       1.0226
    5733.0    1420.9550       0.0000      50.8611     -55.5052       0.9216      -0.7600      -0.5209     268.8303       1.0268
    5734.0    1420.4546       0.0000      50.8611     -57.3989       0.9310      -0.7825      -0.5029     274.9321       1.0226
    5735.0    1426.2170       0.0000      50.8611     -58.8773       0.9396      -0.8050      -0.4800     281.0216       1.0185
    5736.0    1440.3411       0.0000      50.8611     -62.2499       1.0305      -0.9119      -0.4800     287.1110       1.0292
    5737.0    1435.4598       0.0000      50.8611     -50.1760       0.9330      -0.7219      -0.5867     293.2259       1.0226
    5738.0    1441.9837       0.0000      50.8611     -58.2888       0.9275      -0.7894      -0.4869     299.3277       1.0226
    5739.0    1445.1173       0.0000      50.8611     -61.5239       0.9259      -0.8139      -0.4391     305.4295       1.0226
    5740.0    1434.9490       0.0000      50.8611     -63.9470       0.9430      -0.8472      -0.4142     311.5313       1.0226
    5741.0    1440.7183       0.0000      50.8611     -57.9131       0.9340      -0.7914      -0.4959     317.6362       1.0226
    5742.0    1440.7183       0.0000      50.8611     -57.6610       0.8990      -0.7600      -0.4800     324.1437       1.0226
    5743.0    1443.7886       0.0000      50.8611     -62.5802       0.9896      -0.8785      -0.4551     330.2586       1.0226
    5744.0    1449.2475       0.0000      50.8611     -61.7148       1.0991      -0.9677      -0.5209     336.3528       1.0185
    5745.0    1436.0934       0.0000      50.8611     -65.3341       0.9325      -0.8472      -0.3892     342.4498       1.0226
    5746.0    1435.9968       0.0000      50.8611     -60.7223       1.0013      -0.8737      -0.4890     348.5516       1.0226
    5747.0    1436.7390       0.0000      50.8611     -61.0588       0.9724      -0.8492      -0.4730     354.6665       1.0226
    5748.0    1432.0265       0.0000      50.8611     -64.8511       1.0171      -0.9207      -0.4301       0.7814       1.0226
