~VERSION INFORMATION
VERS.           2.0   :CWLS Log ASCII Standard - VERSION 2.0
WRAP.           NO    :One Line per depth step
PROD.  Schlumberger   :LAS Producer
PROG.  DLIS to ASCII 19C2-270                          :LAS Program name and version
CREA.        2017/09/16 17:42                          :LAS Creation date {YYYY/MM/DD hh:mm}
DLIS_CREA.  2017-Sep-15 15:10                          :DLIS Creation date and time {YYYY-MMM-DD hh:mm}
SOURCE.     LPC_S2-1_2A5.DLIS                          :DLIS File Name
FILE-ID.     PERFO_Perfo_WPGRT_033LTP                  :File Identification Number
#--------------------------------------------------
~WELL INFORMATION
#MNEM.UNIT      DATA             DESCRIPTION
#---- ------ --------------   -----------------------------
STRT .S        15770.0       :START TIME      
STOP .S        16224.0       :STOP TIME      
STEP .S            1.0       :STEP     
NULL .          -999.25      :NULL VALUE
COMP .        SHELL INTERNATIONAL E P                  :COMPANY
WELL .        WPP TEST 2                               :WELL
FLD  .        WILDCAT                                  :FIELD
LOC  .                                                 :LOCATION
CNTY .        HARRIS                                   :COUNTY
STAT .        TEXAS                                    :STATE
CTRY .                                                 :COUNTRY
API  .                                                 :API NUMBER
UWI  .                                                 :UNIQUE WELL ID
DATE .                                                 :LOG DATE
SRVC .        Schlumberger                             :SERVICE COMPANY
LATI .DEG                                              :LATITUDE
LONG .DEG                                              :LONGITUDE
GDAT .                                                 :GeoDetic Datum
#-----------------------------------------------------------------------------
~PARAMETER INFORMATION
#MNEM.UNIT    VALUE                      DESCRIPTION
#---- -----   --------------------       ------------------------
U-PHASE_B_COMP_PER_YT.                 0 :Phase B Comparator Period Yt
U-PHASE_A_COMP_PER_XT.                 0 :Phase A Comparator Period Xt
U-MAX_EXC_CUR_LIMIT.MA       240.00000   :Requested CM Current Limit
U-REQ_EXC_FQ.HZ              50          :Requested CM Frequency
U-TILT_Y_OFFSET.           0.19916       :WPTET Tilt Y Offset
U-TILT_Y_GAIN.           1.01796         :WPTET Tilt Y Gain
U-TILT_X_OFFSET.          -1.77103       :WPTET Tilt X Offset
U-TILT_X_GAIN.           1.00000         :WPTET Tilt X Gain
U-TILT_OFFSET_TOL.           0.00100     :WPTET Tilt Offset Calibration Tolerance
U-NO_TILT_CAL_ROTATIONS.                 3 :Number of Rotations for Tilt Calibration
HAZI .DEG        0.00000                 :Hole Azimuth
U-STD_TOL_TILT.           0.01000        :Tilt Standard Deviation Tolerance
U-GUN_POS_TOL.DEG        5.00000         :Gun Position Tolerance
ROT_ANGLE_THRESHOLD.DEG        5.00000   :Rotation Stop Angle Tolerance
STOP_ROT_ANGLE.DEG       80.00000        :Rotation Stop Angle
WITN .                                   :Witness's Name
ENGI .                                   :Engineer's Name
COUN .        HARRIS                     :County or Rig Name
FN   .        WILDCAT                    :Field Name
WN   .        WPP TEST 2                 :Well Name
CN   .        SHELL INTERNATIONAL E P    :Company Name
CLAB .        County                     :County/Rig Label
SLAB .        State                      :State/Province Label
RUN  .          1                        :RUN NUMBER
PDAT .        GROUND LEVEL               :Permanent Datum
EPD  .                                   :Elevation of Permanent Datum above Mean Sea Level
LMF  .                                   :Logging Measured From (Name of Logging Elevation Reference)
APD  .                                   :Elevation of Depth Reference (LMF) above Permanent Datum
#-----------------------------------------------------------------------------
~CURVE INFORMATION
#MNEM.UNIT   API CODE                                  DESCRIPTION
#---- -----  --------                                  -----------------------
TIME .S                                                :TIME {F10.1}
FREQ_EMF_SL.HZ                                         :Electromagnetic Field Frequency {F13.4}
PH_SH_WPPCM_SL.DEG                                     :WPPCM Phase Shift {F13.4}
FREQ_EXC_REQ_SL.HZ                                     :Requested Exciter Frequency {F13.4}
RB_SL.DEG                                              :Relative Bearing {F13.4}
SDEV_SL.DEG                                            :Sonde Deviation {F13.4}
TILX_SL.DEG                                            :X-axis Tilt {F13.4}
TILY_SL.DEG                                            :Y-axis Tilt {F13.4}
ROTA_SL.DEG                                            :Motor Rotation Angle {F13.4}
MSPE_SL.RPM                                            :Motor Speed {F13.4}
#-----------------------------------------------------------------------------
# 
#     TIME    FREQ_EMF_SL  PH_SH_WPPCM_ FREQ_EXC_REQ    RB_SL       SDEV_SL      TILX_SL      TILY_SL      ROTA_SL      MSPE_SL
#                          SL           _SL
~A  
# ...
   15833.0    1408.9276       0.0000      50.8611    -117.7294       5.1788      -4.5827       2.4071     217.5707       1.0226
   15834.0    1400.3707       0.0000      50.8611    -111.9176       5.2417      -4.8618       1.9543     223.6828       1.0226
   15835.0    1381.4530       0.0000      50.8611    -105.4251       5.2097      -5.0215       1.3839     230.1935       1.0226
   15836.0    1359.9441       0.0000      50.8611    -101.6393       5.2503      -5.1420       1.0578     236.2860       1.0226
   15837.0    1349.3750       0.0000      50.8611     -97.6681       5.4279      -5.3790       0.7235     242.3853       1.0331
   15838.0    1321.4783       0.0000      50.8611     -90.3496       5.3480      -5.3479       0.0325     248.4970       1.0226
   15839.0    1292.0988       0.0000      50.8611     -84.2585       5.3739      -5.3469      -0.5368     254.6018       1.0226
   15840.0    1266.6652       0.0000      50.8611     -81.3063       5.4875      -5.4242      -0.8282     260.7065       1.0226
   15841.0    1234.9758       0.0000      50.8611     -75.8179       5.5862      -5.4154      -1.3666     266.8183       1.0226
   15842.0    1203.8784       0.0000      50.8611     -70.9175       5.6556      -5.3439      -1.8463     272.9171       1.0226
   15843.0    1177.7638       0.0000      50.8611     -63.7110       5.6508      -5.0647      -2.4994     279.0216       1.0226
   15844.0    1164.1143       0.0000      50.8611     -59.3862       5.5629      -4.7855      -2.8296     285.1015       1.0226
   15845.0    1150.7303       0.0000      50.8611     -56.6916       5.6749      -4.7403      -3.1128     291.2062       1.0226
   15846.0    1137.6509       0.0000      50.8611     -50.4947       5.7312      -4.4190      -3.6423     297.2866       1.0226
   15847.0    1116.0272       0.0000      50.8611     -45.6171       5.6242      -4.0163      -3.9305     303.4013       1.0226
   15848.0    1112.5836       0.0000      50.8611     -39.5212       5.6225      -3.5745      -4.3343     309.8886       1.0226
   15849.0    1105.4127       0.0000      50.8611     -40.6630       6.0992      -3.9702      -4.6226     315.9750       1.0226
   15850.0    1095.0830       0.0000      50.8611     -32.0642       5.6008      -2.9700      -4.7442     322.0796       1.0226
   15851.0    1091.6824       0.0000      50.8611     -24.8651       5.4557      -2.2912      -4.9486     328.1842       1.0226
   15852.0    1093.5071       0.0000      50.8611     -21.1627       5.3547      -1.9307      -4.9926     334.2830       1.0226
   15853.0    1090.3078       0.0000      50.8611     -16.8602       5.3885      -1.5609      -5.1559     340.3821       1.0228
   15854.0    1103.8503       0.0000      50.8611      -6.9434       5.3973      -0.6514      -5.3575     346.5132       1.0229
   15855.0    1123.2029       0.0000      50.8611      -6.6382       5.1881      -0.5992      -5.1531     352.6184       1.0331
   15856.0    1132.2463       0.0000      50.8611       1.3519       4.9572       0.1168      -4.9558     358.7299       1.0226
   15857.0    1143.4328       0.0000      50.8611       5.5034       5.0570       0.4843      -5.0335       4.8287       1.0226
   15858.0    1156.7923       0.0000      50.8611      11.1660       4.7620       0.9211      -4.6716      10.9335       1.0223
   15859.0    1181.8224       0.0000      50.8611      15.3502       4.7135       1.2465      -4.5449      17.0493       1.0226
   15860.0    1210.3024       0.0000      50.8611      23.6132       4.5170       1.8078      -4.1380      23.5430       1.0226
   15861.0    1244.7469       0.0000      50.8611      28.4762       4.4751       2.1322      -3.9326      29.6355       1.0123
   15862.0    1278.8809       0.0000      50.8611      33.7925       4.4814       2.4907      -3.7230      35.7279       1.0226
   15863.0    1314.4376       0.0000      50.8611      38.9378       4.1586       2.6122      -3.2334      41.8265       1.0123
   15864.0    1352.0986       0.0000      50.8611      44.5823       4.1354       2.9014      -2.9431      47.9265       1.0331
   15865.0    1370.5640       0.0000      50.8611      53.1012       4.0239       3.2169      -2.4144      54.0372       1.0226
   15866.0    1386.7661       0.0000      50.8611      59.1632       4.0690       3.4928      -2.0844      60.1362       1.0331
   15867.0    1403.4431       0.0000      50.8611      67.4156       3.9530       3.6495      -1.5171      66.2479       1.0226
   15868.0    1409.2100       0.0000      50.8611      74.3160       3.7919       3.6505      -1.0244      72.3587       1.0226
   15869.0    1432.0265       0.0000      50.8611      83.8213       3.8708       3.8483      -0.4162      78.4392       1.0226
   15870.0    1435.0960       0.0000      50.8611      91.8069       3.6925       3.6906       0.1164      84.5700       1.0226
   15871.0    1461.6470       0.0000      50.8611      98.3417       3.6084       3.5701       0.5232      90.6569       1.0331
   15872.0    1464.9202       0.0000      50.8611     102.7956       3.4954       3.4085       0.7736      97.1796       1.0226
   15873.0    1480.2632       0.0000      50.8611     114.3272       3.5624       3.2458       1.4667     103.2977       1.0331
   15874.0    1486.4437       0.0000      50.8611     122.1764       3.6005       3.0470       1.9165     109.4093       1.0226
   15875.0    1495.9312       0.0000      50.8611     129.8460       3.5013       2.6875       2.2425     115.4958       1.0226
   15876.0    1499.3610       0.0000      50.8611     135.5887       3.4325       2.4013       2.4511     121.6008       1.0331
   15877.0    1499.2204       0.0000      50.8611     141.4003       3.6599       2.2823       2.8594     127.7187       1.0331
   15878.0    1508.8519       0.0000      50.8611     153.5737       3.6941       1.6431       3.3077     133.8305       1.0226
   15879.0    1515.1930       0.0000      50.8611     158.9661       3.7587       1.3489       3.5070     139.9425       1.0226
   15880.0    1508.9331       0.0000      50.8611     166.8148       3.8562       0.8790       3.7544     146.0473       1.0226
   15881.0    1502.5650       0.0000      50.8611     172.9817       3.9094       0.4773       3.8801     152.1521       1.0226
   15882.0    1505.6210       0.0000      50.8611     169.9657       4.0873       0.0736       4.0866     158.2511       1.0226
   15883.0    1499.0413       0.0000      50.8611    -173.1876       4.1147      -0.4877       4.0856     164.3561       1.0226
   15884.0    1502.4038       0.0000      50.8611    -166.0915       4.2050      -1.0099       4.0815     170.8537       1.0226
   15885.0    1480.4984       0.0000      50.8611    -160.2416       4.2949      -1.4507       4.0416     176.9714       1.0226
   15886.0    1489.4364       0.0000      50.8611    -154.8706       4.4650      -1.8945       4.0416     183.0525       1.0229
   15887.0    1480.1080       0.0000      50.8611    -149.3191       4.5095      -2.2992       3.8770     189.1583       1.0226
   15888.0    1470.9729       0.0000      50.8611    -143.2958       4.5826      -2.7370       3.6726     195.2631       1.0226
   15889.0    1446.9839       0.0000      50.8611    -137.1688       4.6758      -3.1769       3.4273     201.3621       1.0226
   15890.0    1435.0223       0.0000      50.8611    -130.9936       4.8541      -3.6619       3.1819     207.4744       1.0226
   15891.0    1423.4021       0.0000      50.8611    -124.2052       4.8679      -4.0244       2.7342     213.5792       1.0226
   15892.0    1412.0399       0.0000      50.8611    -119.3848       4.9855      -4.3427       2.4439     219.6848       1.0226
   15893.0    1400.5778       0.0000      50.8611    -114.2177       5.0712      -4.6239       2.0780     225.7837       1.0226
   15894.0    1391.9181       0.0000      50.8611    -108.1124       5.2439      -4.9834       1.6282     231.8887       1.0223
   15895.0    1365.3577       0.0000      50.8611    -103.7601       5.2965      -5.1440       1.2582     237.9812       1.0226
