~VERSION INFORMATION
VERS.           2.0   :CWLS Log ASCII Standard - VERSION 2.0
WRAP.           NO    :One Line per depth step
PROD.  Schlumberger   :LAS Producer
PROG.  DLIS to ASCII 19C2-270                          :LAS Program name and version
CREA.        2017/09/16 17:42                          :LAS Creation date {YYYY/MM/DD hh:mm}
DLIS_CREA.  2017-Sep-15 12:00                          :DLIS Creation date and time {YYYY-MMM-DD hh:mm}
SOURCE.     LPC_S1-1_A5.DLIS                           :DLIS File Name
FILE-ID.     PERFO_Perfo_WPGRT_019LTP                  :File Identification Number
#--------------------------------------------------
~WELL INFORMATION
#MNEM.UNIT      DATA             DESCRIPTION
#---- ------ --------------   -----------------------------
STRT .S         4414.0       :START TIME      
STOP .S         5447.0       :STOP TIME      
STEP .S            1.0       :STEP     
NULL .          -999.25      :NULL VALUE
COMP .        SHELL INTERNATIONAL E P                  :COMPANY
WELL .        WPP TEST 2                               :WELL
FLD  .        WILDCAT                                  :FIELD
LOC  .                                                 :LOCATION
CNTY .        HARRIS                                   :COUNTY
STAT .        TEXAS                                    :STATE
CTRY .                                                 :COUNTRY
API  .                                                 :API NUMBER
UWI  .                                                 :UNIQUE WELL ID
DATE .                                                 :LOG DATE
SRVC .        Schlumberger                             :SERVICE COMPANY
LATI .DEG                                              :LATITUDE
LONG .DEG                                              :LONGITUDE
GDAT .                                                 :GeoDetic Datum
#-----------------------------------------------------------------------------
~PARAMETER INFORMATION
#MNEM.UNIT    VALUE                      DESCRIPTION
#---- -----   --------------------       ------------------------
U-PHASE_B_COMP_PER_YT.                 0 :Phase B Comparator Period Yt
U-PHASE_A_COMP_PER_XT.                 0 :Phase A Comparator Period Xt
U-MAX_EXC_CUR_LIMIT.MA       240.00000   :Requested CM Current Limit
U-REQ_EXC_FQ.HZ              50          :Requested CM Frequency
U-TILT_Y_OFFSET.           0.19916       :WPTET Tilt Y Offset
U-TILT_Y_GAIN.           1.01796         :WPTET Tilt Y Gain
U-TILT_X_OFFSET.          -1.77103       :WPTET Tilt X Offset
U-TILT_X_GAIN.           1.00000         :WPTET Tilt X Gain
U-TILT_OFFSET_TOL.           0.00100     :WPTET Tilt Offset Calibration Tolerance
U-NO_TILT_CAL_ROTATIONS.                 3 :Number of Rotations for Tilt Calibration
HAZI .DEG        0.00000                 :Hole Azimuth
U-STD_TOL_TILT.           0.01000        :Tilt Standard Deviation Tolerance
U-GUN_POS_TOL.DEG        5.00000         :Gun Position Tolerance
ROT_ANGLE_THRESHOLD.DEG        5.00000   :Rotation Stop Angle Tolerance
STOP_ROT_ANGLE.DEG       80.00000        :Rotation Stop Angle
WITN .                                   :Witness's Name
ENGI .                                   :Engineer's Name
COUN .        HARRIS                     :County or Rig Name
FN   .        WILDCAT                    :Field Name
WN   .        WPP TEST 2                 :Well Name
CN   .        SHELL INTERNATIONAL E P    :Company Name
CLAB .        County                     :County/Rig Label
SLAB .        State                      :State/Province Label
RUN  .          1                        :RUN NUMBER
PDAT .        GROUND LEVEL               :Permanent Datum
EPD  .                                   :Elevation of Permanent Datum above Mean Sea Level
LMF  .                                   :Logging Measured From (Name of Logging Elevation Reference)
APD  .                                   :Elevation of Depth Reference (LMF) above Permanent Datum
#-----------------------------------------------------------------------------
~CURVE INFORMATION
#MNEM.UNIT   API CODE                                  DESCRIPTION
#---- -----  --------                                  -----------------------
TIME .S                                                :TIME {F10.1}
FREQ_EMF_SL.HZ                                         :Electromagnetic Field Frequency {F13.4}
PH_SH_WPPCM_SL.DEG                                     :WPPCM Phase Shift {F13.4}
FREQ_EXC_REQ_SL.HZ                                     :Requested Exciter Frequency {F13.4}
RB_SL.DEG                                              :Relative Bearing {F13.4}
SDEV_SL.DEG                                            :Sonde Deviation {F13.4}
TILX_SL.DEG                                            :X-axis Tilt {F13.4}
TILY_SL.DEG                                            :Y-axis Tilt {F13.4}
ROTA_SL.DEG                                            :Motor Rotation Angle {F13.4}
MSPE_SL.RPM                                            :Motor Speed {F13.4}
#-----------------------------------------------------------------------------
# 
#     TIME    FREQ_EMF_SL  PH_SH_WPPCM_ FREQ_EXC_REQ    RB_SL       SDEV_SL      TILX_SL      TILY_SL      ROTA_SL      MSPE_SL
#                          SL           _SL
~A  
# ...
    4540.0    1484.8161       0.0000      50.8611    -130.7082       4.4748      -3.3904       2.9164     205.5776       1.0226
    4541.0    1464.8438       0.0000      50.8611    -125.2713       4.5971      -3.7519       2.6524     211.6804       1.0226
    4542.0    1435.6166       0.0000      50.8611    -116.8012       4.9105      -4.3819       2.2120     217.7699       1.0226
    4543.0    1405.3665       0.0000      50.8611    -110.9929       4.8244      -4.5024       1.7269     224.1947       1.0250
    4544.0    1385.3490       0.0000      50.8611    -109.5842       4.8028      -4.5242       1.6080     230.3794       1.0226
    4545.0    1348.9800       0.0000      50.8611    -101.9759       5.1070      -4.9952       1.0541     236.4813       1.0226
    4546.0    1316.7135       0.0000      50.8611     -98.8448       5.0852      -5.0245       0.7809     242.5839       1.0226
    4547.0    1267.0594       0.0000      50.8611     -91.4093       5.1558      -5.1542       0.1267     248.6882       1.0226
    4548.0    1188.4655       0.0000      50.8611     -88.5571       5.0882      -5.0866      -0.1279     254.7782       1.0202
    4549.0    1121.6030       0.0000      50.8611     -82.4264       5.1904      -5.1450      -0.6832     260.8772       1.0226
    4550.0    1048.9468       0.0000      50.8611     -76.1215       5.2095      -5.0556      -1.2486     266.9790       1.0226
    4551.0    1006.8877       0.0000      50.8611     -70.4284       5.3451      -5.0356      -1.7858     273.0817       1.0250
    4552.0     979.7929       0.0000      50.8611     -65.9017       5.3599      -4.8913      -2.1853     279.1859       1.0226
    4553.0     963.6783       0.0000      50.8611     -63.1553       5.2976      -4.7251      -2.3898     285.2604       1.0226
    4554.0     949.5862       0.0000      50.8611     -58.4842       5.3062      -4.5206      -2.7707     291.3523       1.0309
    4555.0     934.0474       0.0000      50.8611     -51.4273       5.4776      -4.2796      -3.4120     297.4678       1.0226
    4556.0     926.3834       0.0000      50.8611     -46.4056       5.3026      -3.8378      -3.6536     303.9869       1.0250
    4557.0     918.8447       0.0000      50.8611     -43.1025       5.3184      -3.6314      -3.8803     310.0911       1.0226
    4558.0     916.9932       0.0000      50.8611     -39.6361       5.3483      -3.4087      -4.1164     316.1914       1.0226
    4559.0     914.9864       0.0000      50.8611     -32.5880       5.3245      -2.8647      -4.4844     322.2939       1.0226
    4560.0     913.6904       0.0000      50.8611     -26.7410       5.1914      -2.3334      -4.6349     328.3835       1.0226
    4561.0     921.1461       0.0000      50.8611     -22.0999       5.0918      -1.9134      -4.7167     334.4984       1.0250
    4562.0     930.1748       0.0000      50.8611     -18.6713       5.0362      -1.6104      -4.7706     340.6002       1.0226
    4563.0     939.8413       0.0000      50.8611     -12.7425       4.9626      -1.0937      -4.8394     346.6898       1.0226
    4564.0     949.4709       0.0000      50.8611      -7.8706       4.9999      -0.6793      -4.9508     352.7940       1.0226
    4565.0     970.5585       0.0000      50.8611      -0.4969       4.7991      -0.0402      -4.7985     358.9090       1.0250
    4566.0     992.6151       0.0000      50.8611       3.9901       4.7508       0.3304      -4.7390       5.0108       1.0226
    4567.0    1006.8289       0.0000      50.8611       7.5514       4.6571       0.6116      -4.6163      11.1126       1.0226
    4568.0    1028.7818       0.0000      50.8611      14.9378       4.5572       1.1739      -4.4026      17.6207       1.0226
    4569.0    1062.1223       0.0000      50.8611      20.8218       4.4006       1.5628      -4.1127      23.7343       1.0226
    4570.0    1157.2580       0.0000      50.8611      25.6792       4.3331       1.8750      -3.9046      29.8370       1.0202
    4571.0    1235.4387       0.0000      50.8611      31.1112       4.2440       2.1908      -3.6313      35.9388       1.0226
    4572.0    1275.7890       0.0000      50.8611      34.8210       4.0917       2.3351      -3.3581      42.0284       1.0226
    4573.0    1308.8039       0.0000      50.8611      43.4584       3.8955       2.6783      -2.8266      48.1309       1.0144
    4574.0    1342.0859       0.0000      50.8611      51.0783       3.8290       2.9778      -2.4047      54.2204       1.0226
    4575.0    1372.0754       0.0000      50.8611      56.3354       3.6755       3.0581      -2.0367      59.9180       1.0226
    4576.0    1396.3537       0.0000      50.8611      62.3659       3.6482       3.2315      -1.6910      66.0300       1.0250
    4577.0    1427.1454       0.0000      50.8611      71.5049       3.5872       3.4013      -1.1372      72.1365       1.0226
    4578.0    1453.0252       0.0000      50.8611      78.5820       3.4925       3.4232      -0.6911      78.2389       1.0226
    4579.0    1476.4488       0.0000      50.8611      86.6575       3.3637       3.3576      -0.1967      84.3416       1.0226
    4580.0    1508.1169       0.0000      50.8611      92.4989       3.3130       3.3083       0.1433      90.8360       1.0226
    4581.0    1534.4465       0.0000      50.8611      99.8626       3.0781       3.0326       0.5263      96.9515       1.0226
    4582.0    1559.3681       0.0000      50.8611     109.3773       3.1897       3.0088       1.0578     103.0658       1.0226
    4583.0    1575.7111       0.0000      50.8611     118.7636       3.2849       2.8792       1.5800     109.1814       1.0226
    4584.0    1590.7806       0.0000      50.8611     125.0883       3.3243       2.7185       1.9108     115.2964       1.0226
    4585.0    1615.5359       0.0000      50.8611     133.0472       3.3068       2.4154       2.2565     121.3886       1.0144
    4586.0    1629.6662       0.0000      50.8611     141.5574       3.2838       2.0412       2.5707     127.4876       1.0226
    4587.0    1637.2557       0.0000      50.8611     149.1077       3.3406       1.7143       2.8662     133.5895       1.0226
    4588.0    1638.9860       0.0000      50.8611     156.8950       3.5207       1.3803       3.2378     139.7068       1.0226
    4589.0    1643.6906       0.0000      50.8611     164.3271       3.5102       0.9476       3.3791     145.8217       1.0226
    4590.0    1639.8571       0.0000      50.8611     170.1439       3.5543       0.6079       3.5018     151.9114       1.0226
    4591.0    1633.9819       0.0000      50.8611     178.7195       3.8522       0.0858       3.8512     158.0141       1.0226
    4592.0    1631.3805       0.0000      50.8611    -174.5341       3.8371      -0.3652       3.8196     164.5348       1.0226
    4593.0    1619.2563       0.0000      50.8611    -170.0617       3.8516      -0.6646       3.7936     170.6360       1.0226
    4594.0    1602.4834       0.0000      50.8611    -163.6665       3.9050      -1.0973       3.7471     176.7379       1.0226
    4595.0    1587.1896       0.0000      50.8611    -155.5526       4.0232      -1.6633       3.6617     182.8667       1.0226
    4596.0    1570.2742       0.0000      50.8611    -150.0774       4.3032      -2.1453       3.7285     188.9711       1.0226
    4597.0    1549.5113       0.0000      50.8611    -143.2563       4.2765      -2.5561       3.4256     195.0845       1.0226
    4598.0    1518.3534       0.0000      50.8611    -138.4846       4.3583      -2.8866       3.2621     201.1864       1.0226
    4599.0    1498.1970       0.0000      50.8611    -131.4972       4.4995      -3.3686       2.9795     207.2806       1.0226
    4600.0    1475.7473       0.0000      50.8611    -125.6440       4.6412      -3.7702       2.7026     213.3654       1.0226
    4601.0    1442.1788       0.0000      50.8611    -121.3108       4.6604      -3.9802       2.4201     219.4673       1.0226
    4602.0    1416.6930       0.0000      50.8611    -115.4503       4.6758      -4.2212       2.0075     225.5692       1.0226
