~VERSION INFORMATION
VERS.           2.0   :CWLS Log ASCII Standard - VERSION 2.0
WRAP.           NO    :One Line per depth step
PROD.  Schlumberger   :LAS Producer
PROG.  DLIS to ASCII 19C2-270                          :LAS Program name and version
CREA.        2017/09/16 17:42                          :LAS Creation date {YYYY/MM/DD hh:mm}
DLIS_CREA.  2017-Sep-15 16:20                          :DLIS Creation date and time {YYYY-MMM-DD hh:mm}
SOURCE.     LPC_S3-1_BV.DLIS                           :DLIS File Name
FILE-ID.     PERFO_Perfo_WPGRT_040LTP                  :File Identification Number
#--------------------------------------------------
~WELL INFORMATION
#MNEM.UNIT      DATA             DESCRIPTION
#---- ------ --------------   -----------------------------
STRT .S         2992.0       :START TIME      
STOP .S         3401.0       :STOP TIME      
STEP .S            1.0       :STEP     
NULL .          -999.25      :NULL VALUE
COMP .        SHELL INTERNATIONAL E P                  :COMPANY
WELL .        WPP TEST 2                               :WELL
FLD  .        WILDCAT                                  :FIELD
LOC  .                                                 :LOCATION
CNTY .        HARRIS                                   :COUNTY
STAT .        TEXAS                                    :STATE
CTRY .                                                 :COUNTRY
API  .                                                 :API NUMBER
UWI  .                                                 :UNIQUE WELL ID
DATE .                                                 :LOG DATE
SRVC .        Schlumberger                             :SERVICE COMPANY
LATI .DEG                                              :LATITUDE
LONG .DEG                                              :LONGITUDE
GDAT .                                                 :GeoDetic Datum
#-----------------------------------------------------------------------------
~PARAMETER INFORMATION
#MNEM.UNIT    VALUE                      DESCRIPTION
#---- -----   --------------------       ------------------------
U-PHASE_B_COMP_PER_YT.                 0 :Phase B Comparator Period Yt
U-PHASE_A_COMP_PER_XT.                 0 :Phase A Comparator Period Xt
U-MAX_EXC_CUR_LIMIT.MA       240.00000   :Requested CM Current Limit
U-REQ_EXC_FQ.HZ              50          :Requested CM Frequency
U-TILT_Y_OFFSET.           0.19916       :WPTET Tilt Y Offset
U-TILT_Y_GAIN.           1.01796         :WPTET Tilt Y Gain
U-TILT_X_OFFSET.          -1.77103       :WPTET Tilt X Offset
U-TILT_X_GAIN.           1.00000         :WPTET Tilt X Gain
U-TILT_OFFSET_TOL.           0.00100     :WPTET Tilt Offset Calibration Tolerance
U-NO_TILT_CAL_ROTATIONS.                 3 :Number of Rotations for Tilt Calibration
HAZI .DEG        0.00000                 :Hole Azimuth
U-STD_TOL_TILT.           0.01000        :Tilt Standard Deviation Tolerance
U-GUN_POS_TOL.DEG        5.00000         :Gun Position Tolerance
ROT_ANGLE_THRESHOLD.DEG        5.00000   :Rotation Stop Angle Tolerance
STOP_ROT_ANGLE.DEG        0.00000        :Rotation Stop Angle
WITN .                                   :Witness's Name
ENGI .                                   :Engineer's Name
COUN .        HARRIS                     :County or Rig Name
FN   .        WILDCAT                    :Field Name
WN   .        WPP TEST 2                 :Well Name
CN   .        SHELL INTERNATIONAL E P    :Company Name
CLAB .        County                     :County/Rig Label
SLAB .        State                      :State/Province Label
RUN  .          1                        :RUN NUMBER
PDAT .        GROUND LEVEL               :Permanent Datum
EPD  .                                   :Elevation of Permanent Datum above Mean Sea Level
LMF  .                                   :Logging Measured From (Name of Logging Elevation Reference)
APD  .                                   :Elevation of Depth Reference (LMF) above Permanent Datum
#-----------------------------------------------------------------------------
~CURVE INFORMATION
#MNEM.UNIT   API CODE                                  DESCRIPTION
#---- -----  --------                                  -----------------------
TIME .S                                                :TIME {F10.1}
FREQ_EMF_SL.HZ                                         :Electromagnetic Field Frequency {F13.4}
PH_SH_WPPCM_SL.DEG                                     :WPPCM Phase Shift {F13.4}
FREQ_EXC_REQ_SL.HZ                                     :Requested Exciter Frequency {F13.4}
RB_SL.DEG                                              :Relative Bearing {F13.4}
SDEV_SL.DEG                                            :Sonde Deviation {F13.4}
TILX_SL.DEG                                            :X-axis Tilt {F13.4}
TILY_SL.DEG                                            :Y-axis Tilt {F13.4}
ROTA_SL.DEG                                            :Motor Rotation Angle {F13.4}
MSPE_SL.RPM                                            :Motor Speed {F13.4}
#-----------------------------------------------------------------------------
# 
#     TIME    FREQ_EMF_SL  PH_SH_WPPCM_ FREQ_EXC_REQ    RB_SL       SDEV_SL      TILX_SL      TILY_SL      ROTA_SL      MSPE_SL
#                          SL           _SL
~A  
# ...
    3118.0    1562.4710       0.0000      50.8611     -64.4758       1.1284      -1.0184      -0.4859     139.9734       1.0307
    3119.0    1555.5862       0.0000      50.8611     -64.4548       0.9837      -0.8874      -0.4242     146.0785       1.0226
    3120.0    1537.7000       0.0000      50.8611     -63.1110       1.0740      -0.9578      -0.4859     152.1935       1.0226
    3121.0    1521.8875       0.0000      50.8611     -61.4439       1.1019      -0.9677      -0.5268     158.2954       1.0226
    3122.0    1514.5531       0.0000      50.8611     -65.2954       1.1869      -1.0783      -0.4959     164.3973       1.0226
    3123.0    1499.2685       0.0000      50.8611     -66.8182       1.1084      -1.0184      -0.4343     170.4992       1.0226
    3124.0    1476.3540       0.0000      50.8611     -58.9795       1.0814      -0.9269      -0.5570     176.6034       1.0226
    3125.0    1448.9721       0.0000      50.8611     -60.7790       1.1894      -1.0387      -0.5777     182.7030       1.0226
    3126.0    1434.2293       0.0000      50.8611     -56.4072       1.2101      -1.0079      -0.6696     189.1982       1.0226
    3127.0    1403.4431       0.0000      50.8611     -63.5411       1.0943      -0.9782      -0.4853     195.3008       1.0226
    3128.0    1380.0043       0.0000      50.8611     -58.3482       1.1012      -0.9374      -0.5777     201.4020       1.0226
    3129.0    1357.3600       0.0000      50.8611     -58.5804       1.1461      -0.9776      -0.5979     207.5144       1.0226
    3130.0    1322.8917       0.0000      50.8611     -53.5158       1.1788      -0.9479      -0.7004     213.6218       1.0226
    3131.0    1280.7185       0.0000      50.8611     -49.8161       1.2289      -0.9374      -0.7928     219.7144       1.0146
    3132.0    1234.7481       0.0000      50.8611     -52.1671       1.1169      -0.8818      -0.6828     225.8133       1.0226
    3133.0    1185.6884       0.0000      50.8611     -53.2909       1.0700      -0.8571      -0.6394     231.9028       1.0226
    3134.0    1142.8357       0.0000      50.8611     -56.7125       1.1838      -0.9881      -0.6488     237.9931       1.0226
    3135.0    1096.9012       0.0000      50.8611     -48.3033       1.2490      -0.9281      -0.8343     244.0942       1.0226
    3136.0    1065.7271       0.0000      50.8611     -53.4874       1.1426      -0.9176      -0.6796     250.1961       1.0226
    3137.0    1032.8501       0.0000      50.8611     -57.6696       1.0994      -0.9275      -0.5884     256.2856       1.0200
    3138.0    1006.6121       0.0000      50.8611     -51.0405       1.1148      -0.8670      -0.7004     262.6950       1.0226
    3139.0     994.5039       0.0000      50.8611     -52.9443       1.1524      -0.9182      -0.6897     268.8949       1.0226
    3140.0     987.1699       0.0000      50.8611     -54.1961       0.9840      -0.7965      -0.5771     274.9867       1.0226
    3141.0     984.4298       0.0000      50.8611     -52.5349       1.0676      -0.8472      -0.6494     281.0894       1.0200
    3142.0     973.2261       0.0000      50.8611     -49.6927       0.8916      -0.6766      -0.5771     287.1819       1.0146
    3143.0     974.1781       0.0000      50.8611     -50.0810       1.0917      -0.8373      -0.7004     293.2806       1.0226
    3144.0     972.2455       0.0000      50.8611     -46.9395       1.0444      -0.7619      -0.7136     299.3740       1.0206
    3145.0     976.5625       0.0000      50.8611     -46.9526       1.0094      -0.7366      -0.6897     305.4898       1.0200
    3146.0     980.3122       0.0000      50.8611     -53.6240       1.1286      -0.9077      -0.6702     311.6016       1.0226
    3147.0     994.5461       0.0000      50.8611     -51.3998       1.0730      -0.8373      -0.6702     317.7034       1.0226
    3148.0     999.1313       0.0000      50.8611     -45.7272       0.9732      -0.6964      -0.6796     323.7967       1.0200
    3149.0    1013.1484       0.0000      50.8611     -53.4051       0.8810      -0.7063      -0.5261     329.8833       1.0226
    3150.0    1037.0871       0.0000      50.8611     -48.5768       1.1195      -0.8373      -0.7419     336.2903       1.0226
    3151.0    1076.8404       0.0000      50.8611     -50.3899       1.0347      -0.7971      -0.6595     342.5057       1.0226
    3152.0    1112.1455       0.0000      50.8611     -48.2020       0.8829      -0.6562      -0.5884     348.6098       1.0226
    3153.0    1159.3324       0.0000      50.8611     -54.9480       0.8669      -0.7063      -0.4966     354.7023       1.0146
    3154.0    1220.2302       0.0000      50.8611     -49.7768       0.8468      -0.6464      -0.5469      89.4418       1.0200
    3155.0    1285.4685       0.0000      50.8611     -56.2309       0.9109      -0.7570      -0.5060       6.9168       1.0226
    3156.0    1319.7031       0.0000      50.8611     -53.6945       0.9860      -0.7942      -0.5831      13.0187       1.0226
    3157.0    1347.1185       0.0000      50.8611     -56.9460       0.8541      -0.7162      -0.4651      19.0958       1.0226
    3158.0    1369.3033       0.0000      50.8611     -58.4574       0.8292      -0.7063      -0.4343      25.1977       1.0226
    3159.0    1391.6492       0.0000      50.8611     -56.2713       0.8375      -0.6964      -0.4651      31.3125       1.0226
    3160.0    1414.7981       0.0000      50.8611     -53.8462       0.8766      -0.7069      -0.5161      37.4143       1.0146
    3161.0    1437.2314       0.0000      50.8611     -62.6464       0.8109      -0.7168      -0.3727      43.5062       1.0226
    3162.0    1458.0218       0.0000      50.8611     -60.7455       0.9944      -0.8676      -0.4859      49.9241       1.0226
    3163.0    1486.5890       0.0000      50.8611     -58.7714       0.8970      -0.7669      -0.4651      56.1394       1.0307
    3164.0    1504.8287       0.0000      50.8611     -60.7120       0.9722      -0.8472      -0.4758      62.2445       1.0226
    3165.0    1524.4040       0.0000      50.8611     -60.6450       0.9039      -0.7866      -0.4444      68.3339       1.0200
    3166.0    1536.0346       0.0000      50.8611     -59.7077       1.0049      -0.8676      -0.5060      74.4456       1.0307
    3167.0    1559.0355       0.0000      50.8611     -63.6726       0.9342      -0.8373      -0.4142      80.5384       1.0200
    3168.0    1570.1360       0.0000      50.8611     -61.4416       1.0105      -0.8880      -0.4805      86.6402       1.0287
    3169.0    1578.2622       0.0000      50.8611     -57.8437       0.9869      -0.8361      -0.5167      92.7550       0.2524
    3170.0    1594.3877       0.0000      50.8611     -69.0263       0.9616      -0.8979      -0.3425      93.0557       0.0005
    3171.0    1597.1190       0.0000      50.8611     -69.6219       1.0118      -0.9479      -0.3531      93.0557       0.0005
    3172.0    1592.6152       0.0000      50.8611     -66.1132       0.9490      -0.8676      -0.3833      93.0557       0.0005
    3173.0    1589.8544       0.0000      50.8611     -61.4684       0.9530      -0.8373      -0.4551      93.0557       0.0005
    3174.0    1600.7551       0.0000      50.8611     -62.5511       0.9660      -0.8571      -0.4450      93.0557       0.0005
    3175.0    1596.2308       0.0000      50.8611     -61.3039       1.0118      -0.8874      -0.4859      93.0557       0.0005
    3176.0    1592.5612       0.0000      50.8611     -64.6247       1.0161      -0.9182      -0.4349      93.0557       0.0005
    3177.0    1589.8544       0.0000      50.8611     -59.3123       1.0321      -0.8874      -0.5268      93.0557       0.0005
    3178.0    1594.3877       0.0000      50.8611     -63.6118       1.0021      -0.8979      -0.4450      93.0557       0.0005
    3179.0    1594.3877       0.0000      50.8611     -58.7923       0.9206      -0.7866      -0.4758      93.0557       0.0005
    3180.0    1594.3877       0.0000      50.8611     -58.9426       0.9186      -0.7860      -0.4657      93.0557       0.0005
