~VERSION INFORMATION
VERS.           2.0   :CWLS Log ASCII Standard - VERSION 2.0
WRAP.           NO    :One Line per depth step
PROD.  Schlumberger   :LAS Producer
PROG.  DLIS to ASCII 19C2-270                          :LAS Program name and version
CREA.        2017/09/16 17:42                          :LAS Creation date {YYYY/MM/DD hh:mm}
DLIS_CREA.  2017-Sep-15 18:02                          :DLIS Creation date and time {YYYY-MMM-DD hh:mm}
SOURCE.     LPC_S4-1_2AV.DLIS                          :DLIS File Name
FILE-ID.     PERFO_Perfo_WPGRT_052LTP                  :File Identification Number
#--------------------------------------------------
~WELL INFORMATION
#MNEM.UNIT      DATA             DESCRIPTION
#---- ------ --------------   -----------------------------
STRT .S         3713.0       :START TIME      
STOP .S         4115.0       :STOP TIME      
STEP .S            1.0       :STEP     
NULL .          -999.25      :NULL VALUE
COMP .        SHELL INTERNATIONAL E P                  :COMPANY
WELL .        WPP TEST 2                               :WELL
FLD  .        WILDCAT                                  :FIELD
LOC  .        NA                                       :LOCATION
CNTY .        HARRIS                                   :COUNTY
STAT .        TEXAS                                    :STATE
CTRY .                                                 :COUNTRY
API  .        NA                                       :API NUMBER
UWI  .                                                 :UNIQUE WELL ID
DATE .        15-Sep-2017                              :LOG DATE {DD-MMM-YYYY}
SRVC .        Schlumberger                             :SERVICE COMPANY
LATI .DEG                                              :LATITUDE
LONG .DEG                                              :LONGITUDE
GDAT .                                                 :GeoDetic Datum
SECT .        NA                                       :Section
RANG .        NA                                       :Range
TOWN .        NA                                       :Township
#-----------------------------------------------------------------------------
~PARAMETER INFORMATION
#MNEM.UNIT    VALUE                      DESCRIPTION
#---- -----   --------------------       ------------------------
U-PHASE_B_COMP_PER_YT.                 0 :Phase B Comparator Period Yt
U-PHASE_A_COMP_PER_XT.                 0 :Phase A Comparator Period Xt
U-MAX_EXC_CUR_LIMIT.MA       240.00000   :Requested CM Current Limit
U-REQ_EXC_FQ.HZ              50          :Requested CM Frequency
U-TILT_Y_OFFSET.           0.19916       :WPTET Tilt Y Offset
U-TILT_Y_GAIN.           1.01796         :WPTET Tilt Y Gain
U-TILT_X_OFFSET.          -1.77103       :WPTET Tilt X Offset
U-TILT_X_GAIN.           1.00000         :WPTET Tilt X Gain
U-TILT_OFFSET_TOL.           0.00100     :WPTET Tilt Offset Calibration Tolerance
U-NO_TILT_CAL_ROTATIONS.                 3 :Number of Rotations for Tilt Calibration
HAZI .DEG        0.00000                 :Hole Azimuth
U-STD_TOL_TILT.           0.01000        :Tilt Standard Deviation Tolerance
U-GUN_POS_TOL.DEG        5.00000         :Gun Position Tolerance
ROT_ANGLE_THRESHOLD.DEG        5.00000   :Rotation Stop Angle Tolerance
STOP_ROT_ANGLE.DEG        0.00000        :Rotation Stop Angle
WITN .        MR. DHRUA ARORA            :Witness's Name
ENGI .        MORRIS MOORE               :Engineer's Name
COUN .        HARRIS                     :County or Rig Name
FN   .        WILDCAT                    :Field Name
WN   .        WPP TEST 2                 :Well Name
CN   .        SHELL INTERNATIONAL E P    :Company Name
CLAB .        County                     :County/Rig Label
SLAB .        State                      :State/Province Label
RUN  .          1                        :RUN NUMBER
PDAT .        GROUND LEVEL               :Permanent Datum
EPD  .                                   :Elevation of Permanent Datum above Mean Sea Level
LMF  .          NA                       :Logging Measured From (Name of Logging Elevation Reference)
APD  .                                   :Elevation of Depth Reference (LMF) above Permanent Datum
#-----------------------------------------------------------------------------
~CURVE INFORMATION
#MNEM.UNIT   API CODE                                  DESCRIPTION
#---- -----  --------                                  -----------------------
TIME .S                                                :TIME {F10.1}
FREQ_EMF_SL.HZ                                         :Electromagnetic Field Frequency {F13.4}
PH_SH_WPPCM_SL.DEG                                     :WPPCM Phase Shift {F13.4}
FREQ_EXC_REQ_SL.HZ                                     :Requested Exciter Frequency {F13.4}
RB_SL.DEG                                              :Relative Bearing {F13.4}
SDEV_SL.DEG                                            :Sonde Deviation {F13.4}
TILX_SL.DEG                                            :X-axis Tilt {F13.4}
TILY_SL.DEG                                            :Y-axis Tilt {F13.4}
ROTA_SL.DEG                                            :Motor Rotation Angle {F13.4}
MSPE_SL.RPM                                            :Motor Speed {F13.4}
#-----------------------------------------------------------------------------
# 
#     TIME    FREQ_EMF_SL  PH_SH_WPPCM_ FREQ_EXC_REQ    RB_SL       SDEV_SL      TILX_SL      TILY_SL      ROTA_SL      MSPE_SL
#                          SL           _SL
~A  
# ...
    3965.0    1282.3123       0.0000      50.8611     -20.5399       0.7762      -0.2714      -0.7272      95.4426       1.0226
    3966.0    1298.0669       0.0000      50.8611     -32.9924       0.6725      -0.3652      -0.5643     101.9473       1.0226
    3967.0    1326.6509       0.0000      50.8611     -26.1996       0.7202      -0.3119      -0.6454     108.0491       1.0226
    3968.0    1333.4875       0.0000      50.8611     -41.2745       0.6965      -0.4590      -0.5231     114.1478       1.0190
    3969.0    1348.7248       0.0000      50.8611     -42.1781       0.6676      -0.4455      -0.4956     120.2544       1.0226
    3970.0    1362.6454       0.0000      50.8611     -50.9435       0.4877      -0.3783      -0.3052     126.3562       1.0226
    3971.0    1367.9475       0.0000      50.8611     -48.9654       0.4661      -0.3520      -0.3052     132.4458       1.0156
    3972.0    1383.2664       0.0000      50.8611     -52.9628       0.6335      -0.5060      -0.3801     138.5749       1.0226
    3973.0    1390.5003       0.0000      50.8611     -55.1050       0.5613      -0.4587      -0.3190     144.6758       1.0226
    3974.0    1398.7785       0.0000      50.8611     -64.9710       0.5947      -0.5390      -0.2506     150.7777       1.0226
    3975.0    1409.0682       0.0000      50.8611     -57.7706       0.5468      -0.4590      -0.2911     156.8796       1.0226
    3976.0    1421.4661       0.0000      50.8611     -74.9681       0.6004      -0.5795      -0.1551     162.9815       1.0226
    3977.0    1423.3300       0.0000      50.8611     -77.4247       0.7047      -0.6869      -0.1554     169.0834       1.0226
    3978.0    1435.9140       0.0000      50.8611     -87.1562       0.5551      -0.5532      -0.0328     175.3093       1.0192
    3979.0    1447.7403       0.0000      50.8611     -71.9598       0.7374      -0.7004      -0.2231     181.6701       1.0226
    3980.0    1445.7905       0.0000      50.8611     -85.4732       0.7431      -0.7405      -0.0599     187.7819       1.0156
    3981.0    1453.7490       0.0000      50.8611     -85.0701       0.7172      -0.7135      -0.0596     193.8757       1.0226
    3982.0    1458.7655       0.0000      50.8611     -89.0171       1.0943      -1.0875      -0.0060     199.9784       1.0156
    3983.0    1467.8880       0.0000      50.8611     -86.6294       1.0374      -1.0349      -0.0596     206.0810       1.0226
    3984.0    1475.0979       0.0000      50.8611     -83.9674       1.2338      -1.2241      -0.1001     212.2004       1.0262
    3985.0    1477.1533       0.0000      50.8611     -83.3134       0.9741      -0.9673      -0.1142     218.3111       1.0226
    3986.0    1478.1990       0.0000      50.8611     -83.7573       1.0417      -1.0349      -0.1146     224.4130       1.0226
    3987.0    1467.9019       0.0000      50.8611     -82.0274       1.0184      -1.0079      -0.1413     230.5149       1.0226
    3988.0    1477.1533       0.0000      50.8611     -83.0875       1.1772      -1.1685      -0.1417     236.6044       1.0226
    3989.0    1470.9588       0.0000      50.8611     -82.4306       1.1794      -1.1685      -0.1554     242.7071       1.0226
    3990.0    1470.9729       0.0000      50.8611     -82.5755       1.2058      -1.1955      -0.1551     248.9451       1.0226
    3991.0    1460.8093       0.0000      50.8611     -76.7022       1.3251      -1.2890      -0.3049     255.3189       1.0226
    3992.0    1458.7517       0.0000      50.8611     -74.7942       1.3227      -1.2759      -0.3458     261.4207       1.0226
    3993.0    1457.7500       0.0000      50.8611     -73.3225       1.3032      -1.2485      -0.3733     267.5225       1.0226
    3994.0    1449.7422       0.0000      50.8611     -67.4370       1.3973      -1.2890      -0.5365     273.6243       1.0262
    3995.0    1448.7695       0.0000      50.8611     -68.2970       1.4166      -1.3160      -0.5231     279.7392       1.0226
    3996.0    1434.9353       0.0000      50.8611     -69.4902       1.3769      -1.2890      -0.4825     285.8410       1.0226
    3997.0    1431.0478       0.0000      50.8611     -64.0911       1.4779      -1.3292      -0.6457     291.9428       1.0262
    3998.0    1422.3922       0.0000      50.8611     -66.0580       1.4567      -1.3292      -0.5918     298.0577       1.0226
    3999.0    1414.7384       0.0000      50.8611     -64.3926       1.3995      -1.2620      -0.6049     304.1595       1.0226
    4000.0    1399.7111       0.0000      50.8611     -61.7852       1.5689      -1.3825      -0.7413     310.2491       1.0226
    4001.0    1397.8628       0.0000      50.8611     -58.0377       1.5046      -1.2759      -0.7955     316.3509       1.0226
    4002.0    1375.9785       0.0000      50.8611     -56.0430       1.5703      -1.3022      -0.8773     322.4527       1.0226
    4003.0    1375.9785       0.0000      50.8611     -55.1726       1.4891      -1.2222      -0.8502     328.9669       1.0297
    4004.0    1355.6287       0.0000      50.8611     -54.5701       1.4676      -1.1952      -0.8505     335.0651       1.0226
    4005.0    1346.1107       0.0000      50.8611     -49.3640       1.5571      -1.1817      -1.0137     341.1680       1.0226
    4006.0    1340.1451       0.0000      50.8611     -48.6122       1.3977      -1.0487      -0.9182     347.2564       1.0226
    4007.0    1306.9541       0.0000      50.8611     -41.6578       1.3385      -0.8874      -1.0007     353.3459       1.0226
    4008.0    1322.6884       0.0000      50.8611     -44.0401       1.3635      -0.9478      -0.9797     238.3854       1.0226
    4009.0    1283.0630       0.0000      50.8611     -45.9608       1.4008      -1.0075      -0.9728       5.5372       1.0226
    4010.0    1277.6290       0.0000      50.8611     -46.3727       1.4116      -1.0210      -0.9732      11.6390       1.0226
    4011.0    1266.1195       0.0000      50.8611     -46.3932       1.4109      -1.0214      -0.9728      17.7285       1.0226
    4012.0    1248.1453       0.0000      50.8611     -32.2843       1.3800      -0.7395      -1.1635      23.8303       1.0226
    4013.0    1234.9916       0.0000      50.8611     -37.8125       1.3174      -0.8070      -1.0409      29.9242       1.0262
    4014.0    1222.1122       0.0000      50.8611     -35.2290       1.2596      -0.7270      -1.0275      36.0225       1.0226
    4015.0    1221.4008       0.0000      50.8611     -33.3081       1.2779      -0.7000      -1.0680      42.5323       1.0226
    4016.0    1210.1979       0.0000      50.8611     -32.5021       1.1548      -0.6193      -0.9732      48.6342       1.0190
    4017.0    1198.5448       0.0000      50.8611     -21.4056       1.0746      -0.3919      -1.0003      54.7237       1.0226
    4018.0    1204.6583       0.0000      50.8611     -36.1715       1.2059      -0.7128      -0.9725      60.8300       1.0262
    4019.0    1204.0063       0.0000      50.8611     -26.3027       1.0086      -0.4455      -0.9045      66.9405       1.0226
    4020.0    1211.6035       0.0000      50.8611     -30.9729       1.0322      -0.5252      -0.8780      73.0402       1.0190
    4021.0    1219.3297       0.0000      50.8611     -31.2617       0.9045      -0.4729      -0.7688      79.1317       1.0226
    4022.0    1224.2401       0.0000      50.8611     -30.0765       1.0169      -0.5120      -0.8773      85.2256       1.0297
    4023.0    1245.1943       0.0000      50.8611     -37.4997       0.8485      -0.5124      -0.6736      91.3492       1.0190
    4024.0    1261.6437       0.0000      50.8611     -24.2671       0.6936      -0.2849      -0.6324      97.4387       1.0226
    4025.0    1291.7767       0.0000      50.8611     -21.1699       0.6781      -0.2447      -0.6324     103.5405       1.0226
    4026.0    1305.3144       0.0000      50.8611     -44.5549       0.8064      -0.5653      -0.5643     109.6423       1.0226
    4027.0    1333.3787       0.0000      50.8611     -36.1637       0.6177      -0.3655      -0.4959     116.1521       1.0226
