~VERSION INFORMATION
VERS.           2.0   :CWLS Log ASCII Standard - VERSION 2.0
WRAP.           NO    :One Line per depth step
PROD.  Schlumberger   :LAS Producer
PROG.  DLIS to ASCII 19C2-270                          :LAS Program name and version
CREA.        2017/09/16 17:42                          :LAS Creation date {YYYY/MM/DD hh:mm}
DLIS_CREA.  2017-Sep-15 12:22                          :DLIS Creation date and time {YYYY-MMM-DD hh:mm}
SOURCE.     LPC_S1-1_B5.DLIS                           :DLIS File Name
FILE-ID.     PERFO_Perfo_WPGRT_020LTP                  :File Identification Number
#--------------------------------------------------
~WELL INFORMATION
#MNEM.UNIT      DATA             DESCRIPTION
#---- ------ --------------   -----------------------------
STRT .S         5686.0       :START TIME      
STOP .S         6834.0       :STOP TIME      
STEP .S            1.0       :STEP     
NULL .          -999.25      :NULL VALUE
COMP .        SHELL INTERNATIONAL E P                  :COMPANY
WELL .        WPP TEST 2                               :WELL
FLD  .        WILDCAT                                  :FIELD
LOC  .                                                 :LOCATION
CNTY .        HARRIS                                   :COUNTY
STAT .        TEXAS                                    :STATE
CTRY .                                                 :COUNTRY
API  .                                                 :API NUMBER
UWI  .                                                 :UNIQUE WELL ID
DATE .                                                 :LOG DATE
SRVC .        Schlumberger                             :SERVICE COMPANY
LATI .DEG                                              :LATITUDE
LONG .DEG                                              :LONGITUDE
GDAT .                                                 :GeoDetic Datum
#-----------------------------------------------------------------------------
~PARAMETER INFORMATION
#MNEM.UNIT    VALUE                      DESCRIPTION
#---- -----   --------------------       ------------------------
U-PHASE_B_COMP_PER_YT.                 0 :Phase B Comparator Period Yt
U-PHASE_A_COMP_PER_XT.                 0 :Phase A Comparator Period Xt
U-MAX_EXC_CUR_LIMIT.MA       240.00000   :Requested CM Current Limit
U-REQ_EXC_FQ.HZ              50          :Requested CM Frequency
U-TILT_Y_OFFSET.           0.19916       :WPTET Tilt Y Offset
U-TILT_Y_GAIN.           1.01796         :WPTET Tilt Y Gain
U-TILT_X_OFFSET.          -1.77103       :WPTET Tilt X Offset
U-TILT_X_GAIN.           1.00000         :WPTET Tilt X Gain
U-TILT_OFFSET_TOL.           0.00100     :WPTET Tilt Offset Calibration Tolerance
U-NO_TILT_CAL_ROTATIONS.                 3 :Number of Rotations for Tilt Calibration
HAZI .DEG        0.00000                 :Hole Azimuth
U-STD_TOL_TILT.           0.01000        :Tilt Standard Deviation Tolerance
U-GUN_POS_TOL.DEG        5.00000         :Gun Position Tolerance
ROT_ANGLE_THRESHOLD.DEG        5.00000   :Rotation Stop Angle Tolerance
STOP_ROT_ANGLE.DEG       80.00000        :Rotation Stop Angle
WITN .                                   :Witness's Name
ENGI .                                   :Engineer's Name
COUN .        HARRIS                     :County or Rig Name
FN   .        WILDCAT                    :Field Name
WN   .        WPP TEST 2                 :Well Name
CN   .        SHELL INTERNATIONAL E P    :Company Name
CLAB .        County                     :County/Rig Label
SLAB .        State                      :State/Province Label
RUN  .          1                        :RUN NUMBER
PDAT .        GROUND LEVEL               :Permanent Datum
EPD  .                                   :Elevation of Permanent Datum above Mean Sea Level
LMF  .                                   :Logging Measured From (Name of Logging Elevation Reference)
APD  .                                   :Elevation of Depth Reference (LMF) above Permanent Datum
#-----------------------------------------------------------------------------
~CURVE INFORMATION
#MNEM.UNIT   API CODE                                  DESCRIPTION
#---- -----  --------                                  -----------------------
TIME .S                                                :TIME {F10.1}
FREQ_EMF_SL.HZ                                         :Electromagnetic Field Frequency {F13.4}
PH_SH_WPPCM_SL.DEG                                     :WPPCM Phase Shift {F13.4}
FREQ_EXC_REQ_SL.HZ                                     :Requested Exciter Frequency {F13.4}
RB_SL.DEG                                              :Relative Bearing {F13.4}
SDEV_SL.DEG                                            :Sonde Deviation {F13.4}
TILX_SL.DEG                                            :X-axis Tilt {F13.4}
TILY_SL.DEG                                            :Y-axis Tilt {F13.4}
ROTA_SL.DEG                                            :Motor Rotation Angle {F13.4}
MSPE_SL.RPM                                            :Motor Speed {F13.4}
#-----------------------------------------------------------------------------
# 
#     TIME    FREQ_EMF_SL  PH_SH_WPPCM_ FREQ_EXC_REQ    RB_SL       SDEV_SL      TILX_SL      TILY_SL      ROTA_SL      MSPE_SL
#                          SL           _SL
~A  
# ...
    5812.0    1378.6765       0.0000      50.8611    -120.6500       4.6749      -4.0204       2.3813     275.4556       1.0226
    5813.0    1361.2383       0.0000      50.8611    -115.1880       4.6296      -4.1885       1.9687     281.5574       1.0226
    5814.0    1352.6464       0.0000      50.8611    -109.9066       4.9134      -4.6191       1.6711     287.6476       1.0226
    5815.0    1341.1350       0.0000      50.8611    -104.5004       4.9299      -4.7724       1.2327     293.7625       1.0226
    5816.0    1323.6930       0.0000      50.8611    -100.1065       4.9113      -4.8348       0.8609     299.8651       1.0226
    5817.0    1302.5311       0.0000      50.8611     -92.7373       4.9333      -4.9263       0.2370     305.9669       1.0226
    5818.0    1288.6539       0.0000      50.8611     -89.6111       5.1490      -5.1487      -0.0348     312.4786       1.0130
    5819.0    1280.9539       0.0000      50.8611     -84.1516       5.1244      -5.0974      -0.5217     318.5670       1.0226
    5820.0    1251.1122       0.0000      50.8611     -80.0956       5.2676      -5.1889      -0.9048     324.6688       1.0226
    5821.0    1202.1924       0.0000      50.8611     -73.5967       5.2120      -4.9992      -1.4697     330.7706       1.0226
    5822.0    1178.8698       0.0000      50.8611     -69.4280       5.3638      -5.0208      -1.8823     336.8734       1.0226
    5823.0    1159.7435       0.0000      50.8611     -64.6109       5.1587      -4.6593      -2.2095     342.9771       1.0130
    5824.0    1120.1230       0.0000      50.8611     -58.9991       5.3998      -4.6266      -2.7781     349.0799       1.0216
    5825.0    1102.3974       0.0000      50.8611     -53.6209       5.3095      -4.2725      -3.1461     355.1934       1.0130
    5826.0    1091.9660       0.0000      50.8611     -48.5881       5.3791      -4.0315      -3.5550       1.2980       1.0216
    5827.0    1062.5696       0.0000      50.8611     -43.4664       5.2915      -3.6373      -3.8374       7.4119       1.0226
    5828.0    1058.9232       0.0000      50.8611     -40.1199       5.3085      -3.4179      -4.0570      13.5269       1.0226
    5829.0    1054.0144       0.0000      50.8611     -34.6665       5.1343      -2.9180      -4.2205      19.6315       1.0226
    5830.0    1057.3308       0.0000      50.8611     -28.5819       5.2435      -2.5052      -4.6029      26.1357       1.0226
    5831.0    1058.4827       0.0000      50.8611     -26.1512       5.1089      -2.2493      -4.5847      32.2298       1.0130
    5832.0    1069.4578       0.0000      50.8611     -19.6499       5.0783      -1.7056      -4.7816      38.3305       1.0226
    5833.0    1086.4367       0.0000      50.8611     -15.1767       5.0134      -1.3113      -4.8376      44.4323       1.0226
    5834.0    1110.2973       0.0000      50.8611     -10.3024       4.9887      -0.8911      -4.9081      50.5341       1.0226
    5835.0    1140.7556       0.0000      50.8611      -5.3127       4.8175      -0.4455      -4.7967      56.6247       1.0130
    5836.0    1173.1110       0.0000      50.8611       1.5997       4.8362       0.1347      -4.8338      62.7254       1.0226
    5837.0    1219.5390       0.0000      50.8611       6.4991       4.6519       0.5259      -4.6218      68.8272       1.0226
    5838.0    1254.3491       0.0000      50.8611      12.1475       4.3592       0.9164      -4.2614      74.9308       1.0216
    5839.0    1262.3429       0.0000      50.8611      17.8744       4.5481       1.3947      -4.3281      81.0314       1.0226
    5840.0    1288.2127       0.0000      50.8611      23.4587       4.2858       1.7049      -3.9305      87.1463       1.0130
    5841.0    1309.1324       0.0000      50.8611      27.5350       4.1738       1.9280      -3.7003      93.2490       1.0226
    5842.0    1332.8137       0.0000      50.8611      33.7476       4.1828       2.3223      -3.4770      99.7082       1.0216
    5843.0    1341.1350       0.0000      50.8611      42.1583       3.9350       2.6399      -2.9159     105.8240       1.0216
    5844.0    1355.2536       0.0000      50.8611      46.7942       3.8045       2.7715      -2.6039     111.9258       1.0226
    5845.0    1380.8849       0.0000      50.8611      54.3067       3.7510       3.0453      -2.1875     118.0152       1.0226
    5846.0    1394.5792       0.0000      50.8611      60.6115       3.7559       3.2721      -1.8415     124.1290       1.0324
    5847.0    1411.3752       0.0000      50.8611      68.1120       3.5777       3.3190      -1.3326     130.2320       1.0226
    5848.0    1434.1413       0.0000      50.8611      74.0006       3.4607       3.3264      -0.9533     136.3339       1.0226
    5849.0    1446.7593       0.0000      50.8611      82.7811       3.3900       3.3629      -0.4255     142.4262       1.0226
    5850.0    1461.5178       0.0000      50.8611      88.9924       3.2326       3.2319      -0.0575     148.5253       1.0226
    5851.0    1476.8669       0.0000      50.8611      97.9546       3.2409       3.2096       0.4483     154.6404       1.0226
    5852.0    1489.0902       0.0000      50.8611     105.8232       3.0898       2.9724       0.8420     160.7423       1.0226
    5853.0    1496.0106       0.0000      50.8611     114.4434       3.3019       3.0051       1.3660     166.8442       1.0324
    5854.0    1499.4968       0.0000      50.8611     122.6184       3.2390       2.7276       1.7453     173.3644       1.0226
    5855.0    1511.7967       0.0000      50.8611     130.1739       3.1500       2.4063       2.0316     179.4690       1.0226
    5856.0    1511.7967       0.0000      50.8611     136.5582       3.2138       2.2092       2.3329     185.5737       1.0226
    5857.0    1518.3258       0.0000      50.8611     146.9179       3.3875       1.8477       2.8380     191.6860       1.0226
    5858.0    1512.3982       0.0000      50.8611     154.2408       3.5232       1.5301       3.1726     197.7898       1.0130
    5859.0    1512.0968       0.0000      50.8611     160.4724       3.5089       1.1723       3.3066     203.9037       1.0226
    5860.0    1515.0542       0.0000      50.8611     167.6858       3.5501       0.7567       3.4683     210.0056       1.0226
    5861.0    1505.0271       0.0000      50.8611     173.7461       3.7265       0.4054       3.7042     216.0840       1.0216
    5862.0    1493.7195       0.0000      50.8611    -146.2043       3.7454      -0.0327       3.7451     222.1856       1.0226
    5863.0    1489.9642       0.0000      50.8611    -172.6022       3.8033      -0.4894       3.7715     228.2875       1.0226
    5864.0    1479.6891       0.0000      50.8611    -164.9730       4.0011      -1.0369       3.8639     234.3894       1.0226
    5865.0    1467.6190       0.0000      50.8611    -158.9464       3.9063      -1.4021       3.6451     240.4913       1.0226
    5866.0    1453.2952       0.0000      50.8611    -154.1628       4.0835      -1.7785       3.6746     246.9726       1.0324
    5867.0    1447.0352       0.0000      50.8611    -146.7028       4.2463      -2.3296       3.5482     253.1170       1.0226
    5868.0    1437.6120       0.0000      50.8611    -139.9685       4.3459      -2.7931       3.3256     259.2188       1.0226
    5869.0    1417.3270       0.0000      50.8611    -134.5453       4.3881      -3.1255       3.0764     265.3214       1.0226
    5870.0    1401.9509       0.0000      50.8611    -129.5806       4.6159      -3.5562       2.9387     271.4109       1.0226
    5871.0    1390.3417       0.0000      50.8611    -126.3381       4.4170      -3.5569       2.6153     277.5165       1.0226
    5872.0    1378.4892       0.0000      50.8611    -118.4563       4.7027      -4.1334       2.2388     283.6153       1.0226
    5873.0    1355.2536       0.0000      50.8611    -114.2484       4.9231      -4.4875       2.0202     289.7171       1.0226
    5874.0    1347.2219       0.0000      50.8611    -107.2403       4.8292      -4.6117       1.4296     295.8440       1.0324
