~VERSION INFORMATION
VERS.           2.0   :CWLS Log ASCII Standard - VERSION 2.0
WRAP.           NO    :One Line per depth step
PROD.  Schlumberger   :LAS Producer
PROG.  DLIS to ASCII 19C2-270                          :LAS Program name and version
CREA.        2017/09/16 17:42                          :LAS Creation date {YYYY/MM/DD hh:mm}
DLIS_CREA.  2017-Sep-15 18:24                          :DLIS Creation date and time {YYYY-MMM-DD hh:mm}
SOURCE.     LPC_S4-1_2B5.DLIS                          :DLIS File Name
FILE-ID.     PERFO_Perfo_WPGRT_055LTP                  :File Identification Number
#--------------------------------------------------
~WELL INFORMATION
#MNEM.UNIT      DATA             DESCRIPTION
#---- ------ --------------   -----------------------------
STRT .S         5021.0       :START TIME      
STOP .S         5478.0       :STOP TIME      
STEP .S            1.0       :STEP     
NULL .          -999.25      :NULL VALUE
COMP .        SHELL INTERNATIONAL E P                  :COMPANY
WELL .        WPP TEST 2                               :WELL
FLD  .        WILDCAT                                  :FIELD
LOC  .        NA                                       :LOCATION
CNTY .        HARRIS                                   :COUNTY
STAT .        TEXAS                                    :STATE
CTRY .                                                 :COUNTRY
API  .        NA                                       :API NUMBER
UWI  .                                                 :UNIQUE WELL ID
DATE .        15-Sep-2017                              :LOG DATE {DD-MMM-YYYY}
SRVC .        Schlumberger                             :SERVICE COMPANY
LATI .DEG                                              :LATITUDE
LONG .DEG                                              :LONGITUDE
GDAT .                                                 :GeoDetic Datum
SECT .        NA                                       :Section
RANG .        NA                                       :Range
TOWN .        NA                                       :Township
#-----------------------------------------------------------------------------
~PARAMETER INFORMATION
#MNEM.UNIT    VALUE                      DESCRIPTION
#---- -----   --------------------       ------------------------
U-PHASE_B_COMP_PER_YT.                 0 :Phase B Comparator Period Yt
U-PHASE_A_COMP_PER_XT.                 0 :Phase A Comparator Period Xt
U-MAX_EXC_CUR_LIMIT.MA       240.00000   :Requested CM Current Limit
U-REQ_EXC_FQ.HZ              50          :Requested CM Frequency
U-TILT_Y_OFFSET.           0.19916       :WPTET Tilt Y Offset
U-TILT_Y_GAIN.           1.01796         :WPTET Tilt Y Gain
U-TILT_X_OFFSET.          -1.77103       :WPTET Tilt X Offset
U-TILT_X_GAIN.           1.00000         :WPTET Tilt X Gain
U-TILT_OFFSET_TOL.           0.00100     :WPTET Tilt Offset Calibration Tolerance
U-NO_TILT_CAL_ROTATIONS.                 3 :Number of Rotations for Tilt Calibration
HAZI .DEG        0.00000                 :Hole Azimuth
U-STD_TOL_TILT.           0.01000        :Tilt Standard Deviation Tolerance
U-GUN_POS_TOL.DEG        5.00000         :Gun Position Tolerance
ROT_ANGLE_THRESHOLD.DEG        5.00000   :Rotation Stop Angle Tolerance
STOP_ROT_ANGLE.DEG        0.00000        :Rotation Stop Angle
WITN .        MR. DHRUA ARORA            :Witness's Name
ENGI .        MORRIS MOORE               :Engineer's Name
COUN .        HARRIS                     :County or Rig Name
FN   .        WILDCAT                    :Field Name
WN   .        WPP TEST 2                 :Well Name
CN   .        SHELL INTERNATIONAL E P    :Company Name
CLAB .        County                     :County/Rig Label
SLAB .        State                      :State/Province Label
RUN  .          1                        :RUN NUMBER
PDAT .        GROUND LEVEL               :Permanent Datum
EPD  .                                   :Elevation of Permanent Datum above Mean Sea Level
LMF  .          NA                       :Logging Measured From (Name of Logging Elevation Reference)
APD  .                                   :Elevation of Depth Reference (LMF) above Permanent Datum
#-----------------------------------------------------------------------------
~CURVE INFORMATION
#MNEM.UNIT   API CODE                                  DESCRIPTION
#---- -----  --------                                  -----------------------
TIME .S                                                :TIME {F10.1}
FREQ_EMF_SL.HZ                                         :Electromagnetic Field Frequency {F13.4}
PH_SH_WPPCM_SL.DEG                                     :WPPCM Phase Shift {F13.4}
FREQ_EXC_REQ_SL.HZ                                     :Requested Exciter Frequency {F13.4}
RB_SL.DEG                                              :Relative Bearing {F13.4}
SDEV_SL.DEG                                            :Sonde Deviation {F13.4}
TILX_SL.DEG                                            :X-axis Tilt {F13.4}
TILY_SL.DEG                                            :Y-axis Tilt {F13.4}
ROTA_SL.DEG                                            :Motor Rotation Angle {F13.4}
MSPE_SL.RPM                                            :Motor Speed {F13.4}
#-----------------------------------------------------------------------------
# 
#     TIME    FREQ_EMF_SL  PH_SH_WPPCM_ FREQ_EXC_REQ    RB_SL       SDEV_SL      TILX_SL      TILY_SL      ROTA_SL      MSPE_SL
#                          SL           _SL
~A  
# ...
    5147.0    1232.4401       0.0000      50.8611       2.7898       5.5974       0.2714      -5.5871     122.5156       1.0226
    5148.0    1224.8961       0.0000      50.8611      10.0131       5.3611       0.9348      -5.2762     128.6159       1.0226
    5149.0    1245.6794       0.0000      50.8611      14.6819       5.2918       1.3389      -5.1175     134.7193       1.0226
    5150.0    1260.0170       0.0000      50.8611      19.8937       5.1816       1.7612      -4.8710     140.8092       1.0121
    5151.0    1272.5301       0.0000      50.8611      25.9004       5.0512       2.2043      -4.5426     146.9115       1.0226
    5152.0    1300.9160       0.0000      50.8611      32.2800       4.8446       2.5853      -4.0941     153.0010       1.0172
    5153.0    1314.0726       0.0000      50.8611      38.6035       4.8244       3.0076      -3.7682     159.1159       1.0278
    5154.0    1327.8672       0.0000      50.8611      44.5649       4.6902       3.2888      -3.3395     165.2374       1.0278
    5155.0    1346.9828       0.0000      50.8611      50.0335       4.6604       3.5699      -2.9913     171.3460       1.0226
    5156.0    1357.3842       0.0000      50.8611      56.7576       4.4155       3.6916      -2.4189     177.4419       1.0226
    5157.0    1365.1528       0.0000      50.8611      63.5679       4.3269       3.8730      -1.9246     183.9571       1.0226
    5158.0    1371.9124       0.0000      50.8611      70.0902       4.2906       4.0325      -1.4599     190.0590       1.0226
    5159.0    1382.7855       0.0000      50.8611      78.1056       4.1000       4.0118      -0.8441     196.1501       1.0226
    5160.0    1392.3268       0.0000      50.8611      85.5969       4.0864       4.0738      -0.3138     202.2583       1.0278
    5161.0    1400.5692       0.0000      50.8611      91.3274       4.0762       4.0738       0.0939     208.3734       1.0278
    5162.0    1410.3669       0.0000      50.8611      98.2867       4.3633       4.3172       0.6266     214.4821       1.0226
    5163.0    1410.5254       0.0000      50.8611     108.9786       4.0146       3.7963       1.3031     220.5781       1.0334
    5164.0    1421.8491       0.0000      50.8611     115.4123       4.0438       3.6515       1.7343     226.6876       1.0226
    5165.0    1430.5275       0.0000      50.8611     124.2259       3.8829       3.2096       2.1828     232.7895       1.0226
    5166.0    1431.9449       0.0000      50.8611     132.3733       3.9374       2.9078       2.6524     238.8914       1.0226
    5167.0    1438.0840       0.0000      50.8611     138.1199       4.1157       2.7459       3.0625     244.9933       1.0226
    5168.0    1443.7886       0.0000      50.8611     146.5071       4.0406       2.2286       3.3674     251.0952       1.0226
    5169.0    1445.1523       0.0000      50.8611     153.6433       4.2138       1.8671       3.7738     257.6114       1.0281
    5170.0    1443.7886       0.0000      50.8611     161.2615       4.2473       1.3632       4.0216     263.5221       0.5270
    5171.0    1449.7422       0.0000      50.8611     161.9834       4.2738       1.3206       4.0637     263.9407       0.0005
    5172.0    1454.2866       0.0000      50.8611     160.8724       4.2782       1.4009       4.0414     263.9407       0.0005
    5173.0    1452.6537       0.0000      50.8611     162.0812       4.2274       1.2999       4.0216     263.9407       0.0005
    5174.0    1449.7422       0.0000      50.8611     162.0500       4.2290       1.3023       4.0228     263.9407       0.0005
    5175.0    1448.2060       0.0000      50.8611     160.5953       4.2883       1.4240       4.0439     263.9407       0.0005
    5176.0    1448.2955       0.0000      50.8611     161.6837       4.2146       1.3230       4.0005     263.9407       0.0005
    5177.0    1449.7422       0.0000      50.8611     161.3539       4.3298       1.3827       4.1021     263.9407       0.0005
    5178.0    1452.7377       0.0000      50.8611     162.4706       4.2621       1.2828       4.0637     263.9407       0.0005
    5179.0    1449.7422       0.0000      50.8611     161.2827       4.2478       1.3620       4.0228     263.9407       0.0005
    5180.0    1448.2060       0.0000      50.8611     162.0282       4.2287       1.3035       4.0216     263.9407       0.0005
    5181.0    1446.8547       0.0000      50.8611     162.1317       4.2479       1.3023       4.0426     263.9407       0.0005
    5182.0    1451.2849       0.0000      50.8611     162.7687       4.1916       1.2403       4.0030     263.9407       0.0005
    5183.0    1451.1950       0.0000      50.8611     160.8019       4.3900       1.4423       4.1455     263.9407       0.0005
    5184.0    1448.3974       0.0000      50.8611     162.3534       4.1819       1.2670       3.9807     263.9407       0.0005
    5185.0    1449.7422       0.0000      50.8611     165.4393       4.3676       1.0989       4.1839     263.9407       0.0005
    5186.0    1448.2955       0.0000      50.8611     159.6876       4.2283       1.4678       3.9609     263.9407       0.0005
    5187.0    1449.6588       0.0000      50.8611     162.7996       4.2430       1.2511       4.0402     263.9407       0.0005
    5188.0    1446.6051       0.0000      50.8611     162.3430       4.3091       1.3059       4.1033     263.9407       0.0005
    5189.0    1451.2849       0.0000      50.8611     161.5973       4.1988       1.3254       3.9819     263.9407       0.0005
    5190.0    1446.8547       0.0000      50.8611     161.7124       4.3442       1.3620       4.1244     263.9407       0.0005
    5191.0    1449.5876       0.0000      50.8611     161.0574       4.2758       1.3863       4.0414     263.9407       0.0005
    5192.0    1446.6761       0.0000      50.8611     161.6318       4.3266       1.3620       4.1058     263.9407       0.0005
    5193.0    1448.2955       0.0000      50.8611     161.2817       4.1838       1.3413       3.9621     263.9407       0.0005
    5194.0    1449.8382       0.0000      50.8611     162.0324       4.2268       1.3023       4.0203     263.9407       0.0005
    5195.0    1449.6588       0.0000      50.8611     161.5859       4.3905       1.3851       4.1641     263.9407       0.0005
    5196.0    1448.1289       0.0000      50.8611     161.1081       4.2706       1.3815       4.0402     263.9407       0.0005
    5197.0    1448.2955       0.0000      50.8611     162.1287       4.0351       1.2379       3.8382     263.9407       0.0005
    5198.0    1450.0667       0.0000      50.8611     162.7833       4.0672       1.2061       3.8815     263.9407       0.0005
    5199.0    1446.7593       0.0000      50.8611     160.4464       4.3153       1.4423       4.0661     263.9407       0.0005
    5200.0    1445.3185       0.0000      50.8611     162.6046       4.3483       1.2975       4.1467     263.9407       0.0005
    5201.0    1449.7422       0.0000      50.8611     162.3999       4.1795       1.2634       3.9831     263.9407       0.0005
    5202.0    1451.1950       0.0000      50.8611     161.3684       4.2705       1.3632       4.0463     263.9407       0.0005
    5203.0    1445.3185       0.0000      50.8611     160.7682       4.2636       1.4033       4.0253     263.9407       0.0005
    5204.0    1448.2060       0.0000      50.8611     160.9380       4.3049       1.4009       4.0686     263.9407       0.0005
    5205.0    1452.7377       0.0000      50.8611     162.1730       4.1198       1.2598       3.9212     263.9407       0.0005
    5206.0    1443.7056       0.0000      50.8611     161.1973       4.2932       1.3827       4.0637     263.9407       0.0005
    5207.0    1446.7593       0.0000      50.8611     162.3107       4.2215       1.2816       4.0216     263.9407       0.0005
    5208.0    1449.8382       0.0000      50.8611     160.8027       4.2146       1.3839       3.9795     263.9407       0.0005
    5209.0    1452.8338       0.0000      50.8611     162.6664       4.1704       1.2415       3.9807     263.9407       0.0005
