~VERSION INFORMATION
VERS.           2.0   :CWLS Log ASCII Standard - VERSION 2.0
WRAP.           NO    :One Line per depth step
PROD.  Schlumberger   :LAS Producer
PROG.  DLIS to ASCII 19C2-270                          :LAS Program name and version
CREA.        2017/09/16 17:42                          :LAS Creation date {YYYY/MM/DD hh:mm}
DLIS_CREA.  2017-Sep-15 18:33                          :DLIS Creation date and time {YYYY-MMM-DD hh:mm}
SOURCE.     LPC_S4-1_2BV.DLIS                          :DLIS File Name
FILE-ID.     PERFO_Perfo_WPGRT_056LTP                  :File Identification Number
#--------------------------------------------------
~WELL INFORMATION
#MNEM.UNIT      DATA             DESCRIPTION
#---- ------ --------------   -----------------------------
STRT .S         5560.0       :START TIME      
STOP .S         6042.0       :STOP TIME      
STEP .S            1.0       :STEP     
NULL .          -999.25      :NULL VALUE
COMP .        SHELL INTERNATIONAL E P                  :COMPANY
WELL .        WPP TEST 2                               :WELL
FLD  .        WILDCAT                                  :FIELD
LOC  .        NA                                       :LOCATION
CNTY .        HARRIS                                   :COUNTY
STAT .        TEXAS                                    :STATE
CTRY .                                                 :COUNTRY
API  .        NA                                       :API NUMBER
UWI  .                                                 :UNIQUE WELL ID
DATE .        15-Sep-2017                              :LOG DATE {DD-MMM-YYYY}
SRVC .        Schlumberger                             :SERVICE COMPANY
LATI .DEG                                              :LATITUDE
LONG .DEG                                              :LONGITUDE
GDAT .                                                 :GeoDetic Datum
SECT .        NA                                       :Section
RANG .        NA                                       :Range
TOWN .        NA                                       :Township
#-----------------------------------------------------------------------------
~PARAMETER INFORMATION
#MNEM.UNIT    VALUE                      DESCRIPTION
#---- -----   --------------------       ------------------------
U-PHASE_B_COMP_PER_YT.                 0 :Phase B Comparator Period Yt
U-PHASE_A_COMP_PER_XT.                 0 :Phase A Comparator Period Xt
U-MAX_EXC_CUR_LIMIT.MA       240.00000   :Requested CM Current Limit
U-REQ_EXC_FQ.HZ              50          :Requested CM Frequency
U-TILT_Y_OFFSET.           0.19916       :WPTET Tilt Y Offset
U-TILT_Y_GAIN.           1.01796         :WPTET Tilt Y Gain
U-TILT_X_OFFSET.          -1.77103       :WPTET Tilt X Offset
U-TILT_X_GAIN.           1.00000         :WPTET Tilt X Gain
U-TILT_OFFSET_TOL.           0.00100     :WPTET Tilt Offset Calibration Tolerance
U-NO_TILT_CAL_ROTATIONS.                 3 :Number of Rotations for Tilt Calibration
HAZI .DEG        0.00000                 :Hole Azimuth
U-STD_TOL_TILT.           0.01000        :Tilt Standard Deviation Tolerance
U-GUN_POS_TOL.DEG        5.00000         :Gun Position Tolerance
ROT_ANGLE_THRESHOLD.DEG        5.00000   :Rotation Stop Angle Tolerance
STOP_ROT_ANGLE.DEG        0.00000        :Rotation Stop Angle
WITN .        MR. DHRUA ARORA            :Witness's Name
ENGI .        MORRIS MOORE               :Engineer's Name
COUN .        HARRIS                     :County or Rig Name
FN   .        WILDCAT                    :Field Name
WN   .        WPP TEST 2                 :Well Name
CN   .        SHELL INTERNATIONAL E P    :Company Name
CLAB .        County                     :County/Rig Label
SLAB .        State                      :State/Province Label
RUN  .          1                        :RUN NUMBER
PDAT .        GROUND LEVEL               :Permanent Datum
EPD  .                                   :Elevation of Permanent Datum above Mean Sea Level
LMF  .          NA                       :Logging Measured From (Name of Logging Elevation Reference)
APD  .                                   :Elevation of Depth Reference (LMF) above Permanent Datum
#-----------------------------------------------------------------------------
~CURVE INFORMATION
#MNEM.UNIT   API CODE                                  DESCRIPTION
#---- -----  --------                                  -----------------------
TIME .S                                                :TIME {F10.1}
FREQ_EMF_SL.HZ                                         :Electromagnetic Field Frequency {F13.4}
PH_SH_WPPCM_SL.DEG                                     :WPPCM Phase Shift {F13.4}
FREQ_EXC_REQ_SL.HZ                                     :Requested Exciter Frequency {F13.4}
RB_SL.DEG                                              :Relative Bearing {F13.4}
SDEV_SL.DEG                                            :Sonde Deviation {F13.4}
TILX_SL.DEG                                            :X-axis Tilt {F13.4}
TILY_SL.DEG                                            :Y-axis Tilt {F13.4}
ROTA_SL.DEG                                            :Motor Rotation Angle {F13.4}
MSPE_SL.RPM                                            :Motor Speed {F13.4}
#-----------------------------------------------------------------------------
# 
#     TIME    FREQ_EMF_SL  PH_SH_WPPCM_ FREQ_EXC_REQ    RB_SL       SDEV_SL      TILX_SL      TILY_SL      ROTA_SL      MSPE_SL
#                          SL           _SL
~A  
# ...
    5938.0    1244.6023       0.0000      50.8611     -50.8390       1.0297      -0.7982      -0.6505     175.0602       1.0226
    5939.0    1260.0807       0.0000      50.8611     -54.8123       1.0725      -0.8717      -0.6206     181.1516       1.0185
    5940.0    1274.1786       0.0000      50.8611     -49.7088       1.0583      -0.8070      -0.6844     187.2517       1.0226
    5941.0    1300.6152       0.0000      50.8611     -54.5196       1.0524      -0.8560      -0.6096     193.3412       1.0195
    5942.0    1302.6182       0.0000      50.8611     -49.9401       1.0776      -0.8227      -0.6934     199.4562       1.0226
    5943.0    1329.3126       0.0000      50.8611     -52.0225       0.9745      -0.7689      -0.5937     205.5581       1.0226
    5944.0    1338.8625       0.0000      50.8611     -55.9164       1.0632      -0.8805      -0.5937     211.6496       1.0226
    5945.0    1349.0032       0.0000      50.8611     -52.4252       0.9477      -0.7512      -0.5777     217.7515       1.0226
    5946.0    1353.6404       0.0000      50.8611     -53.4949       0.9854      -0.7914      -0.5867     223.8410       1.0226
    5947.0    1366.4784       0.0000      50.8611     -53.1507       0.9662      -0.7737      -0.5777     230.1776       1.0226
    5948.0    1373.8864       0.0000      50.8611     -50.6531       0.9608      -0.7424      -0.6096     236.4374       1.0226
    5949.0    1381.9875       0.0000      50.8611     -50.2493       1.0206      -0.7825      -0.6525     242.5405       1.0226
    5950.0    1389.5751       0.0000      50.8611     -52.7311       0.9733      -0.7737      -0.5867     248.6288       1.0226
    5951.0    1400.6475       0.0000      50.8611     -53.7440       0.8401      -0.6777      -0.4959     254.7319       1.0292
    5952.0    1406.8744       0.0000      50.8611     -47.6119       0.8107      -0.5994      -0.5458     260.8549       1.0292
    5953.0    1404.7266       0.0000      50.8611     -54.3672       0.9795      -0.7962      -0.5583     266.9618       1.0275
    5954.0    1408.4526       0.0000      50.8611     -56.8195       0.9351      -0.7825      -0.5119     273.0768       1.0226
    5955.0    1419.8291       0.0000      50.8611     -56.0954       0.8593      -0.7090      -0.4730     279.1805       1.0226
    5956.0    1419.9793       0.0000      50.8611     -57.3028       0.8743      -0.7355      -0.4710     285.2823       1.0226
    5957.0    1427.3476       0.0000      50.8611     -58.4542       0.9001      -0.7669      -0.4710     291.3718       1.0226
    5958.0    1432.5352       0.0000      50.8611     -58.9388       0.9432      -0.8070      -0.4869     297.4736       1.0292
    5959.0    1435.5992       0.0000      50.8611     -59.7312       0.9166      -0.7934      -0.4551     303.8356       1.0226
    5960.0    1432.6741       0.0000      50.8611     -60.0869       0.9799      -0.8492      -0.4890     310.0970       1.0204
    5961.0    1437.8834       0.0000      50.8611     -60.7116       1.1453      -0.9922      -0.5638     316.2072       1.0292
    5962.0    1438.3964       0.0000      50.8611     -61.0856       1.0486      -0.9247      -0.4890     322.3221       1.0292
    5963.0    1440.1864       0.0000      50.8611     -63.0932       0.9503      -0.8472      -0.4301     328.4291       1.0226
    5964.0    1443.2977       0.0000      50.8611     -63.7005       0.9201      -0.8227      -0.4072     334.5439       1.0268
    5965.0    1436.5403       0.0000      50.8611     -58.8459       0.9073      -0.7757      -0.4703     340.6414       1.0234
    5966.0    1441.0135       0.0000      50.8611     -60.5197       0.8853      -0.7669      -0.4371     346.7502       1.0226
    5967.0    1437.2425       0.0000      50.8611     -60.7988       1.0166      -0.8874      -0.4959     352.8520       1.0226
    5968.0    1435.4598       0.0000      50.8611     -62.0724       0.9273      -0.8207      -0.4301     358.9626       1.0268
    5969.0    1441.9837       0.0000      50.8611     -61.7315       0.9807      -0.8629      -0.4640       5.0800       1.0268
    5970.0    1432.6741       0.0000      50.8611     -60.6147       0.9911      -0.8629      -0.4869      11.1846       1.0226
    5971.0    1420.4546       0.0000      50.8611     -60.4632       1.0381      -0.9030      -0.5119      17.2864       1.0226
    5972.0    1424.9676       0.0000      50.8611     -63.2949       1.0169      -0.9030      -0.4571      23.7943       1.0226
    5973.0    1413.0055       0.0000      50.8611     -59.8740       0.9895      -0.8560      -0.4959      29.8989       1.0226
    5974.0    1417.1174       0.0000      50.8611     -53.5372       0.9873      -0.7825      -0.5888      35.9988       1.0226
    5975.0    1390.6482       0.0000      50.8611     -62.8740       0.9559      -0.8472      -0.4371      42.0902       1.0226
    5976.0    1398.3472       0.0000      50.8611     -58.5356       1.0298      -0.8785      -0.5368      48.1920       1.0226
    5977.0    1390.6482       0.0000      50.8611     -65.1843       1.1297      -1.0255      -0.4710      54.2938       1.0226
    5978.0    1371.6580       0.0000      50.8611     -60.3957       1.0216      -0.8874      -0.5049      60.3963       1.0226
    5979.0    1373.8864       0.0000      50.8611     -62.0395       0.9498      -0.8384      -0.4461      66.4981       1.0226
    5980.0    1360.9484       0.0000      50.8611     -61.1618       1.0497      -0.9187      -0.5049      72.5999       1.0226
    5981.0    1331.1260       0.0000      50.8611     -60.8920       1.1866      -1.0324      -0.5798      78.7017       1.0226
    5982.0    1330.1406       0.0000      50.8611     -57.2845       1.0846      -0.9119      -0.5867      84.8035       1.0226
    5983.0    1313.2960       0.0000      50.8611     -61.7148       1.0991      -0.9677      -0.5209      90.8929       1.0226
    5984.0    1310.2261       0.0000      50.8611     -57.6432       1.0994      -0.9295      -0.5867      97.4140       1.0226
    5985.0    1297.8096       0.0000      50.8611     -56.9979       1.0778      -0.9030      -0.5867     103.5158       1.0226
    5986.0    1283.5942       0.0000      50.8611     -54.3091       1.0050      -0.8159      -0.5867     109.6052       1.0226
    5987.0    1277.1247       0.0000      50.8611     -53.6497       1.1449      -0.9187      -0.6775     115.7070       1.0226
    5988.0    1259.1032       0.0000      50.8611     -54.9104       1.1037      -0.9030      -0.6345     121.8088       1.0226
    5989.0    1252.8548       0.0000      50.8611     -68.1725       1.2582      -1.1597      -0.4661     127.9112       1.0162
    5990.0    1247.6638       0.0000      50.8611     -55.1180       1.0817      -0.8874      -0.6186     134.0157       1.0226
    5991.0    1237.4205       0.0000      50.8611     -53.7689       1.0202      -0.8227      -0.6027     140.1307       1.0226
    5992.0    1232.2348       0.0000      50.8611     -54.0537       1.0111      -0.8159      -0.5957     146.2326       1.0226
    5993.0    1227.4664       0.0000      50.8611     -56.8066       1.1345      -0.9500      -0.6186     152.3345       1.0226
    5994.0    1240.4596       0.0000      50.8611     -62.1430       1.2049      -1.0657      -0.5618     158.4364       1.0226
    5995.0    1237.8961       0.0000      50.8611     -51.2587       0.9913      -0.7737      -0.6186     164.5315       1.0226
    5996.0    1244.9575       0.0000      50.8611     -51.6859       0.9988      -0.7873      -0.6027     171.0479       1.0226
    5997.0    1248.8899       0.0000      50.8611     -54.3456       1.1508      -0.9344      -0.6685     177.1429       1.0162
    5998.0    1258.8327       0.0000      50.8611     -57.0912       1.1129      -0.9344      -0.6027     183.2532       1.0226
    5999.0    1261.8484       0.0000      50.8611     -53.0259       1.0808      -0.8629      -0.6505     189.3427       1.0185
    6000.0    1288.8298       0.0000      50.8611     -55.4784       1.0474      -0.8629      -0.5937     195.4323       1.0185
