~VERSION INFORMATION
VERS.           2.0   :CWLS Log ASCII Standard - VERSION 2.0
WRAP.           NO    :One Line per depth step
PROD.  Schlumberger   :LAS Producer
PROG.  DLIS to ASCII 19C2-270                          :LAS Program name and version
CREA.        2017/09/16 17:42                          :LAS Creation date {YYYY/MM/DD hh:mm}
DLIS_CREA.  2017-Sep-15 17:53                          :DLIS Creation date and time {YYYY-MMM-DD hh:mm}
SOURCE.     LPC_S4-1_BV.DLIS                           :DLIS File Name
FILE-ID.     PERFO_Perfo_WPGRT_051LTP                  :File Identification Number
#--------------------------------------------------
~WELL INFORMATION
#MNEM.UNIT      DATA             DESCRIPTION
#---- ------ --------------   -----------------------------
STRT .S         3166.0       :START TIME      
STOP .S         3598.0       :STOP TIME      
STEP .S            1.0       :STEP     
NULL .          -999.25      :NULL VALUE
COMP .        SHELL INTERNATIONAL E P                  :COMPANY
WELL .        WPP TEST 2                               :WELL
FLD  .        WILDCAT                                  :FIELD
LOC  .        NA                                       :LOCATION
CNTY .        HARRIS                                   :COUNTY
STAT .        TEXAS                                    :STATE
CTRY .                                                 :COUNTRY
API  .        NA                                       :API NUMBER
UWI  .                                                 :UNIQUE WELL ID
DATE .        15-Sep-2017                              :LOG DATE {DD-MMM-YYYY}
SRVC .        Schlumberger                             :SERVICE COMPANY
LATI .DEG                                              :LATITUDE
LONG .DEG                                              :LONGITUDE
GDAT .                                                 :GeoDetic Datum
SECT .        NA                                       :Section
RANG .        NA                                       :Range
TOWN .        NA                                       :Township
#-----------------------------------------------------------------------------
~PARAMETER INFORMATION
#MNEM.UNIT    VALUE                      DESCRIPTION
#---- -----   --------------------       ------------------------
U-PHASE_B_COMP_PER_YT.                 0 :Phase B Comparator Period Yt
U-PHASE_A_COMP_PER_XT.                 0 :Phase A Comparator Period Xt
U-MAX_EXC_CUR_LIMIT.MA       240.00000   :Requested CM Current Limit
U-REQ_EXC_FQ.HZ              50          :Requested CM Frequency
U-TILT_Y_OFFSET.           0.19916       :WPTET Tilt Y Offset
U-TILT_Y_GAIN.           1.01796         :WPTET Tilt Y Gain
U-TILT_X_OFFSET.          -1.77103       :WPTET Tilt X Offset
U-TILT_X_GAIN.           1.00000         :WPTET Tilt X Gain
U-TILT_OFFSET_TOL.           0.00100     :WPTET Tilt Offset Calibration Tolerance
U-NO_TILT_CAL_ROTATIONS.                 3 :Number of Rotations for Tilt Calibration
HAZI .DEG        0.00000                 :Hole Azimuth
U-STD_TOL_TILT.           0.01000        :Tilt Standard Deviation Tolerance
U-GUN_POS_TOL.DEG        5.00000         :Gun Position Tolerance
ROT_ANGLE_THRESHOLD.DEG        5.00000   :Rotation Stop Angle Tolerance
STOP_ROT_ANGLE.DEG        0.00000        :Rotation Stop Angle
WITN .        MR. DHRUA ARORA            :Witness's Name
ENGI .        MORRIS MOORE               :Engineer's Name
COUN .        HARRIS                     :County or Rig Name
FN   .        WILDCAT                    :Field Name
WN   .        WPP TEST 2                 :Well Name
CN   .        SHELL INTERNATIONAL E P    :Company Name
CLAB .        County                     :County/Rig Label
SLAB .        State                      :State/Province Label
RUN  .          1                        :RUN NUMBER
PDAT .        GROUND LEVEL               :Permanent Datum
EPD  .                                   :Elevation of Permanent Datum above Mean Sea Level
LMF  .          NA                       :Logging Measured From (Name of Logging Elevation Reference)
APD  .                                   :Elevation of Depth Reference (LMF) above Permanent Datum
#-----------------------------------------------------------------------------
~CURVE INFORMATION
#MNEM.UNIT   API CODE                                  DESCRIPTION
#---- -----  --------                                  -----------------------
TIME .S                                                :TIME {F10.1}
FREQ_EMF_SL.HZ                                         :Electromagnetic Field Frequency {F13.4}
PH_SH_WPPCM_SL.DEG                                     :WPPCM Phase Shift {F13.4}
FREQ_EXC_REQ_SL.HZ                                     :Requested Exciter Frequency {F13.4}
RB_SL.DEG                                              :Relative Bearing {F13.4}
SDEV_SL.DEG                                            :Sonde Deviation {F13.4}
TILX_SL.DEG                                            :X-axis Tilt {F13.4}
TILY_SL.DEG                                            :Y-axis Tilt {F13.4}
ROTA_SL.DEG                                            :Motor Rotation Angle {F13.4}
MSPE_SL.RPM                                            :Motor Speed {F13.4}
#-----------------------------------------------------------------------------
# 
#     TIME    FREQ_EMF_SL  PH_SH_WPPCM_ FREQ_EXC_REQ    RB_SL       SDEV_SL      TILX_SL      TILY_SL      ROTA_SL      MSPE_SL
#                          SL           _SL
~A  
# ...
    3418.0     959.4093       0.0000      50.8611     -24.8442       0.8762      -0.3720      -0.7881      86.0936       1.0226
    3419.0     986.1290       0.0000      50.8611     -33.8106       0.8009      -0.4455      -0.6655      92.2086       1.0226
    3420.0    1032.2489       0.0000      50.8611     -29.2647       0.5389      -0.2614      -0.4670      98.3104       1.0226
    3421.0    1117.8208       0.0000      50.8611     -34.7899       0.7107      -0.4054      -0.5837     104.4148       1.0226
    3422.0    1221.5878       0.0000      50.8611     -28.5879       0.6188      -0.2966      -0.5428     110.5270       1.0226
    3423.0    1282.3925       0.0000      50.8611     -37.6433       0.5899      -0.3593      -0.4670     116.6187       1.0211
    3424.0    1323.4259       0.0000      50.8611     -44.8196       0.5754      -0.4054      -0.4082     122.7182       1.0226
    3425.0    1371.7341       0.0000      50.8611     -41.9706       0.5032      -0.3368      -0.3733     128.8200       1.0226
    3426.0    1411.4838       0.0000      50.8611     -43.0209       0.5610      -0.3828      -0.4082     134.9219       1.0226
    3427.0    1449.3059       0.0000      50.8611     -49.0713       0.5941      -0.4455      -0.3902     141.0238       1.0226
    3428.0    1494.6229       0.0000      50.8611     -53.6532       0.5977      -0.4798      -0.3553     147.1421       1.0242
    3429.0    1543.3601       0.0000      50.8611     -49.5493       0.2609      -0.1987      -0.1688     153.6626       1.0226
    3430.0    1585.1124       0.0000      50.8611     -69.2782       0.5568      -0.5200      -0.1978     159.7645       1.0226
    3431.0    1620.6509       0.0000      50.8611     -80.1803       0.5995      -0.5895      -0.1050     165.8690       1.0226
    3432.0    1665.5969       0.0000      50.8611     -86.9728       0.6479      -0.6464      -0.0342     171.9577       1.0211
    3433.0    1708.9534       0.0000      50.8611     -81.2559       0.5727      -0.5660      -0.0871     178.0578       1.0226
    3434.0    1726.9606       0.0000      50.8611     -84.5846       0.7094      -0.7041      -0.0701     184.1597       1.0226
    3435.0    1753.4288       0.0000      50.8611     -92.4889       0.8245      -0.8237       0.0356     190.2616       1.0226
    3436.0    1774.9141       0.0000      50.8611     -89.6473       0.8590      -0.8589      -0.0053     196.3644       1.0226
    3437.0    1793.0187       0.0000      50.8611     -90.0607       0.8816      -0.8815       0.0007     202.4654       1.0318
    3438.0    1796.9353       0.0000      50.8611     -84.1457       0.7878      -0.7835      -0.0811     208.5804       1.0318
    3439.0    1795.0314       0.0000      50.8611     -83.9237       0.8234      -0.8188      -0.0871     214.6963       1.0211
    3440.0    1789.7897       0.0000      50.8611     -85.7426       1.0169      -1.0137      -0.0751     220.7859       1.0226
    3441.0    1789.1222       0.0000      50.8611     -85.2511       1.0516      -1.0480      -0.0871     227.2958       1.0226
    3442.0    1776.2256       0.0000      50.8611     -84.8870       1.1967      -1.1911      -0.1050     233.4109       1.0226
    3443.0    1754.0700       0.0000      50.8611     -81.8470       1.1115      -1.0999      -0.1569     239.5132       1.0226
    3444.0    1741.0400       0.0000      50.8611     -78.5019       1.1988      -1.1744      -0.2387     245.6154       1.0211
    3445.0    1707.2214       0.0000      50.8611     -78.8726       1.2382      -1.2146      -0.2387     251.7049       1.0211
    3446.0    1694.8757       0.0000      50.8611     -76.7099       1.2420      -1.2087      -0.2855     257.8068       1.0226
    3447.0    1655.5557       0.0000      50.8611     -74.0016       1.3767      -1.3233      -0.3793     263.9086       1.0226
    3448.0    1617.4712       0.0000      50.8611     -74.7976       1.3777      -1.3292      -0.3613     270.0235       1.0226
    3449.0    1577.5520       0.0000      50.8611     -73.2183       1.3532      -1.2949      -0.3912     276.1258       1.0226
    3450.0    1542.9342       0.0000      50.8611     -69.3279       1.3362      -1.2489      -0.4720     282.2383       1.0242
    3451.0    1501.0865       0.0000      50.8611     -66.6093       1.3672      -1.2547      -0.5428     288.3420       1.0226
    3452.0    1465.7401       0.0000      50.8611     -68.3772       1.4731      -1.3694      -0.5428     294.4315       1.0226
    3453.0    1432.8831       0.0000      50.8611     -69.3707       1.4447      -1.3517      -0.5079     300.9290       1.0226
    3454.0    1399.9154       0.0000      50.8611     -61.2478       1.4316      -1.2547      -0.6884     307.0308       1.0226
    3455.0    1357.0017       0.0000      50.8611     -58.2383       1.5044      -1.2773      -0.7931     313.1326       1.0226
    3456.0    1313.6068       0.0000      50.8611     -60.9636       1.4680      -1.2832      -0.7123     319.2344       1.0226
    3457.0    1258.5797       0.0000      50.8611     -58.7641       1.5878      -1.3576      -0.8230     325.3624       1.0242
    3458.0    1186.2951       0.0000      50.8611     -57.3194       1.5245      -1.2832      -0.8230     331.4643       1.0226
    3459.0    1098.9463       0.0000      50.8611     -52.4648       1.6071      -1.2763      -0.9746     337.5661       1.0226
    3460.0    1041.4880       0.0000      50.8611     -51.6174       1.4683      -1.1509      -0.9108     343.6679       1.0226
    3461.0     990.9873       0.0000      50.8611     -51.0921       1.4502      -1.1284      -0.9108     349.7468       1.0211
    3462.0     964.5062       0.0000      50.8611     -44.9581       1.4353      -1.0137      -1.0155     355.8349       1.0226
    3463.0     935.8880       0.0000      50.8611     -49.9172       1.4148      -1.0823      -0.9108       1.9475       1.0318
    3464.0     915.5652       0.0000      50.8611     -42.3393       1.4455      -0.9736      -1.0684       8.0516       1.0226
    3465.0     906.7755       0.0000      50.8611     -47.5268       1.1271      -0.8139      -0.7731      14.5610       1.0226
    3466.0     894.3949       0.0000      50.8611     -41.8781       1.3572      -0.9050      -1.0095      20.6506       1.0226
    3467.0     875.6227       0.0000      50.8611     -37.2550       1.2681      -0.7669      -1.0095      26.7655       1.0226
    3468.0     865.0438       0.0000      50.8611     -39.6438       1.2292      -0.7845      -0.9457      32.8426       1.0226
    3469.0     868.6856       0.0000      50.8611     -34.1392       1.3678      -0.7669      -1.1322      38.9322       1.0226
    3470.0     865.4514       0.0000      50.8611     -35.0373       1.1561      -0.6640      -0.9457      45.0472       1.0242
    3471.0     866.0737       0.0000      50.8611     -35.2789       1.1301      -0.6522      -0.9228      51.1490       1.0226
    3472.0     871.4406       0.0000      50.8611     -24.8561       1.0047      -0.4230      -0.9108      57.2508       1.0226
    3473.0     880.9477       0.0000      50.8611     -30.8802       1.0478      -0.5376      -0.8988      63.3407       1.0226
    3474.0     896.0119       0.0000      50.8611     -40.1210       1.0432      -0.6738      -0.7881      69.4420       1.0226
    3475.0     907.5775       0.0000      50.8611     -30.1014       0.9923      -0.4974      -0.8580      75.5438       1.0226
    3476.0     923.4181       0.0000      50.8611     -37.8234       0.9625      -0.5886      -0.7592      81.6460       1.0226
    3477.0     943.7722       0.0000      50.8611     -23.8005       0.8496      -0.3426      -0.7762      88.1666       1.0242
    3478.0     974.4212       0.0000      50.8611     -30.9868       0.7764      -0.3995      -0.6655      94.2703       1.0226
    3479.0    1006.9215       0.0000      50.8611     -27.7153       0.7465      -0.3476      -0.6595     100.3721       1.0226
    3480.0    1078.6287       0.0000      50.8611     -33.0972       0.8566      -0.4681      -0.7173     106.4739       1.0226
