~VERSION INFORMATION
VERS.           2.0   :CWLS Log ASCII Standard - VERSION 2.0
WRAP.           NO    :One Line per depth step
PROD.  Schlumberger   :LAS Producer
PROG.  DLIS to ASCII 19C2-270                          :LAS Program name and version
CREA.        2017/09/16 17:42                          :LAS Creation date {YYYY/MM/DD hh:mm}
DLIS_CREA.  2017-Sep-15 16:10                          :DLIS Creation date and time {YYYY-MMM-DD hh:mm}
SOURCE.     LPC_S3-1_B5.DLIS                           :DLIS File Name
FILE-ID.     PERFO_Perfo_WPGRT_039LTP                  :File Identification Number
#--------------------------------------------------
~WELL INFORMATION
#MNEM.UNIT      DATA             DESCRIPTION
#---- ------ --------------   -----------------------------
STRT .S         2439.0       :START TIME      
STOP .S         2874.0       :STOP TIME      
STEP .S            1.0       :STEP     
NULL .          -999.25      :NULL VALUE
COMP .        SHELL INTERNATIONAL E P                  :COMPANY
WELL .        WPP TEST 2                               :WELL
FLD  .        WILDCAT                                  :FIELD
LOC  .                                                 :LOCATION
CNTY .        HARRIS                                   :COUNTY
STAT .        TEXAS                                    :STATE
CTRY .                                                 :COUNTRY
API  .                                                 :API NUMBER
UWI  .                                                 :UNIQUE WELL ID
DATE .                                                 :LOG DATE
SRVC .        Schlumberger                             :SERVICE COMPANY
LATI .DEG                                              :LATITUDE
LONG .DEG                                              :LONGITUDE
GDAT .                                                 :GeoDetic Datum
#-----------------------------------------------------------------------------
~PARAMETER INFORMATION
#MNEM.UNIT    VALUE                      DESCRIPTION
#---- -----   --------------------       ------------------------
U-PHASE_B_COMP_PER_YT.                 0 :Phase B Comparator Period Yt
U-PHASE_A_COMP_PER_XT.                 0 :Phase A Comparator Period Xt
U-MAX_EXC_CUR_LIMIT.MA       240.00000   :Requested CM Current Limit
U-REQ_EXC_FQ.HZ              50          :Requested CM Frequency
U-TILT_Y_OFFSET.           0.19916       :WPTET Tilt Y Offset
U-TILT_Y_GAIN.           1.01796         :WPTET Tilt Y Gain
U-TILT_X_OFFSET.          -1.77103       :WPTET Tilt X Offset
U-TILT_X_GAIN.           1.00000         :WPTET Tilt X Gain
U-TILT_OFFSET_TOL.           0.00100     :WPTET Tilt Offset Calibration Tolerance
U-NO_TILT_CAL_ROTATIONS.                 3 :Number of Rotations for Tilt Calibration
HAZI .DEG        0.00000                 :Hole Azimuth
U-STD_TOL_TILT.           0.01000        :Tilt Standard Deviation Tolerance
U-GUN_POS_TOL.DEG        5.00000         :Gun Position Tolerance
ROT_ANGLE_THRESHOLD.DEG        5.00000   :Rotation Stop Angle Tolerance
STOP_ROT_ANGLE.DEG        0.00000        :Rotation Stop Angle
WITN .                                   :Witness's Name
ENGI .                                   :Engineer's Name
COUN .        HARRIS                     :County or Rig Name
FN   .        WILDCAT                    :Field Name
WN   .        WPP TEST 2                 :Well Name
CN   .        SHELL INTERNATIONAL E P    :Company Name
CLAB .        County                     :County/Rig Label
SLAB .        State                      :State/Province Label
RUN  .          1                        :RUN NUMBER
PDAT .        GROUND LEVEL               :Permanent Datum
EPD  .                                   :Elevation of Permanent Datum above Mean Sea Level
LMF  .                                   :Logging Measured From (Name of Logging Elevation Reference)
APD  .                                   :Elevation of Depth Reference (LMF) above Permanent Datum
#-----------------------------------------------------------------------------
~CURVE INFORMATION
#MNEM.UNIT   API CODE                                  DESCRIPTION
#---- -----  --------                                  -----------------------
TIME .S                                                :TIME {F10.1}
FREQ_EMF_SL.HZ                                         :Electromagnetic Field Frequency {F13.4}
PH_SH_WPPCM_SL.DEG                                     :WPPCM Phase Shift {F13.4}
FREQ_EXC_REQ_SL.HZ                                     :Requested Exciter Frequency {F13.4}
RB_SL.DEG                                              :Relative Bearing {F13.4}
SDEV_SL.DEG                                            :Sonde Deviation {F13.4}
TILX_SL.DEG                                            :X-axis Tilt {F13.4}
TILY_SL.DEG                                            :Y-axis Tilt {F13.4}
ROTA_SL.DEG                                            :Motor Rotation Angle {F13.4}
MSPE_SL.RPM                                            :Motor Speed {F13.4}
#-----------------------------------------------------------------------------
# 
#     TIME    FREQ_EMF_SL  PH_SH_WPPCM_ FREQ_EXC_REQ    RB_SL       SDEV_SL      TILX_SL      TILY_SL      ROTA_SL      MSPE_SL
#                          SL           _SL
~A  
# ...
    2502.0    1403.5308       0.0000      50.8611    -110.6383       5.1098      -4.7810       1.7989     160.7544       1.0226
    2503.0    1376.1475       0.0000      50.8611    -105.5724       5.1748      -4.9844       1.3875     166.8694       1.0226
    2504.0    1352.4910       0.0000      50.8611     -98.2670       5.1155      -5.0622       0.7345     172.9713       1.0226
    2505.0    1329.2375       0.0000      50.8611     -95.8636       5.1709      -5.1438       0.5275     179.4812       1.0226
    2506.0    1297.6560       0.0000      50.8611     -89.1070       5.3440      -5.3433      -0.0832     185.5709       1.0226
    2507.0    1244.8163       0.0000      50.8611     -83.4766       5.4187      -5.3835      -0.6148     191.6728       1.0226
    2508.0    1191.9915       0.0000      50.8611     -78.9360       5.3617      -5.2618      -1.0275     197.7882       1.0330
    2509.0    1138.0913       0.0000      50.8611     -74.6372       5.4144      -5.2203      -1.4325     203.8789       1.0327
    2510.0    1081.9400       0.0000      50.8611     -67.8039       5.5176      -5.1074      -2.0816     209.9684       1.0226
    2511.0    1045.0684       0.0000      50.8611     -65.3446       5.6147      -5.1014      -2.3391     216.0835       1.0330
    2512.0    1019.0679       0.0000      50.8611     -58.1377       5.4989      -4.6680      -2.8994     222.1985       1.0226
    2513.0    1000.2670       0.0000      50.8611     -54.3764       5.4924      -4.4622      -3.1958     228.3037       1.0229
    2514.0     989.0112       0.0000      50.8611     -50.6760       5.5625      -4.3003      -3.5216     234.3907       1.0226
    2515.0     979.2402       0.0000      50.8611     -45.1064       5.5679      -3.9413      -3.9267     240.4927       1.0226
    2516.0     965.8725       0.0000      50.8611     -40.0279       5.4537      -3.5045      -4.1733     246.5824       1.0226
    2517.0     962.0327       0.0000      50.8611     -34.0937       5.3907      -3.0187      -4.4621     253.0921       1.0226
    2518.0     968.4086       0.0000      50.8611     -29.1453       5.3875      -2.6208      -4.7036     259.1969       1.0226
    2519.0     968.2847       0.0000      50.8611     -25.6288       5.4040      -2.3346      -4.8710     265.3085       1.0229
    2520.0     963.1438       0.0000      50.8611     -19.0138       5.3272      -1.7334      -5.0358     271.4107       1.0226
    2521.0     967.2848       0.0000      50.8611     -14.1748       5.1113      -1.2501      -4.9553     277.5003       1.0226
    2522.0     983.3916       0.0000      50.8611      -9.7322       5.2716      -0.8899      -5.1955     283.6148       1.0229
    2523.0     999.7936       0.0000      50.8611      -4.5806       5.1334      -0.4094      -5.1169     289.7178       1.0226
    2524.0    1005.7224       0.0000      50.8611       2.2568       4.9183       0.1934      -4.9144     295.8463       1.0229
    2525.0    1020.6870       0.0000      50.8611       6.7325       4.7813       0.5599      -4.7483     301.9485       1.0226
    2526.0    1055.6938       0.0000      50.8611      12.9004       4.8296       1.0770      -4.7074     308.0634       1.0226
    2527.0    1099.9270       0.0000      50.8611      17.7378       4.7309       1.4398      -4.5055     314.1528       1.0226
    2528.0    1159.7416       0.0000      50.8611      21.3761       4.4053       1.6042      -4.1017     320.2551       1.0229
    2529.0    1226.7625       0.0000      50.8611      29.2894       4.1852       2.0461      -3.6494     326.7403       1.0226
    2530.0    1282.7843       0.0000      50.8611      34.8161       4.2877       2.4465      -3.5191     332.8551       1.0226
    2531.0    1311.6479       0.0000      50.8611      42.4023       4.2240       2.8469      -3.1179     338.9573       1.0226
    2532.0    1339.0480       0.0000      50.8611      47.1530       4.1038       3.0076      -2.7895     345.0591       1.0226
    2533.0    1362.4810       0.0000      50.8611      54.3235       3.8118       3.0954      -2.2222     351.1737       1.0229
    2534.0    1389.4894       0.0000      50.8611      61.2486       3.7532       3.2900      -1.8044     357.2759       1.0226
    2535.0    1417.2804       0.0000      50.8611      67.4113       3.7435       3.4560      -1.4370       3.3658       1.0126
    2536.0    1437.8834       0.0000      50.8611      74.0265       3.7123       3.5686      -1.0211       9.4442       1.0226
    2537.0    1464.6538       0.0000      50.8611      82.3460       3.4463       3.4155      -0.4589      15.5591       1.0226
    2538.0    1489.3776       0.0000      50.8611      89.1841       3.5264       3.5260      -0.0500      21.6624       1.0229
    2539.0    1505.5204       0.0000      50.8611      98.5605       3.5289       3.4896       0.5250      27.7672       1.0124
    2540.0    1525.3205       0.0000      50.8611     103.3994       3.3474       3.2561       0.7754      33.8426       1.0024
    2541.0    1558.8204       0.0000      50.8611     112.1136       3.2493       3.0101       1.2226      40.3270       1.0226
    2542.0    1583.1730       0.0000      50.8611     118.9586       3.2974       2.8845       1.5957      46.4415       1.0226
    2543.0    1590.6684       0.0000      50.8611     130.6614       3.4977       2.6523       2.2781      52.5564       1.0229
    2544.0    1598.1251       0.0000      50.8611     139.0963       3.5004       2.2908       2.6448      58.6463       1.0223
    2545.0    1612.4420       0.0000      50.8611     147.4008       3.4360       1.8503       2.8939      64.7477       1.0226
    2546.0    1619.8714       0.0000      50.8611     154.0336       3.4938       1.5289       3.1405      70.8626       1.0226
    2547.0    1610.9983       0.0000      50.8611     160.4524       3.7207       1.2440       3.5060      76.9657       1.0077
    2548.0    1616.4957       0.0000      50.8611     167.0007       3.9328       0.8837       3.8318      83.0807       1.0229
    2549.0    1620.1036       0.0000      50.8611     172.9749       3.9033       0.4771       3.8740      89.1837       1.0229
    2550.0    1612.7880       0.0000      50.8611    -168.7219       3.7961       0.0001       3.7960      95.2862       1.0226
    2551.0    1601.7658       0.0000      50.8611    -173.6660       4.0650      -0.4480       4.0401     101.3880       1.0226
    2552.0    1598.1251       0.0000      50.8611    -164.9479       4.1839      -1.0857       4.0401     107.5030       1.0226
    2553.0    1580.1675       0.0000      50.8611    -159.8627       4.0939      -1.4083       3.8433     113.6049       1.0226
    2554.0    1566.1988       0.0000      50.8611    -152.2816       4.1532      -1.9304       3.6759     120.1145       1.0226
    2555.0    1548.9477       0.0000      50.8611    -147.0328       4.4270      -2.4074       3.7130     126.2295       1.0226
    2556.0    1531.9673       0.0000      50.8611    -141.2317       4.5592      -2.8530       3.5532     132.3322       1.0226
    2557.0    1509.0552       0.0000      50.8611    -135.1025       4.6706      -3.2948       3.3066     138.4341       1.0226
    2558.0    1486.8186       0.0000      50.8611    -129.7618       4.6035      -3.5371       2.9425     144.5360       1.0226
    2559.0    1469.4838       0.0000      50.8611    -124.4695       4.8502      -3.9971       2.7428     150.6386       1.0226
    2560.0    1443.6040       0.0000      50.8611    -117.2016       4.9268      -4.3806       2.2499     156.7566       1.0124
    2561.0    1420.3651       0.0000      50.8611    -113.0375       5.0205      -4.6191       1.9625     162.8433       1.0226
    2562.0    1390.0962       0.0000      50.8611    -106.8062       5.0788      -4.8613       1.4667     168.9459       1.0223
    2563.0    1373.5440       0.0000      50.8611    -101.5978       5.0899      -4.9856       1.0220     175.0479       1.0124
    2564.0    1346.5834       0.0000      50.8611     -96.8089       5.1792      -5.1425       0.6131     181.1636       1.0226
