~VERSION INFORMATION
VERS.           2.0   :CWLS Log ASCII Standard - VERSION 2.0
WRAP.           NO    :One Line per depth step
PROD.  Schlumberger   :LAS Producer
PROG.  DLIS to ASCII 19C2-270                          :LAS Program name and version
CREA.        2017/09/16 17:42                          :LAS Creation date {YYYY/MM/DD hh:mm}
DLIS_CREA.  2017-Sep-15 14:39                          :DLIS Creation date and time {YYYY-MMM-DD hh:mm}
SOURCE.     LPC_S2-1_B5.DLIS                           :DLIS File Name
FILE-ID.     PERFO_Perfo_WPGRT_030LTP                  :File Identification Number
#--------------------------------------------------
~WELL INFORMATION
#MNEM.UNIT      DATA             DESCRIPTION
#---- ------ --------------   -----------------------------
STRT .S        13946.0       :START TIME      
STOP .S        14402.0       :STOP TIME      
STEP .S            1.0       :STEP     
NULL .          -999.25      :NULL VALUE
COMP .        SHELL INTERNATIONAL E P                  :COMPANY
WELL .        WPP TEST 2                               :WELL
FLD  .        WILDCAT                                  :FIELD
LOC  .                                                 :LOCATION
CNTY .        HARRIS                                   :COUNTY
STAT .        TEXAS                                    :STATE
CTRY .                                                 :COUNTRY
API  .                                                 :API NUMBER
UWI  .                                                 :UNIQUE WELL ID
DATE .                                                 :LOG DATE
SRVC .        Schlumberger                             :SERVICE COMPANY
LATI .DEG                                              :LATITUDE
LONG .DEG                                              :LONGITUDE
GDAT .                                                 :GeoDetic Datum
#-----------------------------------------------------------------------------
~PARAMETER INFORMATION
#MNEM.UNIT    VALUE                      DESCRIPTION
#---- -----   --------------------       ------------------------
U-PHASE_B_COMP_PER_YT.                 0 :Phase B Comparator Period Yt
U-PHASE_A_COMP_PER_XT.                 0 :Phase A Comparator Period Xt
U-MAX_EXC_CUR_LIMIT.MA       240.00000   :Requested CM Current Limit
U-REQ_EXC_FQ.HZ              50          :Requested CM Frequency
U-TILT_Y_OFFSET.           0.19916       :WPTET Tilt Y Offset
U-TILT_Y_GAIN.           1.01796         :WPTET Tilt Y Gain
U-TILT_X_OFFSET.          -1.77103       :WPTET Tilt X Offset
U-TILT_X_GAIN.           1.00000         :WPTET Tilt X Gain
U-TILT_OFFSET_TOL.           0.00100     :WPTET Tilt Offset Calibration Tolerance
U-NO_TILT_CAL_ROTATIONS.                 3 :Number of Rotations for Tilt Calibration
HAZI .DEG        0.00000                 :Hole Azimuth
U-STD_TOL_TILT.           0.01000        :Tilt Standard Deviation Tolerance
U-GUN_POS_TOL.DEG        5.00000         :Gun Position Tolerance
ROT_ANGLE_THRESHOLD.DEG        5.00000   :Rotation Stop Angle Tolerance
STOP_ROT_ANGLE.DEG       80.00000        :Rotation Stop Angle
WITN .                                   :Witness's Name
ENGI .                                   :Engineer's Name
COUN .        HARRIS                     :County or Rig Name
FN   .        WILDCAT                    :Field Name
WN   .        WPP TEST 2                 :Well Name
CN   .        SHELL INTERNATIONAL E P    :Company Name
CLAB .        County                     :County/Rig Label
SLAB .        State                      :State/Province Label
RUN  .          1                        :RUN NUMBER
PDAT .        GROUND LEVEL               :Permanent Datum
EPD  .                                   :Elevation of Permanent Datum above Mean Sea Level
LMF  .                                   :Logging Measured From (Name of Logging Elevation Reference)
APD  .                                   :Elevation of Depth Reference (LMF) above Permanent Datum
#-----------------------------------------------------------------------------
~CURVE INFORMATION
#MNEM.UNIT   API CODE                                  DESCRIPTION
#---- -----  --------                                  -----------------------
TIME .S                                                :TIME {F10.1}
FREQ_EMF_SL.HZ                                         :Electromagnetic Field Frequency {F13.4}
PH_SH_WPPCM_SL.DEG                                     :WPPCM Phase Shift {F13.4}
FREQ_EXC_REQ_SL.HZ                                     :Requested Exciter Frequency {F13.4}
RB_SL.DEG                                              :Relative Bearing {F13.4}
SDEV_SL.DEG                                            :Sonde Deviation {F13.4}
TILX_SL.DEG                                            :X-axis Tilt {F13.4}
TILY_SL.DEG                                            :Y-axis Tilt {F13.4}
ROTA_SL.DEG                                            :Motor Rotation Angle {F13.4}
MSPE_SL.RPM                                            :Motor Speed {F13.4}
#-----------------------------------------------------------------------------
# 
#     TIME    FREQ_EMF_SL  PH_SH_WPPCM_ FREQ_EXC_REQ    RB_SL       SDEV_SL      TILX_SL      TILY_SL      ROTA_SL      MSPE_SL
#                          SL           _SL
~A  
# ...
   14072.0    1486.0517       0.0000      50.8611    -134.5327       4.1602      -2.9640       2.9162     162.0108       1.0136
   14073.0    1459.2204       0.0000      50.8611    -130.3864       4.2410      -3.2291       2.7465     168.0982       1.0226
   14074.0    1444.6816       0.0000      50.8611    -124.0385       4.2300      -3.5042       2.3662     174.2267       1.0317
   14075.0    1426.2170       0.0000      50.8611    -118.3374       4.3724      -3.8476       2.0739     180.6646       1.0226
   14076.0    1401.0668       0.0000      50.8611    -111.8174       4.4676      -4.1469       1.6589     186.8379       1.0317
   14077.0    1375.9785       0.0000      50.8611    -106.9395       4.6398      -4.4381       1.3502     192.9491       1.0226
   14078.0    1363.0423       0.0000      50.8611    -102.5568       4.6541      -4.5425       1.0108     199.0487       1.0226
   14079.0    1339.2858       0.0000      50.8611     -97.0307       4.7390      -4.7032       0.5794     205.1493       1.0152
   14080.0    1314.9920       0.0000      50.8611     -91.0381       4.9049      -4.9040       0.0888     211.2630       1.0242
   14081.0    1294.3544       0.0000      50.8611     -85.6368       4.6949      -4.6811      -0.3564     217.3671       1.0226
   14082.0    1253.6780       0.0000      50.8611     -82.2154       4.8747      -4.8297      -0.6595     223.4711       1.0226
   14083.0    1205.3781       0.0000      50.8611     -78.7178       4.9540      -4.8578      -0.9682     229.5709       1.0226
   14084.0    1162.7683       0.0000      50.8611     -69.9306       4.9718      -4.6690      -1.7042     235.6459       1.0136
   14085.0    1122.7637       0.0000      50.8611     -67.4438       4.9699      -4.5887      -1.9045     241.7375       1.0226
   14086.0    1087.5058       0.0000      50.8611     -62.4470       5.0074      -4.4381      -2.3134     247.8290       1.0226
   14087.0    1051.5836       0.0000      50.8611     -60.2638       5.3050      -4.6048      -2.6282     254.2615       1.0226
   14088.0    1019.4661       0.0000      50.8611     -51.5748       5.1510      -4.0324      -3.1986     260.4261       1.0226
   14089.0    1000.3916       0.0000      50.8611     -45.5227       5.1147      -3.6468      -3.5809     266.5299       1.0226
   14090.0     988.3720       0.0000      50.8611     -43.5011       5.0357      -3.4641      -3.6504     272.6294       1.0226
   14091.0     976.4356       0.0000      50.8611     -38.9621       4.9284      -3.0965      -3.8304     278.7289       1.0226
   14092.0     980.4437       0.0000      50.8611     -32.6547       4.8498      -2.6145      -4.0818     284.8458       1.0242
   14093.0     983.6089       0.0000      50.8611     -27.8693       4.9682      -2.3208      -4.3900     290.9496       1.0226
   14094.0     979.6931       0.0000      50.8611     -22.4323       4.8725      -1.8574      -4.5030     297.0492       1.0226
   14095.0     982.9801       0.0000      50.8611     -19.7169       4.6106      -1.5541      -4.3394     303.1495       1.0226
   14096.0     989.6919       0.0000      50.8611     -12.3528       4.7166      -1.0079      -4.6072     309.2541       1.0226
   14097.0    1009.7506       0.0000      50.8611      -7.4586       4.7704      -0.6182      -4.7299     315.3605       1.0226
   14098.0    1028.7403       0.0000      50.8611      -2.5792       4.4134      -0.1985      -4.4089     321.4695       1.0242
   14099.0    1060.0419       0.0000      50.8611       2.1518       4.5062       0.1690      -4.5030     327.5606       1.0210
   14100.0    1102.0072       0.0000      50.8611       7.6686       4.3151       0.5747      -4.2760     334.0860       1.0226
   14101.0    1138.2126       0.0000      50.8611      12.6001       4.2559       0.9221      -4.1493     340.1855       1.0226
   14102.0    1188.7580       0.0000      50.8611      21.8096       4.1769       1.5508      -3.8774     346.2860       1.0226
   14103.0    1242.5076       0.0000      50.8611      27.6921       3.9926       1.8540      -3.5339     352.3899       1.0226
   14104.0    1275.0523       0.0000      50.8611      29.5580       3.9153       1.9303      -3.4051     358.4832       1.0136
   14105.0    1295.6991       0.0000      50.8611      35.2756       3.7897       2.1874      -3.0928       4.5943       1.0311
   14106.0    1319.5558       0.0000      50.8611      43.4550       3.7513       2.5790      -2.7223      10.7203       1.0226
   14107.0    1351.0000       0.0000      50.8611      51.0313       3.3544       2.6071      -2.1090      16.8120       1.0226
   14108.0    1372.0911       0.0000      50.8611      54.2520       3.4607       2.8080      -2.0211      22.9169       1.0226
   14109.0    1393.4415       0.0000      50.8611      62.9860       3.3711       3.0028      -1.5304      29.0569       1.0226
   14110.0    1413.8879       0.0000      50.8611      68.1249       3.0888       2.8662      -1.1501      35.1217       1.0210
   14111.0    1439.0727       0.0000      50.8611      81.2517       3.1846       3.1474      -0.4837      41.2503       1.0226
   14112.0    1468.6888       0.0000      50.8611      83.0923       2.9158       2.8943      -0.3508      47.7601       1.0226
   14113.0    1479.7967       0.0000      50.8611      91.6567       3.0624       3.0610       0.0888      53.8974       1.0317
   14114.0    1498.2455       0.0000      50.8611      99.4593       3.0914       3.0490       0.5079      59.9946       1.0136
   14115.0    1521.4225       0.0000      50.8611     109.3034       2.8115       2.6533       0.9290      66.1089       1.0242
   14116.0    1544.8213       0.0000      50.8611     120.8440       2.9974       2.5730       1.5362      72.2085       1.0136
   14117.0    1552.1523       0.0000      50.8611     126.4070       2.9138       2.3440       1.7284      78.2959       1.0226
   14118.0    1568.9511       0.0000      50.8611     131.0024       2.9842       2.2517       1.9573      84.4181       1.0226
   14119.0    1575.9844       0.0000      50.8611     143.1980       3.0702       1.8379       2.4582      89.4931       0.0005
   14120.0    1583.0811       0.0000      50.8611     140.7596       2.9505       1.8661       2.2844      89.4931       0.0005
   14121.0    1583.0811       0.0000      50.8611     142.5697       3.0911       1.8781       2.4541      89.4931       0.0005
   14122.0    1589.7058       0.0000      50.8611     141.4378       3.1080       1.9364       2.4296      89.4931       0.0005
   14123.0    1589.1720       0.0000      50.8611     139.8121       2.9829       1.9243       2.2783      89.4931       0.0005
   14124.0    1587.1896       0.0000      50.8611     143.4195       3.1153       1.8560       2.5012      89.4931       0.0005
   14125.0    1583.6149       0.0000      50.8611     145.3207       3.1116       1.7697       2.5584      89.4931       0.0005
   14126.0    1587.1896       0.0000      50.8611     142.2352       2.9949       1.8339       2.3662      89.4931       0.0005
   14127.0    1587.1896       0.0000      50.8611     140.2238       3.0714       1.9645       2.3601      89.4931       0.0005
   14128.0    1581.1263       0.0000      50.8611     142.7058       2.9313       1.7757       2.3315      89.4931       0.0005
   14129.0    1584.1511       0.0000      50.8611     143.7641       3.0634       1.8098       2.4705      89.4931       0.0005
   14130.0    1586.6534       0.0000      50.8611     140.4188       3.1476       2.0046       2.4255      89.4931       0.0005
   14131.0    1580.5901       0.0000      50.8611     140.7022       2.9762       1.8841       2.3028      89.4931       0.0005
   14132.0    1584.1511       0.0000      50.8611     140.2367       3.1161       1.9926       2.3948      89.4931       0.0005
   14133.0    1587.7282       0.0000      50.8611     143.3991       3.0268       1.8038       2.4296      89.4931       0.0005
   14134.0    1589.7058       0.0000      50.8611     141.4731       3.1904       1.9866       2.4950      89.4931       0.0005
