~VERSION INFORMATION
VERS.           2.0   :CWLS Log ASCII Standard - VERSION 2.0
WRAP.           NO    :One Line per depth step
PROD.  Schlumberger   :LAS Producer
PROG.  DLIS to ASCII 19C2-270                          :LAS Program name and version
CREA.        2017/09/16 17:42                          :LAS Creation date {YYYY/MM/DD hh:mm}
DLIS_CREA.  2017-Sep-15 18:02                          :DLIS Creation date and time {YYYY-MMM-DD hh:mm}
SOURCE.     LPC_S4-1_2AV.DLIS                          :DLIS File Name
FILE-ID.     PERFO_Perfo_WPGRT_052LTP                  :File Identification Number
#--------------------------------------------------
~WELL INFORMATION
#MNEM.UNIT      DATA             DESCRIPTION
#---- ------ --------------   -----------------------------
STRT .S         3713.0       :START TIME      
STOP .S         4115.0       :STOP TIME      
STEP .S            1.0       :STEP     
NULL .          -999.25      :NULL VALUE
COMP .        SHELL INTERNATIONAL E P                  :COMPANY
WELL .        WPP TEST 2                               :WELL
FLD  .        WILDCAT                                  :FIELD
LOC  .        NA                                       :LOCATION
CNTY .        HARRIS                                   :COUNTY
STAT .        TEXAS                                    :STATE
CTRY .                                                 :COUNTRY
API  .        NA                                       :API NUMBER
UWI  .                                                 :UNIQUE WELL ID
DATE .        15-Sep-2017                              :LOG DATE {DD-MMM-YYYY}
SRVC .        Schlumberger                             :SERVICE COMPANY
LATI .DEG                                              :LATITUDE
LONG .DEG                                              :LONGITUDE
GDAT .                                                 :GeoDetic Datum
SECT .        NA                                       :Section
RANG .        NA                                       :Range
TOWN .        NA                                       :Township
#-----------------------------------------------------------------------------
~PARAMETER INFORMATION
#MNEM.UNIT    VALUE                      DESCRIPTION
#---- -----   --------------------       ------------------------
U-PHASE_B_COMP_PER_YT.                 0 :Phase B Comparator Period Yt
U-PHASE_A_COMP_PER_XT.                 0 :Phase A Comparator Period Xt
U-MAX_EXC_CUR_LIMIT.MA       240.00000   :Requested CM Current Limit
U-REQ_EXC_FQ.HZ              50          :Requested CM Frequency
U-TILT_Y_OFFSET.           0.19916       :WPTET Tilt Y Offset
U-TILT_Y_GAIN.           1.01796         :WPTET Tilt Y Gain
U-TILT_X_OFFSET.          -1.77103       :WPTET Tilt X Offset
U-TILT_X_GAIN.           1.00000         :WPTET Tilt X Gain
U-TILT_OFFSET_TOL.           0.00100     :WPTET Tilt Offset Calibration Tolerance
U-NO_TILT_CAL_ROTATIONS.                 3 :Number of Rotations for Tilt Calibration
HAZI .DEG        0.00000                 :Hole Azimuth
U-STD_TOL_TILT.           0.01000        :Tilt Standard Deviation Tolerance
U-GUN_POS_TOL.DEG        5.00000         :Gun Position Tolerance
ROT_ANGLE_THRESHOLD.DEG        5.00000   :Rotation Stop Angle Tolerance
STOP_ROT_ANGLE.DEG        0.00000        :Rotation Stop Angle
WITN .        MR. DHRUA ARORA            :Witness's Name
ENGI .        MORRIS MOORE               :Engineer's Name
COUN .        HARRIS                     :County or Rig Name
FN   .        WILDCAT                    :Field Name
WN   .        WPP TEST 2                 :Well Name
CN   .        SHELL INTERNATIONAL E P    :Company Name
CLAB .        County                     :County/Rig Label
SLAB .        State                      :State/Province Label
RUN  .          1                        :RUN NUMBER
PDAT .        GROUND LEVEL               :Permanent Datum
EPD  .                                   :Elevation of Permanent Datum above Mean Sea Level
LMF  .          NA                       :Logging Measured From (Name of Logging Elevation Reference)
APD  .                                   :Elevation of Depth Reference (LMF) above Permanent Datum
#-----------------------------------------------------------------------------
~CURVE INFORMATION
#MNEM.UNIT   API CODE                                  DESCRIPTION
#---- -----  --------                                  -----------------------
TIME .S                                                :TIME {F10.1}
FREQ_EMF_SL.HZ                                         :Electromagnetic Field Frequency {F13.4}
PH_SH_WPPCM_SL.DEG                                     :WPPCM Phase Shift {F13.4}
FREQ_EXC_REQ_SL.HZ                                     :Requested Exciter Frequency {F13.4}
RB_SL.DEG                                              :Relative Bearing {F13.4}
SDEV_SL.DEG                                            :Sonde Deviation {F13.4}
TILX_SL.DEG                                            :X-axis Tilt {F13.4}
TILY_SL.DEG                                            :Y-axis Tilt {F13.4}
ROTA_SL.DEG                                            :Motor Rotation Angle {F13.4}
MSPE_SL.RPM                                            :Motor Speed {F13.4}
#-----------------------------------------------------------------------------
# 
#     TIME    FREQ_EMF_SL  PH_SH_WPPCM_ FREQ_EXC_REQ    RB_SL       SDEV_SL      TILX_SL      TILY_SL      ROTA_SL      MSPE_SL
#                          SL           _SL
~A  
# ...
    4028.0    1348.7248       0.0000      50.8611     -35.2646       0.6090      -0.3520      -0.4959     122.2539       1.0226
    4029.0    1354.8018       0.0000      50.8611     -40.5114       0.5627      -0.3652      -0.4279     128.3557       1.0226
    4030.0    1369.7443       0.0000      50.8611     -43.2451       0.4750      -0.3250      -0.3461     134.4452       1.0226
    4031.0    1380.4743       0.0000      50.8611     -51.7234       0.5583      -0.4320      -0.3465     140.5480       1.0226
    4032.0    1391.4292       0.0000      50.8611     -53.5179       0.6045      -0.4857      -0.3595     146.6519       1.0226
    4033.0    1406.2368       0.0000      50.8611     -62.7013       0.6364      -0.5653      -0.2781     152.7394       1.0226
    4034.0    1409.0682       0.0000      50.8611     -82.2107       0.3417      -0.3385      -0.0462     158.8413       1.0190
    4035.0    1417.6273       0.0000      50.8611     -75.7648       0.6167      -0.5927      -0.1547     164.9308       1.0226
    4036.0    1425.2463       0.0000      50.8611     -70.9157       0.6414      -0.6062      -0.2097     171.0459       1.0226
    4037.0    1437.8834       0.0000      50.8611    -101.1906       0.3800      -0.3655       0.0624     177.1355       1.0156
    4038.0    1443.7886       0.0000      50.8611     -88.4779       0.8216      -0.8074      -0.0335     183.2374       1.0226
    4039.0    1444.8338       0.0000      50.8611     -89.5499       0.6730      -0.6730      -0.0053     189.7500       1.0156
    4040.0    1456.7609       0.0000      50.8611     -86.4905       0.7548      -0.7534      -0.0462     195.8297       1.0226
    4041.0    1465.8526       0.0000      50.8611     -83.9804       0.7042      -0.7000      -0.0733     201.9666       1.0226
    4042.0    1468.9120       0.0000      50.8611     -91.2934       0.9154      -0.9144       0.0222     208.0816       1.0226
    4043.0    1468.9345       0.0000      50.8611     -87.9480       0.8489      -0.8475      -0.0328     214.1835       1.0226
    4044.0    1473.0511       0.0000      50.8611     -88.5013       1.1034      -1.1024      -0.0328     220.2854       1.0226
    4045.0    1480.2610       0.0000      50.8611     -80.7486       0.9545      -0.9414      -0.1554     226.4026       1.0297
    4046.0    1476.1121       0.0000      50.8611     -78.1472       1.1531      -1.1284      -0.2369     232.5033       1.0226
    4047.0    1472.0098       0.0000      50.8611     -84.4823       1.1749      -1.1689      -0.1146     238.6181       1.0226
    4048.0    1473.0511       0.0000      50.8611     -80.6829       1.1299      -1.1149      -0.1826     244.7331       1.0226
    4049.0    1474.0425       0.0000      50.8611     -73.6810       1.2323      -1.1820      -0.3458     250.8501       1.0226
    4050.0    1470.9588       0.0000      50.8611     -78.1068       1.2209      -1.1948      -0.2506     256.9630       1.0190
    4051.0    1461.7983       0.0000      50.8611     -78.4012       1.3166      -1.2897      -0.2644     263.4612       1.0226
    4052.0    1456.7609       0.0000      50.8611     -74.5109       1.2961      -1.2489      -0.3461     269.5641       1.0226
    4053.0    1455.7314       0.0000      50.8611     -77.6056       1.2931      -1.2624      -0.2781     275.6779       1.0226
    4054.0    1453.7490       0.0000      50.8611     -71.3134       1.4187      -1.3427      -0.4554     281.7929       1.0226
    4055.0    1447.7623       0.0000      50.8611     -68.0256       1.4347      -1.3292      -0.5372     287.8947       1.0226
    4056.0    1432.0265       0.0000      50.8611     -67.1677       1.4871      -1.3694      -0.5774     293.9965       1.0226
    4057.0    1435.9357       0.0000      50.8611     -68.2277       1.3739      -1.2759      -0.5097     300.0983       1.0226
    4058.0    1417.5908       0.0000      50.8611     -65.6990       1.3709      -1.2489      -0.5643     306.2001       1.0226
    4059.0    1417.5773       0.0000      50.8611     -61.9620       1.4910      -1.3160      -0.7004     312.3019       1.0226
    4060.0    1408.1206       0.0000      50.8611     -60.1445       1.5172      -1.3157      -0.7550     318.4037       1.0226
    4061.0    1376.0126       0.0000      50.8611     -56.5959       1.5443      -1.2890      -0.8502     324.5056       1.0262
    4062.0    1375.9655       0.0000      50.8611     -57.5568       1.3839      -1.1682      -0.7413     330.6101       1.0226
    4063.0    1370.6011       0.0000      50.8611     -51.3327       1.5139      -1.1820      -0.9457     337.1056       1.0156
    4064.0    1359.1269       0.0000      50.8611     -51.7193       1.5062      -1.1817      -0.9323     343.2074       1.0226
    4065.0    1331.7079       0.0000      50.8611     -41.7729       1.2567      -0.8489      -0.9048     349.3092       1.0226
    4066.0    1319.1838       0.0000      50.8611     -45.4252       1.4675      -1.0473      -1.0271     355.3987       1.0226
    4067.0    1301.2794       0.0000      50.8611     -48.4632       1.3470      -1.0075      -0.8914       1.5005       1.0226
    4068.0    1277.6227       0.0000      50.8611     -42.9767       1.4228      -0.9677      -1.0416       7.6023       1.0226
    4069.0    1268.4720       0.0000      50.8611     -38.2146       1.4815      -0.9140      -1.1643      13.6918       1.0226
    4070.0    1255.5688       0.0000      50.8611     -38.7153       1.4208      -0.8874      -1.1089      19.7936       1.0226
    4071.0    1243.0063       0.0000      50.8611     -39.9970       1.3597      -0.8742      -1.0412      25.8954       1.0226
    4072.0    1227.0867       0.0000      50.8611     -34.1650       1.2707      -0.7142      -1.0409      31.9931       1.0156
    4073.0    1210.8995       0.0000      50.8611     -33.3931       1.3470      -0.7413      -1.1089      38.0744       1.0226
    4074.0    1207.4218       0.0000      50.8611     -33.8935       1.2552      -0.6997      -1.0412      44.1803       1.0190
    4075.0    1208.8019       0.0000      50.8611     -36.2355       1.1391      -0.6730      -0.9186      50.6738       1.0226
    4076.0    1201.9231       0.0000      50.8611     -32.5389       1.1752      -0.6336      -0.9866      56.7632       1.0226
    4077.0    1196.5487       0.0000      50.8611     -18.0450       0.9386      -0.2852      -0.8907      62.8650       1.0226
    4078.0    1201.2334       0.0000      50.8611     -40.1159       1.3067      -0.8461      -0.9866      68.9668       1.0226
    4079.0    1200.5617       0.0000      50.8611     -33.6810       1.0219      -0.5660      -0.8505      75.0645       1.0226
    4080.0    1209.4987       0.0000      50.8611     -34.0381       1.0036      -0.5781      -0.8089      81.1712       1.0226
    4081.0    1223.5424       0.0000      50.8611     -27.0571       0.8957      -0.4057      -0.7955      87.2730       1.0226
    4082.0    1234.9916       0.0000      50.8611     -27.0217       0.8042      -0.3648      -0.7141      93.3624       1.0226
    4083.0    1239.3669       0.0000      50.8611     -25.2643       0.7900      -0.3382      -0.7138      99.4650       1.0226
    4084.0    1254.8885       0.0000      50.8611     -32.6139       0.7023      -0.3787      -0.5915     105.5668       1.0226
    4085.0    1292.5093       0.0000      50.8611     -32.9924       0.6725      -0.3652      -0.5643     111.6686       1.0262
    4086.0    1328.3155       0.0000      50.8611     -40.9183       0.7284      -0.4722      -0.5509     117.7843       1.0226
    4087.0    1333.4234       0.0000      50.8611     -32.6539       0.6046      -0.3250      -0.5093     124.2944       1.0192
    4088.0    1352.1963       0.0000      50.8611     -44.3806       0.5603      -0.3919      -0.4004     130.4099       1.0226
    4089.0    1367.0483       0.0000      50.8611     -51.1950       0.5735      -0.4455      -0.3599     136.5118       1.0226
    4090.0    1378.6634       0.0000      50.8611     -45.1778       0.5894      -0.4185      -0.4142     142.6137       1.0226
