~VERSION INFORMATION
VERS.           2.0   :CWLS Log ASCII Standard - VERSION 2.0
WRAP.           NO    :One Line per depth step
PROD.  Schlumberger   :LAS Producer
PROG.  DLIS to ASCII 19C2-270                          :LAS Program name and version
CREA.        2017/09/16 17:42                          :LAS Creation date {YYYY/MM/DD hh:mm}
DLIS_CREA.  2017-Sep-15 14:49                          :DLIS Creation date and time {YYYY-MMM-DD hh:mm}
SOURCE.     LPC_S2-1_BV.DLIS                           :DLIS File Name
FILE-ID.     PERFO_Perfo_WPGRT_031LTP                  :File Identification Number
#--------------------------------------------------
~WELL INFORMATION
#MNEM.UNIT      DATA             DESCRIPTION
#---- ------ --------------   -----------------------------
STRT .S        14524.0       :START TIME      
STOP .S        14987.0       :STOP TIME      
STEP .S            1.0       :STEP     
NULL .          -999.25      :NULL VALUE
COMP .        SHELL INTERNATIONAL E P                  :COMPANY
WELL .        WPP TEST 2                               :WELL
FLD  .        WILDCAT                                  :FIELD
LOC  .                                                 :LOCATION
CNTY .        HARRIS                                   :COUNTY
STAT .        TEXAS                                    :STATE
CTRY .                                                 :COUNTRY
API  .                                                 :API NUMBER
UWI  .                                                 :UNIQUE WELL ID
DATE .                                                 :LOG DATE
SRVC .        Schlumberger                             :SERVICE COMPANY
LATI .DEG                                              :LATITUDE
LONG .DEG                                              :LONGITUDE
GDAT .                                                 :GeoDetic Datum
#-----------------------------------------------------------------------------
~PARAMETER INFORMATION
#MNEM.UNIT    VALUE                      DESCRIPTION
#---- -----   --------------------       ------------------------
U-PHASE_B_COMP_PER_YT.                 0 :Phase B Comparator Period Yt
U-PHASE_A_COMP_PER_XT.                 0 :Phase A Comparator Period Xt
U-MAX_EXC_CUR_LIMIT.MA       240.00000   :Requested CM Current Limit
U-REQ_EXC_FQ.HZ              50          :Requested CM Frequency
U-TILT_Y_OFFSET.           0.19916       :WPTET Tilt Y Offset
U-TILT_Y_GAIN.           1.01796         :WPTET Tilt Y Gain
U-TILT_X_OFFSET.          -1.77103       :WPTET Tilt X Offset
U-TILT_X_GAIN.           1.00000         :WPTET Tilt X Gain
U-TILT_OFFSET_TOL.           0.00100     :WPTET Tilt Offset Calibration Tolerance
U-NO_TILT_CAL_ROTATIONS.                 3 :Number of Rotations for Tilt Calibration
HAZI .DEG        0.00000                 :Hole Azimuth
U-STD_TOL_TILT.           0.01000        :Tilt Standard Deviation Tolerance
U-GUN_POS_TOL.DEG        5.00000         :Gun Position Tolerance
ROT_ANGLE_THRESHOLD.DEG        5.00000   :Rotation Stop Angle Tolerance
STOP_ROT_ANGLE.DEG       80.00000        :Rotation Stop Angle
WITN .                                   :Witness's Name
ENGI .                                   :Engineer's Name
COUN .        HARRIS                     :County or Rig Name
FN   .        WILDCAT                    :Field Name
WN   .        WPP TEST 2                 :Well Name
CN   .        SHELL INTERNATIONAL E P    :Company Name
CLAB .        County                     :County/Rig Label
SLAB .        State                      :State/Province Label
RUN  .          1                        :RUN NUMBER
PDAT .        GROUND LEVEL               :Permanent Datum
EPD  .                                   :Elevation of Permanent Datum above Mean Sea Level
LMF  .                                   :Logging Measured From (Name of Logging Elevation Reference)
APD  .                                   :Elevation of Depth Reference (LMF) above Permanent Datum
#-----------------------------------------------------------------------------
~CURVE INFORMATION
#MNEM.UNIT   API CODE                                  DESCRIPTION
#---- -----  --------                                  -----------------------
TIME .S                                                :TIME {F10.1}
FREQ_EMF_SL.HZ                                         :Electromagnetic Field Frequency {F13.4}
PH_SH_WPPCM_SL.DEG                                     :WPPCM Phase Shift {F13.4}
FREQ_EXC_REQ_SL.HZ                                     :Requested Exciter Frequency {F13.4}
RB_SL.DEG                                              :Relative Bearing {F13.4}
SDEV_SL.DEG                                            :Sonde Deviation {F13.4}
TILX_SL.DEG                                            :X-axis Tilt {F13.4}
TILY_SL.DEG                                            :Y-axis Tilt {F13.4}
ROTA_SL.DEG                                            :Motor Rotation Angle {F13.4}
MSPE_SL.RPM                                            :Motor Speed {F13.4}
#-----------------------------------------------------------------------------
# 
#     TIME    FREQ_EMF_SL  PH_SH_WPPCM_ FREQ_EXC_REQ    RB_SL       SDEV_SL      TILX_SL      TILY_SL      ROTA_SL      MSPE_SL
#                          SL           _SL
~A  
# ...
   14713.0    1576.5134       0.0000      50.8611     -57.9188       0.9037      -0.7661      -0.4757     130.0627       0.0005
   14714.0    1580.0997       0.0000      50.8611     -59.2450       1.0091      -0.8671      -0.5162     130.0627       0.0005
   14715.0    1572.9866       0.0000      50.8611     -51.4476       0.9284      -0.7263      -0.5777     130.0627       0.0005
   14716.0    1576.5134       0.0000      50.8611     -56.0312       0.9250      -0.7673      -0.5166     130.0627       0.0005
   14717.0    1578.2671       0.0000      50.8611     -58.0293       0.9754      -0.8273      -0.5166     130.0627       0.0005
   14718.0    1580.0563       0.0000      50.8611     -57.5233       0.9592      -0.8070      -0.5158     130.0627       0.0005
   14719.0    1574.7676       0.0000      50.8611     -52.7530       0.8873      -0.7064      -0.5368     130.0627       0.0005
   14720.0    1571.2135       0.0000      50.8611     -53.1511       0.9356      -0.7462      -0.5579     130.0627       0.0005
   14721.0    1576.4861       0.0000      50.8611     -50.9042       0.8854      -0.6869      -0.5571     130.0627       0.0005
   14722.0    1578.3026       0.0000      50.8611     -53.9721       0.8771      -0.7068      -0.5158     130.0627       0.0005
   14723.0    1578.3026       0.0000      50.8611     -52.0162       0.8724      -0.6865      -0.5372     130.0627       0.0005
   14724.0    1572.9593       0.0000      50.8611     -53.3369       0.8310      -0.6666      -0.4959     130.0627       0.0005
   14725.0    1580.0563       0.0000      50.8611     -61.0253       0.8551      -0.7470      -0.4138     130.0627       0.0005
   14726.0    1576.5568       0.0000      50.8611     -58.1322       0.8607      -0.7267      -0.4559     130.0627       0.0005
   14727.0    1571.2993       0.0000      50.8611     -58.2005       0.9026      -0.7669      -0.4757     130.0627       0.0005
   14728.0    1572.9866       0.0000      50.8611     -57.0098       0.9863      -0.8273      -0.5368     130.0627       0.0005
   14729.0    1580.0286       0.0000      50.8611     -56.3357       0.9699      -0.8074      -0.5368     130.0627       0.0005
   14730.0    1578.2671       0.0000      50.8611     -52.9444       0.9601      -0.7665      -0.5777     130.0627       0.0005
   14731.0    1576.5134       0.0000      50.8611     -53.6073       0.8340      -0.6666      -0.4951     130.0627       0.0005
   14732.0    1574.7324       0.0000      50.8611     -60.5241       0.9264      -0.8066      -0.4551     130.0627       0.0005
   14733.0    1576.4861       0.0000      50.8611     -51.1076       0.9853      -0.7669      -0.6186     130.0627       0.0005
   14734.0    1574.8188       0.0000      50.8611     -51.5933       0.7996      -0.6269      -0.4963     130.0627       0.0005
   14735.0    1576.4861       0.0000      50.8611     -62.9772       0.8634      -0.7673      -0.3943     130.0627       0.0005
   14736.0    1578.3026       0.0000      50.8611     -53.1112       0.9329      -0.7462      -0.5575     130.0627       0.0005
   14737.0    1576.5568       0.0000      50.8611     -51.1368       0.8273      -0.6456      -0.5162     130.0627       0.0005
   14738.0    1572.9866       0.0000      50.8611     -56.0312       0.9250      -0.7673      -0.5166     130.0627       0.0005
   14739.0    1578.2671       0.0000      50.8611     -55.2973       0.8354      -0.6865      -0.4757     130.0627       0.0005
   14740.0    1576.5134       0.0000      50.8611     -59.1044       0.8463      -0.7263      -0.4344     130.0627       0.0005
   14741.0    1578.3539       0.0000      50.8611     -56.4050       0.8967      -0.7470      -0.4959     130.0627       0.0005
   14742.0    1576.5568       0.0000      50.8611     -77.1549       1.0343      -1.0083      -0.2304     130.0627       0.0005
   14743.0    1576.4861       0.0000      50.8611     -54.1994       0.7975      -0.6484      -0.4340     130.0627       0.0005
   14744.0    1580.0563       0.0000      50.8611     -51.1748       0.8835      -0.6662      -0.5591     130.0627       0.0005
   14745.0    1574.7676       0.0000      50.8611     -58.1315       0.7849      -0.6666      -0.4142     130.0627       0.0005
   14746.0    1576.5134       0.0000      50.8611     -53.9795       0.7734      -0.6257      -0.4546     130.0627       0.0005
   14747.0    1574.7130       0.0000      50.8611     -55.6467       0.8804      -0.7271      -0.4959     130.0627       0.0005
   14748.0    1574.7676       0.0000      50.8611     -62.9127       0.9067      -0.8066      -0.4138     130.0627       0.0005
   14749.0    1576.5568       0.0000      50.8611     -61.2080       0.8602      -0.7263      -0.4162     130.0627       0.0005
   14750.0    1574.7676       0.0000      50.8611     -56.7485       0.7976      -0.6670      -0.4344     130.0627       0.0005
   14751.0    1576.4861       0.0000      50.8611     -69.6052       0.7834      -0.7271      -0.2700     130.0627       0.0005
   14752.0    1580.0563       0.0000      50.8611     -55.5604       0.7342      -0.6058      -0.4142     130.0627       0.0005
   14753.0    1576.5568       0.0000      50.8611     -61.9589       0.8724      -0.7665      -0.4133     130.0627       0.0005
   14754.0    1578.2476       0.0000      50.8611     -49.2335       0.7987      -0.6054      -0.5166     130.0627       0.0005
   14755.0    1572.9866       0.0000      50.8611     -63.4220       0.8347      -0.7466      -0.3733     132.6136       0.6934
   14756.0    1572.9866       0.0000      50.8611     -59.2899       0.8670      -0.7482      -0.4348     137.6029       0.9493
   14757.0    1572.9866       0.0000      50.8611     -54.5465       0.9653      -0.7863      -0.5575     143.6298       1.0226
   14758.0    1572.9866       0.0000      50.8611     -53.9134       0.9115      -0.7366      -0.5368     149.7514       1.0266
   14759.0    1564.2225       0.0000      50.8611     -58.8757       0.9192      -0.7867      -0.4753     155.8598       1.0280
   14760.0    1558.9970       0.0000      50.8611     -64.0446       0.8529      -0.7669      -0.3733     161.9879       1.0280
   14761.0    1538.5668       0.0000      50.8611     -60.2618       0.9546      -0.8269      -0.4749     168.1029       1.0280
   14762.0    1531.8628       0.0000      50.8611     -59.3862       0.9378      -0.8078      -0.4757     174.2181       1.0280
   14763.0    1510.5370       0.0000      50.8611     -58.5086       0.8380      -0.7072      -0.4336     180.3332       1.0226
   14764.0    1499.1752       0.0000      50.8611     -62.0692       0.8459      -0.7474      -0.3935     186.8401       1.0226
   14765.0    1488.0811       0.0000      50.8611     -66.0812       0.9271      -0.8480      -0.3733     192.9419       1.0226
   14766.0    1477.1533       0.0000      50.8611     -61.7579       0.9617      -0.8472      -0.4551     199.0439       1.0226
   14767.0    1439.3714       0.0000      50.8611     -61.1643       0.9439      -0.8269      -0.4551     205.1243       1.0174
   14768.0    1426.2170       0.0000      50.8611     -58.2355       0.9053      -0.7673      -0.4749     211.2261       1.0226
   14769.0    1406.2162       0.0000      50.8611     -68.5774       0.9101      -0.8472      -0.3324     217.3281       1.0280
   14770.0    1384.4417       0.0000      50.8611     -68.6194       0.9961      -0.9275      -0.3632     223.4430       1.0226
   14771.0    1362.6769       0.0000      50.8611     -65.6708       1.0627      -0.9685      -0.4344     229.5390       1.0279
   14772.0    1345.6662       0.0000      50.8611     -61.3795       1.0348      -0.9076      -0.4963     235.6474       1.0226
   14773.0    1327.8767       0.0000      50.8611     -64.3227       1.0522      -0.9474      -0.4555     241.7754       1.0226
   14774.0    1300.8679       0.0000      50.8611     -59.7980       1.0271      -0.8878      -0.5166     247.8780       1.0226
   14775.0    1268.0238       0.0000      50.8611     -61.3457       0.9910      -0.8675      -0.4749     253.9865       1.0279
