~VERSION INFORMATION
VERS.           2.0   :CWLS Log ASCII Standard - VERSION 2.0
WRAP.           NO    :One Line per depth step
PROD.  Schlumberger   :LAS Producer
PROG.  DLIS to ASCII 19C2-270                          :LAS Program name and version
CREA.        2017/09/16 17:42                          :LAS Creation date {YYYY/MM/DD hh:mm}
DLIS_CREA.  2017-Sep-15 18:49                          :DLIS Creation date and time {YYYY-MMM-DD hh:mm}
SOURCE.     LPC_S5-1_AV.DLIS                           :DLIS File Name
FILE-ID.     PERFO_Perfo_WPGRT_057LTP                  :File Identification Number
#--------------------------------------------------
~WELL INFORMATION
#MNEM.UNIT      DATA             DESCRIPTION
#---- ------ --------------   -----------------------------
STRT .S         6545.0       :START TIME      
STOP .S         7010.0       :STOP TIME      
STEP .S            1.0       :STEP     
NULL .          -999.25      :NULL VALUE
COMP .        SHELL INTERNATIONAL E P                  :COMPANY
WELL .        WPP TEST 2                               :WELL
FLD  .        WILDCAT                                  :FIELD
LOC  .        NA                                       :LOCATION
CNTY .        HARRIS                                   :COUNTY
STAT .        TEXAS                                    :STATE
CTRY .                                                 :COUNTRY
API  .        NA                                       :API NUMBER
UWI  .                                                 :UNIQUE WELL ID
DATE .        15-Sep-2017                              :LOG DATE {DD-MMM-YYYY}
SRVC .        Schlumberger                             :SERVICE COMPANY
LATI .DEG                                              :LATITUDE
LONG .DEG                                              :LONGITUDE
GDAT .                                                 :GeoDetic Datum
SECT .        NA                                       :Section
RANG .        NA                                       :Range
TOWN .        NA                                       :Township
#-----------------------------------------------------------------------------
~PARAMETER INFORMATION
#MNEM.UNIT    VALUE                      DESCRIPTION
#---- -----   --------------------       ------------------------
U-PHASE_B_COMP_PER_YT.                 0 :Phase B Comparator Period Yt
U-PHASE_A_COMP_PER_XT.                 0 :Phase A Comparator Period Xt
U-MAX_EXC_CUR_LIMIT.MA       240.00000   :Requested CM Current Limit
U-REQ_EXC_FQ.HZ              50          :Requested CM Frequency
U-TILT_Y_OFFSET.           0.19916       :WPTET Tilt Y Offset
U-TILT_Y_GAIN.           1.01796         :WPTET Tilt Y Gain
U-TILT_X_OFFSET.          -1.77103       :WPTET Tilt X Offset
U-TILT_X_GAIN.           1.00000         :WPTET Tilt X Gain
U-TILT_OFFSET_TOL.           0.00100     :WPTET Tilt Offset Calibration Tolerance
U-NO_TILT_CAL_ROTATIONS.                 3 :Number of Rotations for Tilt Calibration
HAZI .DEG        0.00000                 :Hole Azimuth
U-STD_TOL_TILT.           0.01000        :Tilt Standard Deviation Tolerance
U-GUN_POS_TOL.DEG        5.00000         :Gun Position Tolerance
ROT_ANGLE_THRESHOLD.DEG        5.00000   :Rotation Stop Angle Tolerance
STOP_ROT_ANGLE.DEG        0.00000        :Rotation Stop Angle
WITN .        MR. DHRUA ARORA            :Witness's Name
ENGI .        MORRIS MOORE               :Engineer's Name
COUN .        HARRIS                     :County or Rig Name
FN   .        WILDCAT                    :Field Name
WN   .        WPP TEST 2                 :Well Name
CN   .        SHELL INTERNATIONAL E P    :Company Name
CLAB .        County                     :County/Rig Label
SLAB .        State                      :State/Province Label
RUN  .          1                        :RUN NUMBER
PDAT .        GROUND LEVEL               :Permanent Datum
EPD  .                                   :Elevation of Permanent Datum above Mean Sea Level
LMF  .          NA                       :Logging Measured From (Name of Logging Elevation Reference)
APD  .                                   :Elevation of Depth Reference (LMF) above Permanent Datum
#-----------------------------------------------------------------------------
~CURVE INFORMATION
#MNEM.UNIT   API CODE                                  DESCRIPTION
#---- -----  --------                                  -----------------------
TIME .S                                                :TIME {F10.1}
FREQ_EMF_SL.HZ                                         :Electromagnetic Field Frequency {F13.4}
PH_SH_WPPCM_SL.DEG                                     :WPPCM Phase Shift {F13.4}
FREQ_EXC_REQ_SL.HZ                                     :Requested Exciter Frequency {F13.4}
RB_SL.DEG                                              :Relative Bearing {F13.4}
SDEV_SL.DEG                                            :Sonde Deviation {F13.4}
TILX_SL.DEG                                            :X-axis Tilt {F13.4}
TILY_SL.DEG                                            :Y-axis Tilt {F13.4}
ROTA_SL.DEG                                            :Motor Rotation Angle {F13.4}
MSPE_SL.RPM                                            :Motor Speed {F13.4}
#-----------------------------------------------------------------------------
# 
#     TIME    FREQ_EMF_SL  PH_SH_WPPCM_ FREQ_EXC_REQ    RB_SL       SDEV_SL      TILX_SL      TILY_SL      ROTA_SL      MSPE_SL
#                          SL           _SL
~A  
# ...
    6608.0    1459.1294       0.0000      50.8611     -58.9965       1.0943      -0.9372      -0.5630       6.9766       1.0226
    6609.0    1457.3248       0.0000      50.8611     -73.9263       1.0558      -1.0079      -0.2948      13.0757       1.0226
    6610.0    1453.0986       0.0000      50.8611     -57.3364       1.2144      -1.0223      -0.6546      19.1775       1.0226
    6611.0    1441.5414       0.0000      50.8611     -56.8974       1.1741      -0.9822      -0.6399      25.2793       1.0226
    6612.0    1431.3294       0.0000      50.8611     -58.1992       1.1745      -0.9982      -0.6186      31.3811       1.0226
    6613.0    1421.1461       0.0000      50.8611     -68.4199       1.1361      -1.0561      -0.3929      37.4722       1.0321
    6614.0    1411.5581       0.0000      50.8611     -51.0236       1.1836      -0.9211      -0.7413      43.5855       1.0226
    6615.0    1398.1970       0.0000      50.8611     -50.6551       1.2907      -0.9982      -0.8181      49.6749       1.0239
    6616.0    1389.2462       0.0000      50.8611     -61.6221       1.1402      -1.0030      -0.5417      55.7776       1.0226
    6617.0    1393.7710       0.0000      50.8611     -56.9173       1.0763      -0.9018      -0.5875      61.8795       1.0226
    6618.0    1367.9475       0.0000      50.8611     -55.2781       0.9913      -0.8118      -0.5663      67.9813       1.0226
    6619.0    1352.4761       0.0000      50.8611     -49.6468       1.2636      -0.9629      -0.8181      74.4911       1.0226
    6620.0    1344.7164       0.0000      50.8611     -52.2019       1.0843      -0.8568      -0.6644      80.5928       1.0226
    6621.0    1335.8299       0.0000      50.8611     -53.8356       1.0765      -0.8681      -0.6333      86.6962       1.0239
    6622.0    1326.9518       0.0000      50.8611     -60.5515       1.1117      -0.9677      -0.5466      92.7973       1.0226
    6623.0    1306.6329       0.0000      50.8611     -50.8289       1.2339      -0.9597      -0.7723      98.8991       1.0226
    6624.0    1305.4797       0.0000      50.8611     -43.3267       1.1248      -0.7717      -0.8181     105.0009       1.0226
    6625.0    1276.3673       0.0000      50.8611     -52.0830       1.0299      -0.8118      -0.6333     111.1080       1.0226
    6626.0    1256.4884       0.0000      50.8611     -48.8621       1.1660      -0.8777      -0.7674     117.2191       1.0239
    6627.0    1246.1469       0.0000      50.8611     -49.2504       1.0654      -0.8070      -0.6955     123.3323       1.0226
    6628.0    1220.7031       0.0000      50.8611     -51.5489       0.9157      -0.7154      -0.5712     129.4341       1.0226
    6629.0    1227.3517       0.0000      50.8611     -45.1888       1.0386      -0.7363      -0.7315     135.5360       1.0226
    6630.0    1221.8123       0.0000      50.8611     -47.7406       1.0490      -0.7765      -0.7053     141.6406       1.0226
    6631.0    1224.4460       0.0000      50.8611     -46.4807       1.0027      -0.7267      -0.6906     148.1464       1.0133
    6632.0    1216.9861       0.0000      50.8611     -51.5565       1.0125      -0.7926      -0.6284     154.2374       1.0226
    6633.0    1219.0961       0.0000      50.8611     -40.3952       0.7923      -0.5146      -0.6022     160.3393       1.0226
    6634.0    1231.3923       0.0000      50.8611     -47.5691       0.9847      -0.7267      -0.6644     166.4166       1.0226
    6635.0    1247.8326       0.0000      50.8611     -46.2442       0.9016      -0.6512      -0.6235     172.5185       1.0226
    6636.0    1267.9955       0.0000      50.8611     -50.6638       0.9209      -0.7122      -0.5826     178.6204       1.0226
    6637.0    1280.7377       0.0000      50.8611     -46.8028       0.8446      -0.6158      -0.5777     184.7106       1.0226
    6638.0    1295.1762       0.0000      50.8611     -53.8504       0.7740      -0.6255      -0.4551     190.8001       1.0226
    6639.0    1304.2091       0.0000      50.8611     -39.9581       1.0142      -0.6512      -0.7772     196.9020       1.0226
    6640.0    1310.8343       0.0000      50.8611     -56.6161       0.9189      -0.7669      -0.5058     202.9819       1.0226
    6641.0    1320.0799       0.0000      50.8611     -57.7854       0.8801      -0.7428      -0.4714     209.0811       1.0226
    6642.0    1326.9518       0.0000      50.8611     -50.6796       0.8478      -0.6560      -0.5368     215.1734       1.0226
    6643.0    1341.8416       0.0000      50.8611     -58.2875       0.8765      -0.7460      -0.4600     221.6938       1.0226
    6644.0    1349.5681       0.0000      50.8611     -53.0542       0.8265      -0.6608      -0.4959     227.7973       1.0321
    6645.0    1352.7899       0.0000      50.8611     -52.3028       1.0416      -0.8135      -0.6464     233.9107       1.0226
    6646.0    1367.9475       0.0000      50.8611     -54.1240       0.7859      -0.6367      -0.4600     240.0390       1.0226
    6647.0    1379.3279       0.0000      50.8611     -78.7289       0.8639      -0.8472      -0.1688     246.1409       1.0226
    6648.0    1387.4934       0.0000      50.8611     -55.4224       0.8935      -0.7315      -0.5074     252.2559       1.0226
    6649.0    1403.1076       0.0000      50.8611     -56.9991       0.9576      -0.8022      -0.5221     258.3578       1.0226
    6650.0    1415.0807       0.0000      50.8611     -73.0932       0.9351      -0.8938      -0.2653     264.4595       1.0226
    6651.0    1415.7694       0.0000      50.8611     -63.8132       0.9387      -0.8424      -0.4142     270.5613       1.0226
    6652.0    1426.5649       0.0000      50.8611     -63.7702       0.8659      -0.7765      -0.3831     276.6508       1.0226
    6653.0    1434.9490       0.0000      50.8611     -66.3753       0.8530      -0.7813      -0.3422     282.7526       1.0226
    6654.0    1446.0477       0.0000      50.8611     -58.4245       0.9237      -0.7861      -0.4812     288.8677       1.0226
    6655.0    1447.1172       0.0000      50.8611     -65.9384       0.9387      -0.8568      -0.3831     295.3910       1.0226
    6656.0    1453.0986       0.0000      50.8611     -64.0961       0.9989      -0.8970      -0.4354     301.4925       1.0226
    6657.0    1467.1694       0.0000      50.8611     -62.4791       1.0747      -0.9532      -0.4959     307.5943       1.0226
    6658.0    1467.1694       0.0000      50.8611     -61.3004       1.0121      -0.8874      -0.4861     313.6961       1.0226
    6659.0    1476.7817       0.0000      50.8611     -69.8691       0.9934      -0.9323      -0.3422     319.7856       1.0226
    6660.0    1468.6404       0.0000      50.8611     -66.3062       1.1446      -1.0480      -0.4600     325.9004       1.0226
    6661.0    1483.0114       0.0000      50.8611     -67.0731       1.1435      -1.0528      -0.4452     332.0022       1.0226
    6662.0    1480.2632       0.0000      50.8611     -55.5981       0.9524      -0.7861      -0.5368     338.1040       1.0226
    6663.0    1477.5265       0.0000      50.8611     -65.8182       0.9452      -0.8617      -0.3880     344.2074       1.0226
    6664.0    1479.5184       0.0000      50.8611     -64.3489       1.1574      -1.0432      -0.5008     350.3084       1.0226
    6665.0    1476.7817       0.0000      50.8611     -61.1599       1.2826      -1.1235      -0.6186     356.4103       1.0226
    6666.0    1472.9511       0.0000      50.8611     -63.4127       1.0997      -0.9838      -0.4910       2.5156       1.0226
    6667.0    1464.8438       0.0000      50.8611     -61.8889       0.9660      -0.8520      -0.4551       9.0227       1.0226
    6668.0    1461.0720       0.0000      50.8611     -61.7439       1.1443      -1.0079      -0.5417      15.1245       1.0226
    6669.0    1455.3844       0.0000      50.8611     -58.8909       1.2766      -1.0930      -0.6595      21.2276       1.0213
    6670.0    1450.1016       0.0000      50.8611     -57.9359       1.1840      -1.0030      -0.6284      27.3159       1.0226
