~VERSION INFORMATION
VERS.           2.0   :CWLS Log ASCII Standard - VERSION 2.0
WRAP.           NO    :One Line per depth step
PROD.  Schlumberger   :LAS Producer
PROG.  DLIS to ASCII 19C2-270                          :LAS Program name and version
CREA.        2017/09/16 17:42                          :LAS Creation date {YYYY/MM/DD hh:mm}
DLIS_CREA.  2017-Sep-15 16:20                          :DLIS Creation date and time {YYYY-MMM-DD hh:mm}
SOURCE.     LPC_S3-1_BV.DLIS                           :DLIS File Name
FILE-ID.     PERFO_Perfo_WPGRT_040LTP                  :File Identification Number
#--------------------------------------------------
~WELL INFORMATION
#MNEM.UNIT      DATA             DESCRIPTION
#---- ------ --------------   -----------------------------
STRT .S         2992.0       :START TIME      
STOP .S         3401.0       :STOP TIME      
STEP .S            1.0       :STEP     
NULL .          -999.25      :NULL VALUE
COMP .        SHELL INTERNATIONAL E P                  :COMPANY
WELL .        WPP TEST 2                               :WELL
FLD  .        WILDCAT                                  :FIELD
LOC  .                                                 :LOCATION
CNTY .        HARRIS                                   :COUNTY
STAT .        TEXAS                                    :STATE
CTRY .                                                 :COUNTRY
API  .                                                 :API NUMBER
UWI  .                                                 :UNIQUE WELL ID
DATE .                                                 :LOG DATE
SRVC .        Schlumberger                             :SERVICE COMPANY
LATI .DEG                                              :LATITUDE
LONG .DEG                                              :LONGITUDE
GDAT .                                                 :GeoDetic Datum
#-----------------------------------------------------------------------------
~PARAMETER INFORMATION
#MNEM.UNIT    VALUE                      DESCRIPTION
#---- -----   --------------------       ------------------------
U-PHASE_B_COMP_PER_YT.                 0 :Phase B Comparator Period Yt
U-PHASE_A_COMP_PER_XT.                 0 :Phase A Comparator Period Xt
U-MAX_EXC_CUR_LIMIT.MA       240.00000   :Requested CM Current Limit
U-REQ_EXC_FQ.HZ              50          :Requested CM Frequency
U-TILT_Y_OFFSET.           0.19916       :WPTET Tilt Y Offset
U-TILT_Y_GAIN.           1.01796         :WPTET Tilt Y Gain
U-TILT_X_OFFSET.          -1.77103       :WPTET Tilt X Offset
U-TILT_X_GAIN.           1.00000         :WPTET Tilt X Gain
U-TILT_OFFSET_TOL.           0.00100     :WPTET Tilt Offset Calibration Tolerance
U-NO_TILT_CAL_ROTATIONS.                 3 :Number of Rotations for Tilt Calibration
HAZI .DEG        0.00000                 :Hole Azimuth
U-STD_TOL_TILT.           0.01000        :Tilt Standard Deviation Tolerance
U-GUN_POS_TOL.DEG        5.00000         :Gun Position Tolerance
ROT_ANGLE_THRESHOLD.DEG        5.00000   :Rotation Stop Angle Tolerance
STOP_ROT_ANGLE.DEG        0.00000        :Rotation Stop Angle
WITN .                                   :Witness's Name
ENGI .                                   :Engineer's Name
COUN .        HARRIS                     :County or Rig Name
FN   .        WILDCAT                    :Field Name
WN   .        WPP TEST 2                 :Well Name
CN   .        SHELL INTERNATIONAL E P    :Company Name
CLAB .        County                     :County/Rig Label
SLAB .        State                      :State/Province Label
RUN  .          1                        :RUN NUMBER
PDAT .        GROUND LEVEL               :Permanent Datum
EPD  .                                   :Elevation of Permanent Datum above Mean Sea Level
LMF  .                                   :Logging Measured From (Name of Logging Elevation Reference)
APD  .                                   :Elevation of Depth Reference (LMF) above Permanent Datum
#-----------------------------------------------------------------------------
~CURVE INFORMATION
#MNEM.UNIT   API CODE                                  DESCRIPTION
#---- -----  --------                                  -----------------------
TIME .S                                                :TIME {F10.1}
FREQ_EMF_SL.HZ                                         :Electromagnetic Field Frequency {F13.4}
PH_SH_WPPCM_SL.DEG                                     :WPPCM Phase Shift {F13.4}
FREQ_EXC_REQ_SL.HZ                                     :Requested Exciter Frequency {F13.4}
RB_SL.DEG                                              :Relative Bearing {F13.4}
SDEV_SL.DEG                                            :Sonde Deviation {F13.4}
TILX_SL.DEG                                            :X-axis Tilt {F13.4}
TILY_SL.DEG                                            :Y-axis Tilt {F13.4}
ROTA_SL.DEG                                            :Motor Rotation Angle {F13.4}
MSPE_SL.RPM                                            :Motor Speed {F13.4}
#-----------------------------------------------------------------------------
# 
#     TIME    FREQ_EMF_SL  PH_SH_WPPCM_ FREQ_EXC_REQ    RB_SL       SDEV_SL      TILX_SL      TILY_SL      ROTA_SL      MSPE_SL
#                          SL           _SL
~A  
# ...
    3307.0    1334.2030       0.0000      50.8611     -55.1435       0.8635      -0.7063      -0.4953      26.8230       1.0226
    3308.0    1361.9964       0.0000      50.8611     -55.9548       0.8652      -0.7162      -0.4853      33.3205       1.0226
    3309.0    1386.8344       0.0000      50.8611     -57.3143       0.8995      -0.7570      -0.4859      39.4355       1.0226
    3310.0    1416.1889       0.0000      50.8611     -59.8445       0.8646      -0.7471      -0.4349      45.5373       1.0226
    3311.0    1440.8922       0.0000      50.8611     -62.6614       0.8761      -0.7767      -0.4035      51.6523       1.0226
    3312.0    1456.4891       0.0000      50.8611     -47.7503       0.8642      -0.6353      -0.5683      57.7688       1.0226
    3313.0    1479.4974       0.0000      50.8611     -62.2138       0.8897      -0.7872      -0.4142      63.8568       1.0226
    3314.0    1498.4149       0.0000      50.8611     -58.9614       0.6701      -0.5753      -0.3425      69.9717       1.0226
    3315.0    1520.3001       0.0000      50.8611     -65.6389       0.9108      -0.8268      -0.3739      76.0735       1.0226
    3316.0    1537.7395       0.0000      50.8611     -66.1191       1.0256      -0.9380      -0.4142      82.1891       1.0226
    3317.0    1557.3405       0.0000      50.8611     -62.6276       1.1466      -1.0184      -0.5268      88.2816       1.0146
    3318.0    1569.4755       0.0000      50.8611     -66.3255       1.0151      -0.9281      -0.4035      94.3804       1.0226
    3319.0    1578.2622       0.0000      50.8611     -63.3336       1.0150      -0.9071      -0.4551     100.4952       1.0226
    3320.0    1594.4662       0.0000      50.8611     -66.7853       1.1628      -1.0579      -0.4639     107.0043       1.0226
    3321.0    1598.9745       0.0000      50.8611     -67.1670       0.9315      -0.8571      -0.3626     113.1061       1.0226
    3322.0    1593.4576       0.0000      50.8611     -65.9373       1.0158      -0.9275      -0.4142     119.2116       1.0146
    3323.0    1597.9815       0.0000      50.8611     -60.9055       1.0622      -0.9275      -0.5167     125.3117       1.0173
    3324.0    1600.7551       0.0000      50.8611     -60.4418       0.9855      -0.8571      -0.4859     131.4260       1.0226
    3325.0    1593.4995       0.0000      50.8611     -68.2265       1.2697      -1.1796      -0.4651     137.5279       1.0226
    3326.0    1585.3794       0.0000      50.8611     -60.6587       1.0756      -0.9374      -0.5268     143.6298       1.0226
    3327.0    1570.3401       0.0000      50.8611     -64.4371       0.9609      -0.8670      -0.4142     149.7201       1.0200
    3328.0    1562.5000       0.0000      50.8611     -61.1022       1.0721      -0.9380      -0.5161     155.8220       1.0226
    3329.0    1542.7753       0.0000      50.8611     -61.0499       1.1087      -0.9677      -0.5374     161.9169       1.0200
    3330.0    1536.0346       0.0000      50.8611     -63.3963       1.0599      -0.9473      -0.4752     168.0142       1.0252
    3331.0    1516.9710       0.0000      50.8611     -59.2599       1.0914      -0.9374      -0.5576     174.1301       1.0226
    3332.0    1502.4038       0.0000      50.8611     -62.8791       1.1330      -1.0079      -0.5167     180.6624       1.0334
    3333.0    1492.8344       0.0000      50.8611     -61.6916       1.2158      -1.0684      -0.5783     186.7713       1.0200
    3334.0    1471.7323       0.0000      50.8611     -56.5317       1.1604      -0.9683      -0.6394     192.8702       1.0226
    3335.0    1449.7422       0.0000      50.8611     -57.6684       1.1569      -0.9776      -0.6186     198.9721       1.0226
    3336.0    1424.7547       0.0000      50.8611     -58.5967       1.2059      -1.0282      -0.6293     205.0740       1.0226
    3337.0    1405.5588       0.0000      50.8611     -56.0103       1.0337      -0.8571      -0.5777     211.1759       1.0226
    3338.0    1376.6429       0.0000      50.8611     -53.6654       1.2511      -1.0079      -0.7413     217.2778       1.0226
    3339.0    1351.5244       0.0000      50.8611     -54.5491       1.2253      -0.9980      -0.7104     223.3797       1.0226
    3340.0    1320.3981       0.0000      50.8611     -52.3214       1.1468      -0.9077      -0.7004     229.4823       1.0226
    3341.0    1268.0106       0.0000      50.8611     -52.6364       1.0189      -0.8070      -0.6192     235.5750       1.0200
    3342.0    1219.1085       0.0000      50.8611     -62.5224       1.2164      -1.0789      -0.5570     241.6615       1.0226
    3343.0    1157.8626       0.0000      50.8611     -49.8508       1.1963      -0.9188      -0.7620     247.7764       1.0226
    3344.0    1126.7833       0.0000      50.8611     -54.9341       1.0753      -0.8775      -0.6180     254.2831       1.0281
    3345.0    1086.7291       0.0000      50.8611     -54.6518       1.1751      -0.9578      -0.6796     260.3759       1.0226
    3346.0    1044.0000       0.0000      50.8611     -56.1603       1.1304      -0.9374      -0.6293     266.4785       1.0226
    3347.0    1019.7512       0.0000      50.8611     -44.5074       1.0289      -0.7162      -0.7318     272.5810       1.0226
    3348.0    1003.0160       0.0000      50.8611     -45.7164       1.1421      -0.8163      -0.7928     278.6706       1.0226
    3349.0     993.4603       0.0000      50.8611     -53.8055       1.2119      -0.9770      -0.7111     284.7593       1.0200
    3350.0     981.3445       0.0000      50.8611     -46.4197       0.9464      -0.6859      -0.6494     290.8758       1.0226
    3351.0     975.2081       0.0000      50.8611     -51.5375       1.0830      -0.8466      -0.6702     296.9653       1.0226
    3352.0     968.4772       0.0000      50.8611     -49.4662       1.1560      -0.8775      -0.7519     303.0647       1.0252
    3353.0     972.5104       0.0000      50.8611     -49.7042       0.9395      -0.7162      -0.6079     309.1575       1.0226
    3354.0     971.8808       0.0000      50.8611     -45.1543       0.9116      -0.6458      -0.6394     315.2623       1.0226
    3355.0     974.1899       0.0000      50.8611     -51.2736       1.0363      -0.8070      -0.6488     321.3518       1.0200
    3356.0     983.0356       0.0000      50.8611     -54.3750       1.0797      -0.8775      -0.6287     327.8608       1.0226
    3357.0     991.7137       0.0000      50.8611     -51.7187       0.9654      -0.7570      -0.5979     333.9610       1.0226
    3358.0    1009.5583       0.0000      50.8611     -49.1215       0.8530      -0.6458      -0.5570     340.0628       1.0226
    3359.0    1017.9354       0.0000      50.8611     -55.1206       1.0690      -0.8781      -0.6085     346.1622       1.0307
    3360.0    1040.4923       0.0000      50.8611     -55.5358       1.0034      -0.8274      -0.5676     352.2803       1.0226
    3361.0    1090.9766       0.0000      50.8611     -58.2650       0.8451      -0.7168      -0.4444     358.3828       1.0226
    3362.0    1139.5867       0.0000      50.8611     -48.2020       0.8829      -0.6562      -0.5884       4.4978       1.0226
    3363.0    1188.2963       0.0000      50.8611     -54.0781       0.9335      -0.7564      -0.5469      10.5996       1.0226
    3364.0    1257.4000       0.0000      50.8611     -55.3416       0.9443      -0.7767      -0.5368      16.7038       1.0226
    3365.0    1290.1860       0.0000      50.8611     -51.7581       0.9004      -0.7069      -0.5576      22.8033       1.0226
    3366.0    1329.8235       0.0000      50.8611     -50.7013       0.9132      -0.7069      -0.5777      28.8935       1.0226
    3367.0    1348.9001       0.0000      50.8611     -53.2883       0.8816      -0.7069      -0.5268      34.9862       1.0307
    3368.0    1379.3919       0.0000      50.8611     -58.5103       0.9705      -0.8274      -0.5060      41.5298       1.0334
    3369.0    1403.5017       0.0000      50.8611     -57.5490       0.8858      -0.7471      -0.4758      47.6356       1.0226
