~VERSION INFORMATION
VERS.           2.0   :CWLS Log ASCII Standard - VERSION 2.0
WRAP.           NO    :One Line per depth step
PROD.  Schlumberger   :LAS Producer
PROG.  DLIS to ASCII 19C2-270                          :LAS Program name and version
CREA.        2017/09/16 17:42                          :LAS Creation date {YYYY/MM/DD hh:mm}
DLIS_CREA.  2017-Sep-15 19:54                          :DLIS Creation date and time {YYYY-MMM-DD hh:mm}
SOURCE.     LPC_S5-1_2B5.DLIS                          :DLIS File Name
FILE-ID.     PERFO_Perfo_WPGRT_064LTP                  :File Identification Number
#--------------------------------------------------
~WELL INFORMATION
#MNEM.UNIT      DATA             DESCRIPTION
#---- ------ --------------   -----------------------------
STRT .S         1886.0       :START TIME      
STOP .S         2307.0       :STOP TIME      
STEP .S            1.0       :STEP     
NULL .          -999.25      :NULL VALUE
COMP .        SHELL INTERNATIONAL E P                  :COMPANY
WELL .        WPP TEST 2                               :WELL
FLD  .        WILDCAT                                  :FIELD
LOC  .        NA                                       :LOCATION
CNTY .        HARRIS                                   :COUNTY
STAT .        TEXAS                                    :STATE
CTRY .                                                 :COUNTRY
API  .        NA                                       :API NUMBER
UWI  .                                                 :UNIQUE WELL ID
DATE .        15-Sep-2017                              :LOG DATE {DD-MMM-YYYY}
SRVC .        Schlumberger                             :SERVICE COMPANY
LATI .DEG                                              :LATITUDE
LONG .DEG                                              :LONGITUDE
GDAT .                                                 :GeoDetic Datum
SECT .        NA                                       :Section
RANG .        NA                                       :Range
TOWN .        NA                                       :Township
#-----------------------------------------------------------------------------
~PARAMETER INFORMATION
#MNEM.UNIT    VALUE                      DESCRIPTION
#---- -----   --------------------       ------------------------
U-PHASE_B_COMP_PER_YT.                 0 :Phase B Comparator Period Yt
U-PHASE_A_COMP_PER_XT.                 0 :Phase A Comparator Period Xt
U-MAX_EXC_CUR_LIMIT.MA       240.00000   :Requested CM Current Limit
U-REQ_EXC_FQ.HZ              50          :Requested CM Frequency
U-TILT_Y_OFFSET.           0.19916       :WPTET Tilt Y Offset
U-TILT_Y_GAIN.           1.01796         :WPTET Tilt Y Gain
U-TILT_X_OFFSET.          -1.77103       :WPTET Tilt X Offset
U-TILT_X_GAIN.           1.00000         :WPTET Tilt X Gain
U-TILT_OFFSET_TOL.           0.00100     :WPTET Tilt Offset Calibration Tolerance
U-NO_TILT_CAL_ROTATIONS.                 3 :Number of Rotations for Tilt Calibration
HAZI .DEG        0.00000                 :Hole Azimuth
U-STD_TOL_TILT.           0.01000        :Tilt Standard Deviation Tolerance
U-GUN_POS_TOL.DEG        5.00000         :Gun Position Tolerance
ROT_ANGLE_THRESHOLD.DEG        5.00000   :Rotation Stop Angle Tolerance
STOP_ROT_ANGLE.DEG        0.00000        :Rotation Stop Angle
WITN .        MR. DHRUA ARORA            :Witness's Name
ENGI .        MORRIS MOORE               :Engineer's Name
COUN .        HARRIS                     :County or Rig Name
FN   .        WILDCAT                    :Field Name
WN   .        WPP TEST 2                 :Well Name
CN   .        SHELL INTERNATIONAL E P    :Company Name
CLAB .        County                     :County/Rig Label
SLAB .        State                      :State/Province Label
RUN  .          1                        :RUN NUMBER
PDAT .        GROUND LEVEL               :Permanent Datum
EPD  .                                   :Elevation of Permanent Datum above Mean Sea Level
LMF  .          NA                       :Logging Measured From (Name of Logging Elevation Reference)
APD  .                                   :Elevation of Depth Reference (LMF) above Permanent Datum
#-----------------------------------------------------------------------------
~CURVE INFORMATION
#MNEM.UNIT   API CODE                                  DESCRIPTION
#---- -----  --------                                  -----------------------
TIME .S                                                :TIME {F10.1}
FREQ_EMF_SL.HZ                                         :Electromagnetic Field Frequency {F13.4}
PH_SH_WPPCM_SL.DEG                                     :WPPCM Phase Shift {F13.4}
FREQ_EXC_REQ_SL.HZ                                     :Requested Exciter Frequency {F13.4}
RB_SL.DEG                                              :Relative Bearing {F13.4}
SDEV_SL.DEG                                            :Sonde Deviation {F13.4}
TILX_SL.DEG                                            :X-axis Tilt {F13.4}
TILY_SL.DEG                                            :Y-axis Tilt {F13.4}
ROTA_SL.DEG                                            :Motor Rotation Angle {F13.4}
MSPE_SL.RPM                                            :Motor Speed {F13.4}
#-----------------------------------------------------------------------------
# 
#     TIME    FREQ_EMF_SL  PH_SH_WPPCM_ FREQ_EXC_REQ    RB_SL       SDEV_SL      TILX_SL      TILY_SL      ROTA_SL      MSPE_SL
#                          SL           _SL
~A  
# ...
    2201.0    1352.8604       0.0000      50.8611     164.7390       4.4453       1.1691       4.2880     202.2240       1.0226
    2202.0    1372.9997       0.0000      50.8611     171.6956       4.6838       0.6763       4.6341     208.4342       1.0226
    2203.0    1393.0657       0.0000      50.8611    -178.8680       4.8176      -0.0948       4.8166     214.8294       1.0149
    2204.0    1411.8976       0.0000      50.8611    -174.7587       4.6987      -0.4297       4.6778     220.9245       1.0226
    2205.0    1425.4447       0.0000      50.8611    -167.4365       4.8235      -1.0480       4.7078     227.0242       1.0226
    2206.0    1437.3136       0.0000      50.8611    -161.7230       4.9597      -1.5543       4.7078     233.1391       1.0226
    2207.0    1448.9443       0.0000      50.8611    -154.6091       5.0977      -2.1834       4.6041     239.2449       1.0226
    2208.0    1457.9576       0.0000      50.8611    -148.2159       5.2386      -2.7564       4.4514     245.3452       1.0226
    2209.0    1470.1514       0.0000      50.8611    -142.6926       5.1981      -3.1474       4.1325     251.4602       1.0226
    2210.0    1460.3914       0.0000      50.8611    -137.2663       5.3961      -3.6589       3.9609     257.5621       1.0226
    2211.0    1461.7983       0.0000      50.8611    -131.3669       5.5505      -4.1600       3.6580     263.6778       1.0226
    2212.0    1455.1614       0.0000      50.8611    -125.1110       5.6355      -4.6042       3.2382     269.7796       1.0226
    2213.0    1462.6130       0.0000      50.8611    -120.0028       5.6349      -4.8774       2.8131     275.8814       1.0226
    2214.0    1471.5922       0.0000      50.8611    -113.8167       5.8161      -5.3192       2.3443     281.9840       1.0226
    2215.0    1455.9760       0.0000      50.8611    -108.5706       5.8254      -5.5201       1.8508     288.5038       1.0226
    2216.0    1434.3814       0.0000      50.8611    -102.3808       5.9480      -5.8092       1.2732     294.6188       1.0226
    2217.0    1406.2500       0.0000      50.8611     -97.7646       5.9442      -5.8895       0.8015     300.7228       1.0226
    2218.0    1402.5255       0.0000      50.8611     -91.9142       5.9732      -5.9698       0.1992     306.8355       1.0226
    2219.0    1383.3769       0.0000      50.8611     -87.2158       6.0844      -6.0768      -0.2944     312.9373       1.0226
    2220.0    1379.8640       0.0000      50.8611     -81.0611       6.1144      -6.0394      -0.9486     319.0512       1.0198
    2221.0    1366.0018       0.0000      50.8611     -75.9312       6.1330      -5.9484      -1.4882     325.1384       1.0226
    2222.0    1341.5440       0.0000      50.8611     -70.8991       6.2236      -5.8788      -2.0335     331.2474       1.0226
    2223.0    1301.2918       0.0000      50.8611     -65.9954       6.2820      -5.7368      -2.5513     337.3484       1.0226
    2224.0    1284.9641       0.0000      50.8611     -60.5818       6.3248      -5.5065      -3.1018     343.4502       1.0226
    2225.0    1263.4009       0.0000      50.8611     -54.4843       6.2627      -5.0941      -3.6334     349.5529       1.0226
    2226.0    1244.2093       0.0000      50.8611     -50.3728       6.3165      -4.8610      -4.0232     355.6547       1.0226
    2227.0    1227.5239       0.0000      50.8611     -46.0144       6.3458      -4.5612      -4.4022       2.1614       1.0226
    2228.0    1203.9811       0.0000      50.8611     -43.6485       6.4969      -4.4786      -4.6936       8.2641       1.0226
    2229.0    1191.6066       0.0000      50.8611     -35.5976       6.2195      -3.6159      -5.0535      14.3651       1.0226
    2230.0    1165.4081       0.0000      50.8611     -32.0515       6.3234      -3.3506      -5.3535      20.4685       1.0226
    2231.0    1146.5231       0.0000      50.8611     -25.0967       6.0790      -2.5744      -5.5033      26.5586       1.0226
    2232.0    1139.0457       0.0000      50.8611     -19.9335       6.0212      -2.0494      -5.6588      32.6481       1.0226
    2233.0    1130.5625       0.0000      50.8611     -13.7357       6.0253      -1.4282      -5.8523      38.7467       1.0149
    2234.0    1113.7206       0.0000      50.8611      -9.0209       5.9258      -0.9275      -5.8523      44.8526       1.0226
    2235.0    1093.0528       0.0000      50.8611      -4.2227       5.8799      -0.4320      -5.8632      50.9544       1.0226
    2236.0    1078.8557       0.0000      50.8611       1.1978       5.7313       0.1196      -5.7296      57.0482       1.0255
    2237.0    1084.9603       0.0000      50.8611       7.0178       5.6803       0.6927      -5.6369      63.1720       1.0198
    2238.0    1072.1641       0.0000      50.8611      12.7702       5.5401       1.2228      -5.4025      69.2614       1.0226
    2239.0    1059.3505       0.0000      50.8611      17.4253       5.4690       1.6352      -5.2171      75.7567       1.0149
    2240.0    1057.7568       0.0000      50.8611      23.8666       5.4587       2.2055      -4.9908      81.8462       1.0149
    2241.0    1064.1604       0.0000      50.8611      29.7863       5.2599       2.6100      -4.5629      87.9480       1.0226
    2242.0    1065.4616       0.0000      50.8611      35.7853       5.1500       3.0088      -4.1759      94.0487       1.0149
    2243.0    1069.7704       0.0000      50.8611      41.6398       5.0436       3.3488      -3.7670     100.1292       1.0226
    2244.0    1078.8557       0.0000      50.8611      46.9092       4.7828       3.4908      -3.2654     106.2309       1.0226
    2245.0    1093.1758       0.0000      50.8611      54.7110       4.8596       3.9649      -2.8047     112.3459       1.0226
    2246.0    1091.6183       0.0000      50.8611      62.1588       4.8249       4.2647      -2.2513     118.4593       1.0305
    2247.0    1107.2834       0.0000      50.8611      69.3361       4.5385       4.2460      -1.5999     124.5633       1.0226
    2248.0    1119.9830       0.0000      50.8611      74.4217       4.4697       4.3049      -1.1991     130.6643       1.0226
    2249.0    1137.3845       0.0000      50.8611      82.7696       4.4178       4.3824      -0.5558     136.7638       1.0149
    2250.0    1145.7995       0.0000      50.8611      90.2131       4.2677       4.2675       0.0166     142.8566       1.0226
    2251.0    1164.6307       0.0000      50.8611      97.0411       4.2972       4.2647       0.5263     149.3765       1.0277
    2252.0    1186.6414       0.0000      50.8611     103.9750       4.2598       4.1335       1.0279     155.4536       1.0255
    2253.0    1205.6441       0.0000      50.8611     110.6137       4.2436       3.9700       1.4914     161.5687       1.0226
    2254.0    1222.4127       0.0000      50.8611     118.5229       4.1363       3.6300       1.9740     167.6706       1.0255
    2255.0    1237.8961       0.0000      50.8611     126.2478       4.2303       3.4105       2.4998     173.7879       1.0226
    2256.0    1257.8265       0.0000      50.8611     134.4422       4.2574       3.0382       2.9795     179.8906       1.0226
    2257.0    1281.3629       0.0000      50.8611     141.3434       4.2660       2.6632       3.3285     186.0056       1.0305
    2258.0    1302.5676       0.0000      50.8611     149.5548       4.3714       2.2134       3.7673     192.1075       1.0226
    2259.0    1317.3743       0.0000      50.8611     156.5277       4.4318       1.7636       4.0645     198.2094       1.0255
    2260.0    1341.3447       0.0000      50.8611     163.2316       4.5132       1.3003       4.3208     204.3121       1.0226
    2261.0    1364.0637       0.0000      50.8611     170.7510       4.4799       0.7193       4.4216     210.4140       1.0226
    2262.0    1387.3842       0.0000      50.8611     176.9599       4.6328       0.2452       4.6260     216.5167       1.0226
    2263.0    1393.0657       0.0000      50.8611    -174.8855       4.7898      -0.4268       4.7705     223.0236       1.0226
