~VERSION INFORMATION
VERS.           2.0   :CWLS Log ASCII Standard - VERSION 2.0
WRAP.           NO    :One Line per depth step
PROD.  Schlumberger   :LAS Producer
PROG.  DLIS to ASCII 19C2-270                          :LAS Program name and version
CREA.        2017/09/16 17:42                          :LAS Creation date {YYYY/MM/DD hh:mm}
DLIS_CREA.  2017-Sep-15 16:48                          :DLIS Creation date and time {YYYY-MMM-DD hh:mm}
SOURCE.     LPC_S3-1_2B5.DLIS                          :DLIS File Name
FILE-ID.     PERFO_Perfo_WPGRT_043LTP                  :File Identification Number
#--------------------------------------------------
~WELL INFORMATION
#MNEM.UNIT      DATA             DESCRIPTION
#---- ------ --------------   -----------------------------
STRT .S         4703.0       :START TIME      
STOP .S         5168.0       :STOP TIME      
STEP .S            1.0       :STEP     
NULL .          -999.25      :NULL VALUE
COMP .        SHELL INTERNATIONAL E P                  :COMPANY
WELL .        WPP TEST 2                               :WELL
FLD  .        WILDCAT                                  :FIELD
LOC  .                                                 :LOCATION
CNTY .        HARRIS                                   :COUNTY
STAT .        TEXAS                                    :STATE
CTRY .                                                 :COUNTRY
API  .                                                 :API NUMBER
UWI  .                                                 :UNIQUE WELL ID
DATE .                                                 :LOG DATE
SRVC .        Schlumberger                             :SERVICE COMPANY
LATI .DEG                                              :LATITUDE
LONG .DEG                                              :LONGITUDE
GDAT .                                                 :GeoDetic Datum
#-----------------------------------------------------------------------------
~PARAMETER INFORMATION
#MNEM.UNIT    VALUE                      DESCRIPTION
#---- -----   --------------------       ------------------------
U-PHASE_B_COMP_PER_YT.                 0 :Phase B Comparator Period Yt
U-PHASE_A_COMP_PER_XT.                 0 :Phase A Comparator Period Xt
U-MAX_EXC_CUR_LIMIT.MA       240.00000   :Requested CM Current Limit
U-REQ_EXC_FQ.HZ              50          :Requested CM Frequency
U-TILT_Y_OFFSET.           0.19916       :WPTET Tilt Y Offset
U-TILT_Y_GAIN.           1.01796         :WPTET Tilt Y Gain
U-TILT_X_OFFSET.          -1.77103       :WPTET Tilt X Offset
U-TILT_X_GAIN.           1.00000         :WPTET Tilt X Gain
U-TILT_OFFSET_TOL.           0.00100     :WPTET Tilt Offset Calibration Tolerance
U-NO_TILT_CAL_ROTATIONS.                 3 :Number of Rotations for Tilt Calibration
HAZI .DEG        0.00000                 :Hole Azimuth
U-STD_TOL_TILT.           0.01000        :Tilt Standard Deviation Tolerance
U-GUN_POS_TOL.DEG        5.00000         :Gun Position Tolerance
ROT_ANGLE_THRESHOLD.DEG        5.00000   :Rotation Stop Angle Tolerance
STOP_ROT_ANGLE.DEG        0.00000        :Rotation Stop Angle
WITN .                                   :Witness's Name
ENGI .                                   :Engineer's Name
COUN .        HARRIS                     :County or Rig Name
FN   .        WILDCAT                    :Field Name
WN   .        WPP TEST 2                 :Well Name
CN   .        SHELL INTERNATIONAL E P    :Company Name
CLAB .        County                     :County/Rig Label
SLAB .        State                      :State/Province Label
RUN  .          1                        :RUN NUMBER
PDAT .        GROUND LEVEL               :Permanent Datum
EPD  .                                   :Elevation of Permanent Datum above Mean Sea Level
LMF  .                                   :Logging Measured From (Name of Logging Elevation Reference)
APD  .                                   :Elevation of Depth Reference (LMF) above Permanent Datum
#-----------------------------------------------------------------------------
~CURVE INFORMATION
#MNEM.UNIT   API CODE                                  DESCRIPTION
#---- -----  --------                                  -----------------------
TIME .S                                                :TIME {F10.1}
FREQ_EMF_SL.HZ                                         :Electromagnetic Field Frequency {F13.4}
PH_SH_WPPCM_SL.DEG                                     :WPPCM Phase Shift {F13.4}
FREQ_EXC_REQ_SL.HZ                                     :Requested Exciter Frequency {F13.4}
RB_SL.DEG                                              :Relative Bearing {F13.4}
SDEV_SL.DEG                                            :Sonde Deviation {F13.4}
TILX_SL.DEG                                            :X-axis Tilt {F13.4}
TILY_SL.DEG                                            :Y-axis Tilt {F13.4}
ROTA_SL.DEG                                            :Motor Rotation Angle {F13.4}
MSPE_SL.RPM                                            :Motor Speed {F13.4}
#-----------------------------------------------------------------------------
# 
#     TIME    FREQ_EMF_SL  PH_SH_WPPCM_ FREQ_EXC_REQ    RB_SL       SDEV_SL      TILX_SL      TILY_SL      ROTA_SL      MSPE_SL
#                          SL           _SL
~A  
# ...
    4955.0       0.0000       0.0000      50.8611    -179.0628       5.0285      -0.0821       5.0278     163.7991       0.0005
    4956.0       0.0000       0.0000      50.8611    -178.1379       4.9487      -0.1605       4.9460     163.7991       0.0005
    4957.0       0.0000       0.0000      50.8611    -162.8809       5.1817       0.0001       5.1817     163.7991       0.0005
    4958.0       0.0000       0.0000      50.8611    -178.2523       5.1472      -0.1567       5.1447     163.7991       0.0005
    4959.0       0.0000       0.0000      50.8611    -179.8908       4.9811      -0.0075       4.9811     163.7991       0.0005
    4960.0       0.0000       0.0000      50.8611     162.5790       5.1449       0.0288       5.1447     163.7991       0.0005
    4961.0       0.0000       0.0000      50.8611    -162.8588       5.1427      -0.0018       5.1427     163.7991       0.0005
    4962.0       0.0000       0.0000      50.8611    -179.0773       5.1064      -0.0821       5.1057     163.7991       0.0005
    4963.0     668.6270       0.0000      50.8611    -179.4919       4.9521      -0.0439       4.9519     163.7991       0.0005
    4964.0    1330.6242       0.0000      50.8611    -179.4994       5.0261      -0.0439       5.0259     163.7991       0.0005
    4965.0    1426.4930       0.0000      50.8611    -179.3669       5.2213      -0.0572       5.2206     164.7393       0.5449
    4966.0    1446.9010       0.0000      50.8611    -174.6794       5.2452      -0.4857       5.2226     168.8950       0.8278
    4967.0    1446.9010       0.0000      50.8611    -168.8363       5.2025      -1.0060       5.1038     174.5588       1.0226
    4968.0    1452.4537       0.0000      50.8611    -161.9861       5.2387      -1.6180       4.9811     180.6607       1.0226
    4969.0    1449.7422       0.0000      50.8611    -155.0794       5.4446      -2.2913       4.9363     186.7634       1.0226
    4970.0    1449.6005       0.0000      50.8611    -149.8242       5.6156      -2.8192       4.8526     192.8653       1.0226
    4971.0    1452.4537       0.0000      50.8611    -142.7944       5.5947      -3.3796       4.4534     198.9804       1.0226
    4972.0    1452.4537       0.0000      50.8611    -136.0395       5.7941      -4.0185       4.1672     205.0823       1.0226
    4973.0    1446.9010       0.0000      50.8611    -131.8118       6.3133      -4.7013       4.2042     211.1718       1.0226
    4974.0    1435.2283       0.0000      50.8611    -125.7514       5.9497      -4.8256       3.4721     217.2737       1.0226
    4975.0    1438.0234       0.0000      50.8611    -121.0934       5.9284      -5.0742       3.0574     223.7835       1.0226
    4976.0    1437.8834       0.0000      50.8611    -114.2091       6.1696      -5.6251       2.5259     229.8855       1.0226
    4977.0    1428.8410       0.0000      50.8611    -108.5358       6.1560      -5.8355       1.9535     235.9874       1.0226
    4978.0    1420.4546       0.0000      50.8611    -104.2549       6.4186      -6.2200       1.5777     242.1024       1.0226
    4979.0    1400.5152       0.0000      50.8611     -98.1719       6.2243      -6.1606       0.8826     248.2043       1.0226
    4980.0    1400.5152       0.0000      50.8611     -93.5092       6.4790      -6.4667       0.3958     254.3062       1.0226
    4981.0    1397.3389       0.0000      50.8611     -87.7160       6.5505      -6.5451      -0.2603     260.4090       1.0231
    4982.0    1386.3187       0.0000      50.8611     -80.9170       6.5589      -6.4762      -1.0333     266.5238       1.0226
    4983.0    1368.0742       0.0000      50.8611     -77.6812       6.5454      -6.3940      -1.3935     272.6257       1.0226
    4984.0    1339.2858       0.0000      50.8611     -71.4040       6.6118      -6.2649      -2.1042     278.6958       1.0226
    4985.0    1336.3795       0.0000      50.8611     -65.2762       6.6777      -6.0631      -2.7876     284.4096       1.0231
    4986.0    1316.7135       0.0000      50.8611     -60.6574       6.6936      -5.8317      -3.2744     290.5117       1.0226
    4987.0    1292.0611       0.0000      50.8611     -56.9865       6.5667      -5.5027      -3.5722     297.0215       1.0226
    4988.0    1260.2960       0.0000      50.8611     -51.2649       6.6926      -5.2158      -4.1817     303.1233       1.0226
    4989.0    1244.4691       0.0000      50.8611     -44.4939       6.7735      -4.7415      -4.8262     309.2251       1.0226
    4990.0    1231.2901       0.0000      50.8611     -40.3302       6.7204      -4.3436      -5.1182     315.3146       1.0226
    4991.0    1222.8260       0.0000      50.8611     -34.3738       6.6400      -3.7430      -5.4765     321.4171       1.0231
    4992.0    1205.7531       0.0000      50.8611     -25.8204       6.3284      -2.7540      -5.6887     327.5191       1.0226
    4993.0    1204.5748       0.0000      50.8611     -25.3974       6.7057      -2.8709      -6.0548     333.6209       1.0226
    4994.0    1189.3409       0.0000      50.8611     -21.0446       6.5856      -2.3602      -6.1443     339.7358       1.0226
    4995.0    1177.9518       0.0000      50.8611     -14.9468       6.4047      -1.6486      -6.1871     345.8253       1.0221
    4996.0    1172.0612       0.0000      50.8611      -8.7709       6.2963      -0.9582      -6.2222     351.9148       1.0226
    4997.0    1175.2395       0.0000      50.8611      -4.6763       6.3214      -0.5144      -6.3001     358.0166       1.0221
    4998.0    1177.3915       0.0000      50.8611       3.3615       6.1140       0.3578      -6.1034       4.1062       1.0226
    4999.0    1176.0759       0.0000      50.8611       6.8816       6.0479       0.7231      -6.0042      10.6160       1.0226
    5000.0    1176.3604       0.0000      50.8611      12.1668       5.9095       1.2434      -5.7763      16.7178       1.0226
    5001.0    1187.6160       0.0000      50.8611      18.1237       5.9376       1.8440      -5.6420      22.8334       1.0328
    5002.0    1201.7286       0.0000      50.8611      23.2059       5.8246       2.2915      -5.3519      28.9506       1.0226
    5003.0    1206.1448       0.0000      50.8611      29.3558       5.5864       2.7353      -4.8671      35.0495       1.0226
    5004.0    1212.8865       0.0000      50.8611      35.4404       5.4749       3.1714      -4.4582      41.1521       1.0328
    5005.0    1227.6073       0.0000      50.8611      40.3013       5.4819       3.5424      -4.1778      47.2539       1.0226
    5006.0    1242.5847       0.0000      50.8611      47.8863       5.3050       3.9326      -3.5548      53.3557       1.0226
    5007.0    1271.5832       0.0000      50.8611      55.8189       5.0982       4.2157      -2.8616      59.4481       1.0226
    5008.0    1296.8271       0.0000      50.8611      61.3148       5.1232       4.4931      -2.4566      65.5734       1.0126
    5009.0    1321.6636       0.0000      50.8611      67.9970       4.9356       4.5753      -1.8472      71.6513       1.0226
    5010.0    1334.4444       0.0000      50.8611      74.8071       4.8249       4.6556      -1.2631      77.7530       1.0226
    5011.0    1347.1056       0.0000      50.8611      82.0407       4.7397       4.6939      -0.6556      83.8873       1.0323
    5012.0    1362.6454       0.0000      50.8611      88.0974       4.7370       4.7341      -0.1572      90.3654       1.0226
    5013.0    1367.9475       0.0000      50.8611      97.1418       4.6132       4.5772       0.5730      96.4673       1.0221
    5014.0    1379.0640       0.0000      50.8611     103.7140       4.6311       4.4988       1.0968     102.5706       1.0226
    5015.0    1389.8370       0.0000      50.8611     113.6913       4.3852       4.0149       1.7607     108.6724       1.0226
    5016.0    1402.9151       0.0000      50.8611     119.0697       4.6298       4.0455       2.2474     114.7741       1.0226
    5017.0    1400.7803       0.0000      50.8611     126.6837       4.6487       3.7266       2.7751     120.8755       1.0222
