~VERSION INFORMATION
VERS.           2.0   :CWLS Log ASCII Standard - VERSION 2.0
WRAP.           NO    :One Line per depth step
PROD.  Schlumberger   :LAS Producer
PROG.  DLIS to ASCII 19C2-270                          :LAS Program name and version
CREA.        2017/09/16 17:42                          :LAS Creation date {YYYY/MM/DD hh:mm}
DLIS_CREA.  2017-Sep-15 14:49                          :DLIS Creation date and time {YYYY-MMM-DD hh:mm}
SOURCE.     LPC_S2-1_BV.DLIS                           :DLIS File Name
FILE-ID.     PERFO_Perfo_WPGRT_031LTP                  :File Identification Number
#--------------------------------------------------
~WELL INFORMATION
#MNEM.UNIT      DATA             DESCRIPTION
#---- ------ --------------   -----------------------------
STRT .S        14524.0       :START TIME      
STOP .S        14987.0       :STOP TIME      
STEP .S            1.0       :STEP     
NULL .          -999.25      :NULL VALUE
COMP .        SHELL INTERNATIONAL E P                  :COMPANY
WELL .        WPP TEST 2                               :WELL
FLD  .        WILDCAT                                  :FIELD
LOC  .                                                 :LOCATION
CNTY .        HARRIS                                   :COUNTY
STAT .        TEXAS                                    :STATE
CTRY .                                                 :COUNTRY
API  .                                                 :API NUMBER
UWI  .                                                 :UNIQUE WELL ID
DATE .                                                 :LOG DATE
SRVC .        Schlumberger                             :SERVICE COMPANY
LATI .DEG                                              :LATITUDE
LONG .DEG                                              :LONGITUDE
GDAT .                                                 :GeoDetic Datum
#-----------------------------------------------------------------------------
~PARAMETER INFORMATION
#MNEM.UNIT    VALUE                      DESCRIPTION
#---- -----   --------------------       ------------------------
U-PHASE_B_COMP_PER_YT.                 0 :Phase B Comparator Period Yt
U-PHASE_A_COMP_PER_XT.                 0 :Phase A Comparator Period Xt
U-MAX_EXC_CUR_LIMIT.MA       240.00000   :Requested CM Current Limit
U-REQ_EXC_FQ.HZ              50          :Requested CM Frequency
U-TILT_Y_OFFSET.           0.19916       :WPTET Tilt Y Offset
U-TILT_Y_GAIN.           1.01796         :WPTET Tilt Y Gain
U-TILT_X_OFFSET.          -1.77103       :WPTET Tilt X Offset
U-TILT_X_GAIN.           1.00000         :WPTET Tilt X Gain
U-TILT_OFFSET_TOL.           0.00100     :WPTET Tilt Offset Calibration Tolerance
U-NO_TILT_CAL_ROTATIONS.                 3 :Number of Rotations for Tilt Calibration
HAZI .DEG        0.00000                 :Hole Azimuth
U-STD_TOL_TILT.           0.01000        :Tilt Standard Deviation Tolerance
U-GUN_POS_TOL.DEG        5.00000         :Gun Position Tolerance
ROT_ANGLE_THRESHOLD.DEG        5.00000   :Rotation Stop Angle Tolerance
STOP_ROT_ANGLE.DEG       80.00000        :Rotation Stop Angle
WITN .                                   :Witness's Name
ENGI .                                   :Engineer's Name
COUN .        HARRIS                     :County or Rig Name
FN   .        WILDCAT                    :Field Name
WN   .        WPP TEST 2                 :Well Name
CN   .        SHELL INTERNATIONAL E P    :Company Name
CLAB .        County                     :County/Rig Label
SLAB .        State                      :State/Province Label
RUN  .          1                        :RUN NUMBER
PDAT .        GROUND LEVEL               :Permanent Datum
EPD  .                                   :Elevation of Permanent Datum above Mean Sea Level
LMF  .                                   :Logging Measured From (Name of Logging Elevation Reference)
APD  .                                   :Elevation of Depth Reference (LMF) above Permanent Datum
#-----------------------------------------------------------------------------
~CURVE INFORMATION
#MNEM.UNIT   API CODE                                  DESCRIPTION
#---- -----  --------                                  -----------------------
TIME .S                                                :TIME {F10.1}
FREQ_EMF_SL.HZ                                         :Electromagnetic Field Frequency {F13.4}
PH_SH_WPPCM_SL.DEG                                     :WPPCM Phase Shift {F13.4}
FREQ_EXC_REQ_SL.HZ                                     :Requested Exciter Frequency {F13.4}
RB_SL.DEG                                              :Relative Bearing {F13.4}
SDEV_SL.DEG                                            :Sonde Deviation {F13.4}
TILX_SL.DEG                                            :X-axis Tilt {F13.4}
TILY_SL.DEG                                            :Y-axis Tilt {F13.4}
ROTA_SL.DEG                                            :Motor Rotation Angle {F13.4}
MSPE_SL.RPM                                            :Motor Speed {F13.4}
#-----------------------------------------------------------------------------
# 
#     TIME    FREQ_EMF_SL  PH_SH_WPPCM_ FREQ_EXC_REQ    RB_SL       SDEV_SL      TILX_SL      TILY_SL      ROTA_SL      MSPE_SL
#                          SL           _SL
~A  
# ...
   14902.0    1008.1405       0.0000      50.8611     -66.7383       1.1434      -1.0476      -0.4542     313.4387       1.0173
   14903.0     997.5312       0.0000      50.8611     -51.3711       1.2200      -0.9561      -0.7560     319.5414       1.0226
   14904.0     984.7846       0.0000      50.8611     -57.1417       1.1061      -0.9271      -0.5988     325.6438       1.0174
   14905.0     988.9121       0.0000      50.8611     -41.8322       0.9485      -0.6273      -0.6996     331.7521       1.0280
   14906.0     987.5232       0.0000      50.8611     -58.9363       1.0825      -0.9271      -0.5575     337.8602       1.0226
   14907.0     987.5706       0.0000      50.8611     -59.8081       1.1912      -1.0277      -0.5988     343.9619       1.0226
   14908.0    1000.9948       0.0000      50.8611     -59.0009       1.0391      -0.8878      -0.5376     350.0644       1.0226
   14909.0    1008.0578       0.0000      50.8611     -59.0195       1.0821      -0.9275      -0.5571     356.3736       1.0226
   14910.0    1023.5101       0.0000      50.8611     -52.1009       1.0737      -0.8472      -0.6595       2.6758       1.0226
   14911.0    1053.4550       0.0000      50.8611     -53.5239       1.1791      -0.9482      -0.7008       8.7907       1.0226
   14912.0    1078.5587       0.0000      50.8611     -54.7620       1.1381      -0.9271      -0.6587      14.8862       1.0173
   14913.0    1115.2192       0.0000      50.8611     -47.4214       1.1255      -0.8273      -0.7623      20.9820       1.0226
   14914.0    1159.4213       0.0000      50.8611     -54.8536       1.1103      -0.9076      -0.6388      27.0839       1.0226
   14915.0    1216.7707       0.0000      50.8611     -50.4179       1.0762      -0.8269      -0.6857      33.1734       1.0226
   14916.0    1254.5876       0.0000      50.8611     -50.6798       1.0722      -0.8273      -0.6793      39.2752       1.0226
   14917.0    1292.5373       0.0000      50.8611     -43.6554       1.0530      -0.7267      -0.7619      45.3707       1.0174
   14918.0    1311.8294       0.0000      50.8611     -55.4137       1.0540      -0.8675      -0.5980      51.4796       1.0226
   14919.0    1334.2332       0.0000      50.8611     -51.6977       1.0309      -0.8070      -0.6397      57.5946       1.0226
   14920.0    1352.2355       0.0000      50.8611     -53.8960       1.0485      -0.8468      -0.6182      63.6840       1.0121
   14921.0    1378.6765       0.0000      50.8611     -47.6857       1.0097      -0.7466      -0.6797      69.7737       1.0226
   14922.0    1399.2412       0.0000      50.8611     -53.1914       1.0322      -0.8265      -0.6182      76.2835       1.0226
   14923.0    1417.5908       0.0000      50.8611     -46.3356       0.8949      -0.6464      -0.6182      82.3983       1.0226
   14924.0    1445.3306       0.0000      50.8611     -52.7714       0.9889      -0.7871      -0.5980      88.5001       1.0226
   14925.0    1460.2971       0.0000      50.8611     -46.9145       0.9980      -0.7263      -0.6805      94.6019       1.0226
   14926.0    1481.8090       0.0000      50.8611     -52.5917       1.0171      -0.8070      -0.6182     100.6980       1.0228
   14927.0    1497.6669       0.0000      50.8611     -51.6326       0.8840      -0.6912      -0.5476     106.8062       1.0226
   14928.0    1505.6210       0.0000      50.8611     -53.6223       0.9038      -0.7267      -0.5364     112.9080       1.0226
   14929.0    1530.1811       0.0000      50.8611     -56.6601       1.1554      -0.9697      -0.6186     119.0099       1.0226
   14930.0    1547.0976       0.0000      50.8611     -41.3527       0.7109      -0.4670      -0.5158     125.1116       1.0226
   14931.0    1555.6856       0.0000      50.8611     -53.0726       1.0608      -0.8468      -0.6384     129.7714       0.0005
   14932.0    1562.5000       0.0000      50.8611     -46.3779       0.8374      -0.6062      -0.5777     129.7714       0.0005
   14933.0    1564.2225       0.0000      50.8611     -53.8536       0.8749      -0.7064      -0.5162     129.7714       0.0005
   14934.0    1565.9799       0.0000      50.8611     -50.7092       0.9127      -0.7064      -0.5777     129.7714       0.0005
   14935.0    1566.0226       0.0000      50.8611     -55.9621       0.9251      -0.7665      -0.5166     129.7714       0.0005
   14936.0    1565.9799       0.0000      50.8611     -50.7967       0.9125      -0.7064      -0.5773     129.7714       0.0005
   14937.0    1567.7102       0.0000      50.8611     -56.8538       0.8695      -0.7275      -0.4761     129.7714       0.0005
   14938.0    1569.4755       0.0000      50.8611     -52.0668       0.9726      -0.7669      -0.5980     129.7714       0.0005
   14939.0    1569.4755       0.0000      50.8611     -58.4263       0.8293      -0.7064      -0.4344     129.7714       0.0005
   14940.0    1564.2225       0.0000      50.8611     -52.2537       0.9441      -0.7466      -0.5777     129.7714       0.0005
   14941.0    1565.9799       0.0000      50.8611     -52.9612       0.8598      -0.6861      -0.5166     129.7714       0.0005
   14942.0    1567.7102       0.0000      50.8611     -52.8322       0.8885      -0.7068      -0.5364     129.7714       0.0005
   14943.0    1565.9799       0.0000      50.8611     -62.3437       0.9805      -0.8675      -0.4546     129.7714       0.0005
   14944.0    1567.7102       0.0000      50.8611     -50.0092       0.8696      -0.6670      -0.5575     129.7714       0.0005
   14945.0    1567.7451       0.0000      50.8611     -63.3142       0.9447      -0.8281      -0.4125     129.7714       0.0005
   14946.0    1565.9799       0.0000      50.8611     -47.6771       0.7384      -0.5465      -0.4963     129.7714       0.0005
   14947.0    1569.5182       0.0000      50.8611     -60.6667       0.8688      -0.7478      -0.4360     129.7714       0.0005
   14948.0    1567.6909       0.0000      50.8611     -56.5015       0.8700      -0.7259      -0.4757     129.7714       0.0005
   14949.0    1569.4755       0.0000      50.8611     -46.9418       0.8830      -0.6456      -0.5984     129.7714       0.0005
   14950.0    1566.0226       0.0000      50.8611     -65.9922       0.9514      -0.8659      -0.3927     129.7714       0.0005
   14951.0    1567.7451       0.0000      50.8611     -53.2232       0.8601      -0.6865      -0.5158     129.7714       0.0005
   14952.0    1569.4482       0.0000      50.8611     -49.6731       0.9267      -0.7072      -0.5984     129.7714       0.0005
   14953.0    1566.0226       0.0000      50.8611     -49.7633       0.9559      -0.7271      -0.6194     129.7714       0.0005
   14954.0    1569.4482       0.0000      50.8611     -45.3952       0.9280      -0.6452      -0.6405     129.7714       0.0005
   14955.0    1569.4755       0.0000      50.8611     -68.6771       0.9099      -0.8468      -0.3320     129.7714       0.0005
   14956.0    1569.4755       0.0000      50.8611     -59.4098       0.9372      -0.8066      -0.4757     129.7714       0.0005
   14957.0    1566.0226       0.0000      50.8611     -52.4037       0.9461      -0.7482      -0.5789     129.7714       0.0005
   14958.0    1567.7451       0.0000      50.8611     -50.7251       0.9130      -0.7068      -0.5777     129.7714       0.0005
   14959.0    1569.4482       0.0000      50.8611     -50.7901       0.9137      -0.7068      -0.5773     129.7714       0.0005
   14960.0    1567.7102       0.0000      50.8611     -55.7367       1.0261      -0.8476      -0.5781     129.7714       0.0005
   14961.0    1569.5182       0.0000      50.8611     -51.4982       0.8291      -0.6464      -0.5170     129.7714       0.0005
   14962.0    1567.7451       0.0000      50.8611     -49.5247       0.7960      -0.6058      -0.5162     129.7714       0.0005
   14963.0    1567.7102       0.0000      50.8611     -50.7967       0.9125      -0.7064      -0.5773     129.7714       0.0005
   14964.0    1571.2135       0.0000      50.8611     -55.0063       0.9361      -0.7669      -0.5368     129.7714       0.0005
