~VERSION INFORMATION
VERS.           2.0   :CWLS Log ASCII Standard - VERSION 2.0
WRAP.           NO    :One Line per depth step
PROD.  Schlumberger   :LAS Producer
PROG.  DLIS to ASCII 19C2-270                          :LAS Program name and version
CREA.        2017/09/16 17:42                          :LAS Creation date {YYYY/MM/DD hh:mm}
DLIS_CREA.  2017-Sep-15 15:01                          :DLIS Creation date and time {YYYY-MMM-DD hh:mm}
SOURCE.     LPC_S2-1_2AV.DLIS                          :DLIS File Name
FILE-ID.     PERFO_Perfo_WPGRT_032LTP                  :File Identification Number
#--------------------------------------------------
~WELL INFORMATION
#MNEM.UNIT      DATA             DESCRIPTION
#---- ------ --------------   -----------------------------
STRT .S        15223.0       :START TIME      
STOP .S        15655.0       :STOP TIME      
STEP .S            1.0       :STEP     
NULL .          -999.25      :NULL VALUE
COMP .        SHELL INTERNATIONAL E P                  :COMPANY
WELL .                                                 :WELL
FLD  .        WPP TEST 2                               :FIELD
LOC  .                                                 :LOCATION
CNTY .        HARRIS                                   :COUNTY
STAT .        TEXAS                                    :STATE
CTRY .                                                 :COUNTRY
API  .                                                 :API NUMBER
UWI  .                                                 :UNIQUE WELL ID
DATE .                                                 :LOG DATE
SRVC .        Schlumberger                             :SERVICE COMPANY
LATI .DEG                                              :LATITUDE
LONG .DEG                                              :LONGITUDE
GDAT .                                                 :GeoDetic Datum
#-----------------------------------------------------------------------------
~PARAMETER INFORMATION
#MNEM.UNIT    VALUE                      DESCRIPTION
#---- -----   --------------------       ------------------------
U-PHASE_B_COMP_PER_YT.                 0 :Phase B Comparator Period Yt
U-PHASE_A_COMP_PER_XT.                 0 :Phase A Comparator Period Xt
U-MAX_EXC_CUR_LIMIT.MA       240.00000   :Requested CM Current Limit
U-REQ_EXC_FQ.HZ              50          :Requested CM Frequency
U-TILT_Y_OFFSET.           0.19916       :WPTET Tilt Y Offset
U-TILT_Y_GAIN.           1.01796         :WPTET Tilt Y Gain
U-TILT_X_OFFSET.          -1.77103       :WPTET Tilt X Offset
U-TILT_X_GAIN.           1.00000         :WPTET Tilt X Gain
U-TILT_OFFSET_TOL.           0.00100     :WPTET Tilt Offset Calibration Tolerance
U-NO_TILT_CAL_ROTATIONS.                 3 :Number of Rotations for Tilt Calibration
HAZI .DEG        0.00000                 :Hole Azimuth
U-STD_TOL_TILT.           0.01000        :Tilt Standard Deviation Tolerance
U-GUN_POS_TOL.DEG        5.00000         :Gun Position Tolerance
ROT_ANGLE_THRESHOLD.DEG        5.00000   :Rotation Stop Angle Tolerance
STOP_ROT_ANGLE.DEG       80.00000        :Rotation Stop Angle
WITN .                                   :Witness's Name
ENGI .                                   :Engineer's Name
COUN .        HARRIS                     :County or Rig Name
FN   .        WPP TEST 2                 :Field Name
WN   .                                   :Well Name
CN   .        SHELL INTERNATIONAL E P    :Company Name
CLAB .        County                     :County/Rig Label
SLAB .        State                      :State/Province Label
RUN  .          1                        :RUN NUMBER
PDAT .        GROUND LEVEL               :Permanent Datum
EPD  .                                   :Elevation of Permanent Datum above Mean Sea Level
LMF  .                                   :Logging Measured From (Name of Logging Elevation Reference)
APD  .                                   :Elevation of Depth Reference (LMF) above Permanent Datum
#-----------------------------------------------------------------------------
~CURVE INFORMATION
#MNEM.UNIT   API CODE                                  DESCRIPTION
#---- -----  --------                                  -----------------------
TIME .S                                                :TIME {F10.1}
FREQ_EMF_SL.HZ                                         :Electromagnetic Field Frequency {F13.4}
PH_SH_WPPCM_SL.DEG                                     :WPPCM Phase Shift {F13.4}
FREQ_EXC_REQ_SL.HZ                                     :Requested Exciter Frequency {F13.4}
RB_SL.DEG                                              :Relative Bearing {F13.4}
SDEV_SL.DEG                                            :Sonde Deviation {F13.4}
TILX_SL.DEG                                            :X-axis Tilt {F13.4}
TILY_SL.DEG                                            :Y-axis Tilt {F13.4}
ROTA_SL.DEG                                            :Motor Rotation Angle {F13.4}
MSPE_SL.RPM                                            :Motor Speed {F13.4}
#-----------------------------------------------------------------------------
# 
#     TIME    FREQ_EMF_SL  PH_SH_WPPCM_ FREQ_EXC_REQ    RB_SL       SDEV_SL      TILX_SL      TILY_SL      ROTA_SL      MSPE_SL
#                          SL           _SL
~A  
   15223.0    1437.8834       0.0000      50.8611     -66.9935       0.7459      -0.6865      -0.2915     151.5884       1.0226
   15224.0    1430.1950       0.0000      50.8611     -65.3953       0.9324      -0.8472      -0.3884     157.0320       1.0314
   15225.0    1417.5908       0.0000      50.8611     -63.2493       0.8303      -0.7416      -0.3733     163.1336       1.0226
   15226.0    1418.1206       0.0000      50.8611     -62.5925       0.8271      -0.7341      -0.3808     169.2329       1.0160
   15227.0    1404.4838       0.0000      50.8611     -54.8946       0.9465      -0.7743      -0.5444     175.3274       1.0226
   15228.0    1398.8952       0.0000      50.8611     -66.7308       1.0029      -0.9201      -0.3960     181.4221       1.0206
   15229.0    1395.0892       0.0000      50.8611     -64.0596       0.9146      -0.8219      -0.3990     187.4835       1.0206
   15230.0    1388.5630       0.0000      50.8611     -69.0121       0.8571      -0.7996      -0.3066     193.5867       1.0334
   15231.0    1373.7882       0.0000      50.8611     -63.9470       0.9430      -0.8472      -0.4142     199.6967       1.0294
   15232.0    1372.6066       0.0000      50.8611     -62.8234       1.2244      -1.0882      -0.5595     205.7967       1.0226
   15233.0    1373.7882       0.0000      50.8611     -65.0751       1.0193      -0.9245      -0.4293     211.8742       1.0384
   15234.0    1354.2868       0.0000      50.8611     -67.0121       1.0242      -0.9424      -0.3990     218.0103       1.0226
   15235.0    1346.9828       0.0000      50.8611     -74.7793       1.2682      -1.2221      -0.3218     224.5372       1.0226
   15236.0    1338.1582       0.0000      50.8611     -64.4477       1.0393      -0.9380      -0.4475     230.6372       1.0226
   15237.0    1332.8059       0.0000      50.8611     -69.1496       1.0707      -1.0004      -0.3808     236.7478       1.0160
   15238.0    1320.7478       0.0000      50.8611     -59.6791       1.1298      -0.9751      -0.5702     242.8415       1.0226
   15239.0    1305.3978       0.0000      50.8611     -65.9407       1.1361      -1.0376      -0.4626     248.9462       1.0226
   15240.0    1283.9443       0.0000      50.8611     -57.0153       0.9182      -0.7713      -0.4959     255.0461       1.0140
   15241.0    1271.3171       0.0000      50.8611     -69.1937       0.7168      -0.6712      -0.2468     261.1344       1.0314
   15242.0    1257.8265       0.0000      50.8611     -49.7870       1.0716      -0.8189      -0.6852     267.2388       1.0314
   15243.0    1243.0852       0.0000      50.8611     -59.0613       1.0715      -0.9171      -0.5475     273.3683       1.0246
   15244.0    1225.7488       0.0000      50.8611     -49.6117       1.0695      -0.8145      -0.6928     279.4704       1.0226
   15245.0    1216.8693       0.0000      50.8611     -62.5536       1.3759      -1.2221      -0.6262     285.5740       1.0226
   15246.0    1204.3632       0.0000      50.8611     -58.9534       1.1852      -1.0153      -0.6110     291.6909       1.0226
   15247.0    1209.8132       0.0000      50.8611     -59.2604       1.1603      -0.9974      -0.5928     298.1856       1.0140
   15248.0    1209.0478       0.0000      50.8611     -60.9799       1.1066      -0.9677      -0.5368     304.2949       1.0334
   15249.0    1207.7352       0.0000      50.8611     -61.1752       1.1298      -0.9900      -0.5444     310.4069       1.0226
   15250.0    1212.8369       0.0000      50.8611     -54.4521       1.1216      -0.9127      -0.6519     316.5063       1.0226
   15251.0    1223.7782       0.0000      50.8611     -50.8977       1.0735      -0.8323      -0.6777     322.6169       1.0246
   15252.0    1245.4552       0.0000      50.8611     -54.6121       1.2672      -1.0332      -0.7337     328.7068       1.0206
   15253.0    1241.2996       0.0000      50.8611     -53.8141       1.3058      -1.0536      -0.7708     334.8030       1.0226
   15254.0    1269.1787       0.0000      50.8611     -58.5277       1.2495      -1.0659      -0.6519     340.9133       1.0314
   15255.0    1288.8310       0.0000      50.8611     -55.7939       1.0319      -0.8516      -0.5822     347.0261       1.0314
   15256.0    1300.3122       0.0000      50.8611     -57.6739       1.2163      -1.0257      -0.6489     353.1272       1.0226
   15257.0    1315.8046       0.0000      50.8611     -50.9242       1.0586      -0.8219      -0.6671     359.2183       1.0314
   15258.0    1315.6234       0.0000      50.8611     -57.4103       1.1486      -0.9677      -0.6186       5.3364       1.0226
   15259.0    1332.1436       0.0000      50.8611     -55.1180       1.0817      -0.8874      -0.6186      11.7647       1.0246
   15260.0    1345.0878       0.0000      50.8611     -52.7756       1.0228      -0.8145      -0.6186      17.9334       1.0226
   15261.0    1349.0898       0.0000      50.8611     -46.6421       1.0458      -0.7594      -0.7186      24.0371       1.0226
   15262.0    1356.2260       0.0000      50.8611     -46.4251       1.0390      -0.7520      -0.7155      30.1476       1.0314
   15263.0    1379.1776       0.0000      50.8611     -46.7815       1.0705      -0.7773      -0.7306      36.2483       1.0314
   15264.0    1383.6013       0.0000      50.8611     -46.7248       1.0440      -0.7594      -0.7155      42.3545       1.0226
   15265.0    1389.6832       0.0000      50.8611     -46.2262       1.0837      -0.7825      -0.7496      48.4700       1.0292
   15266.0    1405.7307       0.0000      50.8611     -53.3976       0.9826      -0.7892      -0.5853      54.5723       1.0226
   15267.0    1411.8976       0.0000      50.8611     -49.1673       0.9368      -0.7088      -0.6110      60.6718       1.0226
   15268.0    1411.8976       0.0000      50.8611     -43.4656       0.9784      -0.6717      -0.7110      66.7755       1.0226
   15269.0    1423.8641       0.0000      50.8611     -52.0392       0.9641      -0.7594      -0.5928      72.8804       1.0226
   15270.0    1439.2012       0.0000      50.8611     -55.4620       0.9047      -0.7446      -0.5111      78.9909       1.0246
   15271.0    1436.2614       0.0000      50.8611     -34.6739       0.8368      -0.4752      -0.6852      85.4270       1.0226
   15272.0    1437.8834       0.0000      50.8611     -57.8459       1.0576      -0.8948      -0.5626      91.6199       1.0226
   15273.0    1444.3382       0.0000      50.8611     -51.2367       0.8812      -0.6865      -0.5520      97.7197       1.0226
   15274.0    1449.7422       0.0000      50.8611     -47.8963       0.9293      -0.6909      -0.6186     103.8341       1.0314
   15275.0    1446.7593       0.0000      50.8611     -52.0734       0.8610      -0.6791      -0.5293     109.9352       1.0226
   15276.0    1450.2964       0.0000      50.8611     -50.9524       0.9064      -0.7044      -0.5702     116.0401       1.0226
   15277.0    1453.1920       0.0000      50.8611     -57.1578       0.9246      -0.7750      -0.5020     122.1399       1.0226
   15278.0    1451.6317       0.0000      50.8611     -64.2991       0.8429      -0.7594      -0.3657     128.2386       1.0226
   15279.0    1447.5483       0.0000      50.8611     -60.5261       0.9682      -0.8428      -0.4702     134.3425       1.0226
   15280.0    1450.8528       0.0000      50.8611     -60.8200       0.9497      -0.8293      -0.4626     140.4474       1.0226
   15281.0    1444.8900       0.0000      50.8611     -57.6367       0.8224      -0.6940      -0.4399     146.5474       1.0226
   15282.0    1437.3405       0.0000      50.8611     -57.2370       0.8195      -0.6865      -0.4444     152.6512       1.0226
   15283.0    1428.0455       0.0000      50.8611     -58.4060       0.9104      -0.7743      -0.4777     158.7551       1.0226
   15284.0    1424.4003       0.0000      50.8611     -66.2116       0.8089      -0.7371      -0.3218     165.2600       1.0226
   15285.0    1423.8641       0.0000      50.8611     -59.0614       0.8854      -0.7594      -0.4551     171.3599       1.0226
