~VERSION INFORMATION
VERS.           2.0   :CWLS Log ASCII Standard - VERSION 2.0
WRAP.           NO    :One Line per depth step
PROD.  Schlumberger   :LAS Producer
PROG.  DLIS to ASCII 19C2-270                          :LAS Program name and version
CREA.        2017/09/16 17:42                          :LAS Creation date {YYYY/MM/DD hh:mm}
DLIS_CREA.  2017-Sep-15 15:33                          :DLIS Creation date and time {YYYY-MMM-DD hh:mm}
SOURCE.     LPC_S2-1_2BV.DLIS                          :DLIS File Name
FILE-ID.     PERFO_Perfo_WPGRT_036LTP                  :File Identification Number
#--------------------------------------------------
~WELL INFORMATION
#MNEM.UNIT      DATA             DESCRIPTION
#---- ------ --------------   -----------------------------
STRT .S          212.0       :START TIME      
STOP .S          624.0       :STOP TIME      
STEP .S            1.0       :STEP     
NULL .          -999.25      :NULL VALUE
COMP .        SHELL INTERNATIONAL E P                  :COMPANY
WELL .        WPP TEST 2                               :WELL
FLD  .        WILDCAT                                  :FIELD
LOC  .                                                 :LOCATION
CNTY .        HARRIS                                   :COUNTY
STAT .        TEXAS                                    :STATE
CTRY .                                                 :COUNTRY
API  .                                                 :API NUMBER
UWI  .                                                 :UNIQUE WELL ID
DATE .                                                 :LOG DATE
SRVC .        Schlumberger                             :SERVICE COMPANY
LATI .DEG                                              :LATITUDE
LONG .DEG                                              :LONGITUDE
GDAT .                                                 :GeoDetic Datum
#-----------------------------------------------------------------------------
~PARAMETER INFORMATION
#MNEM.UNIT    VALUE                      DESCRIPTION
#---- -----   --------------------       ------------------------
U-PHASE_B_COMP_PER_YT.                 0 :Phase B Comparator Period Yt
U-PHASE_A_COMP_PER_XT.                 0 :Phase A Comparator Period Xt
U-MAX_EXC_CUR_LIMIT.MA       240.00000   :Requested CM Current Limit
U-REQ_EXC_FQ.HZ              50          :Requested CM Frequency
U-TILT_Y_OFFSET.           0.19916       :WPTET Tilt Y Offset
U-TILT_Y_GAIN.           1.01796         :WPTET Tilt Y Gain
U-TILT_X_OFFSET.          -1.77103       :WPTET Tilt X Offset
U-TILT_X_GAIN.           1.00000         :WPTET Tilt X Gain
U-TILT_OFFSET_TOL.           0.00100     :WPTET Tilt Offset Calibration Tolerance
U-NO_TILT_CAL_ROTATIONS.                 3 :Number of Rotations for Tilt Calibration
HAZI .DEG        0.00000                 :Hole Azimuth
U-STD_TOL_TILT.           0.01000        :Tilt Standard Deviation Tolerance
U-GUN_POS_TOL.DEG        5.00000         :Gun Position Tolerance
ROT_ANGLE_THRESHOLD.DEG        5.00000   :Rotation Stop Angle Tolerance
STOP_ROT_ANGLE.DEG        0.00000        :Rotation Stop Angle
WITN .                                   :Witness's Name
ENGI .                                   :Engineer's Name
COUN .        HARRIS                     :County or Rig Name
FN   .        WILDCAT                    :Field Name
WN   .        WPP TEST 2                 :Well Name
CN   .        SHELL INTERNATIONAL E P    :Company Name
CLAB .        County                     :County/Rig Label
SLAB .        State                      :State/Province Label
RUN  .          1                        :RUN NUMBER
PDAT .        GROUND LEVEL               :Permanent Datum
EPD  .                                   :Elevation of Permanent Datum above Mean Sea Level
LMF  .                                   :Logging Measured From (Name of Logging Elevation Reference)
APD  .                                   :Elevation of Depth Reference (LMF) above Permanent Datum
#-----------------------------------------------------------------------------
~CURVE INFORMATION
#MNEM.UNIT   API CODE                                  DESCRIPTION
#---- -----  --------                                  -----------------------
TIME .S                                                :TIME {F10.1}
FREQ_EMF_SL.HZ                                         :Electromagnetic Field Frequency {F13.4}
PH_SH_WPPCM_SL.DEG                                     :WPPCM Phase Shift {F13.4}
FREQ_EXC_REQ_SL.HZ                                     :Requested Exciter Frequency {F13.4}
RB_SL.DEG                                              :Relative Bearing {F13.4}
SDEV_SL.DEG                                            :Sonde Deviation {F13.4}
TILX_SL.DEG                                            :X-axis Tilt {F13.4}
TILY_SL.DEG                                            :Y-axis Tilt {F13.4}
ROTA_SL.DEG                                            :Motor Rotation Angle {F13.4}
MSPE_SL.RPM                                            :Motor Speed {F13.4}
#-----------------------------------------------------------------------------
# 
#     TIME    FREQ_EMF_SL  PH_SH_WPPCM_ FREQ_EXC_REQ    RB_SL       SDEV_SL      TILX_SL      TILY_SL      ROTA_SL      MSPE_SL
#                          SL           _SL
~A  
# ...
     464.0    1224.3120       0.0000      50.8611     -54.8071       1.1368      -0.9275      -0.6557     259.1212       1.0194
     465.0    1239.8622       0.0000      50.8611     -51.4288       1.2377      -0.9640      -0.7746     265.2070       1.0194
     466.0    1242.2703       0.0000      50.8611     -57.3143       1.1516      -0.9677      -0.6224     271.3133       1.0152
     467.0    1271.9709       0.0000      50.8611     -47.3760       1.0365      -0.7631      -0.7004     277.3990       1.0226
     468.0    1300.6299       0.0000      50.8611     -48.0351       1.0490      -0.7753      -0.7052     283.5015       1.0194
     469.0    1315.0438       0.0000      50.8611     -51.4095       1.0786      -0.8435      -0.6719     289.5911       1.0194
     470.0    1320.6869       0.0000      50.8611     -49.2266       1.0287      -0.7790      -0.6719     295.7060       1.0226
     471.0    1337.2898       0.0000      50.8611     -52.1009       1.0737      -0.8472      -0.6595     301.8078       1.0226
     472.0    1349.5681       0.0000      50.8611     -47.7205       0.9987      -0.7388      -0.6719     307.9010       1.0152
     473.0    1365.5463       0.0000      50.8611     -46.3385       0.9994      -0.7230      -0.6880     313.9905       1.0194
     474.0    1376.2376       0.0000      50.8611     -48.4799       0.8346      -0.6268      -0.5492     320.1017       1.0226
     475.0    1383.0334       0.0000      50.8611     -45.5060       1.0580      -0.7547      -0.7413     326.1912       1.0226
     476.0    1391.2431       0.0000      50.8611     -52.5718       1.1527      -0.9154      -0.7004     332.7011       1.0226
     477.0    1400.6475       0.0000      50.8611     -47.1047       0.9700      -0.7108      -0.6595     338.8029       1.0226
     478.0    1411.8976       0.0000      50.8611     -52.8080       0.9282      -0.7388      -0.5616     344.9047       1.0226
     479.0    1416.7280       0.0000      50.8611     -46.7553       0.9857      -0.7183      -0.6719     351.0074       1.0226
     480.0    1426.4958       0.0000      50.8611     -60.5995       1.1401      -0.9910      -0.5454     357.1083       1.0226
     481.0    1431.5182       0.0000      50.8611     -56.0209       0.9225      -0.7650      -0.5154       3.2192       1.0282
     482.0    1435.8366       0.0000      50.8611     -57.8396       0.9271      -0.7827      -0.4922       9.3278       1.0226
     483.0    1440.8298       0.0000      50.8611     -53.5051       0.8586      -0.6902      -0.5083      15.4400       1.0226
     484.0    1449.7422       0.0000      50.8611     -49.2324       0.7526      -0.5735      -0.4836      21.5426       1.0226
     485.0    1447.6616       0.0000      50.8611     -55.4480       0.8773      -0.7230      -0.4959      27.6444       1.0226
     486.0    1449.4776       0.0000      50.8611     -57.3873       0.9736      -0.8155      -0.5293      33.7462       1.0226
     487.0    1454.8355       0.0000      50.8611     -64.6707       0.7900      -0.7108      -0.3410      39.8480       1.0301
     488.0    1457.8519       0.0000      50.8611     -50.2193       0.8438      -0.6464      -0.5406      46.3709       1.0226
     489.0    1455.7454       0.0000      50.8611     -58.0910       0.8846      -0.7510      -0.4674      52.4727       1.0226
     490.0    1456.3998       0.0000      50.8611     -57.6429       0.9563      -0.8070      -0.5121      58.5877       1.0226
     491.0    1461.7983       0.0000      50.8611     -60.7334       0.9893      -0.8631      -0.4836      64.6917       1.0301
     492.0    1449.7422       0.0000      50.8611     -57.1077       0.9923      -0.8360      -0.5330      70.7921       1.0226
     493.0    1447.4055       0.0000      50.8611     -57.6919       0.8743      -0.7388      -0.4674      76.8939       1.0226
     494.0    1451.8315       0.0000      50.8611     -52.2094       0.8405      -0.6659      -0.5121      82.9833       1.0226
     495.0    1450.0306       0.0000      50.8611     -60.9290       0.9973      -0.8715      -0.4836      89.0851       1.0301
     496.0    1437.8834       0.0000      50.8611     -62.8679       1.0026      -0.8911      -0.4588      95.1999       1.0226
     497.0    1432.9105       0.0000      50.8611     -65.8453       0.9420      -0.8593      -0.3856     101.3017       1.0226
     498.0    1429.1158       0.0000      50.8611     -66.1457       0.8519      -0.7790      -0.3448     107.4035       1.0226
     499.0    1421.3244       0.0000      50.8611     -64.6425       0.9956      -0.8995      -0.4265     113.5071       1.0226
     500.0    1405.4009       0.0000      50.8611     -60.7988       1.0166      -0.8874      -0.4959     120.0151       1.0226
     501.0    1402.3422       0.0000      50.8611     -67.6997       1.0158      -0.9397      -0.3856     126.1169       1.0226
     502.0    1392.3268       0.0000      50.8611     -65.5386       1.0015      -0.9117      -0.4142     132.2187       1.0226
     503.0    1381.9733       0.0000      50.8611     -66.0280       0.9916      -0.9032      -0.4056     138.3206       1.0226
     504.0    1372.2368       0.0000      50.8611     -65.5679       1.1027      -1.0041      -0.4551     144.3979       1.0226
     505.0    1357.3842       0.0000      50.8611     -60.1820       1.0709      -0.9275      -0.5330     150.4998       1.0226
     506.0    1355.5599       0.0000      50.8611     -66.8489       1.0563      -0.9714      -0.4142     156.5894       1.0226
     507.0    1340.8350       0.0000      50.8611     -64.8377       1.0730      -0.9714      -0.4551     162.6913       1.0226
     508.0    1325.6670       0.0000      50.8611     -67.0801       1.0638      -0.9798      -0.4142     168.7932       1.0226
     509.0    1320.1662       0.0000      50.8611     -70.9651       1.0925      -1.0322      -0.3571     174.8959       1.0226
     510.0    1300.8721       0.0000      50.8611     -62.7152       1.1714      -1.0396      -0.5330     180.9978       1.0226
     511.0    1272.6753       0.0000      50.8611     -65.8679       1.0957      -1.0004      -0.4427     187.0997       1.0226
     512.0    1259.8796       0.0000      50.8611     -69.2468       1.1495      -1.0723      -0.4056     193.6106       1.0226
     513.0    1251.1122       0.0000      50.8611     -60.4201       1.1451      -0.9957      -0.5653     199.7000       1.0258
     514.0    1230.7411       0.0000      50.8611     -60.0593       1.1429      -0.9910      -0.5691     205.8150       1.0226
     515.0    1223.9366       0.0000      50.8611     -59.5310       1.1648      -1.0041      -0.5901     211.9169       1.0226
     516.0    1210.4801       0.0000      50.8611     -55.9700       1.1348      -0.9397      -0.6348     218.0320       1.0258
     517.0    1199.8721       0.0000      50.8611     -58.0514       1.2269      -1.0396      -0.6509     224.1339       1.0226
     518.0    1206.2444       0.0000      50.8611     -53.2985       1.0909      -0.8715      -0.6509     230.2496       1.0226
     519.0    1202.5456       0.0000      50.8611     -59.4699       1.3321      -1.1479      -0.6756     236.3646       1.0226
     520.0    1206.6732       0.0000      50.8611     -56.3174       1.2114      -1.0079      -0.6719     242.4673       1.0152
     521.0    1213.9501       0.0000      50.8611     -47.7006       1.1296      -0.8360      -0.7450     248.5569       1.0226
     522.0    1219.0060       0.0000      50.8611     -50.2561       1.1916      -0.9117      -0.7612     254.6680       1.0258
     523.0    1217.3142       0.0000      50.8611     -52.0820       1.0857      -0.8556      -0.6681     260.7745       1.0226
     524.0    1234.2084       0.0000      50.8611     -51.3102       0.9645      -0.7557      -0.5987     267.2720       1.0226
     525.0    1246.8875       0.0000      50.8611     -53.1423       1.2197      -0.9761      -0.7289     273.4001       1.0226
     526.0    1264.6134       0.0000      50.8611     -56.8043       1.1453      -0.9555      -0.6272     279.4895       1.0226
