~VERSION INFORMATION
VERS.           2.0   :CWLS Log ASCII Standard - VERSION 2.0
WRAP.           NO    :One Line per depth step
PROD.  Schlumberger   :LAS Producer
PROG.  DLIS to ASCII 19C2-270                          :LAS Program name and version
CREA.        2017/09/16 17:42                          :LAS Creation date {YYYY/MM/DD hh:mm}
DLIS_CREA.  2017-Sep-15 19:08                          :DLIS Creation date and time {YYYY-MMM-DD hh:mm}
SOURCE.     LPC_S5-1_B5.DLIS                           :DLIS File Name
FILE-ID.     PERFO_Perfo_WPGRT_059LTP                  :File Identification Number
#--------------------------------------------------
~WELL INFORMATION
#MNEM.UNIT      DATA             DESCRIPTION
#---- ------ --------------   -----------------------------
STRT .S         7683.0       :START TIME      
STOP .S         8122.0       :STOP TIME      
STEP .S            1.0       :STEP     
NULL .          -999.25      :NULL VALUE
COMP .        SHELL INTERNATIONAL E P                  :COMPANY
WELL .        WPP TEST 2                               :WELL
FLD  .        WILDCAT                                  :FIELD
LOC  .        NA                                       :LOCATION
CNTY .        HARRIS                                   :COUNTY
STAT .        TEXAS                                    :STATE
CTRY .                                                 :COUNTRY
API  .        NA                                       :API NUMBER
UWI  .                                                 :UNIQUE WELL ID
DATE .        15-Sep-2017                              :LOG DATE {DD-MMM-YYYY}
SRVC .        Schlumberger                             :SERVICE COMPANY
LATI .DEG                                              :LATITUDE
LONG .DEG                                              :LONGITUDE
GDAT .                                                 :GeoDetic Datum
SECT .        NA                                       :Section
RANG .        NA                                       :Range
TOWN .        NA                                       :Township
#-----------------------------------------------------------------------------
~PARAMETER INFORMATION
#MNEM.UNIT    VALUE                      DESCRIPTION
#---- -----   --------------------       ------------------------
U-PHASE_B_COMP_PER_YT.                 0 :Phase B Comparator Period Yt
U-PHASE_A_COMP_PER_XT.                 0 :Phase A Comparator Period Xt
U-MAX_EXC_CUR_LIMIT.MA       240.00000   :Requested CM Current Limit
U-REQ_EXC_FQ.HZ              50          :Requested CM Frequency
U-TILT_Y_OFFSET.           0.19916       :WPTET Tilt Y Offset
U-TILT_Y_GAIN.           1.01796         :WPTET Tilt Y Gain
U-TILT_X_OFFSET.          -1.77103       :WPTET Tilt X Offset
U-TILT_X_GAIN.           1.00000         :WPTET Tilt X Gain
U-TILT_OFFSET_TOL.           0.00100     :WPTET Tilt Offset Calibration Tolerance
U-NO_TILT_CAL_ROTATIONS.                 3 :Number of Rotations for Tilt Calibration
HAZI .DEG        0.00000                 :Hole Azimuth
U-STD_TOL_TILT.           0.01000        :Tilt Standard Deviation Tolerance
U-GUN_POS_TOL.DEG        5.00000         :Gun Position Tolerance
ROT_ANGLE_THRESHOLD.DEG        5.00000   :Rotation Stop Angle Tolerance
STOP_ROT_ANGLE.DEG        0.00000        :Rotation Stop Angle
WITN .        MR. DHRUA ARORA            :Witness's Name
ENGI .        MORRIS MOORE               :Engineer's Name
COUN .        HARRIS                     :County or Rig Name
FN   .        WILDCAT                    :Field Name
WN   .        WPP TEST 2                 :Well Name
CN   .        SHELL INTERNATIONAL E P    :Company Name
CLAB .        County                     :County/Rig Label
SLAB .        State                      :State/Province Label
RUN  .          1                        :RUN NUMBER
PDAT .        GROUND LEVEL               :Permanent Datum
EPD  .                                   :Elevation of Permanent Datum above Mean Sea Level
LMF  .          NA                       :Logging Measured From (Name of Logging Elevation Reference)
APD  .                                   :Elevation of Depth Reference (LMF) above Permanent Datum
#-----------------------------------------------------------------------------
~CURVE INFORMATION
#MNEM.UNIT   API CODE                                  DESCRIPTION
#---- -----  --------                                  -----------------------
TIME .S                                                :TIME {F10.1}
FREQ_EMF_SL.HZ                                         :Electromagnetic Field Frequency {F13.4}
PH_SH_WPPCM_SL.DEG                                     :WPPCM Phase Shift {F13.4}
FREQ_EXC_REQ_SL.HZ                                     :Requested Exciter Frequency {F13.4}
RB_SL.DEG                                              :Relative Bearing {F13.4}
SDEV_SL.DEG                                            :Sonde Deviation {F13.4}
TILX_SL.DEG                                            :X-axis Tilt {F13.4}
TILY_SL.DEG                                            :Y-axis Tilt {F13.4}
ROTA_SL.DEG                                            :Motor Rotation Angle {F13.4}
MSPE_SL.RPM                                            :Motor Speed {F13.4}
#-----------------------------------------------------------------------------
# 
#     TIME    FREQ_EMF_SL  PH_SH_WPPCM_ FREQ_EXC_REQ    RB_SL       SDEV_SL      TILX_SL      TILY_SL      ROTA_SL      MSPE_SL
#                          SL           _SL
~A  
# ...
    7746.0    1440.8298       0.0000      50.8611    -127.3820       4.8697      -3.8673       2.9533      58.0578       1.0226
    7747.0    1443.5129       0.0000      50.8611    -121.6604       4.8665      -4.1409       2.5522      64.5646       1.0226
    7748.0    1437.6101       0.0000      50.8611    -118.6498       4.8158      -4.2250       2.3068      70.6677       1.0226
    7749.0    1438.1687       0.0000      50.8611    -111.6540       5.0529      -4.6926       1.8600      76.7695       1.0226
    7750.0    1433.3489       0.0000      50.8611    -104.4815       5.1444      -4.9805       1.2846      82.8713       1.0226
    7751.0    1429.1158       0.0000      50.8611     -99.1708       5.1760      -5.1087       0.8232      88.9764       1.0226
    7752.0    1429.1158       0.0000      50.8611     -97.0801       5.1221      -5.0829       0.6304      95.0625       1.0178
    7753.0    1426.2170       0.0000      50.8611     -90.7824       5.3025      -5.3019       0.0726     101.1774       1.0226
    7754.0    1418.8867       0.0000      50.8611     -83.7021       5.3531      -5.3201      -0.5855     107.2880       1.0285
    7755.0    1406.5229       0.0000      50.8611     -78.4933       5.4376      -5.3277      -1.0830     113.3966       1.0178
    7756.0    1399.6630       0.0000      50.8611     -75.3413       5.3601      -5.1852      -1.3546     119.4861       1.0226
    7757.0    1400.3879       0.0000      50.8611     -70.6772       5.4149      -5.1087      -1.7897     125.5879       1.0226
    7758.0    1400.3879       0.0000      50.8611     -64.5993       5.4713      -4.9404      -2.3437     131.6897       1.0226
    7759.0    1395.0892       0.0000      50.8611     -58.3586       5.5227      -4.6994      -2.8937     138.2096       1.0275
    7760.0    1387.0996       0.0000      50.8611     -54.2674       5.4561      -4.4258      -3.1838     144.3132       1.0226
    7761.0    1376.9535       0.0000      50.8611     -51.5840       5.5063      -4.3121      -3.4175     150.3943       1.0178
    7762.0    1367.4625       0.0000      50.8611     -44.7041       5.4614      -3.8377      -3.8789     156.4906       1.0226
    7763.0    1355.0218       0.0000      50.8611     -39.1260       5.4152      -3.4140      -4.1982     162.5955       1.0226
    7764.0    1346.9828       0.0000      50.8611     -34.4848       5.3894      -3.0487      -4.4397     168.6958       1.0226
    7765.0    1344.4073       0.0000      50.8611     -30.4584       5.3297      -2.6987      -4.5925     174.8125       1.0275
    7766.0    1326.6509       0.0000      50.8611     -26.9929       5.3184      -2.4099      -4.7376     180.9004       1.0226
    7767.0    1321.6636       0.0000      50.8611     -18.6945       5.2139      -1.6687      -4.9381     187.0048       1.0226
    7768.0    1310.6949       0.0000      50.8611     -14.1581       5.1699      -1.2632      -5.0121     193.1088       1.0275
    7769.0    1303.6512       0.0000      50.8611      -9.3599       5.0800      -0.8252      -5.0121     199.2094       1.0285
    7770.0    1295.9706       0.0000      50.8611      -6.1409       5.0274      -0.5364      -4.9975     205.3244       1.0226
    7771.0    1286.7095       0.0000      50.8611       1.1962       4.9133       0.1024      -4.9118     211.8319       1.0226
    7772.0    1288.8439       0.0000      50.8611       8.3530       4.8597       0.7049      -4.8077     217.9215       1.0285
    7773.0    1274.0005       0.0000      50.8611      12.3817       4.6904       1.0043      -4.5809     224.0286       1.0226
    7774.0    1286.2707       0.0000      50.8611      15.7607       4.7569       1.2893      -4.5770     230.1274       1.0226
    7775.0    1283.0748       0.0000      50.8611      22.3136       4.5764       1.7349      -4.2314     236.2293       1.0226
    7776.0    1284.3591       0.0000      50.8611      29.3665       4.3578       2.1328      -3.7962     242.3312       1.0226
    7777.0    1302.5593       0.0000      50.8611      34.4461       4.3017       2.4283      -3.5470     248.4224       1.0226
    7778.0    1306.0660       0.0000      50.8611      39.9478       4.2220       2.7095      -3.2354     254.5243       1.0285
    7779.0    1299.4527       0.0000      50.8611      45.2842       4.0720       2.8921      -2.8636     260.6392       1.0226
    7780.0    1322.7899       0.0000      50.8611      55.6363       3.7385       3.0853      -2.1091     266.7410       1.0226
    7781.0    1320.5415       0.0000      50.8611      60.2417       3.7951       3.2938      -1.8822     272.8559       1.0226
    7782.0    1335.8424       0.0000      50.8611      67.9937       3.8366       3.5568      -1.4364     278.9525       1.0226
    7783.0    1340.6851       0.0000      50.8611      75.1493       3.8243       3.6955      -0.9788     285.2819       1.0226
    7784.0    1341.3747       0.0000      50.8611      79.9993       3.4593       3.4067      -0.6001     291.5765       1.0285
    7785.0    1352.4155       0.0000      50.8611      92.0905       3.4809       3.4764       0.1290     297.6842       1.0226
    7786.0    1360.2647       0.0000      50.8611      98.3617       3.5250       3.4870       0.5116     303.7737       1.0226
    7787.0    1361.2024       0.0000      50.8611     102.3305       3.4917       3.4105       0.7453     309.8885       1.0226
    7788.0    1365.0446       0.0000      50.8611     111.3436       3.2459       3.0232       1.1805     315.9903       1.0226
    7789.0    1380.1594       0.0000      50.8611     122.2422       3.3958       2.8709       1.8108     322.1070       1.0262
    7790.0    1385.5990       0.0000      50.8611     132.0038       3.5095       2.6071       2.3477     328.2088       1.0226
    7791.0    1385.3397       0.0000      50.8611     136.2577       3.5601       2.4608       2.5707     334.3106       1.0226
    7792.0    1395.0892       0.0000      50.8611     142.0467       3.4215       2.1032       2.6972     340.4146       1.0226
    7793.0    1401.9125       0.0000      50.8611     152.2227       3.5276       1.6431       3.1207     346.5280       1.0168
    7794.0    1400.9180       0.0000      50.8611     161.5287       3.6710       1.1611       3.4818     352.6380       1.0275
    7795.0    1411.8976       0.0000      50.8611     167.3161       3.8276       0.8398       3.7340     359.1507       1.0226
    7796.0    1419.1587       0.0000      50.8611     173.0335       3.7658       0.4563       3.7379       5.2610       1.0226
    7797.0    1423.3300       0.0000      50.8611     -16.9180       3.8352      -0.0113       3.8343      11.3681       1.0275
    7798.0    1426.2170       0.0000      50.8611    -172.5563       4.1082      -0.5335       4.0728      17.4713       1.0226
    7799.0    1433.6265       0.0000      50.8611    -165.9223       4.2373      -1.0298       4.1098      23.5735       1.0237
    7800.0    1441.1165       0.0000      50.8611    -161.1156       4.2111      -1.3617       3.9832      29.6790       1.0226
    7801.0    1438.2788       0.0000      50.8611    -153.2968       4.1269      -1.8537       3.6839      35.7792       1.0226
    7802.0    1441.8997       0.0000      50.8611    -147.3472       4.4099      -2.3773       3.7116      41.8810       1.0226
    7803.0    1445.4150       0.0000      50.8611    -141.4812       4.5942      -2.8593       3.5929      47.9960       1.0226
    7804.0    1443.7886       0.0000      50.8611    -134.9477       4.5993      -3.2534       3.2473      54.0978       1.0226
    7805.0    1443.7886       0.0000      50.8611    -130.2281       4.5939      -3.5058       2.9649      60.1873       1.0168
    7806.0    1444.8627       0.0000      50.8611    -124.6500       4.7027      -3.8673       2.6709      66.2651       1.0226
    7807.0    1446.7593       0.0000      50.8611    -118.5065       5.0424      -4.4297       2.4032      72.6040       1.0275
    7808.0    1444.3761       0.0000      50.8611    -112.5793       4.9485      -4.5683       1.8980      78.8939       1.0168
