~VERSION INFORMATION
VERS.           2.0   :CWLS Log ASCII Standard - VERSION 2.0
WRAP.           NO    :One Line per depth step
PROD.  Schlumberger   :LAS Producer
PROG.  DLIS to ASCII 19C2-270                          :LAS Program name and version
CREA.        2017/09/16 17:42                          :LAS Creation date {YYYY/MM/DD hh:mm}
DLIS_CREA.  2017-Sep-15 13:07                          :DLIS Creation date and time {YYYY-MMM-DD hh:mm}
SOURCE.     LPC_S1-1_2AV.DLIS                          :DLIS File Name
FILE-ID.     PERFO_Perfo_WPGRT_022LTP                  :File Identification Number
#--------------------------------------------------
~WELL INFORMATION
#MNEM.UNIT      DATA             DESCRIPTION
#---- ------ --------------   -----------------------------
STRT .S         8392.0       :START TIME      
STOP .S         9264.0       :STOP TIME      
STEP .S            1.0       :STEP     
NULL .          -999.25      :NULL VALUE
COMP .        SHELL INTERNATIONAL E P                  :COMPANY
WELL .        WPP TEST 2                               :WELL
FLD  .        WILDCAT                                  :FIELD
LOC  .                                                 :LOCATION
CNTY .        HARRIS                                   :COUNTY
STAT .        TEXAS                                    :STATE
CTRY .                                                 :COUNTRY
API  .                                                 :API NUMBER
UWI  .                                                 :UNIQUE WELL ID
DATE .                                                 :LOG DATE
SRVC .        Schlumberger                             :SERVICE COMPANY
LATI .DEG                                              :LATITUDE
LONG .DEG                                              :LONGITUDE
GDAT .                                                 :GeoDetic Datum
#-----------------------------------------------------------------------------
~PARAMETER INFORMATION
#MNEM.UNIT    VALUE                      DESCRIPTION
#---- -----   --------------------       ------------------------
U-PHASE_B_COMP_PER_YT.                 0 :Phase B Comparator Period Yt
U-PHASE_A_COMP_PER_XT.                 0 :Phase A Comparator Period Xt
U-MAX_EXC_CUR_LIMIT.MA       240.00000   :Requested CM Current Limit
U-REQ_EXC_FQ.HZ              50          :Requested CM Frequency
U-TILT_Y_OFFSET.           0.19916       :WPTET Tilt Y Offset
U-TILT_Y_GAIN.           1.01796         :WPTET Tilt Y Gain
U-TILT_X_OFFSET.          -1.77103       :WPTET Tilt X Offset
U-TILT_X_GAIN.           1.00000         :WPTET Tilt X Gain
U-TILT_OFFSET_TOL.           0.00100     :WPTET Tilt Offset Calibration Tolerance
U-NO_TILT_CAL_ROTATIONS.                 3 :Number of Rotations for Tilt Calibration
HAZI .DEG        0.00000                 :Hole Azimuth
U-STD_TOL_TILT.           0.01000        :Tilt Standard Deviation Tolerance
U-GUN_POS_TOL.DEG        5.00000         :Gun Position Tolerance
ROT_ANGLE_THRESHOLD.DEG        5.00000   :Rotation Stop Angle Tolerance
STOP_ROT_ANGLE.DEG       80.00000        :Rotation Stop Angle
WITN .                                   :Witness's Name
ENGI .                                   :Engineer's Name
COUN .        HARRIS                     :County or Rig Name
FN   .        WILDCAT                    :Field Name
WN   .        WPP TEST 2                 :Well Name
CN   .        SHELL INTERNATIONAL E P    :Company Name
CLAB .        County                     :County/Rig Label
SLAB .        State                      :State/Province Label
RUN  .          1                        :RUN NUMBER
PDAT .        GROUND LEVEL               :Permanent Datum
EPD  .                                   :Elevation of Permanent Datum above Mean Sea Level
LMF  .                                   :Logging Measured From (Name of Logging Elevation Reference)
APD  .                                   :Elevation of Depth Reference (LMF) above Permanent Datum
#-----------------------------------------------------------------------------
~CURVE INFORMATION
#MNEM.UNIT   API CODE                                  DESCRIPTION
#---- -----  --------                                  -----------------------
TIME .S                                                :TIME {F10.1}
FREQ_EMF_SL.HZ                                         :Electromagnetic Field Frequency {F13.4}
PH_SH_WPPCM_SL.DEG                                     :WPPCM Phase Shift {F13.4}
FREQ_EXC_REQ_SL.HZ                                     :Requested Exciter Frequency {F13.4}
RB_SL.DEG                                              :Relative Bearing {F13.4}
SDEV_SL.DEG                                            :Sonde Deviation {F13.4}
TILX_SL.DEG                                            :X-axis Tilt {F13.4}
TILY_SL.DEG                                            :Y-axis Tilt {F13.4}
ROTA_SL.DEG                                            :Motor Rotation Angle {F13.4}
MSPE_SL.RPM                                            :Motor Speed {F13.4}
#-----------------------------------------------------------------------------
# 
#     TIME    FREQ_EMF_SL  PH_SH_WPPCM_ FREQ_EXC_REQ    RB_SL       SDEV_SL      TILX_SL      TILY_SL      ROTA_SL      MSPE_SL
#                          SL           _SL
~A  
# ...
    9085.0    1395.0892       0.0000      50.8611     -63.0897       0.8689      -0.7737      -0.3941      46.6650       0.0005
    9086.0    1395.5607       0.0000      50.8611     -59.4177       1.0797      -0.9275      -0.5499      46.6650       0.0005
    9087.0    1397.3913       0.0000      50.8611     -59.5414       0.9527      -0.8207      -0.4820      46.6650       0.0005
    9088.0    1398.2992       0.0000      50.8611     -62.5166       0.9556      -0.8472      -0.4411      46.6650       0.0005
    9089.0    1395.5607       0.0000      50.8611     -60.7467       0.8485      -0.7403      -0.4142      46.6650       0.0005
    9090.0    1390.9840       0.0000      50.8611     -59.0496       1.0052      -0.8608      -0.5160      46.6650       0.0005
    9091.0    1397.3913       0.0000      50.8611     -60.3114       0.8913      -0.7737      -0.4411      46.6650       0.0005
    9092.0    1396.9217       0.0000      50.8611     -65.8564       0.9587      -0.8737      -0.3933      46.6650       0.0005
    9093.0    1392.7964       0.0000      50.8611     -64.8203       0.9578      -0.8669      -0.4072      46.6650       0.0005
    9094.0    1390.9840       0.0000      50.8611     -55.8050       1.1081      -0.9139      -0.6247      46.6650       0.0005
    9095.0    1397.3913       0.0000      50.8611     -69.7860       0.9346      -0.8745      -0.3263      46.6650       0.0005
    9096.0    1396.9217       0.0000      50.8611     -69.3539       0.9996      -0.9344      -0.3532      46.6650       0.0005
    9097.0    1391.8590       0.0000      50.8611     -71.1732       0.8180      -0.7737      -0.2645      46.6650       0.0005
    9098.0    1390.5125       0.0000      50.8611     -62.1300       0.9585      -0.8472      -0.4481      46.6650       0.0005
    9099.0    1395.0892       0.0000      50.8611     -66.9808       0.9780      -0.9002      -0.3802      46.6650       0.0005
    9100.0    1391.8590       0.0000      50.8611     -64.8423       1.0540      -0.9540      -0.4481      46.6650       0.0005
    9101.0    1395.0892       0.0000      50.8611     -60.9453       0.9165      -0.8010      -0.4411      46.6650       0.0005
    9102.0    1394.6196       0.0000      50.8611     -60.7988       1.0166      -0.8874      -0.4959      46.6650       0.0005
    9103.0    1394.6196       0.0000      50.8611     -54.1161       1.0228      -0.8275      -0.5977      46.6650       0.0005
    9104.0    1390.5125       0.0000      50.8611     -58.6606       1.3133      -1.1139      -0.6742      46.6650       0.0005
    9105.0    1396.9217       0.0000      50.8611     -49.8671       1.1608      -0.8874      -0.7482      46.6650       0.0005
    9106.0    1398.7652       0.0000      50.8611     -61.4509       1.1826      -1.0275      -0.5654      46.6650       0.0005
    9107.0    1392.3268       0.0000      50.8611     -52.5688       1.0255      -0.8131      -0.6247      46.6650       0.0005
    9108.0    1396.9217       0.0000      50.8611     -45.3834       1.1119      -0.7950      -0.7760      46.6650       0.0005
    9109.0    1395.0892       0.0000      50.8611     -48.1583       1.7203      -1.2806      -1.1485      46.6650       0.0005
    9110.0    1396.6875       0.0000      50.8611     -47.2147       1.9745      -1.4377      -1.3460      46.6650       0.0005
    9111.0    1389.1092       0.0000      50.8611     -52.5490       1.2534      -0.9950      -0.7621      46.6650       0.0005
    9112.0    1389.1826       0.0000      50.8611     -50.3368       1.1616      -0.8942      -0.7413      46.6650       0.0005
    9113.0    1397.8628       0.0000      50.8611     -42.4685       2.3954      -1.6104      -1.7688      46.6650       0.0005
    9114.0    1393.6859       0.0000      50.8611     -61.1452       1.3416      -1.1701      -0.6542      46.6650       0.0005
    9115.0    3731.2687       0.0000      50.8611     -53.2043       1.9443      -1.5565      -1.1640      46.6650       0.0005
    9116.0       0.0000       0.0000      50.8611     -43.4491       1.4328      -0.9813      -1.0422      46.6650       0.0005
    9117.0       0.0000       0.0000      50.8611     -42.7397       2.0530      -1.3951      -1.5042      46.6650       0.0005
    9118.0       0.0000       0.0000      50.8611     -44.4027       1.9719      -1.3762      -1.4102      46.6650       0.0005
    9119.0       0.0000       0.0000      50.8611     -43.2474       2.1752      -1.4891      -1.5852      46.6650       0.0005
    9120.0       0.0000       0.0000      50.8611     -45.6502       1.3629      -0.9745      -0.9527      46.6650       0.0005
    9121.0       0.0000       0.0000      50.8611     -46.3702       1.6984      -1.2284      -1.1710      46.6650       0.0005
    9122.0       0.0000       0.0000      50.8611     -49.6416       2.0478      -1.5609      -1.3224      46.6650       0.0005
    9123.0       0.0000       0.0000      50.8611     -50.1133       1.7057      -1.3027      -1.0970      46.6650       0.0005
    9124.0       0.0000       0.0000      50.8611     -63.8462       1.2500      -1.1215      -0.5507      46.6650       0.0005
    9125.0       0.0000       0.0000      50.8611     -57.9618       0.9358      -0.7934      -0.4959      46.6650       0.0005
    9126.0       0.0000       0.0000      50.8611     -49.9042       1.1961      -0.9147      -0.7683      46.6650       0.0005
    9127.0       0.0000       0.0000      50.8611     -65.8363       1.0844      -0.9874      -0.4420      46.6650       0.0005
    9128.0       0.0000       0.0000      50.8611     -66.9042       0.8797      -0.8002      -0.3471      46.6650       0.0005
    9129.0       0.0000       0.0000      50.8611     -64.7114       0.8185      -0.7395      -0.3463      46.6650       0.0005
    9130.0       0.0000       0.0000      50.8611     -63.8350       0.8468      -0.7600      -0.3733      46.6650       0.0005
    9131.0       0.0000       0.0000      50.8611     -69.0135       0.9567      -0.8934      -0.3393      46.6650       0.0005
    9132.0       0.0000       0.0000      50.8611     -63.4673       0.8950      -0.8002      -0.4003      46.6650       0.0005
    9133.0       0.0000       0.0000      50.8611     -58.5785       0.9378      -0.8002      -0.4890      46.6650       0.0005
    9134.0       0.0000       0.0000      50.8611     -60.3973       0.9282      -0.8070      -0.4585      46.6650       0.0005
    9135.0       0.0000       0.0000      50.8611     -60.7330       0.8882      -0.7737      -0.4350      46.6650       0.0005
    9136.0       0.0000       0.0000      50.8611     -63.7918       0.8328      -0.7472      -0.3663      46.6650       0.0005
    9137.0       0.0000       0.0000      50.8611     -54.0528       0.8244      -0.6668      -0.4820      46.6650       0.0005
    9138.0       0.0000       0.0000      50.8611     -68.0407       0.8912      -0.8267      -0.3324      46.6650       0.0005
    9139.0       0.0000       0.0000      50.8611     -60.1531       0.9409      -0.8139      -0.4681      46.6650       0.0005
    9140.0       0.0000       0.0000      50.8611     -48.9871       0.9407      -0.7070      -0.6194      46.6650       0.0005
    9141.0       0.0000       0.0000      50.8611     -57.6702       0.9719      -0.8199      -0.5168      46.6650       0.0005
    9142.0       0.0000       0.0000      50.8611     -62.8718       1.1469      -1.0207      -0.5229      46.6650       0.0005
    9143.0       0.0000       0.0000      50.8611     -61.0011       0.8692      -0.7600      -0.4211      46.6650       0.0005
    9144.0       0.0000       0.0000      50.8611     -83.9951       1.0912      -1.0798      -0.0879      46.6650       0.0005
    9145.0       0.0000       0.0000      50.8611     -90.9727       1.5348      -1.5344       0.0287      46.6650       0.0005
    9146.0       0.0000       0.0000      50.8611    -102.2816       1.4242      -1.3913       0.3033      46.6650       0.0005
    9147.0       0.0000       0.0000      50.8611     -88.7066       1.7398      -1.7377      -0.0400      46.6650       0.0005
