~VERSION INFORMATION
VERS.           2.0   :CWLS Log ASCII Standard - VERSION 2.0
WRAP.           NO    :One Line per depth step
PROD.  Schlumberger   :LAS Producer
PROG.  DLIS to ASCII 19C2-270                          :LAS Program name and version
CREA.        2017/09/16 17:42                          :LAS Creation date {YYYY/MM/DD hh:mm}
DLIS_CREA.  2017-Sep-15 14:28                          :DLIS Creation date and time {YYYY-MMM-DD hh:mm}
SOURCE.     LPC_S2-1_A5.DLIS                           :DLIS File Name
FILE-ID.     PERFO_Perfo_WPGRT_029LTP                  :File Identification Number
#--------------------------------------------------
~WELL INFORMATION
#MNEM.UNIT      DATA             DESCRIPTION
#---- ------ --------------   -----------------------------
STRT .S        13288.0       :START TIME      
STOP .S        13773.0       :STOP TIME      
STEP .S            1.0       :STEP     
NULL .          -999.25      :NULL VALUE
COMP .        SHELL INTERNATIONAL E P                  :COMPANY
WELL .        WPP TEST 2                               :WELL
FLD  .        WILDCAT                                  :FIELD
LOC  .                                                 :LOCATION
CNTY .        HARRIS                                   :COUNTY
STAT .        TEXAS                                    :STATE
CTRY .                                                 :COUNTRY
API  .                                                 :API NUMBER
UWI  .                                                 :UNIQUE WELL ID
DATE .                                                 :LOG DATE
SRVC .        Schlumberger                             :SERVICE COMPANY
LATI .DEG                                              :LATITUDE
LONG .DEG                                              :LONGITUDE
GDAT .                                                 :GeoDetic Datum
#-----------------------------------------------------------------------------
~PARAMETER INFORMATION
#MNEM.UNIT    VALUE                      DESCRIPTION
#---- -----   --------------------       ------------------------
U-PHASE_B_COMP_PER_YT.                 0 :Phase B Comparator Period Yt
U-PHASE_A_COMP_PER_XT.                 0 :Phase A Comparator Period Xt
U-MAX_EXC_CUR_LIMIT.MA       240.00000   :Requested CM Current Limit
U-REQ_EXC_FQ.HZ              50          :Requested CM Frequency
U-TILT_Y_OFFSET.           0.19916       :WPTET Tilt Y Offset
U-TILT_Y_GAIN.           1.01796         :WPTET Tilt Y Gain
U-TILT_X_OFFSET.          -1.77103       :WPTET Tilt X Offset
U-TILT_X_GAIN.           1.00000         :WPTET Tilt X Gain
U-TILT_OFFSET_TOL.           0.00100     :WPTET Tilt Offset Calibration Tolerance
U-NO_TILT_CAL_ROTATIONS.                 3 :Number of Rotations for Tilt Calibration
HAZI .DEG        0.00000                 :Hole Azimuth
U-STD_TOL_TILT.           0.01000        :Tilt Standard Deviation Tolerance
U-GUN_POS_TOL.DEG        5.00000         :Gun Position Tolerance
ROT_ANGLE_THRESHOLD.DEG        5.00000   :Rotation Stop Angle Tolerance
STOP_ROT_ANGLE.DEG       80.00000        :Rotation Stop Angle
WITN .                                   :Witness's Name
ENGI .                                   :Engineer's Name
COUN .        HARRIS                     :County or Rig Name
FN   .        WILDCAT                    :Field Name
WN   .        WPP TEST 2                 :Well Name
CN   .        SHELL INTERNATIONAL E P    :Company Name
CLAB .        County                     :County/Rig Label
SLAB .        State                      :State/Province Label
RUN  .          1                        :RUN NUMBER
PDAT .        GROUND LEVEL               :Permanent Datum
EPD  .                                   :Elevation of Permanent Datum above Mean Sea Level
LMF  .                                   :Logging Measured From (Name of Logging Elevation Reference)
APD  .                                   :Elevation of Depth Reference (LMF) above Permanent Datum
#-----------------------------------------------------------------------------
~CURVE INFORMATION
#MNEM.UNIT   API CODE                                  DESCRIPTION
#---- -----  --------                                  -----------------------
TIME .S                                                :TIME {F10.1}
FREQ_EMF_SL.HZ                                         :Electromagnetic Field Frequency {F13.4}
PH_SH_WPPCM_SL.DEG                                     :WPPCM Phase Shift {F13.4}
FREQ_EXC_REQ_SL.HZ                                     :Requested Exciter Frequency {F13.4}
RB_SL.DEG                                              :Relative Bearing {F13.4}
SDEV_SL.DEG                                            :Sonde Deviation {F13.4}
TILX_SL.DEG                                            :X-axis Tilt {F13.4}
TILY_SL.DEG                                            :Y-axis Tilt {F13.4}
ROTA_SL.DEG                                            :Motor Rotation Angle {F13.4}
MSPE_SL.RPM                                            :Motor Speed {F13.4}
#-----------------------------------------------------------------------------
# 
#     TIME    FREQ_EMF_SL  PH_SH_WPPCM_ FREQ_EXC_REQ    RB_SL       SDEV_SL      TILX_SL      TILY_SL      ROTA_SL      MSPE_SL
#                          SL           _SL
~A  
# ...
   13666.0    1362.8844       0.0000      50.8611      45.2847       3.6153       2.5682      -2.5428     357.4475       1.0226
   13667.0    1387.2487       0.0000      50.8611      53.8311       3.4806       2.8092      -2.0534       3.5340       1.0226
   13668.0    1420.4546       0.0000      50.8611      59.7544       3.2592       2.8152      -1.6408       9.6330       1.0226
   13669.0    1449.7422       0.0000      50.8611      66.5860       3.1955       2.9321      -1.2691      15.7377       1.0226
   13670.0    1474.4306       0.0000      50.8611      74.9647       3.3174       3.2036      -0.8603      21.8555       1.0226
   13671.0    1509.1452       0.0000      50.8611      79.9913       3.0543       3.0076      -0.5307      28.3858       1.0226
   13672.0    1542.1446       0.0000      50.8611      90.7233       3.0115       3.0112       0.0381      34.4783       1.0226
   13673.0    1569.2662       0.0000      50.8611      95.4743       3.0229       3.0088       0.2883      40.5830       1.0226
   13674.0    1590.8889       0.0000      50.8611     104.4566       2.9427       2.8493       0.7344      46.6819       1.0226
   13675.0    1609.0924       0.0000      50.8611     112.0209       2.9413       2.7264       1.1024      52.7808       1.0226
   13676.0    1635.2030       0.0000      50.8611     123.0393       2.9188       2.4465       1.5909      58.8985       1.0226
   13677.0    1646.8953       0.0000      50.8611     132.3225       3.0314       2.2408       2.0403      65.0163       1.0226
   13678.0    1654.6464       0.0000      50.8611     139.2205       3.0682       2.0034       2.3229      71.1162       1.0226
   13679.0    1670.1307       0.0000      50.8611     145.5817       2.9682       1.6773       2.4480      77.2151       1.0229
   13680.0    1674.2270       0.0000      50.8611     151.7399       3.1993       1.5142       2.8172      83.3328       1.0226
   13681.0    1670.4903       0.0000      50.8611     160.1101       3.1714       1.0784       2.9820      89.4375       1.0223
   13682.0    1674.1072       0.0000      50.8611     168.1349       3.2929       0.6767       3.2224      95.5239       1.0226
   13683.0    1665.9372       0.0000      50.8611     175.7938       3.2373       0.2373       3.2285     102.0470       1.0226
   13684.0    1654.1793       0.0000      50.8611    -177.8225       3.4307      -0.1302       3.4281     108.1517       1.0226
   13685.0    1635.2888       0.0000      50.8611    -169.4046       3.5305      -0.6488       3.4702     114.2506       1.0226
   13686.0    1620.4419       0.0000      50.8611    -163.9984       3.6541      -1.0067       3.5123     120.3495       1.0229
   13687.0    1605.3082       0.0000      50.8611    -158.6277       3.7668      -1.3718       3.5074     126.4805       1.0226
   13688.0    1583.2960       0.0000      50.8611    -152.3367       3.8222      -1.7734       3.3847     132.5854       1.0226
   13689.0    1562.2926       0.0000      50.8611    -144.4211       3.8154      -2.2189       3.1022     138.6975       1.0226
   13690.0    1541.5386       0.0000      50.8611    -137.8785       3.9634      -2.6571       2.9387     144.7842       1.0226
   13691.0    1505.3327       0.0000      50.8611    -132.9335       4.0196      -2.9419       2.7367     150.8890       1.0223
   13692.0    1480.1699       0.0000      50.8611    -126.9344       4.0822      -3.2620       2.4517     156.9948       1.0226
   13693.0    1449.6527       0.0000      50.8611    -122.2884       4.4259      -3.7404       2.3625     163.0934       1.0124
   13694.0    1423.0722       0.0000      50.8611    -117.1266       4.4731      -3.9802       2.0379     169.1936       1.0226
   13695.0    1392.2442       0.0000      50.8611    -113.4596       4.3888      -4.0252       1.7455     175.7093       1.0226
   13696.0    1370.4543       0.0000      50.8611    -105.3463       4.6288      -4.4634       1.2238     181.8083       1.0226
   13697.0    1334.4322       0.0000      50.8611    -102.1981       4.6066      -4.5024       0.9723     187.9073       1.0226
   13698.0    1306.6345       0.0000      50.8611     -94.3912       4.7586      -4.7446       0.3639     194.0121       1.0226
   13699.0    1278.0637       0.0000      50.8611     -90.8504       4.7428      -4.7422       0.0704     200.1046       1.0226
   13700.0    1216.1663       0.0000      50.8611     -85.6177       4.9564      -4.9418      -0.3782     206.1788       1.0226
   13701.0    1156.0607       0.0000      50.8611     -81.4284       4.9965      -4.9406      -0.7437     212.2778       1.0226
   13702.0    1088.3784       0.0000      50.8611     -76.6839       4.8322      -4.7020      -1.1117     218.3959       1.0226
   13703.0    1044.3941       0.0000      50.8611     -71.0101       4.9334      -4.6642      -1.6036     224.5008       1.0226
   13704.0    1011.3880       0.0000      50.8611     -74.0998       4.7654      -4.5791      -1.3047     230.5997       1.0226
   13705.0     990.1091       0.0000      50.8611     -61.5188       5.1613      -4.5353      -2.4586     236.6928       1.0330
   13706.0     975.2487       0.0000      50.8611     -55.7481       4.9602      -4.0983      -2.7893     242.7924       1.0330
   13707.0     960.5533       0.0000      50.8611     -53.2199       5.1551      -4.1264      -3.0829     249.3151       1.0226
   13708.0     952.8606       0.0000      50.8611     -44.7954       5.0269      -3.5396      -3.5650     255.4142       1.0226
   13709.0     952.6282       0.0000      50.8611     -43.4610       5.0821      -3.4934      -3.6864     261.5065       1.0226
   13710.0     947.5696       0.0000      50.8611     -37.4118       4.9023      -2.9760      -3.8921     267.6110       1.0226
   13711.0     949.0412       0.0000      50.8611     -31.9759       4.7827      -2.5306      -4.0556     273.7229       1.0226
   13712.0     947.6462       0.0000      50.8611     -27.6836       4.8541      -2.2530      -4.2973     279.7969       1.0226
   13713.0     960.4748       0.0000      50.8611     -22.6436       4.7026      -1.8088      -4.3394     285.9074       1.0226
   13714.0     963.4244       0.0000      50.8611     -17.4889       4.6789      -1.4047      -4.4621     292.0060       1.0226
   13715.0     970.1933       0.0000      50.8611     -10.8426       4.5017      -0.8460      -4.4212     298.1048       1.0226
   13716.0     995.9278       0.0000      50.8611      -8.4596       4.3498      -0.6391      -4.3022     304.2048       1.0334
   13717.0    1013.1484       0.0000      50.8611      -2.6925       4.3839      -0.2057      -4.3791     310.3220       1.0226
   13718.0    1038.9619       0.0000      50.8611       3.2477       4.3442       0.2457      -4.3370     316.4266       1.0226
   13719.0    1095.6249       0.0000      50.8611      10.1869       4.2844       0.7571      -4.2167     322.9305       1.0226
   13720.0    1162.5982       0.0000      50.8611      15.4182       4.0775       1.0832      -3.9305     329.0228       1.0226
   13721.0    1233.5526       0.0000      50.8611      23.4747       4.0209       1.6006      -3.6877     335.1277       1.0229
   13722.0    1271.4738       0.0000      50.8611      27.2171       3.8689       1.7685      -3.4399     341.2396       1.0229
   13723.0    1290.4959       0.0000      50.8611      30.3766       3.8918       1.9669      -3.3569     347.3386       1.0226
   13724.0    1321.8884       0.0000      50.8611      36.0696       3.7477       2.2055      -3.0285     353.4437       1.0330
   13725.0    1352.4779       0.0000      50.8611      44.8545       3.6441       2.5694      -2.5825     348.7483       1.0226
   13726.0    1381.6307       0.0000      50.8611      51.2984       3.6006       2.8092      -2.2504       5.6349       1.0226
   13727.0    1403.6967       0.0000      50.8611      54.0806       3.4214       2.7702      -2.0063      11.7216       1.0226
   13728.0    1440.9186       0.0000      50.8611      62.6657       3.2997       2.9309      -1.5145      17.8263       1.0226
