~VERSION INFORMATION
VERS.           2.0   :CWLS Log ASCII Standard - VERSION 2.0
WRAP.           NO    :One Line per depth step
PROD.  Schlumberger   :LAS Producer
PROG.  DLIS to ASCII 19C2-270                          :LAS Program name and version
CREA.        2017/09/16 17:42                          :LAS Creation date {YYYY/MM/DD hh:mm}
DLIS_CREA.  2017-Sep-15 11:37                          :DLIS Creation date and time {YYYY-MMM-DD hh:mm}
SOURCE.     LPC_S1-1_AV_3RD-LOG.DLIS                   :DLIS File Name
FILE-ID.     PERFO_Perfo_WPGRT_016LTP                  :File Identification Number
#--------------------------------------------------
~WELL INFORMATION
#MNEM.UNIT      DATA             DESCRIPTION
#---- ------ --------------   -----------------------------
STRT .S         2984.0       :START TIME      
STOP .S         3331.0       :STOP TIME      
STEP .S            1.0       :STEP     
NULL .          -999.25      :NULL VALUE
COMP .        SHELL INTERNATIONAL E P                  :COMPANY
WELL .        WPP TEST 2                               :WELL
FLD  .        WILDCAT                                  :FIELD
LOC  .                                                 :LOCATION
CNTY .        HARRIS                                   :COUNTY
STAT .        TEXAS                                    :STATE
CTRY .                                                 :COUNTRY
API  .                                                 :API NUMBER
UWI  .                                                 :UNIQUE WELL ID
DATE .                                                 :LOG DATE
SRVC .        Schlumberger                             :SERVICE COMPANY
LATI .DEG                                              :LATITUDE
LONG .DEG                                              :LONGITUDE
GDAT .                                                 :GeoDetic Datum
#-----------------------------------------------------------------------------
~PARAMETER INFORMATION
#MNEM.UNIT    VALUE                      DESCRIPTION
#---- -----   --------------------       ------------------------
U-PHASE_B_COMP_PER_YT.                 0 :Phase B Comparator Period Yt
U-PHASE_A_COMP_PER_XT.                 0 :Phase A Comparator Period Xt
U-MAX_EXC_CUR_LIMIT.MA       240.00000   :Requested CM Current Limit
U-REQ_EXC_FQ.HZ              50          :Requested CM Frequency
U-TILT_Y_OFFSET.           0.19916       :WPTET Tilt Y Offset
U-TILT_Y_GAIN.           1.01796         :WPTET Tilt Y Gain
U-TILT_X_OFFSET.          -1.77103       :WPTET Tilt X Offset
U-TILT_X_GAIN.           1.00000         :WPTET Tilt X Gain
U-TILT_OFFSET_TOL.           0.00100     :WPTET Tilt Offset Calibration Tolerance
U-NO_TILT_CAL_ROTATIONS.                 3 :Number of Rotations for Tilt Calibration
HAZI .DEG        0.00000                 :Hole Azimuth
U-STD_TOL_TILT.           0.01000        :Tilt Standard Deviation Tolerance
U-GUN_POS_TOL.DEG        5.00000         :Gun Position Tolerance
ROT_ANGLE_THRESHOLD.DEG        5.00000   :Rotation Stop Angle Tolerance
STOP_ROT_ANGLE.DEG       52.00000        :Rotation Stop Angle
WITN .                                   :Witness's Name
ENGI .                                   :Engineer's Name
COUN .        HARRIS                     :County or Rig Name
FN   .        WILDCAT                    :Field Name
WN   .        WPP TEST 2                 :Well Name
CN   .        SHELL INTERNATIONAL E P    :Company Name
CLAB .        County                     :County/Rig Label
SLAB .        State                      :State/Province Label
RUN  .          1                        :RUN NUMBER
PDAT .        GROUND LEVEL               :Permanent Datum
EPD  .                                   :Elevation of Permanent Datum above Mean Sea Level
LMF  .                                   :Logging Measured From (Name of Logging Elevation Reference)
APD  .                                   :Elevation of Depth Reference (LMF) above Permanent Datum
#-----------------------------------------------------------------------------
~CURVE INFORMATION
#MNEM.UNIT   API CODE                                  DESCRIPTION
#---- -----  --------                                  -----------------------
TIME .S                                                :TIME {F10.1}
FREQ_EMF_SL.HZ                                         :Electromagnetic Field Frequency {F13.4}
PH_SH_WPPCM_SL.DEG                                     :WPPCM Phase Shift {F13.4}
FREQ_EXC_REQ_SL.HZ                                     :Requested Exciter Frequency {F13.4}
RB_SL.DEG                                              :Relative Bearing {F13.4}
SDEV_SL.DEG                                            :Sonde Deviation {F13.4}
TILX_SL.DEG                                            :X-axis Tilt {F13.4}
TILY_SL.DEG                                            :Y-axis Tilt {F13.4}
ROTA_SL.DEG                                            :Motor Rotation Angle {F13.4}
MSPE_SL.RPM                                            :Motor Speed {F13.4}
#-----------------------------------------------------------------------------
# 
#     TIME    FREQ_EMF_SL  PH_SH_WPPCM_ FREQ_EXC_REQ    RB_SL       SDEV_SL      TILX_SL      TILY_SL      ROTA_SL      MSPE_SL
#                          SL           _SL
~A  
# ...
    3236.0    1339.0184       0.0000      50.8611     -62.3155       1.0785      -0.9550      -0.5002     182.0291       1.0226
    3237.0    1300.4375       0.0000      50.8611     -58.4604       1.2618      -1.0755      -0.6595     188.1310       1.0226
    3238.0    1234.1679       0.0000      50.8611     -36.0901       1.1404      -0.6652      -0.9028     194.2446       1.0237
    3239.0    1155.5602       0.0000      50.8611     -51.9908       1.0916      -0.8598      -0.6724     200.3481       1.0226
    3240.0    1089.5003       0.0000      50.8611     -54.3064       1.0536      -0.8556      -0.6143     206.4497       1.0226
    3241.0    1023.5667       0.0000      50.8611     -55.2163       1.2381      -1.0121      -0.7069     212.5406       1.0215
    3242.0     999.9625       0.0000      50.8611     -51.4115       1.1300      -0.8831      -0.7047     219.0493       1.0226
    3243.0     977.6359       0.0000      50.8611     -60.0925       1.0972      -0.9508      -0.5454     225.1388       1.0226
    3244.0     956.4962       0.0000      50.8611     -58.7373       1.1223      -0.9593      -0.5820     231.2401       1.0237
    3245.0     940.2713       0.0000      50.8611     -53.4303       1.0997      -0.8831      -0.6552     237.3434       1.0322
    3246.0     924.7197       0.0000      50.8611     -51.9944       1.2121      -0.9550      -0.7456     243.4453       1.0226
    3247.0     920.4473       0.0000      50.8611     -41.7389       1.1520      -0.7669      -0.8596     249.5486       1.0226
    3248.0     915.4336       0.0000      50.8611     -53.9392       1.0584      -0.8556      -0.6229     255.6623       1.0322
    3249.0     906.8303       0.0000      50.8611     -50.8912       0.9940      -0.7711      -0.6272     261.7655       1.0226
    3250.0     911.0320       0.0000      50.8611     -49.5524       1.0665      -0.8112      -0.6918     267.8673       1.0226
    3251.0     911.5938       0.0000      50.8611     -50.1628       1.0809      -0.8303      -0.6918     273.9691       1.0226
    3252.0     916.3459       0.0000      50.8611     -44.2377       1.0231      -0.7140      -0.7327     280.0709       1.0226
    3253.0     919.3706       0.0000      50.8611     -54.6681       0.9995      -0.8155      -0.5777     286.1858       1.0237
    3254.0     934.3582       0.0000      50.8611     -54.0182       0.9977      -0.8070      -0.5863     292.6293       1.0132
    3255.0     944.7944       0.0000      50.8611     -46.7281       0.9102      -0.6632      -0.6229     298.7857       1.0226
    3256.0     956.4962       0.0000      50.8611     -43.8926       0.9000      -0.6231      -0.6466     304.8875       1.0226
    3257.0     976.2785       0.0000      50.8611     -47.5949       0.9843      -0.7267      -0.6638     310.9894       1.0226
    3258.0     998.6083       0.0000      50.8611     -53.8785       0.8555      -0.6907      -0.5045     317.0912       1.0226
    3259.0    1025.9899       0.0000      50.8611     -49.6276       0.9484      -0.7225      -0.6143     323.1930       1.0226
    3260.0    1056.6670       0.0000      50.8611     -50.1952       0.8386      -0.6442      -0.5368     329.2948       1.0226
    3261.0    1132.7431       0.0000      50.8611     -55.9580       1.0325      -0.8556      -0.5777     335.3966       1.0226
    3262.0    1232.8224       0.0000      50.8611     -53.4889       0.9094      -0.7309      -0.5411     341.4984       1.0226
    3263.0    1279.2839       0.0000      50.8611     -56.3807       0.8296      -0.6907      -0.4593     347.6002       1.0226
    3264.0    1304.7536       0.0000      50.8611     -54.7101       0.8754      -0.7140      -0.5045     353.7020       1.0226
    3265.0    1339.2858       0.0000      50.8611     -60.9158       0.8631      -0.7542      -0.4185     359.8038       1.0226
    3266.0    1379.9741       0.0000      50.8611     -56.5842       0.9670      -0.8070      -0.5325       5.9223       1.0237
    3267.0    1404.7881       0.0000      50.8611     -55.7689       0.8739      -0.7225      -0.4916      12.4267       1.0226
    3268.0    1421.0596       0.0000      50.8611     -53.5862       0.8244      -0.6632      -0.4874      18.5436       1.0249
    3269.0    1455.7454       0.0000      50.8611     -60.4399       0.8307      -0.7225      -0.4099      24.6468       1.0226
    3270.0    1482.0827       0.0000      50.8611     -59.3860       0.8765      -0.7542      -0.4465      30.7486       1.0226
    3271.0    1517.2627       0.0000      50.8611     -63.1512       0.9458      -0.8430      -0.4270      36.8512       1.0226
    3272.0    1534.1066       0.0000      50.8611     -66.2370       0.8911      -0.8155      -0.3593      42.9662       1.0226
    3273.0    1564.5280       0.0000      50.8611     -63.0581       0.9147      -0.8155      -0.4142      49.0680       1.0226
    3274.0    1582.8692       0.0000      50.8611     -58.8341       1.0124      -0.8663      -0.5239      55.1693       1.0237
    3275.0    1591.5399       0.0000      50.8611     -61.2513       0.9719      -0.8514      -0.4679      61.2855       1.0226
    3276.0    1616.3793       0.0000      50.8611     -65.7386       0.9201      -0.8388      -0.3776      67.3749       1.0226
    3277.0    1630.1964       0.0000      50.8611     -67.7520       0.9977      -0.9233      -0.3776      73.4884       1.0237
    3278.0    1634.7761       0.0000      50.8611     -65.9671       1.0064      -0.9191      -0.4099      79.5925       1.0226
    3279.0    1635.1744       0.0000      50.8611     -53.4427       0.3869      -0.3102      -0.2312      86.1023       1.0226
    3280.0    1642.8153       0.0000      50.8611     -63.1741       0.9992      -0.8916      -0.4508      92.2041       1.0226
    3281.0    1642.4132       0.0000      50.8611     -69.2041       1.0397      -0.9719      -0.3690      98.2948       1.0226
    3282.0    1634.7761       0.0000      50.8611     -66.9598       1.0471      -0.9635      -0.4099     104.4215       1.0226
    3283.0    1623.4525       0.0000      50.8611     -64.6198       1.0321      -0.9317      -0.4422     110.5110       1.0226
    3284.0    1608.9351       0.0000      50.8611     -61.6621       1.0237      -0.9006      -0.4862     116.6128       1.0226
    3285.0    1601.6515       0.0000      50.8611     -59.6668       1.0388      -0.8958      -0.5239     122.7146       1.0226
    3286.0    1584.3673       0.0000      50.8611     -65.6998       1.1058      -1.0079      -0.4551     128.8041       1.0226
    3287.0    1560.5004       0.0000      50.8611     -65.7199       1.0176      -0.9275      -0.4185     134.8964       1.0226
    3288.0    1539.6343       0.0000      50.8611     -62.3873       1.0519      -0.9317      -0.4874     140.9831       1.0226
    3289.0    1512.0968       0.0000      50.8611     -61.0825       1.1104      -0.9719      -0.5368     147.0867       1.0226
    3290.0    1487.5184       0.0000      50.8611     -55.0663       1.1370      -0.9317      -0.6509     153.1763       1.0226
    3291.0    1462.7617       0.0000      50.8611     -61.7706       1.1440      -1.0079      -0.5411     159.6711       1.0226
    3292.0    1438.1928       0.0000      50.8611     -53.9752       0.9139      -0.7393      -0.5368     165.7764       1.0226
    3293.0    1409.3653       0.0000      50.8611     -53.8442       0.9755      -0.7879      -0.5734     171.8783       1.0226
    3294.0    1381.6705       0.0000      50.8611     -61.7706       1.1440      -1.0079      -0.5411     177.9802       1.0226
    3295.0    1350.6645       0.0000      50.8611     -57.2954       1.0791      -0.9084      -0.5820     184.0821       1.0226
    3296.0    1320.2312       0.0000      50.8611     -61.4075       1.1985      -1.0522      -0.5734     190.1840       1.0226
    3297.0    1270.1479       0.0000      50.8611     -52.5794       1.1243      -0.8916      -0.6832     196.2859       1.0132
    3298.0    1188.7734       0.0000      50.8611     -59.9574       1.1514      -0.9972      -0.5734     202.3754       1.0226
