~VERSION INFORMATION
VERS.           2.0   :CWLS Log ASCII Standard - VERSION 2.0
WRAP.           NO    :One Line per depth step
PROD.  Schlumberger   :LAS Producer
PROG.  DLIS to ASCII 19C2-270                          :LAS Program name and version
CREA.        2017/09/16 17:42                          :LAS Creation date {YYYY/MM/DD hh:mm}
DLIS_CREA.  2017-Sep-15 12:43                          :DLIS Creation date and time {YYYY-MMM-DD hh:mm}
SOURCE.     LPC_S1-1_BV.DLIS                           :DLIS File Name
FILE-ID.     PERFO_Perfo_WPGRT_021LTP                  :File Identification Number
#--------------------------------------------------
~WELL INFORMATION
#MNEM.UNIT      DATA             DESCRIPTION
#---- ------ --------------   -----------------------------
STRT .S         6992.0       :START TIME      
STOP .S         7825.0       :STOP TIME      
STEP .S            1.0       :STEP     
NULL .          -999.25      :NULL VALUE
COMP .        SHELL INTERNATIONAL E P                  :COMPANY
WELL .        WPP TEST 2                               :WELL
FLD  .        WILDCAT                                  :FIELD
LOC  .                                                 :LOCATION
CNTY .        HARRIS                                   :COUNTY
STAT .        TEXAS                                    :STATE
CTRY .                                                 :COUNTRY
API  .                                                 :API NUMBER
UWI  .                                                 :UNIQUE WELL ID
DATE .                                                 :LOG DATE
SRVC .        Schlumberger                             :SERVICE COMPANY
LATI .DEG                                              :LATITUDE
LONG .DEG                                              :LONGITUDE
GDAT .                                                 :GeoDetic Datum
#-----------------------------------------------------------------------------
~PARAMETER INFORMATION
#MNEM.UNIT    VALUE                      DESCRIPTION
#---- -----   --------------------       ------------------------
U-PHASE_B_COMP_PER_YT.                 0 :Phase B Comparator Period Yt
U-PHASE_A_COMP_PER_XT.                 0 :Phase A Comparator Period Xt
U-MAX_EXC_CUR_LIMIT.MA       240.00000   :Requested CM Current Limit
U-REQ_EXC_FQ.HZ              50          :Requested CM Frequency
U-TILT_Y_OFFSET.           0.19916       :WPTET Tilt Y Offset
U-TILT_Y_GAIN.           1.01796         :WPTET Tilt Y Gain
U-TILT_X_OFFSET.          -1.77103       :WPTET Tilt X Offset
U-TILT_X_GAIN.           1.00000         :WPTET Tilt X Gain
U-TILT_OFFSET_TOL.           0.00100     :WPTET Tilt Offset Calibration Tolerance
U-NO_TILT_CAL_ROTATIONS.                 3 :Number of Rotations for Tilt Calibration
HAZI .DEG        0.00000                 :Hole Azimuth
U-STD_TOL_TILT.           0.01000        :Tilt Standard Deviation Tolerance
U-GUN_POS_TOL.DEG        5.00000         :Gun Position Tolerance
ROT_ANGLE_THRESHOLD.DEG        5.00000   :Rotation Stop Angle Tolerance
STOP_ROT_ANGLE.DEG       80.00000        :Rotation Stop Angle
WITN .                                   :Witness's Name
ENGI .                                   :Engineer's Name
COUN .        HARRIS                     :County or Rig Name
FN   .        WILDCAT                    :Field Name
WN   .        WPP TEST 2                 :Well Name
CN   .        SHELL INTERNATIONAL E P    :Company Name
CLAB .        County                     :County/Rig Label
SLAB .        State                      :State/Province Label
RUN  .          1                        :RUN NUMBER
PDAT .        GROUND LEVEL               :Permanent Datum
EPD  .                                   :Elevation of Permanent Datum above Mean Sea Level
LMF  .                                   :Logging Measured From (Name of Logging Elevation Reference)
APD  .                                   :Elevation of Depth Reference (LMF) above Permanent Datum
#-----------------------------------------------------------------------------
~CURVE INFORMATION
#MNEM.UNIT   API CODE                                  DESCRIPTION
#---- -----  --------                                  -----------------------
TIME .S                                                :TIME {F10.1}
FREQ_EMF_SL.HZ                                         :Electromagnetic Field Frequency {F13.4}
PH_SH_WPPCM_SL.DEG                                     :WPPCM Phase Shift {F13.4}
FREQ_EXC_REQ_SL.HZ                                     :Requested Exciter Frequency {F13.4}
RB_SL.DEG                                              :Relative Bearing {F13.4}
SDEV_SL.DEG                                            :Sonde Deviation {F13.4}
TILX_SL.DEG                                            :X-axis Tilt {F13.4}
TILY_SL.DEG                                            :Y-axis Tilt {F13.4}
ROTA_SL.DEG                                            :Motor Rotation Angle {F13.4}
MSPE_SL.RPM                                            :Motor Speed {F13.4}
#-----------------------------------------------------------------------------
# 
#     TIME    FREQ_EMF_SL  PH_SH_WPPCM_ FREQ_EXC_REQ    RB_SL       SDEV_SL      TILX_SL      TILY_SL      ROTA_SL      MSPE_SL
#                          SL           _SL
~A  
# ...
    7181.0    1381.5485       0.0000      50.8611     -68.1656       0.9065      -0.8412      -0.3361     349.4172       1.0226
    7182.0    1365.3709       0.0000      50.8611     -78.2884       0.8635      -0.8448      -0.1750     355.5160       1.0226
    7183.0    1344.5622       0.0000      50.8611     -60.6834       0.9270      -0.8082      -0.4538       1.6185       1.0226
    7184.0    1326.7261       0.0000      50.8611     -51.0396       1.0388      -0.8070      -0.6534       7.7203       1.0226
    7185.0    1314.4003       0.0000      50.8611     -58.3448       1.0916      -0.9287      -0.5728      13.8222       1.0330
    7186.0    1302.3016       0.0000      50.8611     -66.2767       0.9280      -0.8496      -0.3733      19.9498       1.0330
    7187.0    1285.3502       0.0000      50.8611     -73.7811       0.9212      -0.8837      -0.2567      26.4605       1.0330
    7188.0    1255.8513       0.0000      50.8611     -65.1383       0.9794      -0.8886      -0.4117      32.5634       1.0229
    7189.0    1225.2793       0.0000      50.8611     -55.4310       0.9430      -0.7765      -0.5331      38.6660       1.0226
    7190.0    1193.8215       0.0000      50.8611     -63.8805       1.1239      -1.0091      -0.4947      44.7679       1.0226
    7191.0    1162.3638       0.0000      50.8611     -53.6369       1.1067      -0.8910      -0.6558      50.8698       1.0226
    7192.0    1132.4112       0.0000      50.8611     -61.9228       1.1382      -1.0042      -0.5356      56.9722       1.0229
    7193.0    1105.9650       0.0000      50.8611     -70.2788       1.1134      -1.0480      -0.3757      63.0740       1.0226
    7194.0    1095.1592       0.0000      50.8611     -65.3506       1.1878      -1.0798      -0.4947      69.1759       1.0226
    7195.0    1076.7117       0.0000      50.8611     -56.4389       1.1147      -0.9287      -0.6161      75.2776       1.0226
    7196.0    1057.6196       0.0000      50.8611     -57.0840       1.0614      -0.8910      -0.5765      81.3794       1.0226
    7197.0    1059.2129       0.0000      50.8611     -59.4062       1.1286      -0.9713      -0.5740      87.4811       1.0226
    7198.0    1065.1963       0.0000      50.8611     -61.9576       1.1419      -1.0079      -0.5368      93.5837       1.0226
    7199.0    1057.1884       0.0000      50.8611     -52.5909       1.0752      -0.8532      -0.6521     100.1037       1.0226
    7200.0    1068.6768       0.0000      50.8611     -58.0272       1.0978      -0.9311      -0.5814     106.2085       1.0226
    7201.0    1081.8812       0.0000      50.8611     -62.7070       1.1810      -1.0492      -0.5417     112.3103       1.0226
    7202.0    1113.9879       0.0000      50.8611     -56.3211       1.2609      -1.0492      -0.6992     118.4121       1.0226
    7203.0    1137.4145       0.0000      50.8611     -55.1518       1.0871      -0.8922      -0.6211     124.5138       1.0330
    7204.0    1158.2467       0.0000      50.8611     -51.5809       1.1872      -0.9299      -0.7376     130.6415       1.0127
    7205.0    1201.7391       0.0000      50.8611     -59.1094       1.1277      -0.9677      -0.5789     136.7323       1.0027
    7206.0    1244.2067       0.0000      50.8611     -56.6480       1.2023      -1.0042      -0.6607     142.8095       1.0330
    7207.0    1262.3429       0.0000      50.8611     -55.0160       1.0832      -0.8874      -0.6211     148.9245       1.0226
    7208.0    1285.3502       0.0000      50.8611     -50.5937       1.1041      -0.8532      -0.7004     155.0264       1.0226
    7209.0    1308.9952       0.0000      50.8611     -53.1194       1.1585      -0.9263      -0.6955     161.1283       1.0330
    7210.0    1324.0035       0.0000      50.8611     -48.8727       1.1232      -0.8460      -0.7388     167.2440       1.0226
    7211.0    1341.6885       0.0000      50.8611     -53.1573       1.1045      -0.8837      -0.6619     173.7669       1.0229
    7212.0    1360.0098       0.0000      50.8611     -52.7259       1.1663      -0.9275      -0.7065     179.8688       1.0226
    7213.0    1383.6997       0.0000      50.8611     -51.1154       0.9913      -0.7717      -0.6223     185.9707       1.0226
    7214.0    1397.6142       0.0000      50.8611     -47.5848       1.0935      -0.8070      -0.7376     192.0726       1.0226
    7215.0    1411.7282       0.0000      50.8611     -52.0093       1.0735      -0.8460      -0.6607     198.1875       1.0226
    7216.0    1426.2170       0.0000      50.8611     -49.0878       1.0695      -0.8082      -0.7004     204.2913       1.0127
    7217.0    1452.5583       0.0000      50.8611     -41.3881       0.9836      -0.6500      -0.7376     210.3929       1.0226
    7218.0    1461.6168       0.0000      50.8611     -49.3709       1.0090      -0.7657      -0.6570     216.4948       1.0226
    7219.0    1471.0654       0.0000      50.8611     -58.5950       1.0356      -0.8837      -0.5393     222.5967       1.0226
    7220.0    1480.5454       0.0000      50.8611     -49.4873       0.9560      -0.7267      -0.6211     228.6986       1.0226
    7221.0    1505.3327       0.0000      50.8611     -52.7960       0.9633      -0.7669      -0.5826     234.7761       1.0223
    7222.0    1508.6585       0.0000      50.8611     -49.1580       1.0071      -0.7620      -0.6583     240.8653       1.0226
    7223.0    1512.2928       0.0000      50.8611     -46.3563       0.9522      -0.6889      -0.6570     247.3759       1.0223
    7224.0    1525.3164       0.0000      50.8611     -49.2100       1.0097      -0.7644      -0.6595     253.4778       1.0226
    7225.0    1528.4332       0.0000      50.8611     -46.6803       0.7829      -0.5696      -0.5368     259.5798       1.0226
    7226.0    1528.3342       0.0000      50.8611     -53.2221       0.5670      -0.4540      -0.3397     265.6815       1.0226
    7227.0    1525.1179       0.0000      50.8611     -54.7921       0.6479      -0.5295      -0.3733     271.8096       1.0226
    7228.0    1519.0256       0.0000      50.8611     -54.8579       0.7949      -0.6500      -0.4575     277.9114       1.0226
    7229.0    1515.4538       0.0000      50.8611     -54.0903       0.8477      -0.6865      -0.4972     284.0132       1.0226
    7230.0    1502.8906       0.0000      50.8611     -53.6329       0.9011      -0.7255      -0.5344     290.1161       1.0223
    7231.0    1502.4038       0.0000      50.8611     -49.1221       0.7551      -0.5708      -0.4935     296.2175       1.0226
    7232.0    1496.0106       0.0000      50.8611     -48.7979       0.8122      -0.6110      -0.5344     302.3193       1.0226
    7233.0    1480.3569       0.0000      50.8611     -60.3587       0.8375      -0.7279      -0.4142     308.4211       1.0226
    7234.0    1468.2727       0.0000      50.8611     -62.8313       0.9017      -0.8022      -0.4117     314.5229       1.0124
    7235.0    1455.9270       0.0000      50.8611     -65.1847       0.8865      -0.8046      -0.3720     321.0084       1.0124
    7236.0    1449.5636       0.0000      50.8611     -64.0446       0.8529      -0.7669      -0.3733     327.0980       1.0124
    7237.0    1429.2032       0.0000      50.8611     -73.8457       0.9179      -0.8813      -0.2543     333.2125       1.0226
    7238.0    1417.9366       0.0000      50.8611     -55.3567       1.2156      -0.9994      -0.6918     339.3144       1.0226
    7239.0    1400.7313       0.0000      50.8611     -62.9846       0.8198      -0.7303      -0.3720     345.4043       1.0124
    7240.0    1389.6576       0.0000      50.8611     -54.7672       0.9878      -0.8058      -0.5704     351.4818       1.0024
    7241.0    1365.5313       0.0000      50.8611     -69.2415       0.8227      -0.7693      -0.2915     357.6092       1.0226
    7242.0    1355.0051       0.0000      50.8611     -61.8496       0.9649      -0.8508      -0.4551       3.7110       1.0226
    7243.0    1346.9828       0.0000      50.8611     -67.1978       0.9600      -0.8849      -0.3720       9.8128       1.0226
