~VERSION INFORMATION
VERS.           2.0   :CWLS Log ASCII Standard - VERSION 2.0
WRAP.           NO    :One Line per depth step
PROD.  Schlumberger   :LAS Producer
PROG.  DLIS to ASCII 19C2-270                          :LAS Program name and version
CREA.        2017/09/16 17:42                          :LAS Creation date {YYYY/MM/DD hh:mm}
DLIS_CREA.  2017-Sep-15 11:37                          :DLIS Creation date and time {YYYY-MMM-DD hh:mm}
SOURCE.     LPC_S1-1_AV_3RD-LOG.DLIS                   :DLIS File Name
FILE-ID.     PERFO_Perfo_WPGRT_016LTP                  :File Identification Number
#--------------------------------------------------
~WELL INFORMATION
#MNEM.UNIT      DATA             DESCRIPTION
#---- ------ --------------   -----------------------------
STRT .S         2984.0       :START TIME      
STOP .S         3331.0       :STOP TIME      
STEP .S            1.0       :STEP     
NULL .          -999.25      :NULL VALUE
COMP .        SHELL INTERNATIONAL E P                  :COMPANY
WELL .        WPP TEST 2                               :WELL
FLD  .        WILDCAT                                  :FIELD
LOC  .                                                 :LOCATION
CNTY .        HARRIS                                   :COUNTY
STAT .        TEXAS                                    :STATE
CTRY .                                                 :COUNTRY
API  .                                                 :API NUMBER
UWI  .                                                 :UNIQUE WELL ID
DATE .                                                 :LOG DATE
SRVC .        Schlumberger                             :SERVICE COMPANY
LATI .DEG                                              :LATITUDE
LONG .DEG                                              :LONGITUDE
GDAT .                                                 :GeoDetic Datum
#-----------------------------------------------------------------------------
~PARAMETER INFORMATION
#MNEM.UNIT    VALUE                      DESCRIPTION
#---- -----   --------------------       ------------------------
U-PHASE_B_COMP_PER_YT.                 0 :Phase B Comparator Period Yt
U-PHASE_A_COMP_PER_XT.                 0 :Phase A Comparator Period Xt
U-MAX_EXC_CUR_LIMIT.MA       240.00000   :Requested CM Current Limit
U-REQ_EXC_FQ.HZ              50          :Requested CM Frequency
U-TILT_Y_OFFSET.           0.19916       :WPTET Tilt Y Offset
U-TILT_Y_GAIN.           1.01796         :WPTET Tilt Y Gain
U-TILT_X_OFFSET.          -1.77103       :WPTET Tilt X Offset
U-TILT_X_GAIN.           1.00000         :WPTET Tilt X Gain
U-TILT_OFFSET_TOL.           0.00100     :WPTET Tilt Offset Calibration Tolerance
U-NO_TILT_CAL_ROTATIONS.                 3 :Number of Rotations for Tilt Calibration
HAZI .DEG        0.00000                 :Hole Azimuth
U-STD_TOL_TILT.           0.01000        :Tilt Standard Deviation Tolerance
U-GUN_POS_TOL.DEG        5.00000         :Gun Position Tolerance
ROT_ANGLE_THRESHOLD.DEG        5.00000   :Rotation Stop Angle Tolerance
STOP_ROT_ANGLE.DEG       52.00000        :Rotation Stop Angle
WITN .                                   :Witness's Name
ENGI .                                   :Engineer's Name
COUN .        HARRIS                     :County or Rig Name
FN   .        WILDCAT                    :Field Name
WN   .        WPP TEST 2                 :Well Name
CN   .        SHELL INTERNATIONAL E P    :Company Name
CLAB .        County                     :County/Rig Label
SLAB .        State                      :State/Province Label
RUN  .          1                        :RUN NUMBER
PDAT .        GROUND LEVEL               :Permanent Datum
EPD  .                                   :Elevation of Permanent Datum above Mean Sea Level
LMF  .                                   :Logging Measured From (Name of Logging Elevation Reference)
APD  .                                   :Elevation of Depth Reference (LMF) above Permanent Datum
#-----------------------------------------------------------------------------
~CURVE INFORMATION
#MNEM.UNIT   API CODE                                  DESCRIPTION
#---- -----  --------                                  -----------------------
TIME .S                                                :TIME {F10.1}
FREQ_EMF_SL.HZ                                         :Electromagnetic Field Frequency {F13.4}
PH_SH_WPPCM_SL.DEG                                     :WPPCM Phase Shift {F13.4}
FREQ_EXC_REQ_SL.HZ                                     :Requested Exciter Frequency {F13.4}
RB_SL.DEG                                              :Relative Bearing {F13.4}
SDEV_SL.DEG                                            :Sonde Deviation {F13.4}
TILX_SL.DEG                                            :X-axis Tilt {F13.4}
TILY_SL.DEG                                            :Y-axis Tilt {F13.4}
ROTA_SL.DEG                                            :Motor Rotation Angle {F13.4}
MSPE_SL.RPM                                            :Motor Speed {F13.4}
#-----------------------------------------------------------------------------
# 
#     TIME    FREQ_EMF_SL  PH_SH_WPPCM_ FREQ_EXC_REQ    RB_SL       SDEV_SL      TILX_SL      TILY_SL      ROTA_SL      MSPE_SL
#                          SL           _SL
~A  
# ...
    3299.0    1122.7409       0.0000      50.8611     -52.3774       1.1789      -0.9317      -0.7198     208.4793       1.0215
    3300.0    1050.9406       0.0000      50.8611     -54.5351       1.1440      -0.9317      -0.6638     214.5819       1.0132
    3301.0    1012.3055       0.0000      50.8611     -53.9819       1.1912      -0.9635      -0.7004     220.6956       1.0226
    3302.0     985.0594       0.0000      50.8611     -53.2323       1.0846      -0.8683      -0.6466     226.7975       1.0226
    3303.0     963.6023       0.0000      50.8611     -50.2286       1.1383      -0.8747      -0.7284     233.3077       1.0226
    3304.0     943.1946       0.0000      50.8611     -55.6241       1.0807      -0.8916      -0.6100     239.4093       1.0226
    3305.0     931.6815       0.0000      50.8611     -54.7053       1.1416      -0.9317      -0.6595     245.4989       1.0226
    3306.0     920.8293       0.0000      50.8611     -45.1989       1.0991      -0.7795      -0.7736     251.5898       1.0215
    3307.0     917.9178       0.0000      50.8611     -48.8392       1.1197      -0.8430      -0.7370     257.6801       1.0132
    3308.0     912.0893       0.0000      50.8611     -54.3110       1.0832      -0.8789      -0.6315     263.7806       1.0226
    3309.0     908.6773       0.0000      50.8611     -50.7298       1.0999      -0.8514      -0.6961     269.8824       1.0226
    3310.0     913.5935       0.0000      50.8611     -52.6183       0.9655      -0.7669      -0.5863     275.9842       1.0226
    3311.0     911.8409       0.0000      50.8611     -45.0599       1.0445      -0.7393      -0.7370     282.0861       1.0226
    3312.0     918.1701       0.0000      50.8611     -51.0385       1.0277      -0.7986      -0.6466     288.1879       1.0226
    3313.0     926.3834       0.0000      50.8611     -52.5912       0.9715      -0.7711      -0.5906     294.2897       1.0226
    3314.0     942.8695       0.0000      50.8611     -49.7833       1.0154      -0.7753      -0.6552     300.3915       1.0226
    3315.0     954.6560       0.0000      50.8611     -44.7602       0.9868      -0.6950      -0.7004     306.9117       1.0226
    3316.0     968.7727       0.0000      50.8611     -40.9275       0.9553      -0.6231      -0.7198     313.0052       1.0132
    3317.0     994.2245       0.0000      50.8611     -53.7279       0.9853      -0.7944      -0.5820     319.1057       1.0226
    3318.0    1013.8473       0.0000      50.8611     -42.1475       0.8761      -0.5871      -0.6466     325.2075       1.0226
    3319.0    1040.0699       0.0000      50.8611     -50.0249       0.8550      -0.6548      -0.5497     329.8085       0.0005
    3320.0    1044.9256       0.0000      50.8611     -50.2333       0.9465      -0.7267      -0.6057     329.8085       0.0005
    3321.0    1044.9256       0.0000      50.8611     -40.1897       0.9541      -0.6146      -0.7284     329.8085       0.0005
    3322.0    1049.2761       0.0000      50.8611     -53.3322       0.9061      -0.7267      -0.5411     329.8085       0.0005
    3323.0    1047.8762       0.0000      50.8611     -53.5072       0.8550      -0.6865      -0.5088     329.8085       0.0005
    3324.0    1046.3170       0.0000      50.8611     -47.1756       0.8990      -0.6590      -0.6100     329.8085       0.0005
    3325.0    1049.2761       0.0000      50.8611     -49.7395       0.8941      -0.6823      -0.5777     329.8085       0.0005
    3326.0    1045.0893       0.0000      50.8611     -53.6767       0.8582      -0.6907      -0.5088     329.8085       0.0005
    3327.0    1045.0893       0.0000      50.8611     -52.6486       0.9595      -0.7626      -0.5820     329.8085       0.0005
    3328.0    1047.2242       0.0000      50.8611     -50.0438       0.9065      -0.6950      -0.5820     329.8085       0.0005
    3329.0    1050.5163       0.0000      50.8611     -50.2888       0.8402      -0.6464      -0.5368     329.8085       0.0005
    3330.0    1049.1124       0.0000      50.8611     -51.9278       0.8775      -0.6907      -0.5411     329.8085       0.0005
    3331.0    1045.8287       0.0000      50.8611     -49.7524       0.9576      -0.7309      -0.6186     329.8085       0.0005
