~VERSION INFORMATION
VERS.           2.0   :CWLS Log ASCII Standard - VERSION 2.0
WRAP.           NO    :One Line per depth step
PROD.  Schlumberger   :LAS Producer
PROG.  DLIS to ASCII 19C2-270                          :LAS Program name and version
CREA.        2017/09/16 17:42                          :LAS Creation date {YYYY/MM/DD hh:mm}
DLIS_CREA.  2017-Sep-15 11:29                          :DLIS Creation date and time {YYYY-MMM-DD hh:mm}
SOURCE.     LPC_SL_AV_2ND-LOG.DLIS                     :DLIS File Name
FILE-ID.     PERFO_Perfo_WPGRT_015LTP                  :File Identification Number
#--------------------------------------------------
~WELL INFORMATION
#MNEM.UNIT      DATA             DESCRIPTION
#---- ------ --------------   -----------------------------
STRT .S         2513.0       :START TIME      
STOP .S         2855.0       :STOP TIME      
STEP .S            1.0       :STEP     
NULL .          -999.25      :NULL VALUE
COMP .        SHELL INTERNATIONAL E P                  :COMPANY
WELL .        WPP TEST 2                               :WELL
FLD  .        WILDCAT                                  :FIELD
LOC  .                                                 :LOCATION
CNTY .        HARRIS                                   :COUNTY
STAT .        TEXAS                                    :STATE
CTRY .                                                 :COUNTRY
API  .                                                 :API NUMBER
UWI  .                                                 :UNIQUE WELL ID
DATE .                                                 :LOG DATE
SRVC .        Schlumberger                             :SERVICE COMPANY
LATI .DEG                                              :LATITUDE
LONG .DEG                                              :LONGITUDE
GDAT .                                                 :GeoDetic Datum
#-----------------------------------------------------------------------------
~PARAMETER INFORMATION
#MNEM.UNIT    VALUE                      DESCRIPTION
#---- -----   --------------------       ------------------------
U-PHASE_B_COMP_PER_YT.                 0 :Phase B Comparator Period Yt
U-PHASE_A_COMP_PER_XT.                 0 :Phase A Comparator Period Xt
U-MAX_EXC_CUR_LIMIT.MA       240.00000   :Requested CM Current Limit
U-REQ_EXC_FQ.HZ              50          :Requested CM Frequency
U-TILT_Y_OFFSET.           0.19916       :WPTET Tilt Y Offset
U-TILT_Y_GAIN.           1.01796         :WPTET Tilt Y Gain
U-TILT_X_OFFSET.          -1.77103       :WPTET Tilt X Offset
U-TILT_X_GAIN.           1.00000         :WPTET Tilt X Gain
U-TILT_OFFSET_TOL.           0.00100     :WPTET Tilt Offset Calibration Tolerance
U-NO_TILT_CAL_ROTATIONS.                 3 :Number of Rotations for Tilt Calibration
HAZI .DEG        0.00000                 :Hole Azimuth
U-STD_TOL_TILT.           0.01000        :Tilt Standard Deviation Tolerance
U-GUN_POS_TOL.DEG        5.00000         :Gun Position Tolerance
ROT_ANGLE_THRESHOLD.DEG        5.00000   :Rotation Stop Angle Tolerance
STOP_ROT_ANGLE.DEG       11.00000        :Rotation Stop Angle
WITN .                                   :Witness's Name
ENGI .                                   :Engineer's Name
COUN .        HARRIS                     :County or Rig Name
FN   .        WILDCAT                    :Field Name
WN   .        WPP TEST 2                 :Well Name
CN   .        SHELL INTERNATIONAL E P    :Company Name
CLAB .        County                     :County/Rig Label
SLAB .        State                      :State/Province Label
RUN  .          1                        :RUN NUMBER
PDAT .        GROUND LEVEL               :Permanent Datum
EPD  .                                   :Elevation of Permanent Datum above Mean Sea Level
LMF  .                                   :Logging Measured From (Name of Logging Elevation Reference)
APD  .                                   :Elevation of Depth Reference (LMF) above Permanent Datum
#-----------------------------------------------------------------------------
~CURVE INFORMATION
#MNEM.UNIT   API CODE                                  DESCRIPTION
#---- -----  --------                                  -----------------------
TIME .S                                                :TIME {F10.1}
FREQ_EMF_SL.HZ                                         :Electromagnetic Field Frequency {F13.4}
PH_SH_WPPCM_SL.DEG                                     :WPPCM Phase Shift {F13.4}
FREQ_EXC_REQ_SL.HZ                                     :Requested Exciter Frequency {F13.4}
RB_SL.DEG                                              :Relative Bearing {F13.4}
SDEV_SL.DEG                                            :Sonde Deviation {F13.4}
TILX_SL.DEG                                            :X-axis Tilt {F13.4}
TILY_SL.DEG                                            :Y-axis Tilt {F13.4}
ROTA_SL.DEG                                            :Motor Rotation Angle {F13.4}
MSPE_SL.RPM                                            :Motor Speed {F13.4}
#-----------------------------------------------------------------------------
# 
#     TIME    FREQ_EMF_SL  PH_SH_WPPCM_ FREQ_EXC_REQ    RB_SL       SDEV_SL      TILX_SL      TILY_SL      ROTA_SL      MSPE_SL
#                          SL           _SL
~A  
# ...
    2702.0    1449.0203       0.0000      50.8611     -55.6510       1.1602      -0.9580      -0.6545     124.4486       1.0043
    2703.0    1416.2157       0.0000      50.8611     -61.7417       1.1443      -1.0079      -0.5418     130.5287       1.0133
    2704.0    1398.3119       0.0000      50.8611     -57.0869       1.1951      -1.0030      -0.6496     136.6429       1.0226
    2705.0    1359.3743       0.0000      50.8611     -60.1774       1.1617      -1.0079      -0.5777     142.7580       1.0226
    2706.0    1317.6155       0.0000      50.8611     -57.7553       1.1990      -1.0127      -0.6397     148.9093       1.0226
    2707.0    1294.9907       0.0000      50.8611     -58.1280       1.1036      -0.9373      -0.5827     155.3698       1.0226
    2708.0    1236.9631       0.0000      50.8611     -73.5302       1.1650      -1.1150      -0.3163     161.4717       1.0226
    2709.0    1149.8698       0.0000      50.8611     -56.0438       1.2457      -1.0334      -0.6954     167.5736       1.0226
    2710.0    1078.6759       0.0000      50.8611     -50.5708       1.2082      -0.9324      -0.7673     173.6740       1.0213
    2711.0    1035.7725       0.0000      50.8611     -54.9659       1.0778      -0.8825      -0.6186     179.7526       1.0226
    2712.0     999.6340       0.0000      50.8611     -54.2135       1.1127      -0.9032      -0.6496     185.8549       1.0226
    2713.0     972.1851       0.0000      50.8611     -48.9415       1.1364      -0.8569      -0.7462     191.9456       1.0239
    2714.0     953.8799       0.0000      50.8611     -54.2254       1.0131      -0.8216      -0.5926     198.0746       1.0239
    2715.0     939.4005       0.0000      50.8611     -48.8254       1.1728      -0.8825      -0.7722     204.1881       1.0226
    2716.0     928.2390       0.0000      50.8611     -51.1226       1.0431      -0.8119      -0.6545     210.2777       1.0226
    2717.0     915.6721       0.0000      50.8611     -54.0193       1.0729      -0.8679      -0.6285     216.3796       1.0226
    2718.0     912.7197       0.0000      50.8611     -51.3486       1.0797      -0.8423      -0.6744     222.5310       1.0226
    2719.0     909.6055       0.0000      50.8611     -43.2681       1.0675      -0.7316      -0.7772     228.9806       1.0239
    2720.0     907.1163       0.0000      50.8611     -46.5113       1.0705      -0.7766      -0.7363     235.0941       1.0226
    2721.0     906.5153       0.0000      50.8611     -50.2526       1.0955      -0.8423      -0.7004     241.1976       1.0239
    2722.0     914.4811       0.0000      50.8611     -49.2452       1.0253      -0.7766      -0.6694     247.3110       1.0226
    2723.0     922.7362       0.0000      50.8611     -47.5669       0.9847      -0.7267      -0.6644     253.4129       1.0226
    2724.0     931.4786       0.0000      50.8611     -47.8304       0.9936      -0.7364      -0.6669     259.5025       1.0133
    2725.0     948.2689       0.0000      50.8611     -51.3373       1.0091      -0.7875      -0.6285     265.6051       1.0239
    2726.0     962.1873       0.0000      50.8611     -47.3690       0.9743      -0.7170      -0.6595     271.7201       1.0226
    2727.0     977.8929       0.0000      50.8611     -50.7036       0.9848      -0.7620      -0.6236     277.8095       1.0133
    2728.0     998.2042       0.0000      50.8611     -49.8188       0.9984      -0.7620      -0.6446     283.9113       1.0226
    2729.0    1026.2784       0.0000      50.8611     -49.4256       0.9438      -0.7170      -0.6136     290.0025       1.0252
    2730.0    1064.5145       0.0000      50.8611     -48.4617       0.8637      -0.6464      -0.5728     296.1152       1.0133
    2731.0    1135.1817       0.0000      50.8611     -48.8565       0.8714      -0.6561      -0.5728     302.6142       1.0226
    2732.0    1225.4503       0.0000      50.8611     -55.3013       0.8719      -0.7170      -0.4959     308.7160       1.0226
    2733.0    1276.9359       0.0000      50.8611     -46.1663       0.8869      -0.6403      -0.6087     314.8194       1.0321
    2734.0    1314.8503       0.0000      50.8611     -57.9450       0.8574      -0.7267      -0.4551     320.9205       1.0226
    2735.0    1345.3478       0.0000      50.8611     -54.4354       0.8441      -0.6865      -0.4910     327.0354       1.0321
    2736.0    1372.0847       0.0000      50.8611     -57.8201       0.8659      -0.7328      -0.4612     333.1388       1.0321
    2737.0    1404.1252       0.0000      50.8611     -54.5137       0.8550      -0.6963      -0.4959     339.2679       1.0226
    2738.0    1435.6620       0.0000      50.8611     -60.8243       0.8794      -0.7669      -0.4290     345.3801       1.0226
    2739.0    1456.8485       0.0000      50.8611     -54.9545       0.8013      -0.6561      -0.4600     351.4819       1.0226
    2740.0    1486.9040       0.0000      50.8611     -60.7712       0.8384      -0.7316      -0.4092     357.5837       1.0226
    2741.0    1518.6285       0.0000      50.8611     -60.2627       0.9181      -0.7973      -0.4551       3.6987       1.0226
    2742.0    1536.8474       0.0000      50.8611     -61.8882       0.9551      -0.8423      -0.4501       9.8059       1.0226
    2743.0    1563.7715       0.0000      50.8611     -63.3004       0.9777      -0.8727      -0.4402      16.3104       1.0226
    2744.0    1580.9212       0.0000      50.8611     -59.1878       0.6353      -0.5453      -0.3225      22.4149       1.0226
    2745.0    1608.5363       0.0000      50.8611     -58.7979       0.8722      -0.7462      -0.4501      28.5140       1.0226
    2746.0    1621.9310       0.0000      50.8611     -69.6521       0.9413      -0.8825      -0.3274      34.6290       1.0226
    2747.0    1628.9842       0.0000      50.8611     -65.9373       1.0158      -0.9275      -0.4142      40.7308       1.0226
    2748.0    1635.6366       0.0000      50.8611     -64.5482       0.9544      -0.8618      -0.4092      46.8326       1.0226
    2749.0    1645.7320       0.0000      50.8611     -61.2305       1.8496      -1.6213      -0.8899      52.9348       1.0226
    2750.0    1643.7505       0.0000      50.8611     -62.1485       0.9638      -0.8521      -0.4501      59.0362       1.0226
    2751.0    1642.8153       0.0000      50.8611     -60.6656       1.0649      -0.9275      -0.5220      65.1257       1.0226
    2752.0    1634.7144       0.0000      50.8611     -66.4695       1.0503      -0.9628      -0.4191      71.2275       1.0213
    2753.0    1627.1484       0.0000      50.8611     -64.0013       1.0266      -0.9227      -0.4501      77.3046       1.0226
    2754.0    1612.6721       0.0000      50.8611     -63.5643       1.1146      -0.9981      -0.4959      83.4195       1.0226
    2755.0    1597.5720       0.0000      50.8611     -67.3353       1.0171      -0.9373      -0.3931      89.9293       1.0226
    2756.0    1576.5134       0.0000      50.8611     -67.8737       1.1265      -1.0432      -0.4241      96.0318       1.0321
    2757.0    1555.1698       0.0000      50.8611     -59.0657       1.0346      -0.8874      -0.5319     102.1336       1.0226
    2758.0    1538.1594       0.0000      50.8611     -62.8625       1.0765      -0.9580      -0.4910     108.2354       1.0226
    2759.0    1506.0127       0.0000      50.8611     -65.4775       1.0970      -0.9981      -0.4551     114.3379       1.0226
    2760.0    1484.6368       0.0000      50.8611     -62.6138       1.0788      -0.9580      -0.4959     120.4404       1.0226
    2761.0    1455.3807       0.0000      50.8611     -61.7417       1.1443      -1.0079      -0.5418     126.5407       1.0201
    2762.0    1430.9720       0.0000      50.8611     -57.2997       1.1312      -0.9519      -0.6087     132.6070       1.0226
    2763.0    1404.8968       0.0000      50.8611     -63.8581       1.0441      -0.9373      -0.4600     138.7089       1.0226
    2764.0    1373.6169       0.0000      50.8611     -60.5471       1.1117      -0.9677      -0.5467     144.8135       1.0226
