~VERSION INFORMATION
VERS.           2.0   :CWLS Log ASCII Standard - VERSION 2.0
WRAP.           NO    :One Line per depth step
PROD.  Schlumberger   :LAS Producer
PROG.  DLIS to ASCII 19C2-270                          :LAS Program name and version
CREA.        2017/09/16 17:42                          :LAS Creation date {YYYY/MM/DD hh:mm}
DLIS_CREA.  2017-Sep-15 19:24                          :DLIS Creation date and time {YYYY-MMM-DD hh:mm}
SOURCE.     LPC_S5-1_BV.DLIS                           :DLIS File Name
FILE-ID.     PERFO_Perfo_WPGRT_061LTP                  :File Identification Number
#--------------------------------------------------
~WELL INFORMATION
#MNEM.UNIT      DATA             DESCRIPTION
#---- ------ --------------   -----------------------------
STRT .S          101.0       :START TIME      
STOP .S          592.0       :STOP TIME      
STEP .S            1.0       :STEP     
NULL .          -999.25      :NULL VALUE
COMP .        SHELL INTERNATIONAL E P                  :COMPANY
WELL .        WPP TEST 2                               :WELL
FLD  .        WILDCAT                                  :FIELD
LOC  .        NA                                       :LOCATION
CNTY .        HARRIS                                   :COUNTY
STAT .        TEXAS                                    :STATE
CTRY .                                                 :COUNTRY
API  .        NA                                       :API NUMBER
UWI  .                                                 :UNIQUE WELL ID
DATE .        15-Sep-2017                              :LOG DATE {DD-MMM-YYYY}
SRVC .        Schlumberger                             :SERVICE COMPANY
LATI .DEG                                              :LATITUDE
LONG .DEG                                              :LONGITUDE
GDAT .                                                 :GeoDetic Datum
SECT .        NA                                       :Section
RANG .        NA                                       :Range
TOWN .        NA                                       :Township
#-----------------------------------------------------------------------------
~PARAMETER INFORMATION
#MNEM.UNIT    VALUE                      DESCRIPTION
#---- -----   --------------------       ------------------------
U-PHASE_B_COMP_PER_YT.                 0 :Phase B Comparator Period Yt
U-PHASE_A_COMP_PER_XT.                 0 :Phase A Comparator Period Xt
U-MAX_EXC_CUR_LIMIT.MA       240.00000   :Requested CM Current Limit
U-REQ_EXC_FQ.HZ              50          :Requested CM Frequency
U-TILT_Y_OFFSET.           0.19916       :WPTET Tilt Y Offset
U-TILT_Y_GAIN.           1.01796         :WPTET Tilt Y Gain
U-TILT_X_OFFSET.          -1.77103       :WPTET Tilt X Offset
U-TILT_X_GAIN.           1.00000         :WPTET Tilt X Gain
U-TILT_OFFSET_TOL.           0.00100     :WPTET Tilt Offset Calibration Tolerance
U-NO_TILT_CAL_ROTATIONS.                 3 :Number of Rotations for Tilt Calibration
HAZI .DEG        0.00000                 :Hole Azimuth
U-STD_TOL_TILT.           0.01000        :Tilt Standard Deviation Tolerance
U-GUN_POS_TOL.DEG        5.00000         :Gun Position Tolerance
ROT_ANGLE_THRESHOLD.DEG        5.00000   :Rotation Stop Angle Tolerance
STOP_ROT_ANGLE.DEG        0.00000        :Rotation Stop Angle
WITN .        MR. DHRUA ARORA            :Witness's Name
ENGI .        MORRIS MOORE               :Engineer's Name
COUN .        HARRIS                     :County or Rig Name
FN   .        WILDCAT                    :Field Name
WN   .        WPP TEST 2                 :Well Name
CN   .        SHELL INTERNATIONAL E P    :Company Name
CLAB .        County                     :County/Rig Label
SLAB .        State                      :State/Province Label
RUN  .          1                        :RUN NUMBER
PDAT .        GROUND LEVEL               :Permanent Datum
EPD  .                                   :Elevation of Permanent Datum above Mean Sea Level
LMF  .          NA                       :Logging Measured From (Name of Logging Elevation Reference)
APD  .                                   :Elevation of Depth Reference (LMF) above Permanent Datum
#-----------------------------------------------------------------------------
~CURVE INFORMATION
#MNEM.UNIT   API CODE                                  DESCRIPTION
#---- -----  --------                                  -----------------------
TIME .S                                                :TIME {F10.1}
FREQ_EMF_SL.HZ                                         :Electromagnetic Field Frequency {F13.4}
PH_SH_WPPCM_SL.DEG                                     :WPPCM Phase Shift {F13.4}
FREQ_EXC_REQ_SL.HZ                                     :Requested Exciter Frequency {F13.4}
RB_SL.DEG                                              :Relative Bearing {F13.4}
SDEV_SL.DEG                                            :Sonde Deviation {F13.4}
TILX_SL.DEG                                            :X-axis Tilt {F13.4}
TILY_SL.DEG                                            :Y-axis Tilt {F13.4}
ROTA_SL.DEG                                            :Motor Rotation Angle {F13.4}
MSPE_SL.RPM                                            :Motor Speed {F13.4}
#-----------------------------------------------------------------------------
# 
#     TIME    FREQ_EMF_SL  PH_SH_WPPCM_ FREQ_EXC_REQ    RB_SL       SDEV_SL      TILX_SL      TILY_SL      ROTA_SL      MSPE_SL
#                          SL           _SL
~A  
# ...
     227.0    1430.9809       0.0000      50.8611     -65.5301       1.2280      -1.1170      -0.5075     193.6374       1.0295
     228.0    1431.4662       0.0000      50.8611     -64.5563       1.1893      -1.0738      -0.5106     199.7525       1.0295
     229.0    1441.6673       0.0000      50.8611     -66.7854       1.2285      -1.1284      -0.4844     205.8595       1.0188
     230.0    1444.6293       0.0000      50.8611     -61.3254       1.1963      -1.0480      -0.5745     211.9570       1.0226
     231.0    1442.5168       0.0000      50.8611     -57.7514       1.2090      -1.0223      -0.6448     218.0589       1.0226
     232.0    1439.7714       0.0000      50.8611     -63.3776       1.3808      -1.2344      -0.6186     224.1608       1.0226
     233.0    1438.1243       0.0000      50.8611     -61.5483       1.3293      -1.1685      -0.6333     230.6687       1.0226
     234.0    1446.7593       0.0000      50.8611     -55.7628       1.3197      -1.0913      -0.7413     236.7583       1.0188
     235.0    1443.5709       0.0000      50.8611     -57.4240       1.3420      -1.1284      -0.7234     242.8543       1.0158
     236.0    1438.9418       0.0000      50.8611     -57.9229       1.2207      -1.0336      -0.6480     248.9517       1.0226
     237.0    1436.0031       0.0000      50.8611     -53.0442       1.4320      -1.1428      -0.8608     255.0668       1.0226
     238.0    1437.6675       0.0000      50.8611     -56.3330       1.2904      -1.0738      -0.7151     261.1686       1.0226
     239.0    1425.1799       0.0000      50.8611     -53.2837       1.2223      -0.9790      -0.7298     267.2704       1.0226
     240.0    1424.3671       0.0000      50.8611     -53.5080       1.3847      -1.1046      -0.8032     273.3722       1.0226
     241.0    1423.5659       0.0000      50.8611     -47.0012       1.3439      -0.9821      -0.9163     279.4740       1.0226
     242.0    1416.5662       0.0000      50.8611     -41.4007       1.2214      -0.8070      -0.9163     285.5758       1.0226
     243.0    1402.4389       0.0000      50.8611     -49.9201       1.2793      -0.9790      -0.8230     291.6776       1.0226
     244.0    1395.0892       0.0000      50.8611     -44.4406       1.2585      -0.8811      -0.8985     297.7794       1.0226
     245.0    1386.8344       0.0000      50.8611     -47.3719       1.1722      -0.8616      -0.7937     304.2976       1.0265
     246.0    1380.6263       0.0000      50.8611     -48.4080       1.1014      -0.8246      -0.7298     310.4125       1.0295
     247.0    1372.5410       0.0000      50.8611     -53.5049       1.2841      -1.0437      -0.7151     316.5151       1.0295
     248.0    1361.9070       0.0000      50.8611     -52.0182       1.0055      -0.7926      -0.6186     322.6093       1.0226
     249.0    1360.0098       0.0000      50.8611     -40.5604       1.1733      -0.7637      -0.8901     328.7111       1.0226
     250.0    1340.0088       0.0000      50.8611     -34.5533       1.1199      -0.6319      -0.9227     334.8110       1.0226
     251.0    1335.3425       0.0000      50.8611     -40.5107       1.0410      -0.6783      -0.7890     340.9035       1.0226
     252.0    1321.6636       0.0000      50.8611     -41.3363       1.0730      -0.7091      -0.8052     347.0061       1.0265
     253.0    1294.0345       0.0000      50.8611     -30.7960       0.8530      -0.4373      -0.7266     353.0955       1.0226
     254.0    1282.4198       0.0000      50.8611     -36.6863       0.9403      -0.5629      -0.7528     359.1961       1.0226
     255.0    1267.0778       0.0000      50.8611     -45.5303       0.9417      -0.6721      -0.6595       5.3110       1.0265
     256.0    1254.1462       0.0000      50.8611     -44.4000       0.9266      -0.6464      -0.6627      11.4128       1.0226
     257.0    1243.6792       0.0000      50.8611     -41.4991       0.9396      -0.6237      -0.7004      17.7741       1.0226
     258.0    1231.5676       0.0000      50.8611     -32.7102       0.7456      -0.3940      -0.6269      24.0225       1.0226
     259.0    1232.9471       0.0000      50.8611     -44.4071       0.7470      -0.5227      -0.5337      30.1243       1.0226
     260.0    1235.7206       0.0000      50.8611     -47.9994       0.9272      -0.6896      -0.6186      36.2281       1.0226
     261.0    1229.0804       0.0000      50.8611     -55.6232       0.7375      -0.6062      -0.4173      42.3176       1.0226
     262.0    1237.1146       0.0000      50.8611     -50.5572       0.7179      -0.5547      -0.4551      48.4194       1.0226
     263.0    1232.9703       0.0000      50.8611     -48.6627       0.6275      -0.4713      -0.4142      54.5212       1.0226
     264.0    1247.4710       0.0000      50.8611     -62.5211       0.7878      -0.6978      -0.3618      60.6361       1.0226
     265.0    1252.7172       0.0000      50.8611     -53.9005       0.8451      -0.6834      -0.4959      66.7379       1.0226
     266.0    1260.0807       0.0000      50.8611     -58.0074       0.7319      -0.6206      -0.3880      72.8397       1.0226
     267.0    1276.9224       0.0000      50.8611     -63.3214       0.7109      -0.6350      -0.3177      78.9414       1.0226
     268.0    1292.5093       0.0000      50.8611     -63.9570       0.6665      -0.6011      -0.2768      85.0432       1.0226
     269.0    1302.0834       0.0000      50.8611     -65.6601       0.8419      -0.7669      -0.3471      91.4045       1.0226
     270.0    1319.1838       0.0000      50.8611     -59.8205       0.7945      -0.6865      -0.3995      97.6548       1.0226
     271.0    1337.4599       0.0000      50.8611     -71.8409       0.7047      -0.6690      -0.2212     103.7566       1.0226
     272.0    1345.3325       0.0000      50.8611     -73.7843       0.8844      -0.8472      -0.2474     109.8584       1.0226
     273.0    1342.7632       0.0000      50.8611     -77.7853       0.9388      -0.9182      -0.1950     115.9602       1.0226
     274.0    1352.1635       0.0000      50.8611     -66.9104       0.8839      -0.8101      -0.3502     122.0619       1.0226
     275.0    1362.9695       0.0000      50.8611     -70.6239       0.8353      -0.7877      -0.2768     128.1769       1.0226
     276.0    1366.2454       0.0000      50.8611     -82.6940       0.9214      -0.9131      -0.1164     134.2788       1.0226
     277.0    1378.8975       0.0000      50.8611     -64.7367       0.9124      -0.8246      -0.3848     140.3807       1.0226
     278.0    1388.5906       0.0000      50.8611     -57.0828       0.9543      -0.8008      -0.5190     146.4826       1.0226
     279.0    1397.6585       0.0000      50.8611     -75.1924       1.0315      -0.9965      -0.2621     152.5856       1.0226
     280.0    1396.8665       0.0000      50.8611     -68.1073       1.0708      -0.9934      -0.3995     158.6864       1.0226
     281.0    1400.6475       0.0000      50.8611     -75.9533       1.1037      -1.0706      -0.2653     164.7883       1.0226
     282.0    1411.8976       0.0000      50.8611     -71.5194       1.0091      -0.9564      -0.3209     171.2982       1.0158
     283.0    1417.3808       0.0000      50.8611     -68.9318       1.1939      -1.1139      -0.4289     177.4140       1.0226
     284.0    1420.2437       0.0000      50.8611     -70.8565       1.1825      -1.1170      -0.3880     183.5164       1.0257
     285.0    1418.8617       0.0000      50.8611     -65.2517       1.2724      -1.1541      -0.5337     189.6186       1.0226
     286.0    1433.8992       0.0000      50.8611     -67.3444       1.2256      -1.1284      -0.4729     195.7205       1.0226
     287.0    1432.9618       0.0000      50.8611     -76.9235       1.1707      -1.1395      -0.2669     201.8356       1.0226
     288.0    1433.0763       0.0000      50.8611     -67.5191       1.3505      -1.2457      -0.5190     207.9374       1.0226
     289.0    1444.6293       0.0000      50.8611     -62.0703       1.2027      -1.0625      -0.5630     214.0393       1.0158
