~VERSION INFORMATION
VERS.           2.0   :CWLS Log ASCII Standard - VERSION 2.0
WRAP.           NO    :One Line per depth step
PROD.  Schlumberger   :LAS Producer
PROG.  DLIS to ASCII 19C2-270                          :LAS Program name and version
CREA.        2017/09/16 17:42                          :LAS Creation date {YYYY/MM/DD hh:mm}
DLIS_CREA.  2017-Sep-15 13:07                          :DLIS Creation date and time {YYYY-MMM-DD hh:mm}
SOURCE.     LPC_S1-1_2AV.DLIS                          :DLIS File Name
FILE-ID.     PERFO_Perfo_WPGRT_022LTP                  :File Identification Number
#--------------------------------------------------
~WELL INFORMATION
#MNEM.UNIT      DATA             DESCRIPTION
#---- ------ --------------   -----------------------------
STRT .S         8392.0       :START TIME      
STOP .S         9264.0       :STOP TIME      
STEP .S            1.0       :STEP     
NULL .          -999.25      :NULL VALUE
COMP .        SHELL INTERNATIONAL E P                  :COMPANY
WELL .        WPP TEST 2                               :WELL
FLD  .        WILDCAT                                  :FIELD
LOC  .                                                 :LOCATION
CNTY .        HARRIS                                   :COUNTY
STAT .        TEXAS                                    :STATE
CTRY .                                                 :COUNTRY
API  .                                                 :API NUMBER
UWI  .                                                 :UNIQUE WELL ID
DATE .                                                 :LOG DATE
SRVC .        Schlumberger                             :SERVICE COMPANY
LATI .DEG                                              :LATITUDE
LONG .DEG                                              :LONGITUDE
GDAT .                                                 :GeoDetic Datum
#-----------------------------------------------------------------------------
~PARAMETER INFORMATION
#MNEM.UNIT    VALUE                      DESCRIPTION
#---- -----   --------------------       ------------------------
U-PHASE_B_COMP_PER_YT.                 0 :Phase B Comparator Period Yt
U-PHASE_A_COMP_PER_XT.                 0 :Phase A Comparator Period Xt
U-MAX_EXC_CUR_LIMIT.MA       240.00000   :Requested CM Current Limit
U-REQ_EXC_FQ.HZ              50          :Requested CM Frequency
U-TILT_Y_OFFSET.           0.19916       :WPTET Tilt Y Offset
U-TILT_Y_GAIN.           1.01796         :WPTET Tilt Y Gain
U-TILT_X_OFFSET.          -1.77103       :WPTET Tilt X Offset
U-TILT_X_GAIN.           1.00000         :WPTET Tilt X Gain
U-TILT_OFFSET_TOL.           0.00100     :WPTET Tilt Offset Calibration Tolerance
U-NO_TILT_CAL_ROTATIONS.                 3 :Number of Rotations for Tilt Calibration
HAZI .DEG        0.00000                 :Hole Azimuth
U-STD_TOL_TILT.           0.01000        :Tilt Standard Deviation Tolerance
U-GUN_POS_TOL.DEG        5.00000         :Gun Position Tolerance
ROT_ANGLE_THRESHOLD.DEG        5.00000   :Rotation Stop Angle Tolerance
STOP_ROT_ANGLE.DEG       80.00000        :Rotation Stop Angle
WITN .                                   :Witness's Name
ENGI .                                   :Engineer's Name
COUN .        HARRIS                     :County or Rig Name
FN   .        WILDCAT                    :Field Name
WN   .        WPP TEST 2                 :Well Name
CN   .        SHELL INTERNATIONAL E P    :Company Name
CLAB .        County                     :County/Rig Label
SLAB .        State                      :State/Province Label
RUN  .          1                        :RUN NUMBER
PDAT .        GROUND LEVEL               :Permanent Datum
EPD  .                                   :Elevation of Permanent Datum above Mean Sea Level
LMF  .                                   :Logging Measured From (Name of Logging Elevation Reference)
APD  .                                   :Elevation of Depth Reference (LMF) above Permanent Datum
#-----------------------------------------------------------------------------
~CURVE INFORMATION
#MNEM.UNIT   API CODE                                  DESCRIPTION
#---- -----  --------                                  -----------------------
TIME .S                                                :TIME {F10.1}
FREQ_EMF_SL.HZ                                         :Electromagnetic Field Frequency {F13.4}
PH_SH_WPPCM_SL.DEG                                     :WPPCM Phase Shift {F13.4}
FREQ_EXC_REQ_SL.HZ                                     :Requested Exciter Frequency {F13.4}
RB_SL.DEG                                              :Relative Bearing {F13.4}
SDEV_SL.DEG                                            :Sonde Deviation {F13.4}
TILX_SL.DEG                                            :X-axis Tilt {F13.4}
TILY_SL.DEG                                            :Y-axis Tilt {F13.4}
ROTA_SL.DEG                                            :Motor Rotation Angle {F13.4}
MSPE_SL.RPM                                            :Motor Speed {F13.4}
#-----------------------------------------------------------------------------
# 
#     TIME    FREQ_EMF_SL  PH_SH_WPPCM_ FREQ_EXC_REQ    RB_SL       SDEV_SL      TILX_SL      TILY_SL      ROTA_SL      MSPE_SL
#                          SL           _SL
~A  
# ...
    8707.0    1395.9880       0.0000      50.8611     -56.3251       0.8965      -0.7464      -0.4959     359.6925       0.0005
    8708.0    1396.4539       0.0000      50.8611     -53.5784       0.9617      -0.7737      -0.5708     359.6925       0.0005
    8709.0    1393.2679       0.0000      50.8611     -58.2425       0.9034      -0.7669      -0.4759     359.6925       0.0005
    8710.0    1390.5125       0.0000      50.8611     -53.7750       0.9569      -0.7729      -0.5638     359.6925       0.0005
    8711.0    1393.6859       0.0000      50.8611     -62.8548       0.8958      -0.7934      -0.4080     359.6925       0.0005
    8712.0    1394.6196       0.0000      50.8611     -59.2716       0.8382      -0.7199      -0.4281     359.6925       0.0005
    8713.0    1388.2377       0.0000      50.8611     -61.0011       0.8692      -0.7600      -0.4211     359.6925       0.0005
    8714.0    1390.5125       0.0000      50.8611     -61.4138       0.9964      -0.8737      -0.4759     359.6925       0.0005
    8715.0    1394.1518       0.0000      50.8611     -60.1616       0.8866      -0.7669      -0.4420     359.6925       0.0005
    8716.0    1396.4539       0.0000      50.8611     -62.5465       0.9570      -0.8472      -0.4420     359.6925       0.0005
    8717.0    1390.0429       0.0000      50.8611     -63.8056       0.8933      -0.8002      -0.3941     359.6925       0.0005
    8718.0    1393.2679       0.0000      50.8611     -58.3934       0.8692      -0.7403      -0.4551     359.6925       0.0005
    8719.0    1394.6196       0.0000      50.8611     -60.3670       0.9206      -0.8002      -0.4551     359.6925       0.0005
    8720.0    1395.9880       0.0000      50.8611     -63.0887       0.9190      -0.8199      -0.4142     359.6925       0.0005
    8721.0    1392.3268       0.0000      50.8611     -57.1082       0.9133      -0.7669      -0.4959     359.6925       0.0005
    8722.0    1393.2679       0.0000      50.8611     -59.5303       0.8976      -0.7737      -0.4551     359.6925       0.0005
    8723.0    1394.7368       0.0000      50.8611     -63.9745       0.8782      -0.7891      -0.3854     359.6925       0.0005
    8724.0    1390.5125       0.0000      50.8611     -60.7330       0.8882      -0.7737      -0.4350     359.6925       0.0005
    8725.0    1391.8590       0.0000      50.8611     -58.6164       0.9684      -0.8267      -0.5029     359.6925       0.0005
    8726.0    1394.1518       0.0000      50.8611     -59.2716       0.8382      -0.7199      -0.4281     359.6925       0.0005
    8727.0    1389.5751       0.0000      50.8611     -54.0528       0.8244      -0.6668      -0.4820     359.6925       0.0005
    8728.0    1390.5125       0.0000      50.8611     -58.7202       0.9588      -0.8199      -0.4959     359.6925       0.0005
    8729.0    1395.0892       0.0000      50.8611     -56.7141       0.8294      -0.6934      -0.4551     359.6925       0.0005
    8730.0    1396.4539       0.0000      50.8611     -57.3325       0.9190      -0.7737      -0.4959     359.6925       0.0005
    8731.0    1387.3003       0.0000      50.8611     -58.4276       0.9472      -0.8070      -0.4959     359.6925       0.0005
    8732.0    1390.9840       0.0000      50.8611     -57.3009       0.8814      -0.7403      -0.4751     359.6925       0.0005
    8733.0    1395.5607       0.0000      50.8611     -54.0754       0.9922      -0.8002      -0.5838     359.6925       0.0005
    8734.0    1394.6196       0.0000      50.8611     -61.7337       0.9177      -0.8070      -0.4350     359.6925       0.0005
    8735.0    1391.7423       0.0000      50.8611     -55.5444       0.9204      -0.7583      -0.5212     359.6925       0.0005
    8736.0    1390.5125       0.0000      50.8611     -59.1745       0.8628      -0.7403      -0.4411     359.6925       0.0005
    8737.0    1392.7964       0.0000      50.8611     -61.5581       0.9557      -0.8404      -0.4551       1.3658       0.6261
    8738.0    1393.6859       0.0000      50.8611     -60.5474       0.8822      -0.7669      -0.4342       5.9200       0.8926
    8739.0    1387.7681       0.0000      50.8611     -55.8574       0.8326      -0.6865      -0.4681      11.7481       1.0226
    8740.0    1389.5751       0.0000      50.8611     -61.1097       0.9440      -0.8267      -0.4551      17.8346       1.0226
    8741.0    1396.9217       0.0000      50.8611     -61.3340       1.0041      -0.8805      -0.4820      24.2756       1.0226
    8742.0    1394.6196       0.0000      50.8611     -71.0760       0.9826      -0.9275      -0.3193      30.4318       1.0226
    8743.0    1389.1092       0.0000      50.8611     -68.1768       0.9127      -0.8472      -0.3393      36.5356       1.0226
    8744.0    1383.7147       0.0000      50.8611     -63.4087       0.9103      -0.8139      -0.4072      42.6527       1.0226
    8745.0    1394.1518       0.0000      50.8611     -61.3425       0.9498      -0.8335      -0.4551      48.7321       1.0053
    8746.0    1391.8590       0.0000      50.8611     -65.4125       1.0127      -0.9207      -0.4211      54.8277       1.0226
    8747.0    1378.2179       0.0000      50.8611     -61.3037       1.0864      -0.9547      -0.5114      60.9315       1.0160
    8748.0    1380.4659       0.0000      50.8611     -68.5127       0.9621      -0.8942      -0.3532      67.0360       1.0226
    8749.0    1380.4659       0.0000      50.8611     -61.5901       0.9761      -0.8548      -0.4542      73.1357       1.0226
    8750.0    1372.9074       0.0000      50.8611     -65.2178       1.1027      -1.0010      -0.4620      79.2355       1.0226
    8751.0    1373.2910       0.0000      50.8611     -65.9057       1.1332      -1.0344      -0.4620      85.3393       1.0226
    8752.0    1368.8113       0.0000      50.8611     -69.9298       1.1086      -1.0412      -0.3802      91.4441       1.0226
    8753.0    1359.5634       0.0000      50.8611     -69.8110       1.0402      -0.9745      -0.3602      97.8933       1.0226
    8754.0    1351.7913       0.0000      50.8611     -70.5024       1.2457      -1.1746      -0.4142     104.0537       1.0226
    8755.0    1359.1188       0.0000      50.8611     -59.5134       0.9680      -0.8343      -0.4890     110.1349       1.0208
    8756.0    1356.4966       0.0000      50.8611     -66.4524       0.9992      -0.9147      -0.4011     116.2325       1.0226
    8757.0    1346.5450       0.0000      50.8611     -62.4837       1.0763      -0.9548      -0.4959     122.3221       1.0138
    8758.0    1335.9377       0.0000      50.8611     -58.3863       1.0419      -0.8882      -0.5438     128.4238       1.0226
    8759.0    1343.7793       0.0000      50.8611     -61.3839       1.1276      -0.9889      -0.5414     134.5277       1.0226
    8760.0    1337.9921       0.0000      50.8611     -57.4441       1.0611      -0.8942      -0.5708     140.6276       1.0226
    8761.0    1333.7734       0.0000      50.8611     -58.9055       1.0678      -0.9139      -0.5507     146.7275       1.0226
    8762.0    1328.3660       0.0000      50.8611     -56.8584       1.1632      -0.9737      -0.6325     152.8314       1.0226
    8763.0    1327.0772       0.0000      50.8611     -57.8177       1.2164      -1.0275      -0.6464     158.9494       1.0226
    8764.0    1330.8219       0.0000      50.8611     -59.6227       1.0753      -0.9275      -0.5438     165.0493       1.0226
    8765.0    1328.3078       0.0000      50.8611     -57.9937       1.1806      -1.0010      -0.6256     171.1359       1.0226
    8766.0    1329.1588       0.0000      50.8611     -57.5784       1.0909      -0.9207      -0.5847     177.6406       1.0121
    8767.0    1331.6761       0.0000      50.8611     -55.1712       1.0584      -0.8677      -0.6055     183.7280       1.0208
    8768.0    1336.7131       0.0000      50.8611     -57.1413       1.1142      -0.9344      -0.6055     189.8258       1.0226
    8769.0    1332.1057       0.0000      50.8611     -60.0533       1.1711      -1.0147      -0.5847     195.9307       1.0226
