~VERSION INFORMATION
VERS.           2.0   :CWLS Log ASCII Standard - VERSION 2.0
WRAP.           NO    :One Line per depth step
PROD.  Schlumberger   :LAS Producer
PROG.  DLIS to ASCII 19C2-270                          :LAS Program name and version
CREA.        2017/09/16 17:42                          :LAS Creation date {YYYY/MM/DD hh:mm}
DLIS_CREA.  2017-Sep-15 14:18                          :DLIS Creation date and time {YYYY-MMM-DD hh:mm}
SOURCE.     LPC_S2-1_AV.DLIS                           :DLIS File Name
FILE-ID.     PERFO_Perfo_WPGRT_028LTP                  :File Identification Number
#--------------------------------------------------
~WELL INFORMATION
#MNEM.UNIT      DATA             DESCRIPTION
#---- ------ --------------   -----------------------------
STRT .S        12646.0       :START TIME      
STOP .S        13087.0       :STOP TIME      
STEP .S            1.0       :STEP     
NULL .          -999.25      :NULL VALUE
COMP .        SHELL INTERNATIONAL E P                  :COMPANY
WELL .        WPP TEST 2                               :WELL
FLD  .        WILDCAT                                  :FIELD
LOC  .                                                 :LOCATION
CNTY .        HARRIS                                   :COUNTY
STAT .        TEXAS                                    :STATE
CTRY .                                                 :COUNTRY
API  .                                                 :API NUMBER
UWI  .                                                 :UNIQUE WELL ID
DATE .                                                 :LOG DATE
SRVC .        Schlumberger                             :SERVICE COMPANY
LATI .DEG                                              :LATITUDE
LONG .DEG                                              :LONGITUDE
GDAT .                                                 :GeoDetic Datum
#-----------------------------------------------------------------------------
~PARAMETER INFORMATION
#MNEM.UNIT    VALUE                      DESCRIPTION
#---- -----   --------------------       ------------------------
U-PHASE_B_COMP_PER_YT.                 0 :Phase B Comparator Period Yt
U-PHASE_A_COMP_PER_XT.                 0 :Phase A Comparator Period Xt
U-MAX_EXC_CUR_LIMIT.MA       240.00000   :Requested CM Current Limit
U-REQ_EXC_FQ.HZ              50          :Requested CM Frequency
U-TILT_Y_OFFSET.           0.19916       :WPTET Tilt Y Offset
U-TILT_Y_GAIN.           1.01796         :WPTET Tilt Y Gain
U-TILT_X_OFFSET.          -1.77103       :WPTET Tilt X Offset
U-TILT_X_GAIN.           1.00000         :WPTET Tilt X Gain
U-TILT_OFFSET_TOL.           0.00100     :WPTET Tilt Offset Calibration Tolerance
U-NO_TILT_CAL_ROTATIONS.                 3 :Number of Rotations for Tilt Calibration
HAZI .DEG        0.00000                 :Hole Azimuth
U-STD_TOL_TILT.           0.01000        :Tilt Standard Deviation Tolerance
U-GUN_POS_TOL.DEG        5.00000         :Gun Position Tolerance
ROT_ANGLE_THRESHOLD.DEG        5.00000   :Rotation Stop Angle Tolerance
STOP_ROT_ANGLE.DEG       80.00000        :Rotation Stop Angle
WITN .                                   :Witness's Name
ENGI .                                   :Engineer's Name
COUN .        HARRIS                     :County or Rig Name
FN   .        WILDCAT                    :Field Name
WN   .        WPP TEST 2                 :Well Name
CN   .        SHELL INTERNATIONAL E P    :Company Name
CLAB .        County                     :County/Rig Label
SLAB .        State                      :State/Province Label
RUN  .          1                        :RUN NUMBER
PDAT .        GROUND LEVEL               :Permanent Datum
EPD  .                                   :Elevation of Permanent Datum above Mean Sea Level
LMF  .                                   :Logging Measured From (Name of Logging Elevation Reference)
APD  .                                   :Elevation of Depth Reference (LMF) above Permanent Datum
#-----------------------------------------------------------------------------
~CURVE INFORMATION
#MNEM.UNIT   API CODE                                  DESCRIPTION
#---- -----  --------                                  -----------------------
TIME .S                                                :TIME {F10.1}
FREQ_EMF_SL.HZ                                         :Electromagnetic Field Frequency {F13.4}
PH_SH_WPPCM_SL.DEG                                     :WPPCM Phase Shift {F13.4}
FREQ_EXC_REQ_SL.HZ                                     :Requested Exciter Frequency {F13.4}
RB_SL.DEG                                              :Relative Bearing {F13.4}
SDEV_SL.DEG                                            :Sonde Deviation {F13.4}
TILX_SL.DEG                                            :X-axis Tilt {F13.4}
TILY_SL.DEG                                            :Y-axis Tilt {F13.4}
ROTA_SL.DEG                                            :Motor Rotation Angle {F13.4}
MSPE_SL.RPM                                            :Motor Speed {F13.4}
#-----------------------------------------------------------------------------
# 
#     TIME    FREQ_EMF_SL  PH_SH_WPPCM_ FREQ_EXC_REQ    RB_SL       SDEV_SL      TILX_SL      TILY_SL      ROTA_SL      MSPE_SL
#                          SL           _SL
~A  
# ...
   12961.0    1615.3598       0.0000      50.8611     -57.1369       0.8791      -0.7377      -0.4775      79.8439       1.0226
   12962.0    1599.0124       0.0000      50.8611     -54.6996       1.0060      -0.8221      -0.5777      85.9443       1.0304
   12963.0    1582.0179       0.0000      50.8611     -57.7141       0.8929      -0.7518      -0.4806      92.0499       1.0226
   12964.0    1571.1680       0.0000      50.8611     -62.0393       0.9629      -0.8487      -0.4479      98.1241       1.0204
   12965.0    1537.0591       0.0000      50.8611     -62.0595       1.0831      -0.9566      -0.5072     104.2273       1.0226
   12966.0    1519.5325       0.0000      50.8611     -66.0153       0.9911      -0.9054      -0.4029     110.3277       1.0226
   12967.0    1485.6597       0.0000      50.8611     -59.3095       1.0067      -0.8653      -0.5143     116.4156       1.0150
   12968.0    1455.7454       0.0000      50.8611     -56.9344       0.9632      -0.8070      -0.5256     122.5063       1.0226
   12969.0    1429.7730       0.0000      50.8611     -59.8815       0.9529      -0.8181      -0.4816     128.5971       1.0226
   12970.0    1411.4119       0.0000      50.8611     -56.7175       0.9785      -0.8181      -0.5368     134.9912       1.0226
   12971.0    1388.8214       0.0000      50.8611     -60.2632       1.0010      -0.8693      -0.4959     141.2075       1.0150
   12972.0    1360.0098       0.0000      50.8611     -58.9547       0.9629      -0.8251      -0.4959     147.3116       1.0226
   12973.0    1325.1119       0.0000      50.8611     -60.1840       0.9808      -0.8512      -0.4847     153.4030       1.0197
   12974.0    1311.3804       0.0000      50.8611     -58.2712       1.0219      -0.8693      -0.5368     159.5001       1.0226
   12975.0    1279.4592       0.0000      50.8611     -56.3615       1.0440      -0.8693      -0.5777     165.6034       1.0226
   12976.0    1225.7759       0.0000      50.8611     -59.9873       0.8940      -0.7736      -0.4479     171.7067       1.0226
   12977.0    1161.5410       0.0000      50.8611     -59.9012       0.9546      -0.8251      -0.4775     177.7982       1.0197
   12978.0    1107.6676       0.0000      50.8611     -45.9113       1.0625      -0.7598      -0.7372     183.8828       1.0226
   12979.0    1058.6485       0.0000      50.8611     -56.6249       1.1704      -0.9707      -0.6513     189.9738       1.0226
   12980.0    1022.1395       0.0000      50.8611     -60.2912       0.9715      -0.8432      -0.4775     196.0865       1.0226
   12981.0    1007.4934       0.0000      50.8611     -66.4110       1.0361      -0.9496      -0.4142     202.1661       1.0226
   12982.0     994.2766       0.0000      50.8611     -56.1809       0.9447      -0.7849      -0.5256     208.5618       1.0256
   12983.0     986.1500       0.0000      50.8611     -57.2894       0.9937      -0.8361      -0.5368     214.7678       1.0275
   12984.0     976.9360       0.0000      50.8611     -54.7166       1.0387      -0.8472      -0.6002     220.8691       1.0226
   12985.0     973.8573       0.0000      50.8611     -61.5226       1.0811      -0.9496      -0.5143     226.9696       1.0226
   12986.0     974.2288       0.0000      50.8611     -64.7802       0.9296      -0.8361      -0.3988     233.0700       1.0256
   12987.0     971.5366       0.0000      50.8611     -50.5746       0.9627      -0.7458      -0.5961     239.1769       1.0226
   12988.0     975.4482       0.0000      50.8611     -59.0160       1.2918      -1.1033      -0.6590     245.2774       1.0226
   12989.0     981.5136       0.0000      50.8611     -63.5154       1.0301      -0.9125      -0.4520     251.3785       1.0334
   12990.0     987.1542       0.0000      50.8611     -64.7394       0.9732      -0.8803      -0.4142     257.4870       1.0226
   12991.0    1001.3566       0.0000      50.8611     -59.7985       1.0992      -0.9456      -0.5522     263.5856       1.0226
   12992.0    1012.7475       0.0000      50.8611     -52.2105       1.0118      -0.8000      -0.6186     269.6859       1.0226
   12993.0    1031.2877       0.0000      50.8611     -59.1249       1.0012      -0.8542      -0.5113     275.7994       1.0226
   12994.0    1059.4988       0.0000      50.8611     -60.3895       1.1281      -0.9818      -0.5552     281.9156       1.0226
   12995.0    1112.3724       0.0000      50.8611     -58.7860       1.1397      -0.9747      -0.5890     288.4130       1.0226
   12996.0    1193.0181       0.0000      50.8611     -59.3754       1.1118      -0.9566      -0.5665     294.5139       1.0304
   12997.0    1244.6721       0.0000      50.8611     -54.0186       0.9836      -0.7960      -0.5777     300.6302       1.0226
   12998.0    1277.5590       0.0000      50.8611     -53.4298       1.0696      -0.8582      -0.6370     306.7332       1.0226
   12999.0    1301.4215       0.0000      50.8611     -53.4668       1.1201      -0.8984      -0.6666     312.8335       1.0226
   13000.0    1330.2942       0.0000      50.8611     -51.5965       1.0091      -0.7890      -0.6258     318.9383       1.0226
   13001.0    1357.8520       0.0000      50.8611     -54.9658       1.0075      -0.8251      -0.5777     325.0499       1.0226
   13002.0    1386.8344       0.0000      50.8611     -54.1166       0.9902      -0.8030      -0.5777     331.1407       1.0226
   13003.0    1416.0252       0.0000      50.8611     -53.6293       1.0961      -0.8833      -0.6482     337.2410       1.0226
   13004.0    1436.2728       0.0000      50.8611     -53.5193       1.0624      -0.8542      -0.6298     343.3413       1.0226
   13005.0    1459.3067       0.0000      50.8611     -50.5408       1.0082      -0.7779      -0.6411     349.4460       1.0226
   13006.0    1486.5221       0.0000      50.8611     -54.7166       1.0387      -0.8472      -0.6002     355.5491       1.0226
   13007.0    1521.0116       0.0000      50.8611     -53.7811       0.9280      -0.7488      -0.5481       2.0551       1.0256
   13008.0    1548.4163       0.0000      50.8611     -45.2479       0.9293      -0.6614      -0.6523       8.1583       1.0226
   13009.0    1565.9799       0.0000      50.8611     -53.3002       1.0049      -0.8030      -0.6033      14.2712       1.0256
   13010.0    1584.5979       0.0000      50.8611     -51.2197       0.9696      -0.7558      -0.6074      20.3864       1.0304
   13011.0    1607.9715       0.0000      50.8611     -55.5093       0.9801      -0.8070      -0.5552      26.4887       1.0226
   13012.0    1622.8164       0.0000      50.8611     -54.7557       1.0117      -0.8251      -0.5849      32.5919       1.0226
   13013.0    1633.0926       0.0000      50.8611     -55.1216       1.0513      -0.8623      -0.5961      38.6951       1.0226
   13014.0    1646.6628       0.0000      50.8611     -55.3502       1.0795      -0.8904      -0.6074      44.7955       1.0226
   13015.0    1645.6048       0.0000      50.8611     -56.1694       1.0006      -0.8321      -0.5552      50.8926       1.0226
   13016.0    1644.5517       0.0000      50.8611     -54.6865       1.0763      -0.8693      -0.6217      56.9999       1.0226
   13017.0    1638.9860       0.0000      50.8611     -57.3723       1.0079      -0.8472      -0.5440      63.1048       1.0226
   13018.0    1636.2226       0.0000      50.8611     -56.6429       0.9177      -0.7628      -0.5000      69.2052       1.0226
   13019.0    1633.4720       0.0000      50.8611     -57.0850       0.9352      -0.7849      -0.5072      75.7229       1.0304
   13020.0    1621.1326       0.0000      50.8611     -57.0441       0.9879      -0.8291      -0.5368      81.8298       1.0226
   13021.0    1600.0180       0.0000      50.8611     -57.5865       0.9823      -0.8291      -0.5256      87.9302       1.0226
   13022.0    1583.0055       0.0000      50.8611     -59.5626       0.8016      -0.6905      -0.4070      94.0181       1.0226
   13023.0    1571.0597       0.0000      50.8611     -61.0655       0.8188      -0.7156      -0.3958     100.1213       1.0226
