~VERSION INFORMATION
VERS.           2.0   :CWLS Log ASCII Standard - VERSION 2.0
WRAP.           NO    :One Line per depth step
PROD.  Schlumberger   :LAS Producer
PROG.  DLIS to ASCII 19C2-270                          :LAS Program name and version
CREA.        2017/09/16 17:42                          :LAS Creation date {YYYY/MM/DD hh:mm}
DLIS_CREA.  2017-Sep-15 16:01                          :DLIS Creation date and time {YYYY-MMM-DD hh:mm}
SOURCE.     LPC_S3-1_A5.DLIS                           :DLIS File Name
FILE-ID.     PERFO_Perfo_WPGRT_038LTP                  :File Identification Number
#--------------------------------------------------
~WELL INFORMATION
#MNEM.UNIT      DATA             DESCRIPTION
#---- ------ --------------   -----------------------------
STRT .S         1883.0       :START TIME      
STOP .S         2380.0       :STOP TIME      
STEP .S            1.0       :STEP     
NULL .          -999.25      :NULL VALUE
COMP .        SHELL INTERNATIONAL E P                  :COMPANY
WELL .        WPP TEST 2                               :WELL
FLD  .        WILDCAT                                  :FIELD
LOC  .                                                 :LOCATION
CNTY .        HARRIS                                   :COUNTY
STAT .        TEXAS                                    :STATE
CTRY .                                                 :COUNTRY
API  .                                                 :API NUMBER
UWI  .                                                 :UNIQUE WELL ID
DATE .                                                 :LOG DATE
SRVC .        Schlumberger                             :SERVICE COMPANY
LATI .DEG                                              :LATITUDE
LONG .DEG                                              :LONGITUDE
GDAT .                                                 :GeoDetic Datum
#-----------------------------------------------------------------------------
~PARAMETER INFORMATION
#MNEM.UNIT    VALUE                      DESCRIPTION
#---- -----   --------------------       ------------------------
U-PHASE_B_COMP_PER_YT.                 0 :Phase B Comparator Period Yt
U-PHASE_A_COMP_PER_XT.                 0 :Phase A Comparator Period Xt
U-MAX_EXC_CUR_LIMIT.MA       240.00000   :Requested CM Current Limit
U-REQ_EXC_FQ.HZ              50          :Requested CM Frequency
U-TILT_Y_OFFSET.           0.19916       :WPTET Tilt Y Offset
U-TILT_Y_GAIN.           1.01796         :WPTET Tilt Y Gain
U-TILT_X_OFFSET.          -1.77103       :WPTET Tilt X Offset
U-TILT_X_GAIN.           1.00000         :WPTET Tilt X Gain
U-TILT_OFFSET_TOL.           0.00100     :WPTET Tilt Offset Calibration Tolerance
U-NO_TILT_CAL_ROTATIONS.                 3 :Number of Rotations for Tilt Calibration
HAZI .DEG        0.00000                 :Hole Azimuth
U-STD_TOL_TILT.           0.01000        :Tilt Standard Deviation Tolerance
U-GUN_POS_TOL.DEG        5.00000         :Gun Position Tolerance
ROT_ANGLE_THRESHOLD.DEG        5.00000   :Rotation Stop Angle Tolerance
STOP_ROT_ANGLE.DEG        0.00000        :Rotation Stop Angle
WITN .                                   :Witness's Name
ENGI .                                   :Engineer's Name
COUN .        HARRIS                     :County or Rig Name
FN   .        WILDCAT                    :Field Name
WN   .        WPP TEST 2                 :Well Name
CN   .        SHELL INTERNATIONAL E P    :Company Name
CLAB .        County                     :County/Rig Label
SLAB .        State                      :State/Province Label
RUN  .          1                        :RUN NUMBER
PDAT .        GROUND LEVEL               :Permanent Datum
EPD  .                                   :Elevation of Permanent Datum above Mean Sea Level
LMF  .                                   :Logging Measured From (Name of Logging Elevation Reference)
APD  .                                   :Elevation of Depth Reference (LMF) above Permanent Datum
#-----------------------------------------------------------------------------
~CURVE INFORMATION
#MNEM.UNIT   API CODE                                  DESCRIPTION
#---- -----  --------                                  -----------------------
TIME .S                                                :TIME {F10.1}
FREQ_EMF_SL.HZ                                         :Electromagnetic Field Frequency {F13.4}
PH_SH_WPPCM_SL.DEG                                     :WPPCM Phase Shift {F13.4}
FREQ_EXC_REQ_SL.HZ                                     :Requested Exciter Frequency {F13.4}
RB_SL.DEG                                              :Relative Bearing {F13.4}
SDEV_SL.DEG                                            :Sonde Deviation {F13.4}
TILX_SL.DEG                                            :X-axis Tilt {F13.4}
TILY_SL.DEG                                            :Y-axis Tilt {F13.4}
ROTA_SL.DEG                                            :Motor Rotation Angle {F13.4}
MSPE_SL.RPM                                            :Motor Speed {F13.4}
#-----------------------------------------------------------------------------
# 
#     TIME    FREQ_EMF_SL  PH_SH_WPPCM_ FREQ_EXC_REQ    RB_SL       SDEV_SL      TILX_SL      TILY_SL      ROTA_SL      MSPE_SL
#                          SL           _SL
~A  
# ...
    2324.0    1541.9408       0.0000      50.8611     146.1596       3.4898       1.9427       2.8978      59.6920       0.0005
    2325.0    1541.9408       0.0000      50.8611     143.5812       3.4926       2.0727       2.8098      59.6920       0.0005
    2326.0    1548.7335       0.0000      50.8611     145.3160       3.4751       1.9767       2.8569      59.6920       0.0005
    2327.0    1542.4576       0.0000      50.8611     145.5383       3.4732       1.9645       2.8631      59.6920       0.0005
    2328.0    1545.3296       0.0000      50.8611     145.8534       3.4795       1.9522       2.8791      59.6920       0.0005
    2329.0    1544.2983       0.0000      50.8611     144.8372       3.6224       2.0850       2.9608      59.6920       0.0005
    2330.0    1545.3296       0.0000      50.8611     144.9289       3.4415       1.9767       2.8160      59.6920       0.0005
    2331.0    1545.8487       0.0000      50.8611     145.2109       3.4447       1.9645       2.8285      59.6920       0.0005
    2332.0    1540.1172       0.0000      50.8611     145.3777       3.4603       1.9645       2.8472      59.6920       0.0005
    2333.0    1547.6976       0.0000      50.8611     145.5130       3.4818       1.9706       2.8693      59.6920       0.0005
    2334.0    1544.8128       0.0000      50.8611     144.8060       3.4315       1.9767       2.8035      59.6920       0.0005
    2335.0    1545.8487       0.0000      50.8611     145.2316       3.3865       1.9304       2.7813      59.6920       0.0005
    2336.0    1546.2536       0.0000      50.8611     145.2415       3.4811       1.9839       2.8593      59.6920       0.0005
    2337.0    1545.3296       0.0000      50.8611     146.6230       3.5613       1.9583       2.9733      59.6920       0.0005
    2338.0    1545.3296       0.0000      50.8611     144.2210       3.5572       2.0788       2.8853      59.6920       0.0005
    2339.0    1544.8128       0.0000      50.8611     144.6965       3.4129       1.9706       2.7848      59.6920       0.0005
    2340.0    1541.9408       0.0000      50.8611     144.0118       3.4030       1.9985       2.7529      59.6920       0.0005
    2341.0    1541.4263       0.0000      50.8611     145.4963       3.5516       2.0108       2.9262      59.6920       0.0005
    2342.0    1545.8487       0.0000      50.8611     145.2743       3.5914       2.0448       2.9511      59.6920       0.0005
    2343.0    1542.4576       0.0000      50.8611     142.7951       3.4854       2.1068       2.7751      59.6920       0.0005
    2344.0    1541.9408       0.0000      50.8611     146.2121       3.3829       1.8807       2.8098      59.6920       0.0005
    2345.0    1541.4263       0.0000      50.8611     145.3977       3.4715       1.9706       2.8569      59.6920       0.0005
    2346.0    1548.7335       0.0000      50.8611     144.2951       3.5847       2.0911       2.9102      59.6920       0.0005
    2347.0    1541.9408       0.0000      50.8611     146.2774       3.4284       1.9025       2.8506      59.6920       0.0005
    2348.0    1544.0937       0.0000      50.8611     144.9919       3.3812       1.9389       2.7689      59.6920       0.0005
    2349.0    1542.9767       0.0000      50.8611     143.6282       3.3613       1.9924       2.7058      59.6920       0.0005
    2350.0    1539.5981       0.0000      50.8611     146.9394       3.5002       1.9086       2.9324      59.6920       0.0005
    2351.0    1547.6976       0.0000      50.8611     143.9093       3.4934       2.0571       2.8222      59.6920       0.0005
    2352.0    1548.2144       0.0000      50.8611     144.3544       3.4310       1.9985       2.7876      59.6920       0.0005
    2353.0    1545.3296       0.0000      50.8611     145.7675       3.4829       1.9583       2.8791      59.6920       0.0005
    2354.0    1542.4576       0.0000      50.8611     145.3824       3.5908       2.0387       2.9546      59.6920       0.0005
    2355.0    1544.8128       0.0000      50.8611     146.5534       3.5152       1.9366       2.9324      59.6920       0.0005
    2356.0    1550.0805       0.0000      50.8611     142.1392       3.6737       2.2545       2.8978      59.6920       0.0005
    2357.0    1549.2549       0.0000      50.8611     144.8317       3.2926       1.9005       2.6809      59.6920       0.0005
    2358.0    1540.1172       0.0000      50.8611     138.7076       3.7145       2.4472       2.7841      59.6920       0.0005
    2359.0    1541.9408       0.0000      50.8611     146.7194       3.5084       1.9243       2.9324      59.6920       0.0005
    2360.0    1548.0850       0.0000      50.8611     143.2803       3.5954       2.1503       2.8791      59.6920       0.0005
    2361.0    1545.3296       0.0000      50.8611     144.8419       3.1263       1.8004       2.5547      59.6920       0.0005
    2362.0    1545.3296       0.0000      50.8611     146.3234       3.4828       1.9304       2.8978      59.6920       0.0005
    2363.0    1542.4576       0.0000      50.8611     144.7815       3.5641       2.0543       2.9102      59.6920       0.0005
    2364.0    1547.6976       0.0000      50.8611     145.3167       3.4258       1.9488       2.8160      59.6920       0.0005
    2365.0    1542.4576       0.0000      50.8611     146.3854       3.4162       1.8903       2.8444      59.6920       0.0005
    2366.0    1545.8487       0.0000      50.8611     142.5196       3.4183       2.0788       2.7120      59.6920       0.0005
    2367.0    1547.6976       0.0000      50.8611     144.7483       3.4643       1.9985       2.8285      59.6920       0.0005
    2368.0    1542.9767       0.0000      50.8611     145.8584       3.5515       1.9924       2.9387      59.6920       0.0005
    2369.0    1542.4576       0.0000      50.8611     144.3647       3.3145       1.9304       2.6933      59.6920       0.0005
    2370.0    1544.8128       0.0000      50.8611     145.5255       3.3520       1.8964       2.7626      59.6920       0.0005
    2371.0    1548.7335       0.0000      50.8611     144.5484       3.4576       2.0046       2.8160      59.6920       0.0005
    2372.0    1542.3282       0.0000      50.8611     147.8106       3.5700       1.9010       3.0204      59.6920       0.0005
    2373.0    1548.2144       0.0000      50.8611     145.7719       3.5325       1.9863       2.9199      59.6920       0.0005
    2374.0    1550.5951       0.0000      50.8611     143.7913       3.3739       1.9924       2.7217      59.6920       0.0005
    2375.0    1544.8128       0.0000      50.8611     144.4831       3.5107       2.0387       2.8569      59.6920       0.0005
    2376.0    1539.5981       0.0000      50.8611     145.1282       3.5674       2.0387       2.9262      59.6920       0.0005
    2377.0    1545.3296       0.0000      50.8611     143.9986       3.5169       2.0666       2.8444      59.6920       0.0005
    2378.0    1547.6976       0.0000      50.8611     144.7953       3.3392       1.9243       2.7280      59.6920       0.0005
    2379.0    1548.2144       0.0000      50.8611     143.4381       3.3771       2.0108       2.7120      59.6920       0.0005
    2380.0    1542.9767       0.0000      50.8611     144.7708       3.4284       1.9767       2.8000      59.6920       0.0005
