~VERSION INFORMATION
VERS.           2.0   :CWLS Log ASCII Standard - VERSION 2.0
WRAP.           NO    :One Line per depth step
PROD.  Schlumberger   :LAS Producer
PROG.  DLIS to ASCII 19C2-270                          :LAS Program name and version
CREA.        2017/09/16 17:42                          :LAS Creation date {YYYY/MM/DD hh:mm}
DLIS_CREA.  2017-Sep-15 12:00                          :DLIS Creation date and time {YYYY-MMM-DD hh:mm}
SOURCE.     LPC_S1-1_A5.DLIS                           :DLIS File Name
FILE-ID.     PERFO_Perfo_WPGRT_019LTP                  :File Identification Number
#--------------------------------------------------
~WELL INFORMATION
#MNEM.UNIT      DATA             DESCRIPTION
#---- ------ --------------   -----------------------------
STRT .S         4414.0       :START TIME      
STOP .S         5447.0       :STOP TIME      
STEP .S            1.0       :STEP     
NULL .          -999.25      :NULL VALUE
COMP .        SHELL INTERNATIONAL E P                  :COMPANY
WELL .        WPP TEST 2                               :WELL
FLD  .        WILDCAT                                  :FIELD
LOC  .                                                 :LOCATION
CNTY .        HARRIS                                   :COUNTY
STAT .        TEXAS                                    :STATE
CTRY .                                                 :COUNTRY
API  .                                                 :API NUMBER
UWI  .                                                 :UNIQUE WELL ID
DATE .                                                 :LOG DATE
SRVC .        Schlumberger                             :SERVICE COMPANY
LATI .DEG                                              :LATITUDE
LONG .DEG                                              :LONGITUDE
GDAT .                                                 :GeoDetic Datum
#-----------------------------------------------------------------------------
~PARAMETER INFORMATION
#MNEM.UNIT    VALUE                      DESCRIPTION
#---- -----   --------------------       ------------------------
U-PHASE_B_COMP_PER_YT.                 0 :Phase B Comparator Period Yt
U-PHASE_A_COMP_PER_XT.                 0 :Phase A Comparator Period Xt
U-MAX_EXC_CUR_LIMIT.MA       240.00000   :Requested CM Current Limit
U-REQ_EXC_FQ.HZ              50          :Requested CM Frequency
U-TILT_Y_OFFSET.           0.19916       :WPTET Tilt Y Offset
U-TILT_Y_GAIN.           1.01796         :WPTET Tilt Y Gain
U-TILT_X_OFFSET.          -1.77103       :WPTET Tilt X Offset
U-TILT_X_GAIN.           1.00000         :WPTET Tilt X Gain
U-TILT_OFFSET_TOL.           0.00100     :WPTET Tilt Offset Calibration Tolerance
U-NO_TILT_CAL_ROTATIONS.                 3 :Number of Rotations for Tilt Calibration
HAZI .DEG        0.00000                 :Hole Azimuth
U-STD_TOL_TILT.           0.01000        :Tilt Standard Deviation Tolerance
U-GUN_POS_TOL.DEG        5.00000         :Gun Position Tolerance
ROT_ANGLE_THRESHOLD.DEG        5.00000   :Rotation Stop Angle Tolerance
STOP_ROT_ANGLE.DEG       80.00000        :Rotation Stop Angle
WITN .                                   :Witness's Name
ENGI .                                   :Engineer's Name
COUN .        HARRIS                     :County or Rig Name
FN   .        WILDCAT                    :Field Name
WN   .        WPP TEST 2                 :Well Name
CN   .        SHELL INTERNATIONAL E P    :Company Name
CLAB .        County                     :County/Rig Label
SLAB .        State                      :State/Province Label
RUN  .          1                        :RUN NUMBER
PDAT .        GROUND LEVEL               :Permanent Datum
EPD  .                                   :Elevation of Permanent Datum above Mean Sea Level
LMF  .                                   :Logging Measured From (Name of Logging Elevation Reference)
APD  .                                   :Elevation of Depth Reference (LMF) above Permanent Datum
#-----------------------------------------------------------------------------
~CURVE INFORMATION
#MNEM.UNIT   API CODE                                  DESCRIPTION
#---- -----  --------                                  -----------------------
TIME .S                                                :TIME {F10.1}
FREQ_EMF_SL.HZ                                         :Electromagnetic Field Frequency {F13.4}
PH_SH_WPPCM_SL.DEG                                     :WPPCM Phase Shift {F13.4}
FREQ_EXC_REQ_SL.HZ                                     :Requested Exciter Frequency {F13.4}
RB_SL.DEG                                              :Relative Bearing {F13.4}
SDEV_SL.DEG                                            :Sonde Deviation {F13.4}
TILX_SL.DEG                                            :X-axis Tilt {F13.4}
TILY_SL.DEG                                            :Y-axis Tilt {F13.4}
ROTA_SL.DEG                                            :Motor Rotation Angle {F13.4}
MSPE_SL.RPM                                            :Motor Speed {F13.4}
#-----------------------------------------------------------------------------
# 
#     TIME    FREQ_EMF_SL  PH_SH_WPPCM_ FREQ_EXC_REQ    RB_SL       SDEV_SL      TILX_SL      TILY_SL      ROTA_SL      MSPE_SL
#                          SL           _SL
~A  
# ...
    5107.0    1401.5426       0.0000      50.8611      65.0796       3.5742       3.2407      -1.5052      98.8110       1.0226
    5108.0    1432.9625       0.0000      50.8611      72.8599       3.4763       3.3210      -1.0238     104.9128       1.0226
    5109.0    1452.7377       0.0000      50.8611      80.6146       3.3733       3.3265      -0.5518     111.0170       1.0226
    5110.0    1479.5557       0.0000      50.8611      87.0407       3.2725       3.2681      -0.1688     117.1164       1.0226
    5111.0    1510.6236       0.0000      50.8611      94.6887       3.3230       3.3119       0.2716     123.2213       1.0226
    5112.0    1536.2840       0.0000      50.8611     101.9614       3.2401       3.1695       0.6712     129.7281       1.0226
    5113.0    1559.0355       0.0000      50.8611     111.2208       3.1853       2.9686       1.1526     135.8307       1.0226
    5114.0    1589.1504       0.0000      50.8611     118.7072       3.1670       2.7769       1.5206     141.9319       1.0226
    5115.0    1597.1870       0.0000      50.8611     127.7084       3.2684       2.5853       1.9982     148.0215       1.0226
    5116.0    1613.8606       0.0000      50.8611     136.4253       3.1895       2.1982       2.3067     154.1365       1.0226
    5117.0    1620.9549       0.0000      50.8611     140.9110       3.3368       2.1033       2.5893     160.2419       1.0202
    5118.0    1634.3113       0.0000      50.8611     150.7752       3.2846       1.6030       2.8662     166.3410       1.0226
    5119.0    1638.9860       0.0000      50.8611     157.3860       3.4394       1.3218       3.1747     172.4306       1.0309
    5120.0    1641.6118       0.0000      50.8611     166.2538       3.4427       0.8179       3.3439     178.5463       1.0226
    5121.0    1648.4257       0.0000      50.8611     171.0839       3.5225       0.5459       3.4795     184.6358       1.0202
    5122.0    1644.9164       0.0000      50.8611     -98.5870       3.6438       0.0329       3.6430     190.7432       1.0202
    5123.0    1632.2436       0.0000      50.8611    -172.8874       3.7764      -0.4674       3.7471     196.8303       1.0202
    5124.0    1621.8100       0.0000      50.8611    -167.4723       3.8673      -0.8381       3.7750     203.3372       1.0226
    5125.0    1609.8213       0.0000      50.8611    -160.1274       4.0046      -1.3602       3.7657     209.4391       1.0226
    5126.0    1593.5671       0.0000      50.8611    -154.7440       4.0083      -1.7090       3.6244     215.5191       1.0144
    5127.0    1573.7889       0.0000      50.8611    -149.3902       4.2341      -2.1544       3.6430     221.6058       1.0226
    5128.0    1549.2359       0.0000      50.8611    -142.6700       4.2628      -2.5835       3.3884     227.7216       1.0226
    5129.0    1523.4209       0.0000      50.8611    -137.5086       4.4142      -2.9796       3.2528     233.8132       1.0144
    5130.0    1499.2004       0.0000      50.8611    -132.1420       4.4375      -3.2882       2.9759     239.9130       1.0226
    5131.0    1472.3789       0.0000      50.8611    -125.2020       4.5173      -3.6899       2.6022     246.0149       1.0226
    5132.0    1449.4907       0.0000      50.8611    -118.9802       4.5790      -4.0040       2.2176     252.1045       1.0226
    5133.0    1423.3300       0.0000      50.8611    -114.7177       4.8590      -4.4129       2.0298     258.2064       1.0226
    5134.0    1395.7202       0.0000      50.8611    -110.4076       4.8241      -4.5206       1.6804     264.3213       1.0226
    5135.0    1361.8156       0.0000      50.8611    -104.9375       4.9039      -4.7378       1.2622     270.4387       1.0226
    5136.0    1335.3593       0.0000      50.8611     -98.4867       5.0249      -4.9697       0.7400     276.9454       1.0226
    5137.0    1298.9212       0.0000      50.8611     -93.8502       5.1349      -5.1231       0.3441     283.0472       1.0226
    5138.0    1215.1674       0.0000      50.8611     -89.0296       5.3014      -5.3002      -0.0907     289.1496       1.0285
    5139.0    1149.0302       0.0000      50.8611     -83.2973       5.0687      -5.0337      -0.5907     295.2516       1.0226
    5140.0    1091.4186       0.0000      50.8611     -78.6193       5.1666      -5.0647      -1.0182     301.3435       1.0226
    5141.0    1032.3588       0.0000      50.8611     -73.1335       5.3483      -5.1176      -1.5497     307.4436       1.0226
    5142.0     994.0758       0.0000      50.8611     -67.8355       5.2827      -4.8913      -1.9902     313.5579       1.0226
    5143.0     968.4918       0.0000      50.8611     -63.6156       5.2230      -4.6777      -2.3173     319.6713       1.0250
    5144.0     954.3315       0.0000      50.8611     -58.1663       5.1919      -4.4093      -2.7355     325.7754       1.0226
    5145.0     937.3922       0.0000      50.8611     -53.1688       5.3496      -4.2796      -3.2038     331.8772       1.0226
    5146.0     927.5000       0.0000      50.8611     -48.2738       5.3853      -4.0167      -3.5811     337.9915       1.0309
    5147.0     921.9130       0.0000      50.8611     -43.3072       5.2798      -3.6187      -3.8395     344.1095       1.0250
    5148.0     918.1908       0.0000      50.8611     -39.8423       5.1510      -3.2974      -3.9528     350.6273       1.0334
    5149.0     915.7989       0.0000      50.8611     -34.0423       5.2661      -2.9450      -4.3617     356.7321       1.0226
    5150.0     915.1515       0.0000      50.8611     -29.1553       5.2261      -2.5433      -4.5625       2.8340       1.0226
    5151.0     919.1177       0.0000      50.8611     -24.1482       5.0117      -2.0486      -4.5718       8.9358       1.0226
    5152.0     926.1061       0.0000      50.8611     -18.4869       4.8878      -1.5483      -4.6349      15.0484       1.0309
    5153.0     931.9653       0.0000      50.8611     -14.9563       4.9153      -1.2671      -4.7483      21.1525       1.0226
    5154.0     944.0806       0.0000      50.8611      -7.1221       5.0279      -0.6209      -4.9880      27.2543       1.0226
    5155.0     960.3807       0.0000      50.8611      -2.5727       4.9672      -0.2228      -4.9620      33.3568       1.0226
    5156.0     976.6899       0.0000      50.8611       2.0052       4.6160       0.1606      -4.6126      39.4711       1.0250
    5157.0     995.2877       0.0000      50.8611       7.1618       4.5893       0.5714      -4.5532      45.5759       1.0226
    5158.0    1022.3224       0.0000      50.8611      13.8014       4.6800       1.1155      -4.5438      51.6753       1.0309
    5159.0    1065.2988       0.0000      50.8611      18.0764       4.4656       1.3839      -4.2447      57.7803       1.0226
    5160.0    1130.9902       0.0000      50.8611      26.0827       4.2969       1.8878      -3.8581      64.2986       1.0309
    5161.0    1209.6878       0.0000      50.8611      29.2733       4.1212       2.0138      -3.5941      70.4020       1.0226
    5162.0    1264.8295       0.0000      50.8611      35.8317       4.1662       2.4373      -3.3767      76.5038       1.0226
    5163.0    1300.4468       0.0000      50.8611      43.3067       4.1215       2.8243      -2.9957      82.6056       1.0226
    5164.0    1335.5877       0.0000      50.8611      48.2388       3.8024       2.8354      -2.5310      88.7074       1.0226
    5165.0    1361.4485       0.0000      50.8611      55.7037       3.6326       2.9997      -2.0460      94.8076       1.0309
    5166.0    1390.4562       0.0000      50.8611      61.1927       3.6539       3.2005      -1.7598     100.9117       1.0226
    5167.0    1417.8642       0.0000      50.8611      69.0563       3.5895       3.3520      -1.2821     107.0274       1.0226
    5168.0    1440.8298       0.0000      50.8611      78.9263       3.4127       3.3484      -0.6558     113.1339       1.0250
    5169.0    1464.8438       0.0000      50.8611      83.1350       3.2016       3.1786      -0.3826     119.2340       1.0226
