~VERSION INFORMATION
VERS.           2.0   :CWLS Log ASCII Standard - VERSION 2.0
WRAP.           NO    :One Line per depth step
PROD.  Schlumberger   :LAS Producer
PROG.  DLIS to ASCII 19C2-270                          :LAS Program name and version
CREA.        2017/09/16 17:42                          :LAS Creation date {YYYY/MM/DD hh:mm}
DLIS_CREA.  2017-Sep-15 17:44                          :DLIS Creation date and time {YYYY-MMM-DD hh:mm}
SOURCE.     LPC_S4-1_B5.DLIS                           :DLIS File Name
FILE-ID.     PERFO_Perfo_WPGRT_050LTP                  :File Identification Number
#--------------------------------------------------
~WELL INFORMATION
#MNEM.UNIT      DATA             DESCRIPTION
#---- ------ --------------   -----------------------------
STRT .S         2640.0       :START TIME      
STOP .S         3106.0       :STOP TIME      
STEP .S            1.0       :STEP     
NULL .          -999.25      :NULL VALUE
COMP .        SHELL INTERNATIONAL E P                  :COMPANY
WELL .        WPP TEST 2                               :WELL
FLD  .        WILDCAT                                  :FIELD
LOC  .        NA                                       :LOCATION
CNTY .        HARRIS                                   :COUNTY
STAT .        TEXAS                                    :STATE
CTRY .                                                 :COUNTRY
API  .        NA                                       :API NUMBER
UWI  .                                                 :UNIQUE WELL ID
DATE .        15-Sep-2017                              :LOG DATE {DD-MMM-YYYY}
SRVC .        Schlumberger                             :SERVICE COMPANY
LATI .DEG                                              :LATITUDE
LONG .DEG                                              :LONGITUDE
GDAT .                                                 :GeoDetic Datum
SECT .        NA                                       :Section
RANG .        NA                                       :Range
TOWN .        NA                                       :Township
#-----------------------------------------------------------------------------
~PARAMETER INFORMATION
#MNEM.UNIT    VALUE                      DESCRIPTION
#---- -----   --------------------       ------------------------
U-PHASE_B_COMP_PER_YT.                 0 :Phase B Comparator Period Yt
U-PHASE_A_COMP_PER_XT.                 0 :Phase A Comparator Period Xt
U-MAX_EXC_CUR_LIMIT.MA       240.00000   :Requested CM Current Limit
U-REQ_EXC_FQ.HZ              50          :Requested CM Frequency
U-TILT_Y_OFFSET.           0.19916       :WPTET Tilt Y Offset
U-TILT_Y_GAIN.           1.01796         :WPTET Tilt Y Gain
U-TILT_X_OFFSET.          -1.77103       :WPTET Tilt X Offset
U-TILT_X_GAIN.           1.00000         :WPTET Tilt X Gain
U-TILT_OFFSET_TOL.           0.00100     :WPTET Tilt Offset Calibration Tolerance
U-NO_TILT_CAL_ROTATIONS.                 3 :Number of Rotations for Tilt Calibration
HAZI .DEG        0.00000                 :Hole Azimuth
U-STD_TOL_TILT.           0.01000        :Tilt Standard Deviation Tolerance
U-GUN_POS_TOL.DEG        5.00000         :Gun Position Tolerance
ROT_ANGLE_THRESHOLD.DEG        5.00000   :Rotation Stop Angle Tolerance
STOP_ROT_ANGLE.DEG        0.00000        :Rotation Stop Angle
WITN .        MR. DHRUA ARORA            :Witness's Name
ENGI .        MORRIS MOORE               :Engineer's Name
COUN .        HARRIS                     :County or Rig Name
FN   .        WILDCAT                    :Field Name
WN   .        WPP TEST 2                 :Well Name
CN   .        SHELL INTERNATIONAL E P    :Company Name
CLAB .        County                     :County/Rig Label
SLAB .        State                      :State/Province Label
RUN  .          1                        :RUN NUMBER
PDAT .        GROUND LEVEL               :Permanent Datum
EPD  .                                   :Elevation of Permanent Datum above Mean Sea Level
LMF  .          NA                       :Logging Measured From (Name of Logging Elevation Reference)
APD  .                                   :Elevation of Depth Reference (LMF) above Permanent Datum
#-----------------------------------------------------------------------------
~CURVE INFORMATION
#MNEM.UNIT   API CODE                                  DESCRIPTION
#---- -----  --------                                  -----------------------
TIME .S                                                :TIME {F10.1}
FREQ_EMF_SL.HZ                                         :Electromagnetic Field Frequency {F13.4}
PH_SH_WPPCM_SL.DEG                                     :WPPCM Phase Shift {F13.4}
FREQ_EXC_REQ_SL.HZ                                     :Requested Exciter Frequency {F13.4}
RB_SL.DEG                                              :Relative Bearing {F13.4}
SDEV_SL.DEG                                            :Sonde Deviation {F13.4}
TILX_SL.DEG                                            :X-axis Tilt {F13.4}
TILY_SL.DEG                                            :Y-axis Tilt {F13.4}
ROTA_SL.DEG                                            :Motor Rotation Angle {F13.4}
MSPE_SL.RPM                                            :Motor Speed {F13.4}
#-----------------------------------------------------------------------------
# 
#     TIME    FREQ_EMF_SL  PH_SH_WPPCM_ FREQ_EXC_REQ    RB_SL       SDEV_SL      TILX_SL      TILY_SL      ROTA_SL      MSPE_SL
#                          SL           _SL
~A  
    2640.0    1698.3087       0.0000      50.8593    -177.0655       4.0068      -0.2045       4.0016     197.4561       1.0226
    2641.0    1652.1679       0.0000      50.8611    -172.0213       3.8402      -0.5347       3.7995     202.5832       1.0226
    2642.0    1629.3885       0.0000      50.8611    -164.6805       3.8974      -1.0290       3.7587     208.6742       1.0226
    2643.0    1596.2992       0.0000      50.8611    -159.0191       3.9673      -1.4228       3.6962     215.1743       1.0283
    2644.0    1563.8079       0.0000      50.8611    -151.3635       4.1216      -1.9741       3.6167     221.2907       1.0283
    2645.0    1529.9374       0.0000      50.8611    -146.0058       4.3613      -2.4371       3.6144     227.3997       1.0334
    2646.0    1495.8423       0.0000      50.8611    -139.6126       4.2941      -2.7818       3.2680     233.5279       1.0277
    2647.0    1463.2373       0.0000      50.8611    -134.6686       4.4426      -3.1579       3.1215     239.6298       1.0226
    2648.0    1436.0487       0.0000      50.8611    -127.4440       4.5654      -3.6231       2.7729     245.7317       1.0226
    2649.0    1394.8068       0.0000      50.8611    -123.1255       4.6329      -3.8787       2.5298     251.8552       1.0226
    2650.0    1365.2913       0.0000      50.8611    -117.9124       4.6632      -4.1197       2.1811     257.9642       1.0277
    2651.0    1326.5180       0.0000      50.8611    -111.4756       4.7984      -4.4644       1.7551     264.0736       1.0283
    2652.0    1295.6770       0.0000      50.8611    -106.5878       4.8919      -4.6842       1.3952     270.1694       1.0226
    2653.0    1250.8830       0.0000      50.8611    -101.0603       4.9426      -4.8471       0.9455     276.2712       1.0226
    2654.0    1180.3895       0.0000      50.8611     -95.5202       5.0269      -5.0033       0.4831     282.3730       1.0170
    2655.0    1103.3330       0.0000      50.8611     -90.5748       5.1909      -5.1896       0.0504     288.8758       1.0277
    2656.0    1039.0891       0.0000      50.8611     -86.6732       5.3136      -5.2969      -0.3166     295.0100       1.0277
    2657.0    1005.8242       0.0000      50.8611     -81.5647       5.1015      -5.0312      -0.7403     301.1118       1.0226
    2658.0     975.8480       0.0000      50.8611     -74.5290       5.1677      -4.9799      -1.3762     307.2144       1.0277
    2659.0     950.7092       0.0000      50.8611     -70.2856       5.0762      -4.7769      -1.7078     313.3040       1.0226
    2660.0     934.2250       0.0000      50.8611     -65.6917       5.1415      -4.6842      -2.1144     319.4079       1.0277
    2661.0     913.6482       0.0000      50.8611     -59.6288       5.2846      -4.5571      -2.6675     325.5087       1.0221
    2662.0     898.4136       0.0000      50.8611     -56.7691       5.2155      -4.3585      -2.8549     331.6125       1.0226
    2663.0     890.0316       0.0000      50.8611     -49.6021       5.2854      -4.0226      -3.4228     337.7143       1.0226
    2664.0     881.7557       0.0000      50.8611     -45.3881       5.2572      -3.7392      -3.6897     343.8292       1.0226
    2665.0     873.9605       0.0000      50.8611     -41.0690       5.2711      -3.4602      -3.9714     349.9310       1.0226
    2666.0     872.2498       0.0000      50.8611     -35.7758       5.1283      -2.9950      -4.1588     356.0204       1.0226
    2667.0     876.8402       0.0000      50.8611     -31.6163       5.1456      -2.6949      -4.3803       2.5280       1.0226
    2668.0     876.8402       0.0000      50.8611     -26.4560       5.1901      -2.3100      -4.6449       8.6124       1.0170
    2669.0     882.0983       0.0000      50.8611     -20.0628       4.9822      -1.7075      -4.6791      14.7084       1.0226
    2670.0     890.6267       0.0000      50.8611     -15.4615       4.9918      -1.3292      -4.8107      20.8103       1.0226
    2671.0     904.5831       0.0000      50.8611     -12.5306       4.9463      -1.0714      -4.8278      26.9267       1.0226
    2672.0     917.0089       0.0000      50.8611      -6.4217       4.8756      -0.5448      -4.8449      33.0286       1.0226
    2673.0     940.0067       0.0000      50.8611      -0.7093       4.7928      -0.0584      -4.7914      39.1304       1.0226
    2674.0     965.7599       0.0000      50.8611       3.9316       4.6827       0.3221      -4.6710      45.2322       1.0226
    2675.0     997.5041       0.0000      50.8611      11.4935       4.5675       0.9056      -4.4746      51.3340       1.0226
    2676.0    1040.9485       0.0000      50.8611      15.4999       4.4210       1.1801      -4.2599      57.4358       1.0226
    2677.0    1127.6400       0.0000      50.8611      20.9364       4.4349       1.5818      -4.1417      63.5458       1.0226
    2678.0    1227.4812       0.0000      50.8611      26.7324       4.2862       1.9265      -3.8272      69.6535       1.0226
    2679.0    1289.3071       0.0000      50.8611      32.9503       4.0264       2.1887      -3.3774      76.1568       1.0170
    2680.0    1334.5008       0.0000      50.8611      38.9014       4.0290       2.5290      -3.1343      82.2526       1.0226
    2681.0    1373.6071       0.0000      50.8611      44.7329       3.8240       2.6875      -2.7165      88.3529       1.0226
    2682.0    1410.9060       0.0000      50.8611      53.0275       3.9100       3.1227      -2.3507      94.4556       1.0226
    2683.0    1451.6889       0.0000      50.8611      58.4486       3.6767       3.1315      -1.9225     100.5590       1.0226
    2684.0    1490.0455       0.0000      50.8611      64.3975       3.6044       3.2498      -1.5568     106.6607       1.0226
    2685.0    1541.9408       0.0000      50.8611      72.4123       3.5447       3.3791      -1.0684     112.7502       1.0226
    2686.0    1585.7134       0.0000      50.8611      79.2572       3.4072       3.3469      -0.6357     118.8520       1.0226
    2687.0    1622.3004       0.0000      50.8611      87.4542       3.3101       3.3067      -0.1473     124.9349       1.0176
    2688.0    1658.5380       0.0000      50.8611      94.3194       3.2411       3.2308       0.2445     131.0441       1.0170
    2689.0    1688.0662       0.0000      50.8611     103.7475       3.2791       3.1840       0.7761     137.1272       1.0121
    2690.0    1723.5883       0.0000      50.8611     111.5109       3.1684       2.9475       1.1611     143.2240       1.0226
    2691.0    1738.3779       0.0000      50.8611     118.4028       3.2197       2.8314       1.5314     149.7200       1.0226
    2692.0    1755.7413       0.0000      50.8611     126.0977       3.3239       2.6853       1.9573     155.8286       1.0226
    2693.0    1768.7483       0.0000      50.8611     135.6789       3.2490       2.2690       2.3231     161.9525       1.0226
    2694.0    1775.5682       0.0000      50.8611     141.6985       3.3315       2.0638       2.6138     168.0610       1.0170
    2695.0    1780.0632       0.0000      50.8611     150.2381       3.4354       1.7045       2.9818     174.1570       1.0226
    2696.0    1775.5682       0.0000      50.8611     158.1076       3.4344       1.2794       3.1862     180.2589       1.0226
    2697.0    1766.9400       0.0000      50.8611     162.9737       3.5231       1.0293       3.3665     186.3608       1.0226
    2698.0    1755.2809       0.0000      50.8611     172.4145       3.5797       0.4739       3.5475     192.4627       1.0283
    2699.0    1731.8351       0.0000      50.8611     179.4144       3.5715       0.0365       3.5713     198.5777       1.0226
    2700.0    1712.7380       0.0000      50.8611    -172.4735       3.8916      -0.5091       3.8575     204.6796       1.0226
    2701.0    1690.2042       0.0000      50.8611    -166.9285       3.8547      -0.8706       3.7542     210.7815       1.0226
    2702.0    1660.3817       0.0000      50.8611    -162.3405       3.9246      -1.1897       3.7393     216.8834       1.0226
