~VERSION INFORMATION
VERS.           2.0   :CWLS Log ASCII Standard - VERSION 2.0
WRAP.           NO    :One Line per depth step
PROD.  Schlumberger   :LAS Producer
PROG.  DLIS to ASCII 19C2-270                          :LAS Program name and version
CREA.        2017/09/16 17:42                          :LAS Creation date {YYYY/MM/DD hh:mm}
DLIS_CREA.  2017-Sep-15 12:22                          :DLIS Creation date and time {YYYY-MMM-DD hh:mm}
SOURCE.     LPC_S1-1_B5.DLIS                           :DLIS File Name
FILE-ID.     PERFO_Perfo_WPGRT_020LTP                  :File Identification Number
#--------------------------------------------------
~WELL INFORMATION
#MNEM.UNIT      DATA             DESCRIPTION
#---- ------ --------------   -----------------------------
STRT .S         5686.0       :START TIME      
STOP .S         6834.0       :STOP TIME      
STEP .S            1.0       :STEP     
NULL .          -999.25      :NULL VALUE
COMP .        SHELL INTERNATIONAL E P                  :COMPANY
WELL .        WPP TEST 2                               :WELL
FLD  .        WILDCAT                                  :FIELD
LOC  .                                                 :LOCATION
CNTY .        HARRIS                                   :COUNTY
STAT .        TEXAS                                    :STATE
CTRY .                                                 :COUNTRY
API  .                                                 :API NUMBER
UWI  .                                                 :UNIQUE WELL ID
DATE .                                                 :LOG DATE
SRVC .        Schlumberger                             :SERVICE COMPANY
LATI .DEG                                              :LATITUDE
LONG .DEG                                              :LONGITUDE
GDAT .                                                 :GeoDetic Datum
#-----------------------------------------------------------------------------
~PARAMETER INFORMATION
#MNEM.UNIT    VALUE                      DESCRIPTION
#---- -----   --------------------       ------------------------
U-PHASE_B_COMP_PER_YT.                 0 :Phase B Comparator Period Yt
U-PHASE_A_COMP_PER_XT.                 0 :Phase A Comparator Period Xt
U-MAX_EXC_CUR_LIMIT.MA       240.00000   :Requested CM Current Limit
U-REQ_EXC_FQ.HZ              50          :Requested CM Frequency
U-TILT_Y_OFFSET.           0.19916       :WPTET Tilt Y Offset
U-TILT_Y_GAIN.           1.01796         :WPTET Tilt Y Gain
U-TILT_X_OFFSET.          -1.77103       :WPTET Tilt X Offset
U-TILT_X_GAIN.           1.00000         :WPTET Tilt X Gain
U-TILT_OFFSET_TOL.           0.00100     :WPTET Tilt Offset Calibration Tolerance
U-NO_TILT_CAL_ROTATIONS.                 3 :Number of Rotations for Tilt Calibration
HAZI .DEG        0.00000                 :Hole Azimuth
U-STD_TOL_TILT.           0.01000        :Tilt Standard Deviation Tolerance
U-GUN_POS_TOL.DEG        5.00000         :Gun Position Tolerance
ROT_ANGLE_THRESHOLD.DEG        5.00000   :Rotation Stop Angle Tolerance
STOP_ROT_ANGLE.DEG       80.00000        :Rotation Stop Angle
WITN .                                   :Witness's Name
ENGI .                                   :Engineer's Name
COUN .        HARRIS                     :County or Rig Name
FN   .        WILDCAT                    :Field Name
WN   .        WPP TEST 2                 :Well Name
CN   .        SHELL INTERNATIONAL E P    :Company Name
CLAB .        County                     :County/Rig Label
SLAB .        State                      :State/Province Label
RUN  .          1                        :RUN NUMBER
PDAT .        GROUND LEVEL               :Permanent Datum
EPD  .                                   :Elevation of Permanent Datum above Mean Sea Level
LMF  .                                   :Logging Measured From (Name of Logging Elevation Reference)
APD  .                                   :Elevation of Depth Reference (LMF) above Permanent Datum
#-----------------------------------------------------------------------------
~CURVE INFORMATION
#MNEM.UNIT   API CODE                                  DESCRIPTION
#---- -----  --------                                  -----------------------
TIME .S                                                :TIME {F10.1}
FREQ_EMF_SL.HZ                                         :Electromagnetic Field Frequency {F13.4}
PH_SH_WPPCM_SL.DEG                                     :WPPCM Phase Shift {F13.4}
FREQ_EXC_REQ_SL.HZ                                     :Requested Exciter Frequency {F13.4}
RB_SL.DEG                                              :Relative Bearing {F13.4}
SDEV_SL.DEG                                            :Sonde Deviation {F13.4}
TILX_SL.DEG                                            :X-axis Tilt {F13.4}
TILY_SL.DEG                                            :Y-axis Tilt {F13.4}
ROTA_SL.DEG                                            :Motor Rotation Angle {F13.4}
MSPE_SL.RPM                                            :Motor Speed {F13.4}
#-----------------------------------------------------------------------------
# 
#     TIME    FREQ_EMF_SL  PH_SH_WPPCM_ FREQ_EXC_REQ    RB_SL       SDEV_SL      TILX_SL      TILY_SL      ROTA_SL      MSPE_SL
#                          SL           _SL
~A  
# ...
    6442.0    1141.6084       0.0000      50.8611     -60.7405       5.3554      -4.6705      -2.6145      10.7365       1.0226
    6443.0    1112.8662       0.0000      50.8611     -54.9082       5.2777      -4.3164      -3.0310      16.8380       1.0226
    6444.0    1097.2364       0.0000      50.8611     -50.0278       5.2020      -3.9839      -3.3392      22.9399       1.0226
    6445.0    1083.5522       0.0000      50.8611     -45.8491       5.3427      -3.8307      -3.7185      29.0555       1.0226
    6446.0    1072.8706       0.0000      50.8611     -40.3325       5.3592      -3.4655      -4.0827      35.1573       1.0226
    6447.0    1063.8783       0.0000      50.8611     -35.4254       5.2275      -3.0273      -4.2576      41.6672       1.0226
    6448.0    1059.0710       0.0000      50.8611     -32.1898       5.1739      -2.7536      -4.3765      47.7690       1.0226
    6449.0    1054.4537       0.0000      50.8611     -25.8837       5.1756      -2.2567      -4.6552      53.8716       1.0226
    6450.0    1070.9383       0.0000      50.8611     -23.3283       5.3825      -2.1288      -4.9414      59.9854       1.0324
    6451.0    1087.8093       0.0000      50.8611     -17.7582       5.1423      -1.5665      -4.8967      66.0884       1.0226
    6452.0    1103.6469       0.0000      50.8611     -11.2689       4.8461      -0.9461      -4.7521      72.1905       1.0226
    6453.0    1125.9743       0.0000      50.8611      -6.5775       5.0758      -0.5809      -5.0421      78.2920       1.0130
    6454.0    1139.9295       0.0000      50.8611       1.4174       4.8338       0.1161      -4.8308      84.3814       1.0226
    6455.0    1187.5259       0.0000      50.8611       7.2859       4.5411       0.5728      -4.5037      90.4840       1.0236
    6456.0    1231.9733       0.0000      50.8611       8.8098       4.6550       0.7119      -4.5999      96.5992       1.0236
    6457.0    1256.9999       0.0000      50.8611      16.6657       4.6473       1.3323      -4.4507     102.7044       1.0226
    6458.0    1276.0889       0.0000      50.8611      22.5710       4.4746       1.7160      -4.1312     108.7910       1.0130
    6459.0    1291.2426       0.0000      50.8611      24.8437       4.2787       1.7964      -3.8821     115.2894       1.0226
    6460.0    1316.4858       0.0000      50.8611      32.3563       4.1305       2.2092      -3.4883     121.3912       1.0130
    6461.0    1333.2733       0.0000      50.8611      38.2427       4.0784       2.5231      -3.2021     127.4946       1.0226
    6462.0    1346.7446       0.0000      50.8611      41.9887       3.9591       2.6473      -2.9417     133.5841       1.0226
    6463.0    1370.6140       0.0000      50.8611      52.4556       3.7867       3.0014      -2.3064     139.6860       1.0226
    6464.0    1389.5751       0.0000      50.8611      59.3894       3.7885       3.2603      -1.9270     145.7898       1.0216
    6465.0    1408.2893       0.0000      50.8611      66.7222       3.7807       3.4722      -1.4924     151.8934       1.0226
    6466.0    1425.4191       0.0000      50.8611      73.1096       3.5645       3.4105      -1.0350     158.0056       1.0226
    6467.0    1440.5573       0.0000      50.8611      82.6762       3.3986       3.3703      -0.4331     164.1207       1.0226
    6468.0    1457.3801       0.0000      50.8611      87.6402       3.2929       3.2900      -0.1355     170.2226       1.0226
    6469.0    1464.5620       0.0000      50.8611      98.1820       3.3353       3.3011       0.4740     176.3245       1.0226
    6470.0    1471.8323       0.0000      50.8611     103.6218       3.4191       3.3227       0.8049     182.4395       1.0226
    6471.0    1489.3803       0.0000      50.8611     113.5305       3.3302       3.0527       1.3289     188.9495       1.0226
    6472.0    1499.2004       0.0000      50.8611     121.9539       2.9446       2.4971       1.5591     195.0513       1.0226
    6473.0    1505.9198       0.0000      50.8611     128.5770       3.2892       2.5707       2.0505     201.1532       1.0226
    6474.0    1515.3556       0.0000      50.8611     137.6230       3.3553       2.2605       2.4775     207.2440       1.0130
    6475.0    1525.2169       0.0000      50.8611     143.9856       3.4728       2.0411       2.8084     213.3448       1.0226
    6476.0    1521.6115       0.0000      50.8611     151.4550       3.4017       1.6253       2.9871     219.4473       1.0130
    6477.0    1519.5447       0.0000      50.8611     160.2911       3.4774       1.1723       3.2733     225.5500       1.0226
    6478.0    1515.0542       0.0000      50.8611     166.9184       3.6012       0.8145       3.5073     231.6395       1.0226
    6479.0    1511.7967       0.0000      50.8611     171.8080       3.6414       0.5185       3.6042     237.7421       1.0226
    6480.0    1502.1075       0.0000      50.8611    -146.6710       3.7640       0.0000       3.7640     243.8440       1.0226
    6481.0    1496.3057       0.0000      50.8611    -171.2913       3.8835      -0.5876       3.8382     249.9598       1.0216
    6482.0    1492.8344       0.0000      50.8611    -166.3530       3.9499      -0.9312       3.8382     256.0617       1.0226
    6483.0    1479.9755       0.0000      50.8611    -159.0530       4.0269      -1.4385       3.7602     262.5715       1.0226
    6484.0    1470.6888       0.0000      50.8611    -153.6170       4.1525      -1.8439       3.7193     268.6621       1.0216
    6485.0    1450.2975       0.0000      50.8611    -147.8790       4.2875      -2.2783       3.6300     274.7636       1.0216
    6486.0    1438.4296       0.0000      50.8611    -140.4816       4.3463      -2.7640       3.3513     280.8654       1.0226
    6487.0    1429.6554       0.0000      50.8611    -136.6868       4.3884      -3.0088       3.1915     286.9672       1.0226
    6488.0    1417.3270       0.0000      50.8611    -132.9112       4.4109      -3.2289       2.9977     293.0576       1.0226
    6489.0    1403.7028       0.0000      50.8611    -124.2227       4.6606      -3.8523       2.6191     299.1612       1.0216
    6490.0    1381.8891       0.0000      50.8611    -119.2072       4.8621      -4.2428       2.3700     305.2619       1.0226
    6491.0    1370.8616       0.0000      50.8611    -112.7617       4.6698      -4.3052       1.8051     311.3514       1.0226
    6492.0    1352.6464       0.0000      50.8611    -108.9479       4.8883      -4.6229       1.5856     317.4541       1.0226
    6493.0    1344.1700       0.0000      50.8611    -104.0852       5.0411      -4.8892       1.2251     323.5559       1.0226
    6494.0    1329.3917       0.0000      50.8611     -97.7714       5.1373      -5.0900       0.6936     329.6458       1.0226
    6495.0    1307.6017       0.0000      50.8611     -91.6124       5.0859      -5.0833       0.1439     336.1427       1.0216
    6496.0    1297.5004       0.0000      50.8611     -86.2877       5.0828      -5.0721      -0.3286     342.2736       1.0226
    6497.0    1278.4092       0.0000      50.8611     -83.8825       5.3953      -5.3644      -0.5739     348.3727       1.0226
    6498.0    1256.2059       0.0000      50.8611     -78.3751       5.2903      -5.1815      -1.0646     354.4876       1.0226
    6499.0    1221.6919       0.0000      50.8611     -71.4273       5.2629      -4.9881      -1.6741      33.8894       1.0226
    6500.0    1182.6491       0.0000      50.8611     -68.7098       5.3034      -4.9405      -1.9232       6.6913       1.0226
    6501.0    1150.7773       0.0000      50.8611     -62.1566       5.3577      -4.7359      -2.4994      12.7950       1.0130
    6502.0    1130.5944       0.0000      50.8611     -57.0280       5.5271      -4.6340      -3.0045      18.8960       1.0226
    6503.0    1103.2077       0.0000      50.8611     -52.3300       5.2765      -4.1743      -3.2203      25.0107       1.0324
    6504.0    1091.6524       0.0000      50.8611     -46.9639       5.2841      -3.8597      -3.6034      31.1256       1.0226
