~VERSION INFORMATION
VERS.           2.0   :CWLS Log ASCII Standard - VERSION 2.0
WRAP.           NO    :One Line per depth step
PROD.  Schlumberger   :LAS Producer
PROG.  DLIS to ASCII 19C2-270                          :LAS Program name and version
CREA.        2017/09/16 17:42                          :LAS Creation date {YYYY/MM/DD hh:mm}
DLIS_CREA.  2017-Sep-15 18:33                          :DLIS Creation date and time {YYYY-MMM-DD hh:mm}
SOURCE.     LPC_S4-1_2BV.DLIS                          :DLIS File Name
FILE-ID.     PERFO_Perfo_WPGRT_056LTP                  :File Identification Number
#--------------------------------------------------
~WELL INFORMATION
#MNEM.UNIT      DATA             DESCRIPTION
#---- ------ --------------   -----------------------------
STRT .S         5560.0       :START TIME      
STOP .S         6042.0       :STOP TIME      
STEP .S            1.0       :STEP     
NULL .          -999.25      :NULL VALUE
COMP .        SHELL INTERNATIONAL E P                  :COMPANY
WELL .        WPP TEST 2                               :WELL
FLD  .        WILDCAT                                  :FIELD
LOC  .        NA                                       :LOCATION
CNTY .        HARRIS                                   :COUNTY
STAT .        TEXAS                                    :STATE
CTRY .                                                 :COUNTRY
API  .        NA                                       :API NUMBER
UWI  .                                                 :UNIQUE WELL ID
DATE .        15-Sep-2017                              :LOG DATE {DD-MMM-YYYY}
SRVC .        Schlumberger                             :SERVICE COMPANY
LATI .DEG                                              :LATITUDE
LONG .DEG                                              :LONGITUDE
GDAT .                                                 :GeoDetic Datum
SECT .        NA                                       :Section
RANG .        NA                                       :Range
TOWN .        NA                                       :Township
#-----------------------------------------------------------------------------
~PARAMETER INFORMATION
#MNEM.UNIT    VALUE                      DESCRIPTION
#---- -----   --------------------       ------------------------
U-PHASE_B_COMP_PER_YT.                 0 :Phase B Comparator Period Yt
U-PHASE_A_COMP_PER_XT.                 0 :Phase A Comparator Period Xt
U-MAX_EXC_CUR_LIMIT.MA       240.00000   :Requested CM Current Limit
U-REQ_EXC_FQ.HZ              50          :Requested CM Frequency
U-TILT_Y_OFFSET.           0.19916       :WPTET Tilt Y Offset
U-TILT_Y_GAIN.           1.01796         :WPTET Tilt Y Gain
U-TILT_X_OFFSET.          -1.77103       :WPTET Tilt X Offset
U-TILT_X_GAIN.           1.00000         :WPTET Tilt X Gain
U-TILT_OFFSET_TOL.           0.00100     :WPTET Tilt Offset Calibration Tolerance
U-NO_TILT_CAL_ROTATIONS.                 3 :Number of Rotations for Tilt Calibration
HAZI .DEG        0.00000                 :Hole Azimuth
U-STD_TOL_TILT.           0.01000        :Tilt Standard Deviation Tolerance
U-GUN_POS_TOL.DEG        5.00000         :Gun Position Tolerance
ROT_ANGLE_THRESHOLD.DEG        5.00000   :Rotation Stop Angle Tolerance
STOP_ROT_ANGLE.DEG        0.00000        :Rotation Stop Angle
WITN .        MR. DHRUA ARORA            :Witness's Name
ENGI .        MORRIS MOORE               :Engineer's Name
COUN .        HARRIS                     :County or Rig Name
FN   .        WILDCAT                    :Field Name
WN   .        WPP TEST 2                 :Well Name
CN   .        SHELL INTERNATIONAL E P    :Company Name
CLAB .        County                     :County/Rig Label
SLAB .        State                      :State/Province Label
RUN  .          1                        :RUN NUMBER
PDAT .        GROUND LEVEL               :Permanent Datum
EPD  .                                   :Elevation of Permanent Datum above Mean Sea Level
LMF  .          NA                       :Logging Measured From (Name of Logging Elevation Reference)
APD  .                                   :Elevation of Depth Reference (LMF) above Permanent Datum
#-----------------------------------------------------------------------------
~CURVE INFORMATION
#MNEM.UNIT   API CODE                                  DESCRIPTION
#---- -----  --------                                  -----------------------
TIME .S                                                :TIME {F10.1}
FREQ_EMF_SL.HZ                                         :Electromagnetic Field Frequency {F13.4}
PH_SH_WPPCM_SL.DEG                                     :WPPCM Phase Shift {F13.4}
FREQ_EXC_REQ_SL.HZ                                     :Requested Exciter Frequency {F13.4}
RB_SL.DEG                                              :Relative Bearing {F13.4}
SDEV_SL.DEG                                            :Sonde Deviation {F13.4}
TILX_SL.DEG                                            :X-axis Tilt {F13.4}
TILY_SL.DEG                                            :Y-axis Tilt {F13.4}
ROTA_SL.DEG                                            :Motor Rotation Angle {F13.4}
MSPE_SL.RPM                                            :Motor Speed {F13.4}
#-----------------------------------------------------------------------------
# 
#     TIME    FREQ_EMF_SL  PH_SH_WPPCM_ FREQ_EXC_REQ    RB_SL       SDEV_SL      TILX_SL      TILY_SL      ROTA_SL      MSPE_SL
#                          SL           _SL
~A  
# ...
    5875.0    1236.9525       0.0000      50.8611     -53.5682       1.0836      -0.8717      -0.6435     148.6119       1.0226
    5876.0    1232.7101       0.0000      50.8611     -54.1387       0.9776      -0.7894      -0.5757     154.7147       1.0226
    5877.0    1240.9338       0.0000      50.8611     -48.6847       1.0865      -0.8159      -0.7163     160.8166       1.0226
    5878.0    1251.1122       0.0000      50.8611     -55.2672       0.9436      -0.7757      -0.5368     166.9073       1.0226
    5879.0    1250.6263       0.0000      50.8611     -55.6554       1.1549      -0.9520      -0.6525     173.0092       1.0226
    5880.0    1264.1170       0.0000      50.8611     -56.8212       1.0713      -0.8962      -0.5867     179.0987       1.0226
    5881.0    1273.9174       0.0000      50.8611     -52.3070       0.9187      -0.7267      -0.5618     185.2006       1.0226
    5882.0    1286.3387       0.0000      50.8611     -50.0970       1.0427      -0.8002      -0.6685     191.3025       1.0226
    5883.0    1308.8256       0.0000      50.8611     -50.7756       1.0841      -0.8404      -0.6844     197.4044       1.0226
    5884.0    1333.2175       0.0000      50.8611     -53.6747       1.0711      -0.8629      -0.6345     203.5094       1.0226
    5885.0    1346.5548       0.0000      50.8611     -52.1246       0.9922      -0.7825      -0.6096     209.6381       1.0268
    5886.0    1355.3481       0.0000      50.8611     -53.2170       0.9380      -0.7512      -0.5618     215.7277       1.0226
    5887.0    1359.4360       0.0000      50.8611     -53.6694       0.9602      -0.7737      -0.5687     222.2357       1.0226
    5888.0    1374.9304       0.0000      50.8611     -51.6268       1.0102      -0.7914      -0.6276     228.3496       1.0268
    5889.0    1378.2284       0.0000      50.8611     -50.3599       0.9857      -0.7580      -0.6276     234.4515       1.0226
    5890.0    1385.3246       0.0000      50.8611     -53.3057       0.8565      -0.6865      -0.5119     240.5541       1.0226
    5891.0    1394.0119       0.0000      50.8611     -56.6866       0.9188      -0.7669      -0.5049     246.6560       1.0226
    5892.0    1400.0391       0.0000      50.8611     -56.1986       0.8290      -0.6865      -0.4620     252.7604       1.0292
    5893.0    1403.4431       0.0000      50.8611     -55.9658       1.0035      -0.8315      -0.5618     258.8734       1.0226
    5894.0    1412.5270       0.0000      50.8611     -49.1635       0.8558      -0.6484      -0.5528     264.9764       1.0226
    5895.0    1418.2253       0.0000      50.8611     -58.7736       0.9256      -0.7914      -0.4800     271.0679       1.0226
    5896.0    1423.3300       0.0000      50.8611     -55.6876       0.8798      -0.7267      -0.4959     277.1810       1.0226
    5897.0    1426.7216       0.0000      50.8611     -52.8167       0.9725      -0.7777      -0.5777     283.2828       1.0226
    5898.0    1432.5352       0.0000      50.8611     -55.1419       0.9423      -0.7737      -0.5368     289.3865       1.0226
    5899.0    1433.8092       0.0000      50.8611     -61.9551       0.9147      -0.8070      -0.4301     295.9064       1.0226
    5900.0    1437.2425       0.0000      50.8611     -46.3070       0.6620      -0.5110      -0.3962     302.0082       1.0226
    5901.0    1439.0325       0.0000      50.8611     -67.7899       0.9434      -0.8629      -0.3622     308.0984       1.0185
    5902.0    1446.1105       0.0000      50.8611     -63.0377       0.9983      -0.8894      -0.4461     314.2134       1.0226
    5903.0    1444.4468       0.0000      50.8611     -61.6959       0.8556      -0.7512      -0.4072     320.3243       1.0292
    5904.0    1443.2977       0.0000      50.8611     -62.7117       0.9867      -0.8737      -0.4571     326.4312       1.0226
    5905.0    1443.1423       0.0000      50.8611     -66.5105       1.0019      -0.9187      -0.3982     332.5330       1.0226
    5906.0    1441.9837       0.0000      50.8611     -61.3063       0.8992      -0.7894      -0.4301     338.6226       1.0226
    5907.0    1440.3411       0.0000      50.8611     -64.7704       0.7244      -0.6444      -0.3213     344.7375       1.0226
    5908.0    1435.5992       0.0000      50.8611     -56.4486       0.9278      -0.7737      -0.5119     350.8412       1.0226
    5909.0    1432.5352       0.0000      50.8611     -64.7388       1.0437      -0.9432      -0.4461     356.9430       1.0226
    5910.0    1441.9837       0.0000      50.8611     -60.5252       1.0110      -0.8805      -0.4959       3.0448       1.0162
    5911.0    1430.2510       0.0000      50.8611     -61.6039       0.9912      -0.8717      -0.4710       9.5524       1.0226
    5912.0    1424.4559       0.0000      50.8611     -62.6116       0.9544      -0.8472      -0.4391      15.6432       1.0226
    5913.0    1421.0917       0.0000      50.8611     -64.6600       0.9577      -0.8649      -0.4052      21.7580       1.0226
    5914.0    1418.0891       0.0000      50.8611     -61.4194       1.1402      -1.0010      -0.5458      27.8598       1.0226
    5915.0    1411.4279       0.0000      50.8611     -63.4872       1.0025      -0.8962      -0.4461      33.9617       1.0226
    5916.0    1409.2429       0.0000      50.8611     -63.0132       1.0153      -0.9030      -0.4620      40.0635       1.0226
    5917.0    1393.4041       0.0000      50.8611     -63.3246       0.9959      -0.8894      -0.4481      46.1578       1.0185
    5918.0    1377.5082       0.0000      50.8611     -59.9382       1.0717      -0.9275      -0.5368      52.2548       1.0226
    5919.0    1376.5762       0.0000      50.8611     -54.9473       1.1352      -0.9275      -0.6525      58.3567       1.0226
    5920.0    1368.9874       0.0000      50.8611     -64.0481       1.0412      -0.9364      -0.4551      64.4528       1.0185
    5921.0    1350.0193       0.0000      50.8611     -59.2876       1.0220      -0.8785      -0.5209      70.5371       1.0226
    5922.0    1351.1513       0.0000      50.8611     -64.5582       1.0101      -0.9099      -0.4371      76.6371       1.0121
    5923.0    1332.1153       0.0000      50.8611     -55.0606       1.0529      -0.8629      -0.6027      83.1342       1.0226
    5924.0    1315.6470       0.0000      50.8611     -56.7022       1.0638      -0.8874      -0.5847      89.2360       1.0226
    5925.0    1305.8730       0.0000      50.8611     -60.4197       0.9277      -0.8110      -0.4481      95.3255       1.0226
    5926.0    1302.5030       0.0000      50.8611     -58.3726       1.0711      -0.9119      -0.5618     101.4273       1.0226
    5927.0    1275.9982       0.0000      50.8611     -51.1707       1.0370      -0.8070      -0.6505     107.5302       1.0226
    5928.0    1261.3620       0.0000      50.8611     -57.8203       1.1145      -0.9432      -0.5937     113.6197       1.0185
    5929.0    1261.6075       0.0000      50.8611     -53.6634       1.1364      -0.9148      -0.6725     119.7215       1.0226
    5930.0    1246.6755       0.0000      50.8611     -59.8763       0.9996      -0.8629      -0.5029     125.8232       1.0226
    5931.0    1232.2348       0.0000      50.8611     -54.3100       1.0506      -0.8452      -0.6047     131.9270       1.0226
    5932.0    1235.2466       0.0000      50.8611     -55.4880       1.1362      -0.9364      -0.6435     138.0301       1.0226
    5933.0    1241.0572       0.0000      50.8611     -55.7149       1.0822      -0.8942      -0.6096     144.1308       1.0226
    5934.0    1228.4028       0.0000      50.8611     -54.7225       1.1257      -0.9187      -0.6505     150.2457       1.0292
    5935.0    1233.9288       0.0000      50.8611     -55.5476       1.0614      -0.8717      -0.6006     156.7534       1.0185
    5936.0    1251.0244       0.0000      50.8611     -50.8969       0.9888      -0.7689      -0.6186     162.8564       1.0226
    5937.0    1249.3819       0.0000      50.8611     -52.7883       1.0640      -0.8472      -0.6435     168.9583       1.0226
