~VERSION INFORMATION
VERS.           2.0   :CWLS Log ASCII Standard - VERSION 2.0
WRAP.           NO    :One Line per depth step
PROD.  Schlumberger   :LAS Producer
PROG.  DLIS to ASCII 19C2-270                          :LAS Program name and version
CREA.        2017/09/16 17:42                          :LAS Creation date {YYYY/MM/DD hh:mm}
DLIS_CREA.  2017-Sep-15 17:02                          :DLIS Creation date and time {YYYY-MMM-DD hh:mm}
SOURCE.     LPC_S3-1_2BV.DLIS                          :DLIS File Name
FILE-ID.     PERFO_Perfo_WPGRT_045LTP                  :File Identification Number
#--------------------------------------------------
~WELL INFORMATION
#MNEM.UNIT      DATA             DESCRIPTION
#---- ------ --------------   -----------------------------
STRT .S          126.0       :START TIME      
STOP .S          554.0       :STOP TIME      
STEP .S            1.0       :STEP     
NULL .          -999.25      :NULL VALUE
COMP .        SHELL INTERNATIONAL E P                  :COMPANY
WELL .        WPP TEST 2                               :WELL
FLD  .        WILDCAT                                  :FIELD
LOC  .        NA                                       :LOCATION
CNTY .        HARRIS                                   :COUNTY
STAT .        TEXAS                                    :STATE
CTRY .                                                 :COUNTRY
API  .        NA                                       :API NUMBER
UWI  .                                                 :UNIQUE WELL ID
DATE .        15-Sep-2017                              :LOG DATE {DD-MMM-YYYY}
SRVC .        Schlumberger                             :SERVICE COMPANY
LATI .DEG                                              :LATITUDE
LONG .DEG                                              :LONGITUDE
GDAT .                                                 :GeoDetic Datum
SECT .        NA                                       :Section
RANG .        NA                                       :Range
TOWN .        NA                                       :Township
#-----------------------------------------------------------------------------
~PARAMETER INFORMATION
#MNEM.UNIT    VALUE                      DESCRIPTION
#---- -----   --------------------       ------------------------
U-PHASE_B_COMP_PER_YT.                 0 :Phase B Comparator Period Yt
U-PHASE_A_COMP_PER_XT.                 0 :Phase A Comparator Period Xt
U-MAX_EXC_CUR_LIMIT.MA       240.00000   :Requested CM Current Limit
U-REQ_EXC_FQ.HZ              50          :Requested CM Frequency
U-TILT_Y_OFFSET.           0.19916       :WPTET Tilt Y Offset
U-TILT_Y_GAIN.           1.01796         :WPTET Tilt Y Gain
U-TILT_X_OFFSET.          -1.77103       :WPTET Tilt X Offset
U-TILT_X_GAIN.           1.00000         :WPTET Tilt X Gain
U-TILT_OFFSET_TOL.           0.00100     :WPTET Tilt Offset Calibration Tolerance
U-NO_TILT_CAL_ROTATIONS.                 3 :Number of Rotations for Tilt Calibration
HAZI .DEG        0.00000                 :Hole Azimuth
U-STD_TOL_TILT.           0.01000        :Tilt Standard Deviation Tolerance
U-GUN_POS_TOL.DEG        5.00000         :Gun Position Tolerance
ROT_ANGLE_THRESHOLD.DEG        5.00000   :Rotation Stop Angle Tolerance
STOP_ROT_ANGLE.DEG        0.00000        :Rotation Stop Angle
WITN .        MR. DHRUA ARORA            :Witness's Name
ENGI .        MORRIS MOORE               :Engineer's Name
COUN .        HARRIS                     :County or Rig Name
FN   .        WILDCAT                    :Field Name
WN   .        WPP TEST 2                 :Well Name
CN   .        SHELL INTERNATIONAL E P    :Company Name
CLAB .        County                     :County/Rig Label
SLAB .        State                      :State/Province Label
RUN  .          1                        :RUN NUMBER
PDAT .        GROUND LEVEL               :Permanent Datum
EPD  .                                   :Elevation of Permanent Datum above Mean Sea Level
LMF  .          NA                       :Logging Measured From (Name of Logging Elevation Reference)
APD  .                                   :Elevation of Depth Reference (LMF) above Permanent Datum
#-----------------------------------------------------------------------------
~CURVE INFORMATION
#MNEM.UNIT   API CODE                                  DESCRIPTION
#---- -----  --------                                  -----------------------
TIME .S                                                :TIME {F10.1}
FREQ_EMF_SL.HZ                                         :Electromagnetic Field Frequency {F13.4}
PH_SH_WPPCM_SL.DEG                                     :WPPCM Phase Shift {F13.4}
FREQ_EXC_REQ_SL.HZ                                     :Requested Exciter Frequency {F13.4}
RB_SL.DEG                                              :Relative Bearing {F13.4}
SDEV_SL.DEG                                            :Sonde Deviation {F13.4}
TILX_SL.DEG                                            :X-axis Tilt {F13.4}
TILY_SL.DEG                                            :Y-axis Tilt {F13.4}
ROTA_SL.DEG                                            :Motor Rotation Angle {F13.4}
MSPE_SL.RPM                                            :Motor Speed {F13.4}
#-----------------------------------------------------------------------------
# 
#     TIME    FREQ_EMF_SL  PH_SH_WPPCM_ FREQ_EXC_REQ    RB_SL       SDEV_SL      TILX_SL      TILY_SL      ROTA_SL      MSPE_SL
#                          SL           _SL
~A  
# ...
     441.0    1403.4431       0.0000      50.8611     -57.2939       1.6068      -1.3522      -0.8664     280.8281       1.0226
     442.0    1381.5507       0.0000      50.8611     -52.2054       1.4726      -1.1636      -0.9023     286.9299       1.0226
     443.0    1383.2823       0.0000      50.8611     -53.7675       1.3928      -1.1235      -0.8230     293.0194       1.0226
     444.0    1367.1444       0.0000      50.8611     -54.8323       1.3719      -1.1210      -0.7896     299.1212       1.0226
     445.0    1338.9760       0.0000      50.8611     -57.8990       1.6365      -1.3865      -0.8689     305.1986       1.0226
     446.0    1310.1074       0.0000      50.8611     -42.0841       1.2783      -0.8570      -0.9482     311.2882       1.0226
     447.0    1310.7698       0.0000      50.8611     -48.1634       1.3528      -1.0079      -0.9023     317.3900       1.0226
     448.0    1294.3125       0.0000      50.8611     -40.8843       1.3054      -0.8545      -0.9866     323.4918       1.0226
     449.0    1276.0889       0.0000      50.8611     -58.1867       1.1868      -0.9907      -0.6275     330.0022       1.0327
     450.0    1248.8899       0.0000      50.8611     -45.1872       1.4111      -1.0005      -0.9941     336.1040       1.0226
     451.0    1239.4188       0.0000      50.8611     -40.7217       1.3526      -0.8825      -1.0250     342.2060       1.0226
     452.0    1226.7048       0.0000      50.8611     -42.9693       1.1841      -0.8070      -0.8664     348.3076       1.0226
     453.0    1216.3512       0.0000      50.8611     -31.7266       1.0259      -0.5405      -0.8714     354.3965       1.0220
     454.0    1193.8843       0.0000      50.8611     -33.3288       1.1809      -0.6488      -0.9866       0.4743       1.0226
     455.0    1191.4920       0.0000      50.8611     -35.2987       1.1148      -0.6439      -0.9098       6.5647       1.0226
     456.0    1188.0798       0.0000      50.8611     -33.2047       1.1253      -0.6160      -0.9407      12.6665       1.0226
     457.0    1185.2241       0.0000      50.8611     -37.3364       0.9875      -0.5988      -0.7846      18.7683       1.0226
     458.0    1177.5242       0.0000      50.8611     -38.8481       0.9025      -0.5660      -0.7029      24.8709       1.0226
     459.0    1174.0709       0.0000      50.8611     -32.7691       1.0751      -0.5842      -0.8998      30.9858       1.0220
     460.0    1178.1263       0.0000      50.8611     -31.8843       0.9241      -0.4881      -0.7846      37.0883       1.0226
     461.0    1177.8842       0.0000      50.8611     -35.4145       0.9034      -0.5234      -0.7363      43.5980       1.0226
     462.0    1185.7083       0.0000      50.8611     -35.4148       0.7652      -0.4431      -0.6236      49.7158       1.0226
     463.0    1191.9843       0.0000      50.8611     -39.1035       0.7044      -0.4431      -0.5468      55.8118       1.0226
     464.0    1196.1645       0.0000      50.8611     -47.9071       0.7373      -0.5489      -0.4910      61.9158       1.0127
     465.0    1208.1185       0.0000      50.8611     -36.4388       0.7565      -0.4480      -0.6086      67.9938       1.0226
     466.0    1214.5063       0.0000      50.8611     -46.2257       0.6625      -0.4783      -0.4575      74.1087       1.0327
     467.0    1231.7887       0.0000      50.8611     -55.6705       0.6704      -0.5538      -0.3758      80.2105       1.0226
     468.0    1246.8105       0.0000      50.8611     -50.7589       0.5296      -0.4103      -0.3349      86.3518       1.0226
     469.0    1271.1945       0.0000      50.8611     -44.9964       0.6285      -0.4431      -0.4451      92.4412       1.0226
     470.0    1287.6313       0.0000      50.8611     -59.2557       0.5707      -0.4906      -0.2915      98.5430       1.0226
     471.0    1312.8581       0.0000      50.8611     -59.7705       0.6552      -0.5660      -0.3299     104.6325       1.0226
     472.0    1331.8301       0.0000      50.8611     -66.8293       0.5336      -0.4906      -0.2097     110.7343       1.0226
     473.0    1354.9282       0.0000      50.8611     -70.4406       0.6066      -0.5709      -0.2022     117.2577       1.0127
     474.0    1357.7048       0.0000      50.8611     -77.8914       0.8103      -0.7923      -0.1688     123.3595       1.0226
     475.0    1375.9785       0.0000      50.8611     -79.6417       0.7390      -0.7267      -0.1329     129.4613       1.0226
     476.0    1379.0073       0.0000      50.8611     -80.4402       0.9443      -0.9300      -0.1564     135.5640       1.0226
     477.0    1392.4951       0.0000      50.8611     -86.7669       0.7257      -0.7242      -0.0412     141.6669       1.0327
     478.0    1400.6475       0.0000      50.8611     -81.1647       0.8168      -0.8070      -0.1255     147.7817       1.0232
     479.0    1403.7859       0.0000      50.8611     -86.3253       0.8571      -0.8545      -0.0561     153.9120       1.0226
     480.0    1417.5908       0.0000      50.8611     -81.8540       0.9038      -0.8947      -0.1279     160.0111       1.0226
     481.0    1420.6298       0.0000      50.8611     -81.3338       0.8981      -0.8874      -0.1354     166.1130       1.0226
     482.0    1426.3937       0.0000      50.8611     -77.8160       1.1498      -1.1235      -0.2431     172.2410       1.0226
     483.0    1426.3937       0.0000      50.8611     -73.0497       1.2112      -1.1563      -0.3558     178.3429       1.0226
     484.0    1446.2184       0.0000      50.8611     -79.8876       0.9497      -0.9349      -0.1663     184.4578       1.0226
     485.0    1455.0167       0.0000      50.8611     -73.3289       1.1187      -1.0711      -0.3224     190.9647       1.0226
     486.0    1438.4243       0.0000      50.8611     -75.4292       1.1684      -1.1308      -0.2940     197.0695       1.0226
     487.0    1446.9410       0.0000      50.8611     -80.2711       1.2264      -1.2087      -0.2072     203.1844       1.0226
     488.0    1452.5551       0.0000      50.8611     -73.5480       1.1404      -1.0931      -0.3224     209.2865       1.0226
     489.0    1455.3795       0.0000      50.8611     -73.6180       1.1787      -1.1308      -0.3324     215.3886       1.0226
     490.0    1441.5555       0.0000      50.8611     -74.7431       1.4092      -1.3596      -0.3708     221.5033       1.0226
     491.0    1442.9433       0.0000      50.8611     -74.1784       1.3079      -1.2583      -0.3566     227.6054       1.0226
     492.0    1454.8364       0.0000      50.8611     -69.5993       1.4156      -1.3267      -0.4934     233.7073       1.0226
     493.0    1446.5783       0.0000      50.8611     -66.6327       1.2400      -1.1381      -0.4910     239.7969       1.0226
     494.0    1444.5172       0.0000      50.8611     -65.3819       1.3818      -1.2562      -0.5752     245.8988       1.0226
     495.0    1440.2934       0.0000      50.8611     -69.1761       1.4227      -1.3292      -0.5059     252.0007       1.0226
     496.0    1434.9490       0.0000      50.8611     -64.9564       1.4617      -1.3243      -0.6186     258.1025       1.0226
     497.0    1425.8659       0.0000      50.8611     -62.0357       1.4994      -1.3243      -0.7029     264.2292       1.0226
     498.0    1414.7384       0.0000      50.8611     -59.2239       1.4536      -1.2489      -0.7438     270.7134       1.0220
     499.0    1406.0790       0.0000      50.8611     -56.9506       1.4907      -1.2489      -0.8131     276.7694       1.0030
     500.0    1408.7255       0.0000      50.8611     -59.8380       1.4038      -1.2136      -0.7054     282.8417       1.0133
     501.0    1399.9727       0.0000      50.8611     -59.2144       1.4824      -1.2719      -0.7562     288.9588       1.0226
     502.0    1372.9654       0.0000      50.8611     -52.2667       1.4745      -1.1661      -0.9023     295.0485       1.0226
     503.0    1351.4218       0.0000      50.8611     -54.5208       1.3973      -1.1378      -0.8110     301.1503       1.0226
