~VERSION INFORMATION
VERS.           2.0   :CWLS Log ASCII Standard - VERSION 2.0
WRAP.           NO    :One Line per depth step
PROD.  Schlumberger   :LAS Producer
PROG.  DLIS to ASCII 19C2-270                          :LAS Program name and version
CREA.        2017/09/16 17:42                          :LAS Creation date {YYYY/MM/DD hh:mm}
DLIS_CREA.  2017-Sep-15 19:08                          :DLIS Creation date and time {YYYY-MMM-DD hh:mm}
SOURCE.     LPC_S5-1_B5.DLIS                           :DLIS File Name
FILE-ID.     PERFO_Perfo_WPGRT_059LTP                  :File Identification Number
#--------------------------------------------------
~WELL INFORMATION
#MNEM.UNIT      DATA             DESCRIPTION
#---- ------ --------------   -----------------------------
STRT .S         7683.0       :START TIME      
STOP .S         8122.0       :STOP TIME      
STEP .S            1.0       :STEP     
NULL .          -999.25      :NULL VALUE
COMP .        SHELL INTERNATIONAL E P                  :COMPANY
WELL .        WPP TEST 2                               :WELL
FLD  .        WILDCAT                                  :FIELD
LOC  .        NA                                       :LOCATION
CNTY .        HARRIS                                   :COUNTY
STAT .        TEXAS                                    :STATE
CTRY .                                                 :COUNTRY
API  .        NA                                       :API NUMBER
UWI  .                                                 :UNIQUE WELL ID
DATE .        15-Sep-2017                              :LOG DATE {DD-MMM-YYYY}
SRVC .        Schlumberger                             :SERVICE COMPANY
LATI .DEG                                              :LATITUDE
LONG .DEG                                              :LONGITUDE
GDAT .                                                 :GeoDetic Datum
SECT .        NA                                       :Section
RANG .        NA                                       :Range
TOWN .        NA                                       :Township
#-----------------------------------------------------------------------------
~PARAMETER INFORMATION
#MNEM.UNIT    VALUE                      DESCRIPTION
#---- -----   --------------------       ------------------------
U-PHASE_B_COMP_PER_YT.                 0 :Phase B Comparator Period Yt
U-PHASE_A_COMP_PER_XT.                 0 :Phase A Comparator Period Xt
U-MAX_EXC_CUR_LIMIT.MA       240.00000   :Requested CM Current Limit
U-REQ_EXC_FQ.HZ              50          :Requested CM Frequency
U-TILT_Y_OFFSET.           0.19916       :WPTET Tilt Y Offset
U-TILT_Y_GAIN.           1.01796         :WPTET Tilt Y Gain
U-TILT_X_OFFSET.          -1.77103       :WPTET Tilt X Offset
U-TILT_X_GAIN.           1.00000         :WPTET Tilt X Gain
U-TILT_OFFSET_TOL.           0.00100     :WPTET Tilt Offset Calibration Tolerance
U-NO_TILT_CAL_ROTATIONS.                 3 :Number of Rotations for Tilt Calibration
HAZI .DEG        0.00000                 :Hole Azimuth
U-STD_TOL_TILT.           0.01000        :Tilt Standard Deviation Tolerance
U-GUN_POS_TOL.DEG        5.00000         :Gun Position Tolerance
ROT_ANGLE_THRESHOLD.DEG        5.00000   :Rotation Stop Angle Tolerance
STOP_ROT_ANGLE.DEG        0.00000        :Rotation Stop Angle
WITN .        MR. DHRUA ARORA            :Witness's Name
ENGI .        MORRIS MOORE               :Engineer's Name
COUN .        HARRIS                     :County or Rig Name
FN   .        WILDCAT                    :Field Name
WN   .        WPP TEST 2                 :Well Name
CN   .        SHELL INTERNATIONAL E P    :Company Name
CLAB .        County                     :County/Rig Label
SLAB .        State                      :State/Province Label
RUN  .          1                        :RUN NUMBER
PDAT .        GROUND LEVEL               :Permanent Datum
EPD  .                                   :Elevation of Permanent Datum above Mean Sea Level
LMF  .          NA                       :Logging Measured From (Name of Logging Elevation Reference)
APD  .                                   :Elevation of Depth Reference (LMF) above Permanent Datum
#-----------------------------------------------------------------------------
~CURVE INFORMATION
#MNEM.UNIT   API CODE                                  DESCRIPTION
#---- -----  --------                                  -----------------------
TIME .S                                                :TIME {F10.1}
FREQ_EMF_SL.HZ                                         :Electromagnetic Field Frequency {F13.4}
PH_SH_WPPCM_SL.DEG                                     :WPPCM Phase Shift {F13.4}
FREQ_EXC_REQ_SL.HZ                                     :Requested Exciter Frequency {F13.4}
RB_SL.DEG                                              :Relative Bearing {F13.4}
SDEV_SL.DEG                                            :Sonde Deviation {F13.4}
TILX_SL.DEG                                            :X-axis Tilt {F13.4}
TILY_SL.DEG                                            :Y-axis Tilt {F13.4}
ROTA_SL.DEG                                            :Motor Rotation Angle {F13.4}
MSPE_SL.RPM                                            :Motor Speed {F13.4}
#-----------------------------------------------------------------------------
# 
#     TIME    FREQ_EMF_SL  PH_SH_WPPCM_ FREQ_EXC_REQ    RB_SL       SDEV_SL      TILX_SL      TILY_SL      ROTA_SL      MSPE_SL
#                          SL           _SL
~A  
    7683.0    1434.6768       0.0000      50.8611    -151.5905       4.2661      -2.0287       3.7510      31.4811       1.0226
    7684.0    1434.9490       0.0000      50.8611    -142.6989       4.5607      -2.7608       3.6260      37.5918       1.0285
    7685.0    1432.3095       0.0000      50.8611    -135.7159       4.6735      -3.2610       3.3436      43.6873       1.0226
    7686.0    1433.6265       0.0000      50.8611    -132.3187       4.6055      -3.4035       3.0983      50.0108       1.0226
    7687.0    1437.6101       0.0000      50.8611    -126.9458       4.7261      -3.7755       2.8384      56.2844       1.0226
    7688.0    1436.2768       0.0000      50.8611    -119.9402       4.9027      -4.2470       2.4441      62.3993       1.0275
    7689.0    1438.4662       0.0000      50.8611    -114.5766       4.9078      -4.4622       2.0391      68.4887       1.0226
    7690.0    1428.8458       0.0000      50.8611    -107.7788       4.9690      -4.7290       1.5144      74.5905       1.0226
    7691.0    1430.1682       0.0000      50.8611    -105.0684       5.0187      -4.8457       1.3031      80.6940       1.0226
    7692.0    1430.4329       0.0000      50.8611     -97.8841       5.1576      -5.1087       0.7066      86.7962       1.0275
    7693.0    1420.4546       0.0000      50.8611     -92.3446       5.3207      -5.3162       0.2177      92.8980       1.0226
    7694.0    1417.3250       0.0000      50.8611     -87.9504       5.5315      -5.5276      -0.1951      99.0129       1.0226
    7695.0    1410.0910       0.0000      50.8611     -83.2176       5.4020      -5.3640      -0.6371     105.1147       1.0226
    7696.0    1404.9799       0.0000      50.8611     -78.8989       5.3854      -5.2837      -1.0353     111.2181       1.0226
    7697.0    1402.1781       0.0000      50.8611     -71.0353       5.5030      -5.2034      -1.7859     117.3182       1.0226
    7698.0    1395.0892       0.0000      50.8611     -67.0078       5.4752      -5.0389      -2.1353     123.4349       1.0275
    7699.0    1387.8250       0.0000      50.8611     -62.7905       5.4422      -4.8381      -2.4848     129.9576       1.0275
    7700.0    1378.6765       0.0000      50.8611     -58.8119       5.5226      -4.7214      -2.8567     136.0567       1.0226
    7701.0    1373.5511       0.0000      50.8611     -53.2311       5.5866      -4.4727      -3.3396     142.1518       1.0168
    7702.0    1370.6140       0.0000      50.8611     -45.4955       5.5317      -3.9429      -3.8711     148.2625       1.0226
    7703.0    1362.3996       0.0000      50.8611     -42.7641       5.4149      -3.6761      -3.9675     154.3644       1.0226
    7704.0    1353.3424       0.0000      50.8611     -39.4754       5.4667      -3.4724      -4.2167     160.4663       1.0226
    7705.0    1345.1129       0.0000      50.8611     -33.0216       5.4666      -2.9617      -4.5866     166.5699       1.0226
    7706.0    1339.5329       0.0000      50.8611     -26.8676       5.2492      -2.3697      -4.6811     172.6701       1.0226
    7707.0    1324.3941       0.0000      50.8611     -22.7517       5.2038      -2.0129      -4.7931     178.7720       1.0226
    7708.0    1317.6059       0.0000      50.8611     -19.1367       5.1648      -1.6907      -4.8787     184.9018       1.0226
    7709.0    1306.6975       0.0000      50.8611     -11.5978       5.0569      -1.0155      -4.9527     191.0021       1.0226
    7710.0    1312.0374       0.0000      50.8611      -7.3747       5.0090      -0.6425      -4.9673     197.1056       1.0226
    7711.0    1292.9781       0.0000      50.8611      -1.0907       4.9692      -0.0946      -4.9673     203.6169       1.0226
    7712.0    1297.2786       0.0000      50.8611       2.4805       4.8983       0.2115      -4.8933     209.7020       1.0226
    7713.0    1294.6674       0.0000      50.8611       6.6263       4.8814       0.5625      -4.8486     215.8314       1.0226
    7714.0    1291.2108       0.0000      50.8611      14.5526       4.7140       1.1831      -4.5624     221.9195       1.0226
    7715.0    1295.1205       0.0000      50.8611      21.9543       4.6271       1.7273      -4.2908     228.0105       1.0226
    7716.0    1296.1975       0.0000      50.8611      24.6696       4.4323       1.8478      -4.0269     234.1255       1.0226
    7717.0    1305.3749       0.0000      50.8611      30.4861       4.3939       2.2275      -3.7855     240.2274       1.0168
    7718.0    1312.2837       0.0000      50.8611      38.1039       4.2926       2.6473      -3.3766     246.3233       1.0168
    7719.0    1310.9362       0.0000      50.8611      45.2342       4.1059       2.9141      -2.8898     252.4254       1.0275
    7720.0    1317.6059       0.0000      50.8611      50.6748       3.9761       3.0748      -2.5180     258.5240       1.0226
    7721.0    1321.4322       0.0000      50.8611      54.7711       3.9357       3.2135      -2.2687     264.6390       1.0226
    7722.0    1330.5371       0.0000      50.8611      61.5202       3.9019       3.4287      -1.8599     270.7480       1.0285
    7723.0    1330.5371       0.0000      50.8611      71.2105       3.6878       3.4908      -1.1871     277.2484       1.0178
    7724.0    1334.4484       0.0000      50.8611      78.5155       3.4990       3.4287      -0.6965     283.3502       1.0226
    7725.0    1344.1680       0.0000      50.8611      84.8938       3.4865       3.4726      -0.3100     289.4520       1.0226
    7726.0    1352.1635       0.0000      50.8611      89.3942       3.5904       3.5893      -0.0384     295.5670       1.0226
    7727.0    1352.1635       0.0000      50.8611      99.2379       3.4186       3.3741       0.5486     301.6819       1.0226
    7728.0    1358.8217       0.0000      50.8611     111.3339       3.3972       3.1618       1.2330     307.7851       1.0226
    7729.0    1370.8731       0.0000      50.8611     116.7748       3.4632       3.0891       1.5601     313.8869       1.0226
    7730.0    1374.5071       0.0000      50.8611     123.1510       3.3979       2.8443       1.8571     319.9836       1.0178
    7731.0    1383.8508       0.0000      50.8611     131.2939       3.3857       2.5412       2.2328     326.0913       1.0226
    7732.0    1391.0816       0.0000      50.8611     141.5478       3.4498       2.1433       2.7011     332.2062       1.0226
    7733.0    1396.6078       0.0000      50.8611     149.2000       3.5600       1.8220       3.0574     338.3211       1.0226
    7734.0    1400.6475       0.0000      50.8611     154.6443       3.5489       1.5188       3.2064     344.4246       1.0168
    7735.0    1400.3879       0.0000      50.8611     161.5762       3.6365       1.1497       3.4478     350.9453       1.0226
    7736.0    1411.6340       0.0000      50.8611     169.7964       3.8068       0.6715       3.7457     357.0471       1.0226
    7737.0    1418.1568       0.0000      50.8611     -16.8629       3.9588      -0.0151       3.9570       3.1489       1.0226
    7738.0    1417.8680       0.0000      50.8611    -176.6588       3.9495      -0.2303       3.9423       9.2507       1.0226
    7739.0    1420.1878       0.0000      50.8611    -172.3642       3.9926      -0.5297       3.9570      15.3483       1.0064
    7740.0    1428.8458       0.0000      50.8611    -164.7500       4.1029      -1.0776       3.9570      21.4466       1.0226
    7741.0    1427.8041       0.0000      50.8611    -155.1827       4.2833      -1.7968       3.8868      27.5470       1.0226
    7742.0    1439.4966       0.0000      50.8611    -151.3880       4.3265      -2.0704       3.7973      33.6505       1.0226
    7743.0    1439.2167       0.0000      50.8611    -146.1985       4.3743      -2.4319       3.6337      39.7507       1.0226
    7744.0    1437.8834       0.0000      50.8611    -140.0517       4.5476      -2.9177       3.4848      45.8525       1.0226
    7745.0    1442.7430       0.0000      50.8611    -132.4356       4.6334      -3.4179       3.1246      51.9560       1.0226
