~VERSION INFORMATION
VERS.           2.0   :CWLS Log ASCII Standard - VERSION 2.0
WRAP.           NO    :One Line per depth step
PROD.  Schlumberger   :LAS Producer
PROG.  DLIS to ASCII 19C2-270                          :LAS Program name and version
CREA.        2017/09/16 17:42                          :LAS Creation date {YYYY/MM/DD hh:mm}
DLIS_CREA.  2017-Sep-15 20:01                          :DLIS Creation date and time {YYYY-MMM-DD hh:mm}
SOURCE.     LPC_S5-1_2BV.DLIS                          :DLIS File Name
FILE-ID.     PERFO_Perfo_WPGRT_065LTP                  :File Identification Number
#--------------------------------------------------
~WELL INFORMATION
#MNEM.UNIT      DATA             DESCRIPTION
#---- ------ --------------   -----------------------------
STRT .S         2351.0       :START TIME      
STOP .S         2776.0       :STOP TIME      
STEP .S            1.0       :STEP     
NULL .          -999.25      :NULL VALUE
COMP .        SHELL INTERNATIONAL E P                  :COMPANY
WELL .        WPP TEST 2                               :WELL
FLD  .        WILDCAT                                  :FIELD
LOC  .        NA                                       :LOCATION
CNTY .        HARRIS                                   :COUNTY
STAT .        TEXAS                                    :STATE
CTRY .                                                 :COUNTRY
API  .        NA                                       :API NUMBER
UWI  .                                                 :UNIQUE WELL ID
DATE .        15-Sep-2017                              :LOG DATE {DD-MMM-YYYY}
SRVC .        Schlumberger                             :SERVICE COMPANY
LATI .DEG                                              :LATITUDE
LONG .DEG                                              :LONGITUDE
GDAT .                                                 :GeoDetic Datum
SECT .        NA                                       :Section
RANG .        NA                                       :Range
TOWN .        NA                                       :Township
#-----------------------------------------------------------------------------
~PARAMETER INFORMATION
#MNEM.UNIT    VALUE                      DESCRIPTION
#---- -----   --------------------       ------------------------
U-PHASE_B_COMP_PER_YT.                 0 :Phase B Comparator Period Yt
U-PHASE_A_COMP_PER_XT.                 0 :Phase A Comparator Period Xt
U-MAX_EXC_CUR_LIMIT.MA       240.00000   :Requested CM Current Limit
U-REQ_EXC_FQ.HZ              50          :Requested CM Frequency
U-TILT_Y_OFFSET.           0.19916       :WPTET Tilt Y Offset
U-TILT_Y_GAIN.           1.01796         :WPTET Tilt Y Gain
U-TILT_X_OFFSET.          -1.77103       :WPTET Tilt X Offset
U-TILT_X_GAIN.           1.00000         :WPTET Tilt X Gain
U-TILT_OFFSET_TOL.           0.00100     :WPTET Tilt Offset Calibration Tolerance
U-NO_TILT_CAL_ROTATIONS.                 3 :Number of Rotations for Tilt Calibration
HAZI .DEG        0.00000                 :Hole Azimuth
U-STD_TOL_TILT.           0.01000        :Tilt Standard Deviation Tolerance
U-GUN_POS_TOL.DEG        5.00000         :Gun Position Tolerance
ROT_ANGLE_THRESHOLD.DEG        5.00000   :Rotation Stop Angle Tolerance
STOP_ROT_ANGLE.DEG        0.00000        :Rotation Stop Angle
WITN .        MR. DHRUA ARORA            :Witness's Name
ENGI .        MORRIS MOORE               :Engineer's Name
COUN .        HARRIS                     :County or Rig Name
FN   .        WILDCAT                    :Field Name
WN   .        WPP TEST 2                 :Well Name
CN   .        SHELL INTERNATIONAL E P    :Company Name
CLAB .        County                     :County/Rig Label
SLAB .        State                      :State/Province Label
RUN  .          1                        :RUN NUMBER
PDAT .        GROUND LEVEL               :Permanent Datum
EPD  .                                   :Elevation of Permanent Datum above Mean Sea Level
LMF  .          NA                       :Logging Measured From (Name of Logging Elevation Reference)
APD  .                                   :Elevation of Depth Reference (LMF) above Permanent Datum
#-----------------------------------------------------------------------------
~CURVE INFORMATION
#MNEM.UNIT   API CODE                                  DESCRIPTION
#---- -----  --------                                  -----------------------
TIME .S                                                :TIME {F10.1}
FREQ_EMF_SL.HZ                                         :Electromagnetic Field Frequency {F13.4}
PH_SH_WPPCM_SL.DEG                                     :WPPCM Phase Shift {F13.4}
FREQ_EXC_REQ_SL.HZ                                     :Requested Exciter Frequency {F13.4}
RB_SL.DEG                                              :Relative Bearing {F13.4}
SDEV_SL.DEG                                            :Sonde Deviation {F13.4}
TILX_SL.DEG                                            :X-axis Tilt {F13.4}
TILY_SL.DEG                                            :Y-axis Tilt {F13.4}
ROTA_SL.DEG                                            :Motor Rotation Angle {F13.4}
MSPE_SL.RPM                                            :Motor Speed {F13.4}
#-----------------------------------------------------------------------------
# 
#     TIME    FREQ_EMF_SL  PH_SH_WPPCM_ FREQ_EXC_REQ    RB_SL       SDEV_SL      TILX_SL      TILY_SL      ROTA_SL      MSPE_SL
#                          SL           _SL
~A  
# ...
    2729.0    1091.5583       0.0000      50.8611     -48.3717       0.8317      -0.6216      -0.5525     118.8922       1.0226
    2730.0    1093.9051       0.0000      50.8611     -46.0804       0.7166      -0.5165      -0.4959     124.9818       1.0226
    2731.0    1104.0748       0.0000      50.8611     -54.3089       0.6857      -0.5567      -0.3985     131.0836       1.0226
    2732.0    1104.7451       0.0000      50.8611     -58.3871       0.6831      -0.5814      -0.3576     137.2004       1.0226
    2733.0    1115.3927       0.0000      50.8611     -57.2793       0.6910      -0.5814      -0.3733     143.2900       1.0161
    2734.0    1131.5478       0.0000      50.8611     -59.5212       0.7245      -0.6216      -0.3671     149.3919       1.0226
    2735.0    1145.1547       0.0000      50.8611     -62.3767       0.7188      -0.6370      -0.3324     155.4938       1.0226
    2736.0    1157.9202       0.0000      50.8611     -65.0923       0.7277      -0.6557      -0.3105     161.5845       1.0161
    2737.0    1171.7356       0.0000      50.8611     -67.8352       0.7745      -0.7174      -0.2915     167.6871       1.0267
    2738.0    1193.2928       0.0000      50.8611     -66.4649       0.7929      -0.7267      -0.3167     173.8002       1.0226
    2739.0    1212.7741       0.0000      50.8611     -68.1667       0.9440      -0.8748      -0.3543     180.3083       1.0226
    2740.0    1230.5662       0.0000      50.8611     -74.0279       0.8769      -0.8411      -0.2444     186.4102       1.0226
    2741.0    1243.4604       0.0000      50.8611     -75.7528       0.9157      -0.8874      -0.2254     192.5252       1.0226
    2742.0    1266.8918       0.0000      50.8611     -73.4445       0.8410      -0.8054      -0.2411     198.6290       1.0226
    2743.0    1281.0998       0.0000      50.8611     -68.3953       1.0142      -0.9429      -0.3733     204.3360       1.0226
    2744.0    1298.7563       0.0000      50.8611     -73.3955       0.9359      -0.8967      -0.2663     210.4360       1.0226
    2745.0    1333.6193       0.0000      50.8611     -71.1313       1.0147      -0.9584      -0.3262     216.5379       1.0226
    2746.0    1352.9933       0.0000      50.8611     -73.1159       0.9702      -0.9275      -0.2820     222.6417       1.0226
    2747.0    1370.6140       0.0000      50.8611     -69.7741       0.9541      -0.8934      -0.3262     228.7436       1.0226
    2748.0    1397.8628       0.0000      50.8611     -73.0574       1.0018      -0.9584      -0.2915     234.8455       1.0226
    2749.0    1411.8976       0.0000      50.8611     -72.1457       1.1028      -1.0480      -0.3386     240.9474       1.0226
    2750.0    1426.8955       0.0000      50.8611     -70.8084       1.1359      -1.0728      -0.3733     247.0493       1.0226
    2751.0    1431.3543       0.0000      50.8611     -73.7861       1.0575      -1.0139      -0.2977     253.5611       1.0226
    2752.0    1431.3543       0.0000      50.8611     -69.4452       1.1359      -1.0634      -0.3985     259.6592       1.0226
    2753.0    1455.7454       0.0000      50.8611     -69.8928       1.1590      -1.0882      -0.3985     261.6458       0.0005
    2754.0    1454.3687       0.0000      50.8611     -70.7266       1.1445      -1.0789      -0.3795     261.6458       0.0005
    2755.0    1453.8919       0.0000      50.8611     -68.8836       1.1500      -1.0728      -0.4142     261.6458       0.0005
    2756.0    1456.4523       0.0000      50.8611     -65.9645       1.1814      -1.0789      -0.4802     261.6458       0.0005
    2757.0    1459.4755       0.0000      50.8611     -67.3860       1.1188      -1.0326      -0.4299     261.6458       0.0005
    2758.0    1455.7454       0.0000      50.8611     -65.4980       1.1959      -1.0882      -0.4959     261.6458       0.0005
    2759.0    1457.6065       0.0000      50.8611     -69.3996       1.1822      -1.1069      -0.4142     261.6458       0.0005
    2760.0    1458.5569       0.0000      50.8611     -70.6241       1.1304      -1.0667      -0.3733     261.6458       0.0005
    2761.0    1456.9043       0.0000      50.8611     -68.2541       1.2090      -1.1223      -0.4455     261.6458       0.0005
    2762.0    1457.6065       0.0000      50.8611     -71.1765       1.1137      -1.0541      -0.3576     261.6458       0.0005
    2763.0    1459.4755       0.0000      50.8611     -69.1522       1.2341      -1.1531      -0.4394     261.6458       0.0005
    2764.0    1459.9294       0.0000      50.8611     -71.3070       1.1651      -1.1036      -0.3733     261.6458       0.0005
    2765.0    1455.7454       0.0000      50.8611     -68.4911       1.1538      -1.0728      -0.4237     261.6458       0.0005
    2766.0    1457.6065       0.0000      50.8611     -75.9921       1.2043      -1.1685      -0.2915     261.6458       0.0005
    2767.0    1458.7655       0.0000      50.8611     -71.6942       1.1885      -1.1284      -0.3733     261.6458       0.0005
    2768.0    1455.0509       0.0000      50.8611     -68.2550       1.1746      -1.0882      -0.4360     261.6458       0.0005
    2769.0    1453.2049       0.0000      50.8611     -68.4499       1.1702      -1.0882      -0.4299     261.6458       0.0005
    2770.0    1456.4523       0.0000      50.8611     -69.9218       1.1324      -1.0634      -0.3890     261.6458       0.0005
    2771.0    1456.4523       0.0000      50.8611     -68.0533       1.1905      -1.1036      -0.4455     261.6458       0.0005
    2772.0    1453.2049       0.0000      50.8611     -59.7592       1.2150      -1.0480      -0.6124     261.6458       0.0005
    2773.0    1460.4104       0.0000      50.8611     -62.9460       1.3919      -1.2363      -0.6219     261.6458       0.0005
    2774.0    1458.3213       0.0000      50.8611     -61.7076       1.1339      -0.9985      -0.5368     261.6458       0.0005
    2775.0    1444.2499       0.0000      50.8611     -51.7724       1.3323      -1.0107      -0.8078     261.6458       0.0005
    2776.0    1457.6065       0.0000      50.8611     -72.8741       1.0992      -1.0293      -0.3414     261.6458       0.0005
