~VERSION INFORMATION
VERS.           2.0   :CWLS Log ASCII Standard - VERSION 2.0
WRAP.           NO    :One Line per depth step
PROD.  Schlumberger   :LAS Producer
PROG.  DLIS to ASCII 19C2-270                          :LAS Program name and version
CREA.        2017/09/16 17:42                          :LAS Creation date {YYYY/MM/DD hh:mm}
DLIS_CREA.  2017-Sep-15 13:07                          :DLIS Creation date and time {YYYY-MMM-DD hh:mm}
SOURCE.     LPC_S1-1_2AV.DLIS                          :DLIS File Name
FILE-ID.     PERFO_Perfo_WPGRT_022LTP                  :File Identification Number
#--------------------------------------------------
~WELL INFORMATION
#MNEM.UNIT      DATA             DESCRIPTION
#---- ------ --------------   -----------------------------
STRT .S         8392.0       :START TIME      
STOP .S         9264.0       :STOP TIME      
STEP .S            1.0       :STEP     
NULL .          -999.25      :NULL VALUE
COMP .        SHELL INTERNATIONAL E P                  :COMPANY
WELL .        WPP TEST 2                               :WELL
FLD  .        WILDCAT                                  :FIELD
LOC  .                                                 :LOCATION
CNTY .        HARRIS                                   :COUNTY
STAT .        TEXAS                                    :STATE
CTRY .                                                 :COUNTRY
API  .                                                 :API NUMBER
UWI  .                                                 :UNIQUE WELL ID
DATE .                                                 :LOG DATE
SRVC .        Schlumberger                             :SERVICE COMPANY
LATI .DEG                                              :LATITUDE
LONG .DEG                                              :LONGITUDE
GDAT .                                                 :GeoDetic Datum
#-----------------------------------------------------------------------------
~PARAMETER INFORMATION
#MNEM.UNIT    VALUE                      DESCRIPTION
#---- -----   --------------------       ------------------------
U-PHASE_B_COMP_PER_YT.                 0 :Phase B Comparator Period Yt
U-PHASE_A_COMP_PER_XT.                 0 :Phase A Comparator Period Xt
U-MAX_EXC_CUR_LIMIT.MA       240.00000   :Requested CM Current Limit
U-REQ_EXC_FQ.HZ              50          :Requested CM Frequency
U-TILT_Y_OFFSET.           0.19916       :WPTET Tilt Y Offset
U-TILT_Y_GAIN.           1.01796         :WPTET Tilt Y Gain
U-TILT_X_OFFSET.          -1.77103       :WPTET Tilt X Offset
U-TILT_X_GAIN.           1.00000         :WPTET Tilt X Gain
U-TILT_OFFSET_TOL.           0.00100     :WPTET Tilt Offset Calibration Tolerance
U-NO_TILT_CAL_ROTATIONS.                 3 :Number of Rotations for Tilt Calibration
HAZI .DEG        0.00000                 :Hole Azimuth
U-STD_TOL_TILT.           0.01000        :Tilt Standard Deviation Tolerance
U-GUN_POS_TOL.DEG        5.00000         :Gun Position Tolerance
ROT_ANGLE_THRESHOLD.DEG        5.00000   :Rotation Stop Angle Tolerance
STOP_ROT_ANGLE.DEG       80.00000        :Rotation Stop Angle
WITN .                                   :Witness's Name
ENGI .                                   :Engineer's Name
COUN .        HARRIS                     :County or Rig Name
FN   .        WILDCAT                    :Field Name
WN   .        WPP TEST 2                 :Well Name
CN   .        SHELL INTERNATIONAL E P    :Company Name
CLAB .        County                     :County/Rig Label
SLAB .        State                      :State/Province Label
RUN  .          1                        :RUN NUMBER
PDAT .        GROUND LEVEL               :Permanent Datum
EPD  .                                   :Elevation of Permanent Datum above Mean Sea Level
LMF  .                                   :Logging Measured From (Name of Logging Elevation Reference)
APD  .                                   :Elevation of Depth Reference (LMF) above Permanent Datum
#-----------------------------------------------------------------------------
~CURVE INFORMATION
#MNEM.UNIT   API CODE                                  DESCRIPTION
#---- -----  --------                                  -----------------------
TIME .S                                                :TIME {F10.1}
FREQ_EMF_SL.HZ                                         :Electromagnetic Field Frequency {F13.4}
PH_SH_WPPCM_SL.DEG                                     :WPPCM Phase Shift {F13.4}
FREQ_EXC_REQ_SL.HZ                                     :Requested Exciter Frequency {F13.4}
RB_SL.DEG                                              :Relative Bearing {F13.4}
SDEV_SL.DEG                                            :Sonde Deviation {F13.4}
TILX_SL.DEG                                            :X-axis Tilt {F13.4}
TILY_SL.DEG                                            :Y-axis Tilt {F13.4}
ROTA_SL.DEG                                            :Motor Rotation Angle {F13.4}
MSPE_SL.RPM                                            :Motor Speed {F13.4}
#-----------------------------------------------------------------------------
# 
#     TIME    FREQ_EMF_SL  PH_SH_WPPCM_ FREQ_EXC_REQ    RB_SL       SDEV_SL      TILX_SL      TILY_SL      ROTA_SL      MSPE_SL
#                          SL           _SL
~A  
# ...
    9211.0       0.0000       0.0000      50.8611    -111.2414       1.8935      -1.7674       0.6767      46.6650       0.0005
    9212.0       0.0000       0.0000      50.8611     -95.5490       3.8106      -3.7926       0.3688      46.6650       0.0005
    9213.0       0.0000       0.0000      50.8611    -105.0973       4.0465      -3.9059       1.0517      46.6650       0.0005
    9214.0       0.0000       0.0000      50.8611    -101.5710       4.3314      -4.2433       0.8673      46.6650       0.0005
    9215.0       0.0000       0.0000      50.8611    -108.7574       3.3986      -3.2170       1.0926      46.6650       0.0005
    9216.0       0.0000       0.0000      50.8611    -105.0752       4.7983      -4.6325       1.2475      46.6650       0.0005
    9217.0       0.0000       0.0000      50.8611    -100.9288       4.0126      -3.9392       0.7585      46.6650       0.0005
    9218.0       0.0000       0.0000      50.8611    -105.6106       4.1404      -3.9818       1.1212      46.6650       0.0005
    9219.0       0.0000       0.0000      50.8611     -98.9699       3.4608      -3.4179       0.5393      46.6650       0.0005
    9220.0       0.0000       0.0000      50.8611    -105.2094       3.1197      -3.0094       0.8186      46.6650       0.0005
    9221.0       0.0000       0.0000      50.8611    -103.7976       3.6093      -3.5050       0.8603      46.6650       0.0005
    9222.0       0.0000       0.0000      50.8611    -103.1166       4.1555      -4.0469       0.9421      46.6650       0.0005
    9223.0       0.0000       0.0000      50.8611     -97.1952       3.5478      -3.5187       0.4453      46.6650       0.0005
    9224.0       0.0000       0.0000      50.8611     -95.9948       3.1479      -3.1307       0.3288      46.6650       0.0005
    9225.0       0.0000       0.0000      50.8611     -99.8621       3.5239      -3.4709       0.6019      46.6650       0.0005
    9226.0       0.0000       0.0000      50.8611    -103.2684       4.1379      -4.0272       0.9490      46.6650       0.0005
    9227.0       0.0000       0.0000      50.8611    -106.0684       3.8015      -3.6528       1.0509      46.6650       0.0005
    9228.0       0.0000       0.0000      50.8611    -100.7679       3.1113      -3.0564       0.5811      46.6650       0.0005
    9229.0       0.0000       0.0000      50.8611     -97.6167       3.4078      -3.3777       0.4514      46.6650       0.0005
    9230.0       0.0000       0.0000      50.8611    -102.0122       4.0007      -3.9127       0.8325      46.6650       0.0005
    9231.0       0.0000       0.0000      50.8611    -101.3164       4.0394      -3.9605       0.7924      46.6650       0.0005
    9232.0       0.0000       0.0000      50.8611     -99.8051       3.3324      -3.2837       0.5671      46.6650       0.0005
    9233.0       0.0000       0.0000      50.8611    -103.7532       3.1611      -3.0700       0.7516      46.6650       0.0005
    9234.0       0.0000       0.0000      50.8611    -102.0576       3.5812      -3.4998       0.7524      46.6650       0.0005
    9235.0       0.0000       0.0000      50.8611    -102.1733       4.0851      -3.9930       0.8603      46.6650       0.0005
    9236.0       0.0000       0.0000      50.8611     -99.5817       3.4945      -3.4452       0.5802      46.6650       0.0005
    9237.0       0.0000       0.0000      50.8611     -99.5417       3.2086      -3.1632       0.5324      46.6650       0.0005
    9238.0       0.0000       0.0000      50.8611     -99.7572       3.6312      -3.5785       0.6150      46.6650       0.0005
    9239.0       0.0000       0.0000      50.8611    -106.5905       3.6169      -3.4665       1.0308      46.6650       0.0005
    9240.0       0.0000       0.0000      50.8611    -109.2577       4.0401      -3.8059       1.3326      46.6650       0.0005
    9241.0       0.0000       0.0000      50.8611    -108.4028       4.2295      -4.0119       1.3363      46.6650       0.0005
    9242.0       0.0000       0.0000      50.8611    -103.8798       4.2355      -4.1075       1.0153      46.6650       0.0005
    9243.0       0.0000       0.0000      50.8611    -106.2298       4.3085      -4.1246       1.2015      46.6650       0.0005
    9244.0       0.0000       0.0000      50.8611    -111.4322       4.7183      -4.3863       1.7304      46.6650       0.0005
    9245.0       0.0000       0.0000      50.8611    -112.5481       4.4061      -4.0666       1.6903      46.6650       0.0005
    9246.0       0.0000       0.0000      50.8611    -106.6418       4.3430      -4.1605       1.2422      46.6650       0.0005
    9247.0       0.0000       0.0000      50.8611    -102.3654       4.5956      -4.4887       0.9830      46.6650       0.0005
    9248.0       0.0000       0.0000      50.8611    -108.5345       4.3606      -4.1340       1.3849      46.6650       0.0005
    9249.0       0.0000       0.0000      50.8611    -106.5522       5.7567      -5.5109       1.6257      46.6650       0.0005
    9250.0       0.0000       0.0000      50.8611    -112.9422       4.3523      -4.0059       1.6973      46.6650       0.0005
    9251.0       0.0000       0.0000      50.8611    -103.4502       4.2757      -4.1585       0.9752      46.6650       0.0005
    9252.0       0.0000       0.0000      50.8611     -99.9441       5.0088      -4.9333       0.8472      46.6650       0.0005
    9253.0       0.0000       0.0000      50.8611    -103.3551       4.4631      -4.3417       1.0300      46.6650       0.0005
    9254.0       0.0000       0.0000      50.8611    -115.4211       3.8303      -3.4604       1.6372      46.6650       0.0005
    9255.0       0.0000       0.0000      50.8611    -105.3405       4.5347      -4.3708       1.2014      46.6650       0.0005
    9256.0       0.0000       0.0000      50.8611    -100.8836       4.1331      -4.0537       0.7802      46.6650       0.0005
    9257.0       0.0000       0.0000      50.8611    -101.9475       4.7801      -4.6759       0.9891      46.6650       0.0005
    9258.0       0.0000       0.0000      50.8611     -97.5867       3.7935      -3.7537       0.5079      46.6650       0.0005
    9259.0       0.0000       0.0000      50.8611    -104.4952       4.8666      -4.7120       1.2136      46.6650       0.0005
    9260.0       0.0000       0.0000      50.8611    -102.9921       4.0353      -3.9316       0.9073      46.6650       0.0005
    9261.0       0.0000       0.0000      50.8611    -103.3762       4.2176      -4.1023       0.9768      46.6650       0.0005
    9262.0       0.0000       0.0000      50.8611    -103.0184       4.4660      -4.3493       1.0022      46.6650       0.0005
    9263.0       0.0000       0.0000      50.8611    -103.1233       4.2119      -4.1015       0.9560      46.6650       0.0005
    9264.0       0.0000       0.0000      50.8611    -104.3736       4.5845      -4.4401       1.1388      46.6650       0.0005
