~VERSION INFORMATION
VERS.           2.0   :CWLS Log ASCII Standard - VERSION 2.0
WRAP.           NO    :One Line per depth step
PROD.  Schlumberger   :LAS Producer
PROG.  DLIS to ASCII 19C2-270                          :LAS Program name and version
CREA.        2017/09/16 17:42                          :LAS Creation date {YYYY/MM/DD hh:mm}
DLIS_CREA.  2017-Sep-15 12:22                          :DLIS Creation date and time {YYYY-MMM-DD hh:mm}
SOURCE.     LPC_S1-1_B5.DLIS                           :DLIS File Name
FILE-ID.     PERFO_Perfo_WPGRT_020LTP                  :File Identification Number
#--------------------------------------------------
~WELL INFORMATION
#MNEM.UNIT      DATA             DESCRIPTION
#---- ------ --------------   -----------------------------
STRT .S         5686.0       :START TIME      
STOP .S         6834.0       :STOP TIME      
STEP .S            1.0       :STEP     
NULL .          -999.25      :NULL VALUE
COMP .        SHELL INTERNATIONAL E P                  :COMPANY
WELL .        WPP TEST 2                               :WELL
FLD  .        WILDCAT                                  :FIELD
LOC  .                                                 :LOCATION
CNTY .        HARRIS                                   :COUNTY
STAT .        TEXAS                                    :STATE
CTRY .                                                 :COUNTRY
API  .                                                 :API NUMBER
UWI  .                                                 :UNIQUE WELL ID
DATE .                                                 :LOG DATE
SRVC .        Schlumberger                             :SERVICE COMPANY
LATI .DEG                                              :LATITUDE
LONG .DEG                                              :LONGITUDE
GDAT .                                                 :GeoDetic Datum
#-----------------------------------------------------------------------------
~PARAMETER INFORMATION
#MNEM.UNIT    VALUE                      DESCRIPTION
#---- -----   --------------------       ------------------------
U-PHASE_B_COMP_PER_YT.                 0 :Phase B Comparator Period Yt
U-PHASE_A_COMP_PER_XT.                 0 :Phase A Comparator Period Xt
U-MAX_EXC_CUR_LIMIT.MA       240.00000   :Requested CM Current Limit
U-REQ_EXC_FQ.HZ              50          :Requested CM Frequency
U-TILT_Y_OFFSET.           0.19916       :WPTET Tilt Y Offset
U-TILT_Y_GAIN.           1.01796         :WPTET Tilt Y Gain
U-TILT_X_OFFSET.          -1.77103       :WPTET Tilt X Offset
U-TILT_X_GAIN.           1.00000         :WPTET Tilt X Gain
U-TILT_OFFSET_TOL.           0.00100     :WPTET Tilt Offset Calibration Tolerance
U-NO_TILT_CAL_ROTATIONS.                 3 :Number of Rotations for Tilt Calibration
HAZI .DEG        0.00000                 :Hole Azimuth
U-STD_TOL_TILT.           0.01000        :Tilt Standard Deviation Tolerance
U-GUN_POS_TOL.DEG        5.00000         :Gun Position Tolerance
ROT_ANGLE_THRESHOLD.DEG        5.00000   :Rotation Stop Angle Tolerance
STOP_ROT_ANGLE.DEG       80.00000        :Rotation Stop Angle
WITN .                                   :Witness's Name
ENGI .                                   :Engineer's Name
COUN .        HARRIS                     :County or Rig Name
FN   .        WILDCAT                    :Field Name
WN   .        WPP TEST 2                 :Well Name
CN   .        SHELL INTERNATIONAL E P    :Company Name
CLAB .        County                     :County/Rig Label
SLAB .        State                      :State/Province Label
RUN  .          1                        :RUN NUMBER
PDAT .        GROUND LEVEL               :Permanent Datum
EPD  .                                   :Elevation of Permanent Datum above Mean Sea Level
LMF  .                                   :Logging Measured From (Name of Logging Elevation Reference)
APD  .                                   :Elevation of Depth Reference (LMF) above Permanent Datum
#-----------------------------------------------------------------------------
~CURVE INFORMATION
#MNEM.UNIT   API CODE                                  DESCRIPTION
#---- -----  --------                                  -----------------------
TIME .S                                                :TIME {F10.1}
FREQ_EMF_SL.HZ                                         :Electromagnetic Field Frequency {F13.4}
PH_SH_WPPCM_SL.DEG                                     :WPPCM Phase Shift {F13.4}
FREQ_EXC_REQ_SL.HZ                                     :Requested Exciter Frequency {F13.4}
RB_SL.DEG                                              :Relative Bearing {F13.4}
SDEV_SL.DEG                                            :Sonde Deviation {F13.4}
TILX_SL.DEG                                            :X-axis Tilt {F13.4}
TILY_SL.DEG                                            :Y-axis Tilt {F13.4}
ROTA_SL.DEG                                            :Motor Rotation Angle {F13.4}
MSPE_SL.RPM                                            :Motor Speed {F13.4}
#-----------------------------------------------------------------------------
# 
#     TIME    FREQ_EMF_SL  PH_SH_WPPCM_ FREQ_EXC_REQ    RB_SL       SDEV_SL      TILX_SL      TILY_SL      ROTA_SL      MSPE_SL
#                          SL           _SL
~A  
    5686.0       0.0000       0.0000      50.8611    -165.5420       4.0327      -1.0060       3.9048     222.9099       1.0324
    5687.0       0.0000       0.0000      50.8611    -157.3310       4.0673      -1.5665       3.7526     229.0222       1.0324
    5688.0       0.0000       0.0000      50.8611    -149.7381       4.1096      -2.0701       3.5482     235.1281       1.0226
    5689.0       0.0000       0.0000      50.8611    -144.3395       4.2678      -2.4866       3.4664     241.2419       1.0324
    5690.0       0.0000       0.0000      50.8611    -139.5885       4.4965      -2.9136       3.4217     247.3335       1.0236
    5691.0       0.0000       0.0000      50.8611    -132.4455       4.4514      -3.2825       3.0022     253.4354       1.0226
    5692.0       0.0000       0.0000      50.8611    -127.7456       4.5481      -3.5934       2.7819     259.5381       1.0226
    5693.0       0.0000       0.0000      50.8611    -121.4189       4.5715      -3.8999       2.3813     265.6272       1.0236
    5694.0       0.0000       0.0000      50.8611    -116.1500       4.9307      -4.4250       2.1693     271.7302       1.0226
    5695.0       0.0000       0.0000      50.8611    -111.3670       4.7844      -4.4548       1.7416     277.8327       1.0226
    5696.0       0.0000       0.0000      50.8611    -106.4742       4.8895      -4.6883       1.3849     283.9345       1.0226
    5697.0       0.0000       0.0000      50.8611     -98.5907       4.8741      -4.8193       0.7269     290.4423       1.0314
    5698.0       0.0000       0.0000      50.8611     -95.6578       5.0456      -5.0208       0.4967     296.5442       1.0226
    5699.0       0.0000       0.0000      50.8611     -89.6645       5.2547      -5.2544      -0.0310     302.6488       1.0226
    5700.0       0.0000       0.0000      50.8611     -85.6874       5.3098      -5.2945      -0.3990     308.7506       1.0226
    5701.0       0.0000       0.0000      50.8611     -80.4374       5.3838      -5.3087      -0.8935     314.8525       1.0226
    5702.0       0.0000       0.0000      50.8611     -74.5632       5.4479      -5.2507      -1.4477     320.9542       1.0226
    5703.0       0.0000       0.0000      50.8611     -71.0596       5.4286      -5.1339      -1.7597     327.0698       1.0226
    5704.0       0.0000       0.0000      50.8611     -64.1768       5.1740      -4.6563      -2.2503     333.1711       1.0236
    5705.0       0.0000       0.0000      50.8611     -58.7628       5.2766      -4.5098      -2.7334     339.2618       1.0226
    5706.0       0.0000       0.0000      50.8611     -55.0561       5.2191      -4.2762      -2.9863     345.3636       1.0226
    5707.0       0.0000       0.0000      50.8611     -48.8909       5.3492      -4.0278      -3.5141     351.4530       1.0226
    5708.0       0.0000       0.0000      50.8611     -45.6167       5.2566      -3.7541      -3.6739     357.5543       1.0236
    5709.0       0.0000       0.0000      50.8611     -39.2015       5.1232      -3.2356      -3.9676       4.0876       1.0236
    5710.0       0.0000       0.0000      50.8611     -34.5518       5.2527      -2.9760      -4.3243      10.2065       1.0236
    5711.0       0.0000       0.0000      50.8611     -29.6509       5.1662      -2.5528      -4.4878      16.3241       1.0226
    5712.0       0.0000       0.0000      50.8611     -26.2365       5.2414      -2.3148      -4.6998      22.4232       1.0226
    5713.0       0.0000       0.0000      50.8611     -20.8652       5.1429      -1.8291      -4.8043      28.5380       1.0226
    5714.0       0.0000       0.0000      50.8611     -16.7769       5.1152      -1.4750      -4.8967      34.6398       1.0226
    5715.0       0.0000       0.0000      50.8611      -8.1052       4.8751      -0.6865      -4.8263      40.7417       1.0226
    5716.0    1338.5528       0.0000      50.8611      -5.6070       4.9393      -0.4820      -4.9156      46.4717       0.9880
    5717.0    1139.2546       0.0000      50.8611       0.7641       4.6898       0.0618      -4.6892      52.5442       1.0226
    5718.0    1213.0365       0.0000      50.8611       5.3549       4.6239       0.4307      -4.6036      58.6461       1.0226
    5719.0    1245.8634       0.0000      50.8611      11.6571       4.5223       0.9127      -4.4287      64.7608       1.0236
    5720.0    1267.1034       0.0000      50.8611      16.6976       4.6783       1.3434      -4.4803      70.8626       1.0226
    5721.0    1280.9539       0.0000      50.8611      21.6637       4.3260       1.5955      -4.0199      77.3453       1.0226
    5722.0    1303.6101       0.0000      50.8611      27.2792       4.2016       1.9243      -3.7337      83.4846       1.0226
    5723.0    1320.9780       0.0000      50.8611      31.9264       4.1943       2.2166      -3.5588      89.5891       1.0226
    5724.0    1333.9693       0.0000      50.8611      41.2711       3.9552       2.6071      -2.9719      95.6786       1.0226
    5725.0    1359.7669       0.0000      50.8611      45.2274       3.9622       2.8117      -2.7894     101.7803       1.0226
    5726.0    1380.6363       0.0000      50.8611      52.3223       3.7565       2.9724      -2.2950     107.8709       1.0130
    5727.0    1397.4145       0.0000      50.8611      59.4467       3.7235       3.2059      -1.8918     113.9688       1.0226
    5728.0    1409.3300       0.0000      50.8611      66.8461       3.5706       3.2825      -1.4030     120.0733       1.0226
    5729.0    1426.2170       0.0000      50.8611      76.2319       3.5419       3.4395      -0.8420     126.1751       1.0226
    5730.0    1443.7886       0.0000      50.8611      80.3568       3.4965       3.4469      -0.5853     132.2770       1.0226
    5731.0    1456.0247       0.0000      50.8611      89.0187       3.3673       3.3666      -0.0575     138.3796       1.0226
    5732.0    1467.9019       0.0000      50.8611      97.7972       3.1701       3.1405       0.4294     144.4946       1.0226
    5733.0    1488.8013       0.0000      50.8611     104.4156       3.2351       3.1330       0.8049     150.9668       1.0226
    5734.0    1495.7168       0.0000      50.8611     113.7964       3.3326       3.0490       1.3440     157.1064       1.0226
    5735.0    1504.7320       0.0000      50.8611     119.0233       3.2536       2.8444       1.5780     163.2083       1.0226
    5736.0    1503.0003       0.0000      50.8611     126.1250       3.1196       2.5194       1.8385     169.3111       1.0226
    5737.0    1524.6075       0.0000      50.8611     136.4038       3.2629       2.2494       2.3624     175.4137       1.0226
    5738.0    1515.3556       0.0000      50.8611     144.1054       3.5188       2.0627       2.8493     181.5032       1.0226
    5739.0    1506.2200       0.0000      50.8611     154.8186       3.4203       1.4544       3.0946     187.6059       1.0226
    5740.0    1521.9155       0.0000      50.8611     159.0977       3.4006       1.2125       3.1764     193.7208       1.0226
    5741.0    1517.7242       0.0000      50.8611     163.6345       3.5664       1.0042       3.4217     199.8227       1.0226
    5742.0    1499.4968       0.0000      50.8611     175.5187       3.6937       0.2886       3.6822     205.9246       1.0226
    5743.0    1490.2580       0.0000      50.8611    -179.8045       3.7641      -0.0111       3.7640     212.0528       1.0130
    5744.0    1485.9431       0.0000      50.8611    -172.6430       3.8251      -0.4894       3.7935     218.1555       1.0130
    5745.0    1476.8669       0.0000      50.8611    -166.8937       3.9761      -0.9015       3.8715     224.6126       1.0226
    5746.0    1464.2815       0.0000      50.8611    -160.6441       4.2220      -1.3984       3.9828     230.7523       1.0226
    5747.0    1450.8574       0.0000      50.8611    -152.1331       4.1198      -1.9243       3.6413     236.8570       1.0226
    5748.0    1447.3123       0.0000      50.8611    -148.0801       4.2431      -2.2419       3.6004     242.9589       1.0226
