~VERSION INFORMATION
VERS.           2.0   :CWLS Log ASCII Standard - VERSION 2.0
WRAP.           NO    :One Line per depth step
PROD.  Schlumberger   :LAS Producer
PROG.  DLIS to ASCII 19C2-270                          :LAS Program name and version
CREA.        2017/09/16 17:42                          :LAS Creation date {YYYY/MM/DD hh:mm}
DLIS_CREA.  2017-Sep-15 18:49                          :DLIS Creation date and time {YYYY-MMM-DD hh:mm}
SOURCE.     LPC_S5-1_AV.DLIS                           :DLIS File Name
FILE-ID.     PERFO_Perfo_WPGRT_057LTP                  :File Identification Number
#--------------------------------------------------
~WELL INFORMATION
#MNEM.UNIT      DATA             DESCRIPTION
#---- ------ --------------   -----------------------------
STRT .S         6545.0       :START TIME      
STOP .S         7010.0       :STOP TIME      
STEP .S            1.0       :STEP     
NULL .          -999.25      :NULL VALUE
COMP .        SHELL INTERNATIONAL E P                  :COMPANY
WELL .        WPP TEST 2                               :WELL
FLD  .        WILDCAT                                  :FIELD
LOC  .        NA                                       :LOCATION
CNTY .        HARRIS                                   :COUNTY
STAT .        TEXAS                                    :STATE
CTRY .                                                 :COUNTRY
API  .        NA                                       :API NUMBER
UWI  .                                                 :UNIQUE WELL ID
DATE .        15-Sep-2017                              :LOG DATE {DD-MMM-YYYY}
SRVC .        Schlumberger                             :SERVICE COMPANY
LATI .DEG                                              :LATITUDE
LONG .DEG                                              :LONGITUDE
GDAT .                                                 :GeoDetic Datum
SECT .        NA                                       :Section
RANG .        NA                                       :Range
TOWN .        NA                                       :Township
#-----------------------------------------------------------------------------
~PARAMETER INFORMATION
#MNEM.UNIT    VALUE                      DESCRIPTION
#---- -----   --------------------       ------------------------
U-PHASE_B_COMP_PER_YT.                 0 :Phase B Comparator Period Yt
U-PHASE_A_COMP_PER_XT.                 0 :Phase A Comparator Period Xt
U-MAX_EXC_CUR_LIMIT.MA       240.00000   :Requested CM Current Limit
U-REQ_EXC_FQ.HZ              50          :Requested CM Frequency
U-TILT_Y_OFFSET.           0.19916       :WPTET Tilt Y Offset
U-TILT_Y_GAIN.           1.01796         :WPTET Tilt Y Gain
U-TILT_X_OFFSET.          -1.77103       :WPTET Tilt X Offset
U-TILT_X_GAIN.           1.00000         :WPTET Tilt X Gain
U-TILT_OFFSET_TOL.           0.00100     :WPTET Tilt Offset Calibration Tolerance
U-NO_TILT_CAL_ROTATIONS.                 3 :Number of Rotations for Tilt Calibration
HAZI .DEG        0.00000                 :Hole Azimuth
U-STD_TOL_TILT.           0.01000        :Tilt Standard Deviation Tolerance
U-GUN_POS_TOL.DEG        5.00000         :Gun Position Tolerance
ROT_ANGLE_THRESHOLD.DEG        5.00000   :Rotation Stop Angle Tolerance
STOP_ROT_ANGLE.DEG        0.00000        :Rotation Stop Angle
WITN .        MR. DHRUA ARORA            :Witness's Name
ENGI .        MORRIS MOORE               :Engineer's Name
COUN .        HARRIS                     :County or Rig Name
FN   .        WILDCAT                    :Field Name
WN   .        WPP TEST 2                 :Well Name
CN   .        SHELL INTERNATIONAL E P    :Company Name
CLAB .        County                     :County/Rig Label
SLAB .        State                      :State/Province Label
RUN  .          1                        :RUN NUMBER
PDAT .        GROUND LEVEL               :Permanent Datum
EPD  .                                   :Elevation of Permanent Datum above Mean Sea Level
LMF  .          NA                       :Logging Measured From (Name of Logging Elevation Reference)
APD  .                                   :Elevation of Depth Reference (LMF) above Permanent Datum
#-----------------------------------------------------------------------------
~CURVE INFORMATION
#MNEM.UNIT   API CODE                                  DESCRIPTION
#---- -----  --------                                  -----------------------
TIME .S                                                :TIME {F10.1}
FREQ_EMF_SL.HZ                                         :Electromagnetic Field Frequency {F13.4}
PH_SH_WPPCM_SL.DEG                                     :WPPCM Phase Shift {F13.4}
FREQ_EXC_REQ_SL.HZ                                     :Requested Exciter Frequency {F13.4}
RB_SL.DEG                                              :Relative Bearing {F13.4}
SDEV_SL.DEG                                            :Sonde Deviation {F13.4}
TILX_SL.DEG                                            :X-axis Tilt {F13.4}
TILY_SL.DEG                                            :Y-axis Tilt {F13.4}
ROTA_SL.DEG                                            :Motor Rotation Angle {F13.4}
MSPE_SL.RPM                                            :Motor Speed {F13.4}
#-----------------------------------------------------------------------------
# 
#     TIME    FREQ_EMF_SL  PH_SH_WPPCM_ FREQ_EXC_REQ    RB_SL       SDEV_SL      TILX_SL      TILY_SL      ROTA_SL      MSPE_SL
#                          SL           _SL
~A  
# ...
    6734.0    1470.9729       0.0000      50.8611     -65.1834       1.0117      -0.9179      -0.4240     320.4438       0.0005
    6735.0    1476.7817       0.0000      50.8611     -74.9409       1.2073      -1.1653      -0.3062     320.4438       0.0005
    6736.0    1474.4282       0.0000      50.8611     -47.6273       1.0867      -0.7910      -0.7282     320.4438       0.0005
    6737.0    1474.0566       0.0000      50.8611     -47.7434       1.4104      -1.0030      -0.9604     320.4438       0.0005
    6738.0    1475.1762       0.0000      50.8611     -58.5987       1.3462      -1.1492      -0.7004     320.4438       0.0005
    6739.0    1471.3429       0.0000      50.8611     -64.9205       1.0737      -0.9725      -0.4551     320.4438       0.0005
    6740.0    1476.7817       0.0000      50.8611     -62.9941       1.0701      -0.9532      -0.4861     320.4438       0.0005
    6741.0    1471.7146       0.0000      50.8611     -54.3315       0.9473      -0.7669      -0.5532     320.4438       0.0005
    6742.0    1474.4282       0.0000      50.8611     -67.1849       0.9627      -0.8874      -0.3733     320.4438       0.0005
    6743.0    1477.1533       0.0000      50.8611     -65.2174       1.0225      -0.9275      -0.4289     320.4438       0.0005
    6744.0    1476.7817       0.0000      50.8611     -64.1951       1.0588      -0.9532      -0.4600     320.4438       0.0005
    6745.0    1477.9013       0.0000      50.8611     -71.0176       0.9286      -0.8777      -0.3013     320.4438       0.0005
    6746.0    1476.7817       0.0000      50.8611     -60.7413       0.9949      -0.8681      -0.4861     320.4438       0.0005
    6747.0    1477.1533       0.0000      50.8611     -59.1914       1.0389      -0.8922      -0.5319     320.4438       0.0005
    6748.0    1471.7146       0.0000      50.8611     -61.7382       1.0476      -0.9227      -0.4959     320.4438       0.0005
    6749.0    1470.9729       0.0000      50.8611     -66.6626       0.9560      -0.8777      -0.3782     320.4438       0.0005
    6750.0    1476.7817       0.0000      50.8611     -57.5122       1.0472      -0.8825      -0.5630     320.4438       0.0005
    6751.0    1478.7798       0.0000      50.8611     -61.3004       1.0121      -0.8874      -0.4861     320.4438       0.0005
    6752.0    1477.5265       0.0000      50.8611     -67.0826       1.0786      -0.9934      -0.4191     320.4438       0.0005
    6753.0    1471.7146       0.0000      50.8611     -68.3107       1.0259      -0.9532      -0.3782     320.4438       0.0005
    6754.0    1473.6866       0.0000      50.8611     -59.8838       1.0985      -0.9484      -0.5532     320.4438       0.0005
    6755.0    1476.7817       0.0000      50.8611     -67.4270       1.0384      -0.9581      -0.3994     320.4438       0.0005
    6756.0    1469.3852       0.0000      50.8611     -68.2692       1.0088      -0.9372      -0.3733     320.4438       0.0005
    6757.0    1469.0120       0.0000      50.8611     -62.1525       1.0840      -0.9581      -0.5058     320.4438       0.0005
    6758.0    1474.4282       0.0000      50.8611     -65.3558       1.0820      -0.9838      -0.4501     320.4438       0.0005
    6759.0    1471.3429       0.0000      50.8611     -68.1791       1.0324      -0.9581      -0.3831     320.4438       0.0005
    6760.0    1471.3429       0.0000      50.8611     -63.7679       1.0904      -0.9773      -0.4812     321.9881       0.4628
    6761.0    1479.1483       0.0000      50.8611     -63.8685       1.0681      -0.9581      -0.4698     325.7706       0.7855
    6762.0    1477.9013       0.0000      50.8611     -63.0600       1.0377      -0.9227      -0.4714     331.1604       1.0226
    6763.0    1483.0114       0.0000      50.8611     -68.6565       1.0391      -0.9677      -0.3782     337.2754       1.0226
    6764.0    1477.5265       0.0000      50.8611     -69.3102       1.1581      -1.0834      -0.4093     343.7953       1.0226
    6765.0    1483.3861       0.0000      50.8611     -66.2189       1.1186      -1.0239      -0.4501     349.8971       1.0226
    6766.0    1483.0114       0.0000      50.8611     -59.1784       1.0281      -0.8825      -0.5270     355.9989       1.0226
    6767.0    1474.4282       0.0000      50.8611     -60.9799       1.1066      -0.9677      -0.5368       2.1139       1.0226
    6768.0    1476.7817       0.0000      50.8611     -61.0863       1.1001      -0.9629      -0.5319       8.2157       1.0226
    6769.0    1470.6044       0.0000      50.8611     -72.8708       1.1467      -1.0882      -0.3406      14.3175       1.0226
    6770.0    1459.1294       0.0000      50.8611     -62.9763       1.0917      -0.9725      -0.4959      20.4220       1.0226
    6771.0    1451.5544       0.0000      50.8611     -58.9517       1.1296      -0.9677      -0.5826      26.5238       1.0226
    6772.0    1454.6670       0.0000      50.8611     -58.0583       1.0262      -0.8713      -0.5417      32.6257       1.0226
    6773.0    1443.4335       0.0000      50.8611     -56.9905       1.0696      -0.8970      -0.5826      38.7278       1.0226
    6774.0    1429.4651       0.0000      50.8611     -58.3327       1.1785      -1.0030      -0.6186      44.8293       1.0226
    6775.0    1415.4243       0.0000      50.8611     -57.2468       1.0094      -0.8504      -0.5417      50.9315       1.0226
    6776.0    1410.5476       0.0000      50.8611     -61.4400       1.1022      -0.9677      -0.5270      57.4382       1.0213
    6777.0    1407.7236       0.0000      50.8611     -44.2741       1.3828      -0.9693      -0.9719      63.5153       1.0226
    6778.0    1395.0892       0.0000      50.8611     -54.8122       1.0220      -0.8359      -0.5875      69.6183       1.0213
    6779.0    1376.9536       0.0000      50.8611     -51.0607       1.0499      -0.8167      -0.6595      75.7183       1.0201
    6780.0    1366.6799       0.0000      50.8611     -48.2410       1.3513      -1.0079      -0.8999      81.8218       1.0213
    6781.0    1361.7002       0.0000      50.8611     -51.7888       1.0632      -0.8359      -0.6546      87.9128       1.0226
    6782.0    1344.4073       0.0000      50.8611     -52.4910       1.2768      -1.0127      -0.7772      94.0173       1.0226
    6783.0    1326.0524       0.0000      50.8611     -49.1212       1.1331      -0.8568      -0.7413     100.1191       1.0226
    6784.0    1324.4524       0.0000      50.8611     -53.3795       1.1056      -0.8874      -0.6595     106.2194       1.0133
    6785.0    1294.8895       0.0000      50.8611     -51.8991       1.0767      -0.8472      -0.6644     112.3107       1.0226
    6786.0    1290.4222       0.0000      50.8611     -57.0020       1.2301      -1.0320      -0.6693     118.4256       1.0226
    6787.0    1265.1612       0.0000      50.8611     -43.0836       1.0960      -0.7460      -0.7985     124.5274       1.0226
    6788.0    1247.3096       0.0000      50.8611     -49.8218       1.1422      -0.8729      -0.7364     131.0341       1.0226
    6789.0    1234.0738       0.0000      50.8611     -48.1863       1.0360      -0.7717      -0.6906     137.1353       1.0308
    6790.0    1220.1963       0.0000      50.8611     -49.6995       1.0781      -0.8231      -0.6955     143.2292       1.0226
    6791.0    1213.6271       0.0000      50.8611     -45.9314       1.0406      -0.7460      -0.7216     149.3606       1.0226
    6792.0    1203.9811       0.0000      50.8611     -50.8988       0.9175      -0.7122      -0.5777     155.4475       1.0226
    6793.0    1214.3783       0.0000      50.8611     -51.8617       0.9361      -0.7363      -0.5777     161.5493       1.0226
    6794.0    1212.4941       0.0000      50.8611     -49.9028       0.9668      -0.7395      -0.6227     167.6512       1.0226
    6795.0    1220.4493       0.0000      50.8611     -60.3301       0.9919      -0.8568      -0.4943     173.7531       1.0226
    6796.0    1222.7663       0.0000      50.8611     -49.4274       0.9439      -0.7171      -0.6137     179.8550       1.0226
