~VERSION INFORMATION
VERS.           2.0   :CWLS Log ASCII Standard - VERSION 2.0
WRAP.           NO    :One Line per depth step
PROD.  Schlumberger   :LAS Producer
PROG.  DLIS to ASCII 19C2-270                          :LAS Program name and version
CREA.        2017/09/16 17:42                          :LAS Creation date {YYYY/MM/DD hh:mm}
DLIS_CREA.  2017-Sep-15 12:22                          :DLIS Creation date and time {YYYY-MMM-DD hh:mm}
SOURCE.     LPC_S1-1_B5.DLIS                           :DLIS File Name
FILE-ID.     PERFO_Perfo_WPGRT_020LTP                  :File Identification Number
#--------------------------------------------------
~WELL INFORMATION
#MNEM.UNIT      DATA             DESCRIPTION
#---- ------ --------------   -----------------------------
STRT .S         5686.0       :START TIME      
STOP .S         6834.0       :STOP TIME      
STEP .S            1.0       :STEP     
NULL .          -999.25      :NULL VALUE
COMP .        SHELL INTERNATIONAL E P                  :COMPANY
WELL .        WPP TEST 2                               :WELL
FLD  .        WILDCAT                                  :FIELD
LOC  .                                                 :LOCATION
CNTY .        HARRIS                                   :COUNTY
STAT .        TEXAS                                    :STATE
CTRY .                                                 :COUNTRY
API  .                                                 :API NUMBER
UWI  .                                                 :UNIQUE WELL ID
DATE .                                                 :LOG DATE
SRVC .        Schlumberger                             :SERVICE COMPANY
LATI .DEG                                              :LATITUDE
LONG .DEG                                              :LONGITUDE
GDAT .                                                 :GeoDetic Datum
#-----------------------------------------------------------------------------
~PARAMETER INFORMATION
#MNEM.UNIT    VALUE                      DESCRIPTION
#---- -----   --------------------       ------------------------
U-PHASE_B_COMP_PER_YT.                 0 :Phase B Comparator Period Yt
U-PHASE_A_COMP_PER_XT.                 0 :Phase A Comparator Period Xt
U-MAX_EXC_CUR_LIMIT.MA       240.00000   :Requested CM Current Limit
U-REQ_EXC_FQ.HZ              50          :Requested CM Frequency
U-TILT_Y_OFFSET.           0.19916       :WPTET Tilt Y Offset
U-TILT_Y_GAIN.           1.01796         :WPTET Tilt Y Gain
U-TILT_X_OFFSET.          -1.77103       :WPTET Tilt X Offset
U-TILT_X_GAIN.           1.00000         :WPTET Tilt X Gain
U-TILT_OFFSET_TOL.           0.00100     :WPTET Tilt Offset Calibration Tolerance
U-NO_TILT_CAL_ROTATIONS.                 3 :Number of Rotations for Tilt Calibration
HAZI .DEG        0.00000                 :Hole Azimuth
U-STD_TOL_TILT.           0.01000        :Tilt Standard Deviation Tolerance
U-GUN_POS_TOL.DEG        5.00000         :Gun Position Tolerance
ROT_ANGLE_THRESHOLD.DEG        5.00000   :Rotation Stop Angle Tolerance
STOP_ROT_ANGLE.DEG       80.00000        :Rotation Stop Angle
WITN .                                   :Witness's Name
ENGI .                                   :Engineer's Name
COUN .        HARRIS                     :County or Rig Name
FN   .        WILDCAT                    :Field Name
WN   .        WPP TEST 2                 :Well Name
CN   .        SHELL INTERNATIONAL E P    :Company Name
CLAB .        County                     :County/Rig Label
SLAB .        State                      :State/Province Label
RUN  .          1                        :RUN NUMBER
PDAT .        GROUND LEVEL               :Permanent Datum
EPD  .                                   :Elevation of Permanent Datum above Mean Sea Level
LMF  .                                   :Logging Measured From (Name of Logging Elevation Reference)
APD  .                                   :Elevation of Depth Reference (LMF) above Permanent Datum
#-----------------------------------------------------------------------------
~CURVE INFORMATION
#MNEM.UNIT   API CODE                                  DESCRIPTION
#---- -----  --------                                  -----------------------
TIME .S                                                :TIME {F10.1}
FREQ_EMF_SL.HZ                                         :Electromagnetic Field Frequency {F13.4}
PH_SH_WPPCM_SL.DEG                                     :WPPCM Phase Shift {F13.4}
FREQ_EXC_REQ_SL.HZ                                     :Requested Exciter Frequency {F13.4}
RB_SL.DEG                                              :Relative Bearing {F13.4}
SDEV_SL.DEG                                            :Sonde Deviation {F13.4}
TILX_SL.DEG                                            :X-axis Tilt {F13.4}
TILY_SL.DEG                                            :Y-axis Tilt {F13.4}
ROTA_SL.DEG                                            :Motor Rotation Angle {F13.4}
MSPE_SL.RPM                                            :Motor Speed {F13.4}
#-----------------------------------------------------------------------------
# 
#     TIME    FREQ_EMF_SL  PH_SH_WPPCM_ FREQ_EXC_REQ    RB_SL       SDEV_SL      TILX_SL      TILY_SL      ROTA_SL      MSPE_SL
#                          SL           _SL
~A  
# ...
    6568.0    1062.1223       0.0000      50.8611     -25.9004       5.1891      -2.2642      -4.6665      64.2100       1.0226
    6569.0    1060.8172       0.0000      50.8611     -19.6673       5.2053      -1.7494      -4.9005      70.3118       1.0226
    6570.0    1081.4238       0.0000      50.8611     -15.0932       4.9993      -1.3002      -4.8263      76.4136       1.0226
    6571.0    1099.7190       0.0000      50.8611     -14.8108       5.5285      -1.4102      -5.3427      82.5154       1.0226
    6572.0    1119.6259       0.0000      50.8611      -4.8105       4.8396      -0.4054      -4.8225      88.6172       1.0226
    6573.0    1157.6594       0.0000      50.8611       0.3388       4.9082       0.0290      -4.9081      94.7190       1.0226
    6574.0    1195.2293       0.0000      50.8611       7.6034       4.6453       0.6130      -4.6036     100.8085       1.0216
    6575.0    1232.9552       0.0000      50.8611      11.4867       4.4058       0.8763      -4.3174     106.9103       1.0226
    6576.0    1261.0985       0.0000      50.8611      16.4657       4.4868       1.2705      -4.3023     113.0252       1.0226
    6577.0    1279.8808       0.0000      50.8611      23.5070       4.3522       1.7346      -3.9903     119.1270       1.0226
    6578.0    1292.7295       0.0000      50.8611      30.0626       4.3107       2.1579      -3.7299     125.2288       1.0226
    6579.0    1316.4858       0.0000      50.8611      33.0900       4.1158       2.2456      -3.4474     131.3306       1.0130
    6580.0    1338.5819       0.0000      50.8611      43.6898       3.8184       2.6362      -2.7599     137.8284       1.0226
    6581.0    1349.3290       0.0000      50.8611      45.4336       3.8711       2.7567      -2.7152     143.9432       1.0226
    6582.0    1371.3598       0.0000      50.8611      53.9161       3.7598       3.0378      -2.2132     150.0479       1.0226
    6583.0    1391.8187       0.0000      50.8611      60.5476       3.7705       3.2825      -1.8528     156.1470       1.0226
    6584.0    1408.5479       0.0000      50.8611      66.3812       3.5871       3.2863      -1.4364     162.2489       1.0226
    6585.0    1422.5352       0.0000      50.8611      72.4114       3.4519       3.2900      -1.0426     168.3517       1.0216
    6586.0    1437.8834       0.0000      50.8611      82.0772       3.3586       3.3264      -0.4626     174.4536       1.0226
    6587.0    1452.4606       0.0000      50.8611      91.0162       3.4441       3.4432       0.0614     180.5685       1.0226
    6588.0    1461.7983       0.0000      50.8611      96.9823       3.3221       3.2974       0.4036     186.6704       1.0226
    6589.0    1474.6307       0.0000      50.8611     105.1306       3.2419       3.1293       0.8458     192.7723       1.0226
    6590.0    1489.3803       0.0000      50.8611     113.6862       3.1868       2.9173       1.2804     198.8619       1.0226
    6591.0    1505.3234       0.0000      50.8611     121.9843       2.7919       2.3675       1.4787     204.9515       1.0324
    6592.0    1512.3982       0.0000      50.8611     131.6780       3.2473       2.4249       2.1580     211.4623       1.0216
    6593.0    1518.3258       0.0000      50.8611     137.6369       3.2033       2.1579       2.3662     217.5642       1.0226
    6594.0    1518.9326       0.0000      50.8611     144.1924       3.3271       1.9459       2.6971     223.6660       1.0226
    6595.0    1524.6075       0.0000      50.8611     152.6795       3.3589       1.5412       2.9833     229.7679       1.0226
    6596.0    1525.2169       0.0000      50.8611     157.9515       3.5999       1.3508       3.3362     235.8706       1.0226
    6597.0    1518.6285       0.0000      50.8611     168.0478       3.5319       0.7305       3.4551     241.9856       1.0226
    6598.0    1518.3258       0.0000      50.8611     174.0746       3.5750       0.3690       3.5558     248.0871       1.0314
    6599.0    1511.4978       0.0000      50.8611    -177.0201       3.7245      -0.1934       3.7193     254.1903       1.0226
    6600.0    1493.4232       0.0000      50.8611    -169.9637       3.8567      -0.6717       3.7973     260.3052       1.0226
    6601.0    1481.4260       0.0000      50.8611    -165.5854       3.8904      -0.9677       3.7678     266.4078       1.0226
    6602.0    1479.9755       0.0000      50.8611    -158.2240       3.9581      -1.4676       3.6746     272.5227       1.0130
    6603.0    1470.6888       0.0000      50.8611    -154.1856       4.0785      -1.7747       3.6709     278.5875       1.0226
    6604.0    1450.2975       0.0000      50.8611    -147.7495       4.2933      -2.2895       3.6300     285.0870       1.0130
    6605.0    1444.3393       0.0000      50.8611    -140.9908       4.2140      -2.6510       3.2733     291.1872       1.0314
    6606.0    1435.2204       0.0000      50.8611    -136.0027       4.3502      -3.0199       3.1280     297.2910       1.0226
    6607.0    1417.8557       0.0000      50.8611    -131.6305       4.5264      -3.3814       3.0053     303.4059       1.0226
    6608.0    1398.6386       0.0000      50.8611    -124.5869       4.6764      -3.8485       2.6524     309.5196       1.0324
    6609.0    1390.3417       0.0000      50.8611    -118.2710       4.6784      -4.1193       2.2140     315.6226       1.0226
    6610.0    1370.8616       0.0000      50.8611    -111.8916       4.8371      -4.4875       1.8014     321.7250       1.0226
    6611.0    1357.6270       0.0000      50.8611    -109.0611       4.8838      -4.6154       1.5931     327.8151       1.0226
    6612.0    1342.0789       0.0000      50.8611    -102.3322       5.0127      -4.8966       1.0692     333.9289       1.0226
    6613.0    1324.1526       0.0000      50.8611     -97.3683       5.0665      -5.0245       0.6489     340.0184       1.0216
    6614.0    1309.8103       0.0000      50.8611     -90.4065       5.0247      -5.0245       0.0356     346.1202       1.0226
    6615.0    1290.7981       0.0000      50.8611     -87.6144       5.1384      -5.1339      -0.2135     352.2220       1.0324
    6616.0    1275.4497       0.0000      50.8611     -81.8377       5.2016      -5.1487      -0.7375     358.7325       1.0226
    6617.0    1249.5088       0.0000      50.8611     -76.6093       5.3267      -5.1815      -1.2319       4.8344       1.0226
    6618.0    1219.5728       0.0000      50.8611     -71.4458       5.3631      -5.0833      -1.7037      10.9362       1.0226
    6619.0    1180.4772       0.0000      50.8611     -67.2463       5.4022      -4.9806      -2.0868      17.0380       1.0226
    6620.0    1149.2455       0.0000      50.8611     -63.5237       5.3487      -4.7865      -2.3806      23.1518       1.0236
    6621.0    1120.2897       0.0000      50.8611     -57.3634       5.2533      -4.4220      -2.8303      29.2548       1.0226
    6622.0    1092.7587       0.0000      50.8611     -51.4000       5.2500      -4.1007      -3.2725      35.3449       1.0226
    6623.0    1085.5363       0.0000      50.8611     -46.8060       5.1977      -3.7868      -3.5550      41.4338       1.0226
    6624.0    1077.6534       0.0000      50.8611     -42.0820       5.3494      -3.5822      -3.9676      47.5412       1.0324
    6625.0    1062.8441       0.0000      50.8611     -34.5657       4.9910      -2.8309      -4.1054      53.6506       1.0226
    6626.0    1054.8969       0.0000      50.8611     -32.4290       5.1872      -2.7789      -4.3765      59.7773       1.0334
    6627.0    1057.1840       0.0000      50.8611     -25.3811       5.1258      -2.1950      -4.6294      65.8978       1.0236
    6628.0    1059.6406       0.0000      50.8611     -22.6452       5.2710      -2.0269      -4.8634      72.4165       1.0236
    6629.0    1064.8950       0.0000      50.8611     -18.0171       5.1189      -1.5813      -4.8672      78.5182       1.0130
    6630.0    1087.0582       0.0000      50.8611      -8.6613       4.8845      -0.7348      -4.8263      84.5954       1.0216
