~VERSION INFORMATION
VERS.           2.0   :CWLS Log ASCII Standard - VERSION 2.0
WRAP.           NO    :One Line per depth step
PROD.  Schlumberger   :LAS Producer
PROG.  DLIS to ASCII 19C2-270                          :LAS Program name and version
CREA.        2017/09/16 17:42                          :LAS Creation date {YYYY/MM/DD hh:mm}
DLIS_CREA.  2017-Sep-15 16:48                          :DLIS Creation date and time {YYYY-MMM-DD hh:mm}
SOURCE.     LPC_S3-1_2B5.DLIS                          :DLIS File Name
FILE-ID.     PERFO_Perfo_WPGRT_043LTP                  :File Identification Number
#--------------------------------------------------
~WELL INFORMATION
#MNEM.UNIT      DATA             DESCRIPTION
#---- ------ --------------   -----------------------------
STRT .S         4703.0       :START TIME      
STOP .S         5168.0       :STOP TIME      
STEP .S            1.0       :STEP     
NULL .          -999.25      :NULL VALUE
COMP .        SHELL INTERNATIONAL E P                  :COMPANY
WELL .        WPP TEST 2                               :WELL
FLD  .        WILDCAT                                  :FIELD
LOC  .                                                 :LOCATION
CNTY .        HARRIS                                   :COUNTY
STAT .        TEXAS                                    :STATE
CTRY .                                                 :COUNTRY
API  .                                                 :API NUMBER
UWI  .                                                 :UNIQUE WELL ID
DATE .                                                 :LOG DATE
SRVC .        Schlumberger                             :SERVICE COMPANY
LATI .DEG                                              :LATITUDE
LONG .DEG                                              :LONGITUDE
GDAT .                                                 :GeoDetic Datum
#-----------------------------------------------------------------------------
~PARAMETER INFORMATION
#MNEM.UNIT    VALUE                      DESCRIPTION
#---- -----   --------------------       ------------------------
U-PHASE_B_COMP_PER_YT.                 0 :Phase B Comparator Period Yt
U-PHASE_A_COMP_PER_XT.                 0 :Phase A Comparator Period Xt
U-MAX_EXC_CUR_LIMIT.MA       240.00000   :Requested CM Current Limit
U-REQ_EXC_FQ.HZ              50          :Requested CM Frequency
U-TILT_Y_OFFSET.           0.19916       :WPTET Tilt Y Offset
U-TILT_Y_GAIN.           1.01796         :WPTET Tilt Y Gain
U-TILT_X_OFFSET.          -1.77103       :WPTET Tilt X Offset
U-TILT_X_GAIN.           1.00000         :WPTET Tilt X Gain
U-TILT_OFFSET_TOL.           0.00100     :WPTET Tilt Offset Calibration Tolerance
U-NO_TILT_CAL_ROTATIONS.                 3 :Number of Rotations for Tilt Calibration
HAZI .DEG        0.00000                 :Hole Azimuth
U-STD_TOL_TILT.           0.01000        :Tilt Standard Deviation Tolerance
U-GUN_POS_TOL.DEG        5.00000         :Gun Position Tolerance
ROT_ANGLE_THRESHOLD.DEG        5.00000   :Rotation Stop Angle Tolerance
STOP_ROT_ANGLE.DEG        0.00000        :Rotation Stop Angle
WITN .                                   :Witness's Name
ENGI .                                   :Engineer's Name
COUN .        HARRIS                     :County or Rig Name
FN   .        WILDCAT                    :Field Name
WN   .        WPP TEST 2                 :Well Name
CN   .        SHELL INTERNATIONAL E P    :Company Name
CLAB .        County                     :County/Rig Label
SLAB .        State                      :State/Province Label
RUN  .          1                        :RUN NUMBER
PDAT .        GROUND LEVEL               :Permanent Datum
EPD  .                                   :Elevation of Permanent Datum above Mean Sea Level
LMF  .                                   :Logging Measured From (Name of Logging Elevation Reference)
APD  .                                   :Elevation of Depth Reference (LMF) above Permanent Datum
#-----------------------------------------------------------------------------
~CURVE INFORMATION
#MNEM.UNIT   API CODE                                  DESCRIPTION
#---- -----  --------                                  -----------------------
TIME .S                                                :TIME {F10.1}
FREQ_EMF_SL.HZ                                         :Electromagnetic Field Frequency {F13.4}
PH_SH_WPPCM_SL.DEG                                     :WPPCM Phase Shift {F13.4}
FREQ_EXC_REQ_SL.HZ                                     :Requested Exciter Frequency {F13.4}
RB_SL.DEG                                              :Relative Bearing {F13.4}
SDEV_SL.DEG                                            :Sonde Deviation {F13.4}
TILX_SL.DEG                                            :X-axis Tilt {F13.4}
TILY_SL.DEG                                            :Y-axis Tilt {F13.4}
ROTA_SL.DEG                                            :Motor Rotation Angle {F13.4}
MSPE_SL.RPM                                            :Motor Speed {F13.4}
#-----------------------------------------------------------------------------
# 
#     TIME    FREQ_EMF_SL  PH_SH_WPPCM_ FREQ_EXC_REQ    RB_SL       SDEV_SL      TILX_SL      TILY_SL      ROTA_SL      MSPE_SL
#                          SL           _SL
~A  
# ...
    5081.0    1443.7886       0.0000      50.8611     159.5435       4.7997       1.6757       4.4963     153.3006       1.0226
    5082.0    1437.8834       0.0000      50.8611     165.8843       4.8839       1.1899       4.7358     159.4024       1.0226
    5083.0    1446.7593       0.0000      50.8611     174.5093       4.9650       0.4745       4.9422     165.5050       1.0231
    5084.0    1449.8845       0.0000      50.8611     162.1823       5.0675       0.0633       5.0668     172.0405       1.0328
    5085.0    1453.0240       0.0000      50.8611    -172.6084       5.0740      -0.6521       5.0317     178.1555       1.0226
    5086.0    1452.8805       0.0000      50.8611    -166.0740       5.3391      -1.2833       5.1817     184.2457       1.0231
    5087.0    1455.1774       0.0000      50.8611    -159.7237       5.3547      -1.8533       5.0220     190.3477       1.0226
    5088.0    1452.7377       0.0000      50.8611    -153.8270       5.4176      -2.3869       4.8604     196.4496       1.0226
    5089.0    1453.3127       0.0000      50.8611    -147.9976       5.6330      -2.9817       4.7747     202.5646       1.0328
    5090.0    1449.8845       0.0000      50.8611    -141.4946       5.6921      -3.5403       4.4515     208.6548       1.0231
    5091.0    1461.0840       0.0000      50.8611    -134.8150       5.7989      -4.1102       4.0835     214.7597       1.0226
    5092.0    1455.7454       0.0000      50.8611    -129.8837       5.9768      -4.5827       3.8285     220.8587       1.0226
    5093.0    1443.6480       0.0000      50.8611    -124.2483       5.9454      -4.9117       3.3417     226.9607       1.0226
    5094.0    1440.5505       0.0000      50.8611    -119.6203       6.1040      -5.3038       3.0127     233.0625       1.0226
    5095.0    1437.4670       0.0000      50.8611    -113.4181       6.0568      -5.5562       2.4032     239.1652       1.0226
    5096.0    1429.1158       0.0000      50.8611    -107.2549       6.1897      -5.9101       1.8327     245.6751       1.0226
    5097.0    1415.1465       0.0000      50.8611    -102.6182       6.3080      -6.1549       1.3752     251.7770       1.0226
    5098.0    1412.0325       0.0000      50.8611     -97.7623       6.2201      -6.1625       0.8378     257.8788       1.0226
    5099.0    1403.1780       0.0000      50.8611     -91.7809       6.3607      -6.3577       0.1972     263.9806       1.0226
    5100.0    1400.2522       0.0000      50.8611     -85.5570       6.4153      -6.3959      -0.4959     270.0707       1.0231
    5101.0    1378.6765       0.0000      50.8611     -80.4588       6.4822      -6.3921      -1.0723     276.1981       1.0226
    5102.0    1354.7688       0.0000      50.8611     -76.3888       6.5308      -6.3462      -1.5337     282.3130       1.0226
    5103.0    1334.2030       0.0000      50.8611     -68.9085       6.8409      -6.3807      -2.4566     288.4413       1.0226
    5104.0    1326.6509       0.0000      50.8611     -64.6654       6.5353      -5.9044      -2.7915     294.5310       1.0226
    5105.0    1301.2919       0.0000      50.8611     -59.1520       6.7924      -5.8279      -3.4769     300.6203       1.0226
    5106.0    1271.3647       0.0000      50.8611     -54.7083       6.6860      -5.4530      -3.8565     306.7221       1.0226
    5107.0    1262.4507       0.0000      50.8611     -49.1583       6.7038      -5.0666      -4.3784     312.8125       1.0226
    5108.0    1244.0536       0.0000      50.8611     -44.9195       6.6031      -4.6573      -4.6704     319.3099       1.0226
    5109.0    1231.1882       0.0000      50.8611     -39.2084       6.6139      -4.1753      -5.1202     325.4248       1.0226
    5110.0    1216.5794       0.0000      50.8611     -33.8016       6.6561      -3.6971      -5.5271     331.5143       1.0226
    5111.0    1201.8257       0.0000      50.8611     -29.4196       6.6307      -3.2515      -5.7724     337.6220       1.0226
    5112.0    1191.7373       0.0000      50.8611     -23.7619       6.4050      -2.5763      -5.8600     343.7086       1.0226
    5113.0    1181.6286       0.0000      50.8611     -19.4090       6.5102      -2.1593      -6.1385     349.8133       1.0226
    5114.0    1179.8341       0.0000      50.8611     -13.4776       6.3652      -1.4803      -6.1891     355.9093       1.0226
    5115.0    1174.1120       0.0000      50.8611      -8.4627       6.2890      -0.9237      -6.2203       1.9987       1.0226
    5116.0    1173.5534       0.0000      50.8611      -3.7134       6.1535      -0.3977      -6.1404       8.1005       1.0226
    5117.0    1179.4592       0.0000      50.8611       2.3795       6.0349       0.2507      -6.0294      14.2023       1.0226
    5118.0    1178.0463       0.0000      50.8611       8.6687       6.1289       0.9220      -6.0586      20.3042       1.0221
    5119.0    1180.3097       0.0000      50.8611      12.3960       6.0265       1.2912      -5.8854      26.3945       1.0226
    5120.0    1183.7122       0.0000      50.8611      17.9633       5.7644       1.7751      -5.4823      32.9043       1.0226
    5121.0    1199.7750       0.0000      50.8611      24.2253       5.6953       2.3336      -5.1922      39.0069       1.0126
    5122.0    1212.1854       0.0000      50.8611      32.1884       5.5142       2.9342      -4.6646      45.1088       1.0226
    5123.0    1212.7853       0.0000      50.8611      36.7477       5.5621       3.3244      -4.4543      51.2106       1.0226
    5124.0    1231.9090       0.0000      50.8611      42.9661       5.3084       3.6151      -3.8819      57.3255       1.0226
    5125.0    1251.1122       0.0000      50.8611      49.8893       5.1499       3.9365      -3.3153      63.4406       1.0226
    5126.0    1269.2935       0.0000      50.8611      56.7356       5.1653       4.3171      -2.8305      69.5422       1.0226
    5127.0    1295.1169       0.0000      50.8611      63.1605       5.0798       4.5313      -2.2911      75.6580       1.0226
    5128.0    1326.4140       0.0000      50.8611      69.3759       4.7627       4.4567      -1.6759      81.7474       1.0226
    5129.0    1335.0561       0.0000      50.8611      77.0461       4.9365       4.8106      -1.1054      87.8369       1.0226
    5130.0    1352.5362       0.0000      50.8611      84.5976       4.7554       4.7341      -0.4473      93.9548       1.0328
    5131.0    1375.5970       0.0000      50.8611      91.9894       4.7351       4.7322       0.1641     100.0674       1.0323
    5132.0    1381.2564       0.0000      50.8611      98.9328       4.7110       4.6537       0.7307     106.5774       1.0226
    5133.0    1387.2265       0.0000      50.8611     104.9542       4.6095       4.4529       1.1882     112.6792       1.0226
    5134.0    1395.0892       0.0000      50.8611     112.2898       4.8381       4.4759       1.8327     118.7810       1.0226
    5135.0    1400.6475       0.0000      50.8611     121.1012       4.5920       3.9307       2.3701     124.8827       1.0226
    5136.0    1414.3352       0.0000      50.8611     128.2122       4.6348       3.6400       2.8646     130.9846       1.0226
    5137.0    1417.8634       0.0000      50.8611     135.5481       4.6321       3.2422       3.3047     137.0996       1.0226
    5138.0    1422.9190       0.0000      50.8611     144.6909       4.6432       2.6818       3.7876     143.2015       1.0226
    5139.0    1437.3293       0.0000      50.8611     151.6353       4.5620       2.1653       4.0134     149.3034       1.0226
    5140.0    1437.6052       0.0000      50.8611     157.8563       4.7649       1.7943       4.4126     155.4317       1.0226
    5141.0    1437.8834       0.0000      50.8611     165.4901       4.8077       1.2032       4.6540     161.5364       1.0226
    5142.0    1441.1115       0.0000      50.8611     171.2283       4.9614       0.7557       4.9032     167.6383       1.0226
    5143.0    1443.5081       0.0000      50.8611     177.8328       5.0685       0.1914       5.0648     173.7402       0.9741
