~VERSION INFORMATION
VERS.           2.0   :CWLS Log ASCII Standard - VERSION 2.0
WRAP.           NO    :One Line per depth step
PROD.  Schlumberger   :LAS Producer
PROG.  DLIS to ASCII 19C2-270                          :LAS Program name and version
CREA.        2017/09/16 17:42                          :LAS Creation date {YYYY/MM/DD hh:mm}
DLIS_CREA.  2017-Sep-15 16:48                          :DLIS Creation date and time {YYYY-MMM-DD hh:mm}
SOURCE.     LPC_S3-1_2B5.DLIS                          :DLIS File Name
FILE-ID.     PERFO_Perfo_WPGRT_043LTP                  :File Identification Number
#--------------------------------------------------
~WELL INFORMATION
#MNEM.UNIT      DATA             DESCRIPTION
#---- ------ --------------   -----------------------------
STRT .S         4703.0       :START TIME      
STOP .S         5168.0       :STOP TIME      
STEP .S            1.0       :STEP     
NULL .          -999.25      :NULL VALUE
COMP .        SHELL INTERNATIONAL E P                  :COMPANY
WELL .        WPP TEST 2                               :WELL
FLD  .        WILDCAT                                  :FIELD
LOC  .                                                 :LOCATION
CNTY .        HARRIS                                   :COUNTY
STAT .        TEXAS                                    :STATE
CTRY .                                                 :COUNTRY
API  .                                                 :API NUMBER
UWI  .                                                 :UNIQUE WELL ID
DATE .                                                 :LOG DATE
SRVC .        Schlumberger                             :SERVICE COMPANY
LATI .DEG                                              :LATITUDE
LONG .DEG                                              :LONGITUDE
GDAT .                                                 :GeoDetic Datum
#-----------------------------------------------------------------------------
~PARAMETER INFORMATION
#MNEM.UNIT    VALUE                      DESCRIPTION
#---- -----   --------------------       ------------------------
U-PHASE_B_COMP_PER_YT.                 0 :Phase B Comparator Period Yt
U-PHASE_A_COMP_PER_XT.                 0 :Phase A Comparator Period Xt
U-MAX_EXC_CUR_LIMIT.MA       240.00000   :Requested CM Current Limit
U-REQ_EXC_FQ.HZ              50          :Requested CM Frequency
U-TILT_Y_OFFSET.           0.19916       :WPTET Tilt Y Offset
U-TILT_Y_GAIN.           1.01796         :WPTET Tilt Y Gain
U-TILT_X_OFFSET.          -1.77103       :WPTET Tilt X Offset
U-TILT_X_GAIN.           1.00000         :WPTET Tilt X Gain
U-TILT_OFFSET_TOL.           0.00100     :WPTET Tilt Offset Calibration Tolerance
U-NO_TILT_CAL_ROTATIONS.                 3 :Number of Rotations for Tilt Calibration
HAZI .DEG        0.00000                 :Hole Azimuth
U-STD_TOL_TILT.           0.01000        :Tilt Standard Deviation Tolerance
U-GUN_POS_TOL.DEG        5.00000         :Gun Position Tolerance
ROT_ANGLE_THRESHOLD.DEG        5.00000   :Rotation Stop Angle Tolerance
STOP_ROT_ANGLE.DEG        0.00000        :Rotation Stop Angle
WITN .                                   :Witness's Name
ENGI .                                   :Engineer's Name
COUN .        HARRIS                     :County or Rig Name
FN   .        WILDCAT                    :Field Name
WN   .        WPP TEST 2                 :Well Name
CN   .        SHELL INTERNATIONAL E P    :Company Name
CLAB .        County                     :County/Rig Label
SLAB .        State                      :State/Province Label
RUN  .          1                        :RUN NUMBER
PDAT .        GROUND LEVEL               :Permanent Datum
EPD  .                                   :Elevation of Permanent Datum above Mean Sea Level
LMF  .                                   :Logging Measured From (Name of Logging Elevation Reference)
APD  .                                   :Elevation of Depth Reference (LMF) above Permanent Datum
#-----------------------------------------------------------------------------
~CURVE INFORMATION
#MNEM.UNIT   API CODE                                  DESCRIPTION
#---- -----  --------                                  -----------------------
TIME .S                                                :TIME {F10.1}
FREQ_EMF_SL.HZ                                         :Electromagnetic Field Frequency {F13.4}
PH_SH_WPPCM_SL.DEG                                     :WPPCM Phase Shift {F13.4}
FREQ_EXC_REQ_SL.HZ                                     :Requested Exciter Frequency {F13.4}
RB_SL.DEG                                              :Relative Bearing {F13.4}
SDEV_SL.DEG                                            :Sonde Deviation {F13.4}
TILX_SL.DEG                                            :X-axis Tilt {F13.4}
TILY_SL.DEG                                            :Y-axis Tilt {F13.4}
ROTA_SL.DEG                                            :Motor Rotation Angle {F13.4}
MSPE_SL.RPM                                            :Motor Speed {F13.4}
#-----------------------------------------------------------------------------
# 
#     TIME    FREQ_EMF_SL  PH_SH_WPPCM_ FREQ_EXC_REQ    RB_SL       SDEV_SL      TILX_SL      TILY_SL      ROTA_SL      MSPE_SL
#                          SL           _SL
~A  
    4703.0    1455.6245       0.0000      50.8611 9999999.9999       5.0926      -1.0479       4.9831     158.3658       1.0225
    4704.0    1452.8805       0.0000      50.8611    -166.9822       5.2028      -1.1704       5.0687     161.6927       1.0328
    4705.0    1444.2137       0.0000      50.8611    -158.9149       5.5510      -1.9949       5.1778     167.8076       1.0226
    4706.0    1452.5954       0.0000      50.8611    -156.5395       5.4695      -2.1746       5.0162     173.9095       1.0226
    4707.0    1461.3680       0.0000      50.8611    -148.9859       5.4849      -2.8230       4.6988     180.0377       1.0226
    4708.0    1453.1681       0.0000      50.8611    -143.2221       5.6633      -3.3872       4.5333     186.1396       1.0226
    4709.0    1438.5890       0.0000      50.8611    -137.6747       5.8571      -3.9400       4.3269     192.6372       1.0226
    4710.0    1440.8298       0.0000      50.8611    -131.2673       5.9463      -4.4660       3.9180     198.7392       1.0226
    4711.0    1443.2299       0.0000      50.8611    -126.4752       5.7690      -4.6362       3.4254     204.8541       1.0226
    4712.0    1432.1653       0.0000      50.8611    -120.5389       5.9453      -5.1182       3.0165     210.9437       1.0131
    4713.0    1426.4930       0.0000      50.8611    -113.7255       6.1129      -5.5945       2.4558     217.0616       1.0226
    4714.0    1423.0573       0.0000      50.8611    -108.7530       6.2387      -5.9063       2.0021     223.1489       1.0226
    4715.0    1411.8976       0.0000      50.8611    -104.8794       6.1636      -5.9560       1.5796     229.2633       1.0226
    4716.0    1409.0682       0.0000      50.8611     -98.1692       6.2666      -6.2027       0.8884     235.3652       1.0226
    4717.0    1398.1279       0.0000      50.8611     -92.1016       6.5056      -6.5012       0.2381     241.4665       1.0221
    4718.0    1389.5751       0.0000      50.8611     -89.7853       6.6299      -6.6293      -0.0247     247.5696       1.0226
    4719.0    1380.6206       0.0000      50.8611     -82.6399       6.4531      -6.3997      -0.8250     253.6846       1.0226
    4720.0    1381.1282       0.0000      50.8611     -77.8419       6.6412      -6.4916      -1.3955     259.7864       1.0226
    4721.0    1352.4114       0.0000      50.8611     -71.0573       6.8326      -6.4610      -2.2132     266.3093       1.0226
    4722.0    1336.3795       0.0000      50.8611     -65.3125       6.7664      -6.1454      -2.8207     272.4105       1.0126
    4723.0    1324.2713       0.0000      50.8611     -62.2621       6.6245      -5.8604      -3.0777     278.5029       1.0126
    4724.0    1309.1268       0.0000      50.8611     -55.8355       6.5163      -5.3879      -3.6540     284.5901       1.0226
    4725.0    1297.0520       0.0000      50.8611     -50.1422       6.6613      -5.1087      -4.2635     290.6956       1.0328
    4726.0    1264.6134       0.0000      50.8611     -46.2012       6.8126      -4.9117      -4.7093     296.7939       1.0126
    4727.0    1233.7589       0.0000      50.8611     -40.0667       6.7453      -4.3360      -5.1572     302.8839       1.0226
    4728.0    1233.0431       0.0000      50.8611     -36.6315       6.5455      -3.8999      -5.2487     308.9734       1.0226
    4729.0    1222.3253       0.0000      50.8611     -31.8977       6.6243      -3.4944      -5.6205     315.0752       1.0226
    4730.0    1199.9695       0.0000      50.8611     -25.9638       6.6964      -2.9263      -6.0178     321.1784       1.0328
    4731.0    1193.6645       0.0000      50.8611     -18.2460       6.5108      -2.0349      -6.1813     327.3058       1.0328
    4732.0    1181.6286       0.0000      50.8611     -15.8828       6.4702      -1.7672      -6.2222     333.3953       1.0226
    4733.0    1185.4248       0.0000      50.8611     -10.7077       6.0672      -1.1245      -5.9612     339.8811       1.0231
    4734.0    1179.9286       0.0000      50.8611      -4.3008       6.3630      -0.4762      -6.3449     345.9953       1.0226
    4735.0    1172.1547       0.0000      50.8611      -0.0169       6.1794       0.0001      -6.1794     352.0848       1.0226
    4736.0    1175.8879       0.0000      50.8611       7.8551       6.1143       0.8341      -6.0567     358.1998       1.0226
    4737.0    1185.4248       0.0000      50.8611      12.1387       6.1061       1.2816      -5.9691       4.3028       1.0236
    4738.0    1189.9127       0.0000      50.8611      17.6696       5.9714       1.8095      -5.6887      10.4296       1.0226
    4739.0    1197.9250       0.0000      50.8611      22.2709       5.7470       2.1748      -5.3168      16.5314       1.0226
    4740.0    1206.0464       0.0000      50.8611      28.9644       5.6519       2.7334      -4.9430      22.6332       1.0226
    4741.0    1220.8040       0.0000      50.8611      36.1542       5.5824       3.2900      -4.5049      28.7228       1.0126
    4742.0    1237.9998       0.0000      50.8611      42.3313       5.4866       3.6916      -4.0532      34.8128       1.0328
    4743.0    1249.2077       0.0000      50.8611      48.2425       5.2805       3.9365      -3.5139      40.9309       1.0226
    4744.0    1276.1991       0.0000      50.8611      53.1875       5.1248       4.1009      -3.0680      47.0182       1.0226
    4745.0    1301.9690       0.0000      50.8611      59.7940       5.1082       4.4127      -2.5676      53.5545       1.0226
    4746.0    1319.3016       0.0000      50.8611      67.8183       5.1921       4.8068      -1.9582      59.6563       1.0226
    4747.0    1339.5290       0.0000      50.8611      75.2465       4.9810       4.8163      -1.2670      65.7466       1.0126
    4748.0    1352.4114       0.0000      50.8611      81.3184       4.6323       4.5791      -0.6984      71.8615       1.0226
    4749.0    1354.8930       0.0000      50.8611      87.9864       4.7007       4.6977      -0.1650      77.9633       1.0226
    4750.0    1365.5441       0.0000      50.8611      96.4543       4.7220       4.6920       0.5301      84.0680       1.0226
    4751.0    1380.6105       0.0000      50.8611     103.2010       4.5587       4.4376       1.0402      90.1669       1.0226
    4752.0    1392.1961       0.0000      50.8611     111.8148       4.6220       4.2903       1.7159      96.2569       1.0328
    4753.0    1389.9687       0.0000      50.8611     118.7872       4.5778       4.0111       2.2027     102.3726       1.0433
    4754.0    1398.1279       0.0000      50.8611     126.3548       4.6783       3.7663       2.7712     108.4879       1.0226
    4755.0    1411.8976       0.0000      50.8611     134.4407       4.6641       3.3282       3.2638     114.5896       1.0226
    4756.0    1428.8410       0.0000      50.8611     142.2603       4.5969       2.8118       3.6337     120.6920       1.0328
    4757.0    1423.8819       0.0000      50.8611     146.7384       4.6078       2.5249       3.8518     126.8257       1.0226
    4758.0    1423.8819       0.0000      50.8611     155.5937       4.7588       1.9645       4.3327     133.3163       1.0226
    4759.0    1431.8882       0.0000      50.8611     162.7005       4.8363       1.4366       4.6170     139.4182       1.0226
    4760.0    1440.5505       0.0000      50.8611     170.2075       4.9206       0.8360       4.8487     145.5208       1.0226
    4761.0    1444.0714       0.0000      50.8611     174.9095       4.9227       0.4362       4.9032     151.6221       1.0126
    4762.0    1450.3149       0.0000      50.8611    -177.7065       5.2658      -0.2102       5.2615     157.7124       1.0226
    4763.0    1449.8133       0.0000      50.8611    -171.2056       5.0895      -0.7774       5.0293     163.8143       1.0226
    4764.0    1453.1681       0.0000      50.8611    -163.9106       5.2721      -1.4592       5.0648     169.9160       1.0226
    4765.0    1449.7422       0.0000      50.8611    -158.6060       5.4389      -1.9814       5.0629     176.0187       1.0226
