~VERSION INFORMATION
VERS.           2.0   :CWLS Log ASCII Standard - VERSION 2.0
WRAP.           NO    :One Line per depth step
PROD.  Schlumberger   :LAS Producer
PROG.  DLIS to ASCII 19C2-270                          :LAS Program name and version
CREA.        2017/09/16 17:42                          :LAS Creation date {YYYY/MM/DD hh:mm}
DLIS_CREA.  2017-Sep-15 20:01                          :DLIS Creation date and time {YYYY-MMM-DD hh:mm}
SOURCE.     LPC_S5-1_2BV.DLIS                          :DLIS File Name
FILE-ID.     PERFO_Perfo_WPGRT_065LTP                  :File Identification Number
#--------------------------------------------------
~WELL INFORMATION
#MNEM.UNIT      DATA             DESCRIPTION
#---- ------ --------------   -----------------------------
STRT .S         2351.0       :START TIME      
STOP .S         2776.0       :STOP TIME      
STEP .S            1.0       :STEP     
NULL .          -999.25      :NULL VALUE
COMP .        SHELL INTERNATIONAL E P                  :COMPANY
WELL .        WPP TEST 2                               :WELL
FLD  .        WILDCAT                                  :FIELD
LOC  .        NA                                       :LOCATION
CNTY .        HARRIS                                   :COUNTY
STAT .        TEXAS                                    :STATE
CTRY .                                                 :COUNTRY
API  .        NA                                       :API NUMBER
UWI  .                                                 :UNIQUE WELL ID
DATE .        15-Sep-2017                              :LOG DATE {DD-MMM-YYYY}
SRVC .        Schlumberger                             :SERVICE COMPANY
LATI .DEG                                              :LATITUDE
LONG .DEG                                              :LONGITUDE
GDAT .                                                 :GeoDetic Datum
SECT .        NA                                       :Section
RANG .        NA                                       :Range
TOWN .        NA                                       :Township
#-----------------------------------------------------------------------------
~PARAMETER INFORMATION
#MNEM.UNIT    VALUE                      DESCRIPTION
#---- -----   --------------------       ------------------------
U-PHASE_B_COMP_PER_YT.                 0 :Phase B Comparator Period Yt
U-PHASE_A_COMP_PER_XT.                 0 :Phase A Comparator Period Xt
U-MAX_EXC_CUR_LIMIT.MA       240.00000   :Requested CM Current Limit
U-REQ_EXC_FQ.HZ              50          :Requested CM Frequency
U-TILT_Y_OFFSET.           0.19916       :WPTET Tilt Y Offset
U-TILT_Y_GAIN.           1.01796         :WPTET Tilt Y Gain
U-TILT_X_OFFSET.          -1.77103       :WPTET Tilt X Offset
U-TILT_X_GAIN.           1.00000         :WPTET Tilt X Gain
U-TILT_OFFSET_TOL.           0.00100     :WPTET Tilt Offset Calibration Tolerance
U-NO_TILT_CAL_ROTATIONS.                 3 :Number of Rotations for Tilt Calibration
HAZI .DEG        0.00000                 :Hole Azimuth
U-STD_TOL_TILT.           0.01000        :Tilt Standard Deviation Tolerance
U-GUN_POS_TOL.DEG        5.00000         :Gun Position Tolerance
ROT_ANGLE_THRESHOLD.DEG        5.00000   :Rotation Stop Angle Tolerance
STOP_ROT_ANGLE.DEG        0.00000        :Rotation Stop Angle
WITN .        MR. DHRUA ARORA            :Witness's Name
ENGI .        MORRIS MOORE               :Engineer's Name
COUN .        HARRIS                     :County or Rig Name
FN   .        WILDCAT                    :Field Name
WN   .        WPP TEST 2                 :Well Name
CN   .        SHELL INTERNATIONAL E P    :Company Name
CLAB .        County                     :County/Rig Label
SLAB .        State                      :State/Province Label
RUN  .          1                        :RUN NUMBER
PDAT .        GROUND LEVEL               :Permanent Datum
EPD  .                                   :Elevation of Permanent Datum above Mean Sea Level
LMF  .          NA                       :Logging Measured From (Name of Logging Elevation Reference)
APD  .                                   :Elevation of Depth Reference (LMF) above Permanent Datum
#-----------------------------------------------------------------------------
~CURVE INFORMATION
#MNEM.UNIT   API CODE                                  DESCRIPTION
#---- -----  --------                                  -----------------------
TIME .S                                                :TIME {F10.1}
FREQ_EMF_SL.HZ                                         :Electromagnetic Field Frequency {F13.4}
PH_SH_WPPCM_SL.DEG                                     :WPPCM Phase Shift {F13.4}
FREQ_EXC_REQ_SL.HZ                                     :Requested Exciter Frequency {F13.4}
RB_SL.DEG                                              :Relative Bearing {F13.4}
SDEV_SL.DEG                                            :Sonde Deviation {F13.4}
TILX_SL.DEG                                            :X-axis Tilt {F13.4}
TILY_SL.DEG                                            :Y-axis Tilt {F13.4}
ROTA_SL.DEG                                            :Motor Rotation Angle {F13.4}
MSPE_SL.RPM                                            :Motor Speed {F13.4}
#-----------------------------------------------------------------------------
# 
#     TIME    FREQ_EMF_SL  PH_SH_WPPCM_ FREQ_EXC_REQ    RB_SL       SDEV_SL      TILX_SL      TILY_SL      ROTA_SL      MSPE_SL
#                          SL           _SL
~A  
# ...
    2540.0    1459.9294       0.0000      50.8611     -69.8434       1.2020      -1.1284      -0.4142     253.0676       0.0005
    2541.0    1459.4755       0.0000      50.8611     -68.9699       1.2684      -1.1839      -0.4551     253.0676       0.0005
    2542.0    1461.7983       0.0000      50.8611     -66.5770       1.3773      -1.2521      -0.5592     253.0676       0.0005
    2543.0    1463.6751       0.0000      50.8611     -64.6065       1.1819      -1.0700      -0.4959     253.0676       0.0005
    2544.0    1461.7983       0.0000      50.8611     -64.2053       1.2606      -1.1344      -0.5463     253.0676       0.0005
    2545.0    1461.0980       0.0000      50.8611     -66.2369       1.3888      -1.2367      -0.5877     253.0676       0.0005
    2546.0    1457.6065       0.0000      50.8611     -63.2270       1.4367      -1.2643      -0.6504     253.0676       0.0005
    2547.0    1452.7377       0.0000      50.8611     -56.5662       1.2512      -1.0050      -0.6747     253.0676       0.0005
    2548.0    1454.5912       0.0000      50.8611     -68.3458       1.2388      -1.1470      -0.4517     253.0676       0.0005
    2549.0    1458.7655       0.0000      50.8611     -58.9651       1.3199      -1.1284      -0.6814     253.0676       0.0005
    2550.0    1454.5912       0.0000      50.8611     -62.5795       1.2973      -1.1498      -0.5996     253.0676       0.0005
    2551.0    1457.1405       0.0000      50.8611     -59.4297       1.1371      -0.9769      -0.5778     253.0676       0.0005
    2552.0    1453.2049       0.0000      50.8611     -69.7443       1.4109      -1.3231      -0.4864     253.0676       0.0005
    2553.0    1449.7422       0.0000      50.8611     -65.2888       1.1665      -1.0602      -0.4864     253.0676       0.0005
    2554.0    1453.4416       0.0000      50.8611     -65.2652       1.2944      -1.1746      -0.5430     253.0676       0.0005
    2555.0    1456.4523       0.0000      50.8611     -60.6340       1.2527      -1.0915      -0.6091     253.0676       0.0005
    2556.0    1455.0509       0.0000      50.8611     -67.2443       1.2436      -1.1470      -0.4802     253.0676       0.0005
    2557.0    1455.7454       0.0000      50.8611     -61.0344       1.4437      -1.2699      -0.6814     253.0676       0.0005
    2558.0    1456.0271       0.0000      50.8611     -70.8123       1.1745      -1.1101      -0.3828     253.0676       0.0005
    2559.0    1456.2147       0.0000      50.8611     -69.9503       1.0678      -0.9985      -0.3700     253.0676       0.0005
    2560.0    1455.0509       0.0000      50.8611     -66.7352       1.2182      -1.1190      -0.4802     253.0676       0.0005
    2561.0    1449.7422       0.0000      50.8611     -63.6486       1.1769      -1.0480      -0.5245     253.0676       0.0005
    2562.0    1453.0181       0.0000      50.8611     -65.7504       1.2479      -1.1377      -0.5116     253.0676       0.0005
    2563.0    1455.7454       0.0000      50.8611     -66.1060       1.1844      -1.0820      -0.4801     253.0676       0.0005
    2564.0    1453.8919       0.0000      50.8611     -65.4589       1.1698      -1.0634      -0.4864     253.0676       0.0005
    2565.0    1453.8919       0.0000      50.8611     -67.7113       1.1419      -1.0541      -0.4360     253.0676       0.0005
    2566.0    1452.7377       0.0000      50.8611     -70.1484       1.1160      -1.0480      -0.3795     253.0676       0.0005
    2567.0    1452.7377       0.0000      50.8611     -68.9548       1.2119      -1.1284      -0.4360     253.0676       0.0005
    2568.0    1454.5912       0.0000      50.8611     -68.9933       1.1988      -1.1190      -0.4299     253.0676       0.0005
    2569.0    1455.7454       0.0000      50.8611     -66.2106       1.1285      -1.0326      -0.4551     253.0676       0.0005
    2570.0    1452.0459       0.0000      50.8611     -62.6708       1.2595      -1.1190      -0.5777     253.0676       0.0005
    2571.0    1455.3028       0.0000      50.8611     -69.7113       1.1717      -1.0975      -0.4080     253.0676       0.0005
    2572.0    1455.7454       0.0000      50.8611     -68.0022       1.1471      -1.0634      -0.4299     253.0676       0.0005
    2573.0    1453.8919       0.0000      50.8611     -68.6121       1.2052      -1.1223      -0.4394     253.0676       0.0005
    2574.0    1455.0509       0.0000      50.8611     -66.4718       1.2039      -1.1036      -0.4802     253.0676       0.0005
    2575.0    1459.3468       0.0000      50.8611     -65.4782       1.0881      -0.9886      -0.4528     255.5249       0.6766
    2576.0    1457.1718       0.0000      50.8611     -64.0579       1.2119      -1.0882      -0.5306     260.4273       0.9437
    2577.0    1461.7983       0.0000      50.8611     -64.2902       1.1939      -1.0728      -0.5178     266.4240       1.0226
    2578.0    1449.0535       0.0000      50.8611     -62.9490       1.1603      -1.0326      -0.5273     272.5273       1.0226
    2579.0    1450.8917       0.0000      50.8611     -63.4812       1.2398      -1.1097      -0.5525     278.6284       1.0226
    2580.0    1454.1581       0.0000      50.8611     -62.8947       1.3623      -1.2087      -0.6219     284.7433       1.0226
    2581.0    1462.0826       0.0000      50.8611     -66.8900       1.3862      -1.2703      -0.5492     291.0105       1.0360
    2582.0    1447.2228       0.0000      50.8611     -57.2701       1.2468      -1.0420      -0.6719     297.3780       1.0226
    2583.0    1432.4804       0.0000      50.8611     -57.8466       1.1743      -0.9924      -0.6248     303.4798       1.0185
    2584.0    1439.0141       0.0000      50.8611     -58.4204       1.2983      -1.1036      -0.6814     309.5824       1.0292
    2585.0    1438.1579       0.0000      50.8611     -53.5788       1.4141      -1.1377      -0.8387     315.6842       1.0226
    2586.0    1423.3300       0.0000      50.8611     -55.8640       1.2776      -1.0574      -0.7161     321.7879       1.0226
    2587.0    1400.9153       0.0000      50.8611     -53.2493       1.1875      -0.9506      -0.7099     327.8897       1.0226
    2588.0    1396.7984       0.0000      50.8611     -58.5252       1.3405      -1.1195      -0.7260     333.9841       1.0267
    2589.0    1362.2569       0.0000      50.8611     -49.9307       1.2001      -0.9182      -0.7726     340.0940       1.0226
    2590.0    1342.4419       0.0000      50.8611     -45.9716       1.3248      -0.9523      -0.9205     346.1958       1.0226
    2591.0    1323.7854       0.0000      50.8611     -51.6176       1.1949      -0.9369      -0.7413     352.2851       1.0226
    2592.0    1292.5093       0.0000      50.8611     -49.6490       1.2596      -0.9032      -0.8615     358.3797       1.0292
    2593.0    1280.3940       0.0000      50.8611     -49.7987       1.1769      -0.8906      -0.7536       4.4919       1.0185
    2594.0    1251.3164       0.0000      50.8611     -42.4883       1.0837      -0.7328      -0.7978      10.9985       1.0226
    2595.0    1227.0942       0.0000      50.8611     -45.4290       1.2028      -0.8533      -0.8421      17.1003       1.0226
    2596.0    1216.9722       0.0000      50.8611     -47.5900       1.1497      -0.8472      -0.7760      23.2021       1.0226
    2597.0    1197.8279       0.0000      50.8611     -44.7447       1.1023      -0.7762      -0.7822      29.3058       1.0226
    2598.0    1177.0080       0.0000      50.8611     -48.9118       1.1305      -0.8472      -0.7446      35.4088       1.0226
    2599.0    1153.1063       0.0000      50.8611     -38.1031       1.0893      -0.6711      -0.8577      41.4983       1.0226
    2600.0    1143.5804       0.0000      50.8611     -44.4324       1.0601      -0.7421      -0.7570      47.5858       1.0226
    2601.0    1131.9769       0.0000      50.8611     -43.8163       0.9682      -0.6678      -0.6942      53.6760       1.0226
    2602.0    1124.0487       0.0000      50.8611     -39.0940       0.9766      -0.6155      -0.7570      59.7790       1.0226
