~VERSION INFORMATION
VERS.           2.0   :CWLS Log ASCII Standard - VERSION 2.0
WRAP.           NO    :One Line per depth step
PROD.  Schlumberger   :LAS Producer
PROG.  DLIS to ASCII 19C2-270                          :LAS Program name and version
CREA.        2017/09/16 17:42                          :LAS Creation date {YYYY/MM/DD hh:mm}
DLIS_CREA.  2017-Sep-15 16:01                          :DLIS Creation date and time {YYYY-MMM-DD hh:mm}
SOURCE.     LPC_S3-1_A5.DLIS                           :DLIS File Name
FILE-ID.     PERFO_Perfo_WPGRT_038LTP                  :File Identification Number
#--------------------------------------------------
~WELL INFORMATION
#MNEM.UNIT      DATA             DESCRIPTION
#---- ------ --------------   -----------------------------
STRT .S         1883.0       :START TIME      
STOP .S         2380.0       :STOP TIME      
STEP .S            1.0       :STEP     
NULL .          -999.25      :NULL VALUE
COMP .        SHELL INTERNATIONAL E P                  :COMPANY
WELL .        WPP TEST 2                               :WELL
FLD  .        WILDCAT                                  :FIELD
LOC  .                                                 :LOCATION
CNTY .        HARRIS                                   :COUNTY
STAT .        TEXAS                                    :STATE
CTRY .                                                 :COUNTRY
API  .                                                 :API NUMBER
UWI  .                                                 :UNIQUE WELL ID
DATE .                                                 :LOG DATE
SRVC .        Schlumberger                             :SERVICE COMPANY
LATI .DEG                                              :LATITUDE
LONG .DEG                                              :LONGITUDE
GDAT .                                                 :GeoDetic Datum
#-----------------------------------------------------------------------------
~PARAMETER INFORMATION
#MNEM.UNIT    VALUE                      DESCRIPTION
#---- -----   --------------------       ------------------------
U-PHASE_B_COMP_PER_YT.                 0 :Phase B Comparator Period Yt
U-PHASE_A_COMP_PER_XT.                 0 :Phase A Comparator Period Xt
U-MAX_EXC_CUR_LIMIT.MA       240.00000   :Requested CM Current Limit
U-REQ_EXC_FQ.HZ              50          :Requested CM Frequency
U-TILT_Y_OFFSET.           0.19916       :WPTET Tilt Y Offset
U-TILT_Y_GAIN.           1.01796         :WPTET Tilt Y Gain
U-TILT_X_OFFSET.          -1.77103       :WPTET Tilt X Offset
U-TILT_X_GAIN.           1.00000         :WPTET Tilt X Gain
U-TILT_OFFSET_TOL.           0.00100     :WPTET Tilt Offset Calibration Tolerance
U-NO_TILT_CAL_ROTATIONS.                 3 :Number of Rotations for Tilt Calibration
HAZI .DEG        0.00000                 :Hole Azimuth
U-STD_TOL_TILT.           0.01000        :Tilt Standard Deviation Tolerance
U-GUN_POS_TOL.DEG        5.00000         :Gun Position Tolerance
ROT_ANGLE_THRESHOLD.DEG        5.00000   :Rotation Stop Angle Tolerance
STOP_ROT_ANGLE.DEG        0.00000        :Rotation Stop Angle
WITN .                                   :Witness's Name
ENGI .                                   :Engineer's Name
COUN .        HARRIS                     :County or Rig Name
FN   .        WILDCAT                    :Field Name
WN   .        WPP TEST 2                 :Well Name
CN   .        SHELL INTERNATIONAL E P    :Company Name
CLAB .        County                     :County/Rig Label
SLAB .        State                      :State/Province Label
RUN  .          1                        :RUN NUMBER
PDAT .        GROUND LEVEL               :Permanent Datum
EPD  .                                   :Elevation of Permanent Datum above Mean Sea Level
LMF  .                                   :Logging Measured From (Name of Logging Elevation Reference)
APD  .                                   :Elevation of Depth Reference (LMF) above Permanent Datum
#-----------------------------------------------------------------------------
~CURVE INFORMATION
#MNEM.UNIT   API CODE                                  DESCRIPTION
#---- -----  --------                                  -----------------------
TIME .S                                                :TIME {F10.1}
FREQ_EMF_SL.HZ                                         :Electromagnetic Field Frequency {F13.4}
PH_SH_WPPCM_SL.DEG                                     :WPPCM Phase Shift {F13.4}
FREQ_EXC_REQ_SL.HZ                                     :Requested Exciter Frequency {F13.4}
RB_SL.DEG                                              :Relative Bearing {F13.4}
SDEV_SL.DEG                                            :Sonde Deviation {F13.4}
TILX_SL.DEG                                            :X-axis Tilt {F13.4}
TILY_SL.DEG                                            :Y-axis Tilt {F13.4}
ROTA_SL.DEG                                            :Motor Rotation Angle {F13.4}
MSPE_SL.RPM                                            :Motor Speed {F13.4}
#-----------------------------------------------------------------------------
# 
#     TIME    FREQ_EMF_SL  PH_SH_WPPCM_ FREQ_EXC_REQ    RB_SL       SDEV_SL      TILX_SL      TILY_SL      ROTA_SL      MSPE_SL
#                          SL           _SL
~A  
# ...
    2135.0    1537.5444       0.0000      50.8611     147.2963       3.5637       1.9243       2.9982      48.5364       0.0005
    2136.0    1538.5668       0.0000      50.8611     146.0883       3.4506       1.9243       2.8631      48.5364       0.0005
    2137.0    1536.2342       0.0000      50.8611     148.3091       3.4469       1.8099       2.9324      48.5364       0.0005
    2138.0    1536.2342       0.0000      50.8611     146.4870       3.4152       1.8841       2.8472      48.5364       0.0005
    2139.0    1541.4263       0.0000      50.8611     147.0866       3.5728       1.9400       2.9982      49.4382       0.5125
    2140.0    1548.2144       0.0000      50.8611     152.9278       3.5373       1.6091       3.1493      53.5089       0.8178
    2141.0    1556.1122       0.0000      50.8611     160.3928       3.4803       1.1673       3.2782      59.0712       1.0210
    2142.0    1556.1122       0.0000      50.8611     165.6798       3.6017       0.8895       3.4889      65.1607       1.0210
    2143.0    1555.5862       0.0000      50.8611     173.8001       3.7730       0.4075       3.7502      71.2783       1.0226
    2144.0    1545.3296       0.0000      50.8611     124.9984       3.7758       0.0058       3.7751      77.3801       1.0226
    2145.0    1546.3701       0.0000      50.8611    -172.1296       3.8874      -0.5320       3.8507      83.4819       1.0226
    2146.0    1535.7197       0.0000      50.8611    -165.2805       4.0175      -1.0201       3.8853      89.5987       1.0317
    2147.0    1537.0366       0.0000      50.8611    -159.3540       4.1324      -1.4558       3.8666      95.7143       1.0226
    2148.0    1525.2169       0.0000      50.8611    -151.1153       4.2515      -2.0522       3.7218     101.8139       1.0226
    2149.0    1503.3871       0.0000      50.8611    -146.9228       4.3234      -2.3579       3.6213     108.3109       1.0226
    2150.0    1501.4288       0.0000      50.8611    -140.3920       4.4287      -2.8215       3.4106     114.4127       1.0226
    2151.0    1483.3861       0.0000      50.8611    -135.2654       4.5821      -3.2232       3.2533     120.5145       1.0226
    2152.0    1473.5864       0.0000      50.8611    -129.7984       4.5948      -3.5288       2.9387     126.6298       1.0226
    2153.0    1457.8463       0.0000      50.8611    -124.0327       4.6812      -3.8781       2.6178     132.7442       1.0226
    2154.0    1442.4405       0.0000      50.8611    -118.3150       4.8806      -4.2954       2.3129     138.8573       1.0137
    2155.0    1422.4547       0.0000      50.8611    -113.4166       4.9716      -4.5609       1.9733     144.9513       1.0226
    2156.0    1396.5989       0.0000      50.8611    -106.8872       5.0125      -4.7958       1.4542     151.0488       1.0137
    2157.0    1384.3607       0.0000      50.8611    -102.3767       5.1033      -4.9844       1.0925     157.1402       1.0226
    2158.0    1353.7619       0.0000      50.8611     -96.5934       5.1391      -5.1049       0.5893     163.2403       1.0121
    2159.0    1347.3771       0.0000      50.8611     -92.0504       5.2227      -5.2192       0.1867     169.3457       1.0226
    2160.0    1314.2523       0.0000      50.8611     -86.3701       5.2577      -5.2471      -0.3324     175.4476       1.0226
    2161.0    1291.0705       0.0000      50.8611     -81.7068       5.3624      -5.3057      -0.7724     181.9575       1.0226
    2162.0    1252.8835       0.0000      50.8611     -76.8686       5.3601      -5.2192      -1.2160     188.0707       1.0210
    2163.0    1193.1446       0.0000      50.8611     -70.9076       5.3114      -5.0184      -1.7350     194.1752       1.0226
    2164.0    1159.8771       0.0000      50.8611     -66.1212       5.4590      -4.9905      -2.2070     200.2903       1.0226
    2165.0    1131.3273       0.0000      50.8611     -62.5524       5.4830      -4.8639      -2.5244     206.4034       1.0210
    2166.0    1103.4481       0.0000      50.8611     -57.5075       5.4429      -4.5888      -2.9208     212.4825       1.0226
    2167.0    1063.1070       0.0000      50.8611     -51.2698       5.3827      -4.1967      -3.3643     218.5721       1.0137
    2168.0    1052.4908       0.0000      50.8611     -48.1451       5.4763      -4.0762      -3.6505     224.6740       1.0226
    2169.0    1044.9049       0.0000      50.8611     -41.6852       5.3761      -3.5724      -4.0123     230.7916       1.0226
    2170.0    1035.2980       0.0000      50.8611     -37.2239       5.4615      -3.3008      -4.3456     236.8917       1.0226
    2171.0    1021.6384       0.0000      50.8611     -32.4853       5.4378      -2.9175      -4.5847     242.9936       1.0226
    2172.0    1026.9182       0.0000      50.8611     -27.0068       5.2462      -2.3797      -4.6727     249.0981       1.0226
    2173.0    1035.8997       0.0000      50.8611     -22.7454       5.1941      -2.0059      -4.7892     255.6186       1.0226
    2174.0    1035.2980       0.0000      50.8611     -17.2132       5.2713      -1.5579      -5.0345     261.7209       1.0226
    2175.0    1041.6666       0.0000      50.8611     -11.9037       5.2227      -1.0759      -5.1100     267.8222       1.0226
    2176.0    1048.1147       0.0000      50.8611      -6.0618       4.9270      -0.5197      -4.8994     273.9391       1.0317
    2177.0    1069.4636       0.0000      50.8611      -1.0650       4.8496      -0.0902      -4.8488     280.0520       1.0226
    2178.0    1091.4151       0.0000      50.8611       4.2550       4.9095       0.3639      -4.8959     286.1658       1.0137
    2179.0    1127.5066       0.0000      50.8611      10.1414       4.8465       0.8521      -4.7705     292.2571       1.0226
    2180.0    1163.3697       0.0000      50.8611      14.8513       4.6335       1.1856      -4.4780     298.3570       1.0153
    2181.0    1191.8955       0.0000      50.8611      21.1840       4.5705       1.6493      -4.2611     304.4624       1.0226
    2182.0    1233.8832       0.0000      50.8611      25.7254       4.4935       1.9488      -4.0470     310.5649       1.0226
    2183.0    1266.7173       0.0000      50.8611      32.2553       4.1805       2.2300      -3.5341     316.6798       1.0226
    2184.0    1306.5540       0.0000      50.8611      38.6654       4.1211       2.5731      -3.2167     322.7816       1.0226
    2185.0    1325.2999       0.0000      50.8611      42.1221       4.0467       2.7120      -2.9998     329.3045       1.0226
    2186.0    1341.6469       0.0000      50.8611      49.5447       3.9268       2.9870      -2.5466     335.4064       1.0226
    2187.0    1367.5424       0.0000      50.8611      57.5404       3.7976       3.2035      -2.0372     341.5089       1.0226
    2188.0    1397.4398       0.0000      50.8611      65.3023       3.6796       3.3424      -1.5368     347.6107       1.0226
    2189.0    1409.9329       0.0000      50.8611      71.5147       3.5899       3.4043      -1.1377     353.7125       1.0226
    2190.0    1422.2193       0.0000      50.8611      78.4298       3.6046       3.5310      -0.7226     304.9020       1.0226
    2191.0    1443.7886       0.0000      50.8611      88.8575       3.5444       3.5432      -0.0711       5.9300       1.0226
    2192.0    1462.2628       0.0000      50.8611      94.6994       3.2855       3.2743       0.2685      12.0221       1.0226
    2193.0    1480.7394       0.0000      50.8611     101.7937       3.3271       3.2559       0.6801      18.1213       1.0210
    2194.0    1490.6383       0.0000      50.8611     109.2474       3.4304       3.2376       1.1299      24.2238       1.0226
    2195.0    1502.8944       0.0000      50.8611     117.4751       3.3850       3.0027       1.5609      30.3388       1.0226
    2196.0    1517.6324       0.0000      50.8611     127.5966       3.4004       2.6936       2.0738      36.4536       1.0285
    2197.0    1525.2169       0.0000      50.8611     134.6528       3.3273       2.3661       2.3378      42.9652       1.0226
