~VERSION INFORMATION
VERS.           2.0   :CWLS Log ASCII Standard - VERSION 2.0
WRAP.           NO    :One Line per depth step
PROD.  Schlumberger   :LAS Producer
PROG.  DLIS to ASCII 19C2-270                          :LAS Program name and version
CREA.        2017/09/16 17:42                          :LAS Creation date {YYYY/MM/DD hh:mm}
DLIS_CREA.  2017-Sep-15 12:22                          :DLIS Creation date and time {YYYY-MMM-DD hh:mm}
SOURCE.     LPC_S1-1_B5.DLIS                           :DLIS File Name
FILE-ID.     PERFO_Perfo_WPGRT_020LTP                  :File Identification Number
#--------------------------------------------------
~WELL INFORMATION
#MNEM.UNIT      DATA             DESCRIPTION
#---- ------ --------------   -----------------------------
STRT .S         5686.0       :START TIME      
STOP .S         6834.0       :STOP TIME      
STEP .S            1.0       :STEP     
NULL .          -999.25      :NULL VALUE
COMP .        SHELL INTERNATIONAL E P                  :COMPANY
WELL .        WPP TEST 2                               :WELL
FLD  .        WILDCAT                                  :FIELD
LOC  .                                                 :LOCATION
CNTY .        HARRIS                                   :COUNTY
STAT .        TEXAS                                    :STATE
CTRY .                                                 :COUNTRY
API  .                                                 :API NUMBER
UWI  .                                                 :UNIQUE WELL ID
DATE .                                                 :LOG DATE
SRVC .        Schlumberger                             :SERVICE COMPANY
LATI .DEG                                              :LATITUDE
LONG .DEG                                              :LONGITUDE
GDAT .                                                 :GeoDetic Datum
#-----------------------------------------------------------------------------
~PARAMETER INFORMATION
#MNEM.UNIT    VALUE                      DESCRIPTION
#---- -----   --------------------       ------------------------
U-PHASE_B_COMP_PER_YT.                 0 :Phase B Comparator Period Yt
U-PHASE_A_COMP_PER_XT.                 0 :Phase A Comparator Period Xt
U-MAX_EXC_CUR_LIMIT.MA       240.00000   :Requested CM Current Limit
U-REQ_EXC_FQ.HZ              50          :Requested CM Frequency
U-TILT_Y_OFFSET.           0.19916       :WPTET Tilt Y Offset
U-TILT_Y_GAIN.           1.01796         :WPTET Tilt Y Gain
U-TILT_X_OFFSET.          -1.77103       :WPTET Tilt X Offset
U-TILT_X_GAIN.           1.00000         :WPTET Tilt X Gain
U-TILT_OFFSET_TOL.           0.00100     :WPTET Tilt Offset Calibration Tolerance
U-NO_TILT_CAL_ROTATIONS.                 3 :Number of Rotations for Tilt Calibration
HAZI .DEG        0.00000                 :Hole Azimuth
U-STD_TOL_TILT.           0.01000        :Tilt Standard Deviation Tolerance
U-GUN_POS_TOL.DEG        5.00000         :Gun Position Tolerance
ROT_ANGLE_THRESHOLD.DEG        5.00000   :Rotation Stop Angle Tolerance
STOP_ROT_ANGLE.DEG       80.00000        :Rotation Stop Angle
WITN .                                   :Witness's Name
ENGI .                                   :Engineer's Name
COUN .        HARRIS                     :County or Rig Name
FN   .        WILDCAT                    :Field Name
WN   .        WPP TEST 2                 :Well Name
CN   .        SHELL INTERNATIONAL E P    :Company Name
CLAB .        County                     :County/Rig Label
SLAB .        State                      :State/Province Label
RUN  .          1                        :RUN NUMBER
PDAT .        GROUND LEVEL               :Permanent Datum
EPD  .                                   :Elevation of Permanent Datum above Mean Sea Level
LMF  .                                   :Logging Measured From (Name of Logging Elevation Reference)
APD  .                                   :Elevation of Depth Reference (LMF) above Permanent Datum
#-----------------------------------------------------------------------------
~CURVE INFORMATION
#MNEM.UNIT   API CODE                                  DESCRIPTION
#---- -----  --------                                  -----------------------
TIME .S                                                :TIME {F10.1}
FREQ_EMF_SL.HZ                                         :Electromagnetic Field Frequency {F13.4}
PH_SH_WPPCM_SL.DEG                                     :WPPCM Phase Shift {F13.4}
FREQ_EXC_REQ_SL.HZ                                     :Requested Exciter Frequency {F13.4}
RB_SL.DEG                                              :Relative Bearing {F13.4}
SDEV_SL.DEG                                            :Sonde Deviation {F13.4}
TILX_SL.DEG                                            :X-axis Tilt {F13.4}
TILY_SL.DEG                                            :Y-axis Tilt {F13.4}
ROTA_SL.DEG                                            :Motor Rotation Angle {F13.4}
MSPE_SL.RPM                                            :Motor Speed {F13.4}
#-----------------------------------------------------------------------------
# 
#     TIME    FREQ_EMF_SL  PH_SH_WPPCM_ FREQ_EXC_REQ    RB_SL       SDEV_SL      TILX_SL      TILY_SL      ROTA_SL      MSPE_SL
#                          SL           _SL
~A  
# ...
    6694.0    1239.8774       0.0000      50.8611      11.2231       4.6666       0.9073      -4.5772     117.1582       1.0226
    6695.0    1266.0533       0.0000      50.8611      18.0327       4.4039       1.3620      -4.1872     123.2730       1.0226
    6696.0    1277.9807       0.0000      50.8611      24.0750       4.4078       1.7964      -4.0237     129.3748       1.0226
    6697.0    1290.3570       0.0000      50.8611      28.7882       4.2568       2.0485      -3.7299     135.4770       1.0226
    6698.0    1314.2523       0.0000      50.8611      32.6529       4.0428       2.1802      -3.4028     141.5786       1.0226
    6699.0    1338.3490       0.0000      50.8611      40.4992       3.9044       2.5342      -2.9681     147.6808       1.0226
    6700.0    1349.5681       0.0000      50.8611      46.8756       3.8539       2.8117      -2.6335     153.7827       1.0226
    6701.0    1370.6140       0.0000      50.8611      54.2080       3.8497       3.1219      -2.2503     160.2812       1.0130
    6702.0    1397.0962       0.0000      50.8611      62.3294       3.6492       3.2312      -1.6930     166.3822       1.0226
    6703.0    1408.8076       0.0000      50.8611      68.6389       3.5373       3.2937      -1.2879     172.4970       1.0226
    6704.0    1428.8477       0.0000      50.8611      79.1679       3.6590       3.5927      -0.6860     178.5989       1.0226
    6705.0    1440.5573       0.0000      50.8611      80.5759       3.3276       3.2825      -0.5444     184.7005       1.0314
    6706.0    1456.0247       0.0000      50.8611      91.8666       3.3759       3.3740       0.1098     190.8036       1.0226
    6707.0    1467.6190       0.0000      50.8611      99.5117       3.5619       3.5124       0.5891     196.9063       1.0226
    6708.0    1480.8421       0.0000      50.8611     107.5740       3.3328       3.1769       1.0056     203.0082       1.0226
    6709.0    1496.6020       0.0000      50.8611     115.5706       3.1666       2.8556       1.3660     209.1101       1.0130
    6710.0    1510.6088       0.0000      50.8611     122.3879       3.2738       2.7641       1.7529     215.2126       1.0236
    6711.0    1515.3556       0.0000      50.8611     132.4319       3.4249       2.5268       2.3102     221.3160       1.0236
    6712.0    1521.9155       0.0000      50.8611     138.8490       3.2419       2.1326       2.4404     227.4184       1.0216
    6713.0    1528.5327       0.0000      50.8611     143.2417       3.4182       2.0448       2.7380     233.9411       1.0226
    6714.0    1531.2480       0.0000      50.8611     153.5100       3.4500       1.5375       3.0871     240.0430       1.0226
    6715.0    1521.9155       0.0000      50.8611     162.4409       3.4273       1.0339       3.2658     246.1325       1.0226
    6716.0    1516.2678       0.0000      50.8611     169.5381       3.5212       0.6390       3.4626     252.2344       1.0226
    6717.0    1521.6115       0.0000      50.8611     177.3744       3.5929       0.1644       3.5891     258.3494       1.0226
    6718.0    1509.4535       0.0000      50.8611    -177.3886       3.7824      -0.1718       3.7784     264.4512       1.0226
    6719.0    1505.0271       0.0000      50.8611    -171.6242       3.8162      -0.5549       3.7753     270.5530       1.0226
    6720.0    1490.2580       0.0000      50.8611    -164.1763       3.9010      -1.0629       3.7526     276.6428       1.0226
    6721.0    1483.6762       0.0000      50.8611    -161.9017       4.1093      -1.2749       3.9048     282.7444       1.0226
    6722.0    1464.5620       0.0000      50.8611    -149.7018       4.0422      -2.0373       3.4891     288.8490       1.0226
    6723.0    1453.5758       0.0000      50.8611    -145.6650       4.2890      -2.4174       3.5406     294.9483       1.0226
    6724.0    1447.0352       0.0000      50.8611    -138.5182       4.5966      -3.0445       3.4399     301.0377       1.0226
    6725.0    1434.6786       0.0000      50.8611    -133.0615       4.2350      -3.0928       2.8902     307.5463       1.0334
    6726.0    1415.0023       0.0000      50.8611    -128.1339       4.3889      -3.4506       2.7085     313.6505       1.0226
    6727.0    1398.3790       0.0000      50.8611    -122.2095       4.5684      -3.8634       2.4336     319.7526       1.0236
    6728.0    1389.5751       0.0000      50.8611    -118.9384       4.7579      -4.1624       2.2996     325.8564       1.0236
    6729.0    1373.2910       0.0000      50.8611    -112.1542       4.8029      -4.4473       1.8089     331.9577       1.0324
    6730.0    1361.9168       0.0000      50.8611    -107.4733       4.8774      -4.6519       1.4629     338.0607       1.0226
    6731.0    1337.6871       0.0000      50.8611    -100.4292       5.1530      -5.0677       0.9314     344.1744       1.0236
    6732.0    1328.2361       0.0000      50.8611     -94.1406       5.1978      -5.1815       0.3748     350.2774       1.0226
    6733.0    1302.7562       0.0000      50.8611     -88.6168       4.6986      -4.6935      -0.1045     356.3792       1.0226
    6734.0    1286.2964       0.0000      50.8611     -84.6621       5.1387      -5.1160      -0.4770       2.4810       1.0226
    6735.0    1274.4211       0.0000      50.8611     -80.6159       5.2595      -5.1889      -0.8564       8.5709       1.0226
    6736.0    1249.0955       0.0000      50.8611     -76.2121       5.3318      -5.1778      -1.2690      14.6604       1.0226
    6737.0    1207.2064       0.0000      50.8611     -71.3205       5.3738      -5.0900      -1.7188      21.1576       1.0130
    6738.0    1173.3398       0.0000      50.8611     -63.0526       4.9537      -4.4146      -2.2428      27.2733       1.0236
    6739.0    1143.4650       0.0000      50.8611     -60.7196       5.3438      -4.6593      -2.6108      33.3759       1.0334
    6740.0    1110.9446       0.0000      50.8611     -56.4246       5.2571      -4.3781      -2.9045      39.4909       1.0226
    6741.0    1094.4598       0.0000      50.8611     -51.8358       5.3671      -4.2175      -3.3134      45.6057       1.0226
    6742.0    1072.4452       0.0000      50.8611     -45.4528       5.3685      -3.8232      -3.7632      51.7076       1.0226
    6743.0    1073.9128       0.0000      50.8611     -40.3850       5.3482      -3.4617      -4.0714      57.8225       1.0226
    6744.0    1052.2916       0.0000      50.8611     -36.5200       5.2081      -3.0965      -4.1834      63.9246       1.0226
    6745.0    1046.4612       0.0000      50.8611     -31.3396       4.9960      -2.5959      -4.2652      70.0261       1.0226
    6746.0    1048.4575       0.0000      50.8611     -27.7608       5.0232      -2.3371      -4.4439      76.1279       1.0226
    6747.0    1060.0785       0.0000      50.8611     -21.3782       4.9845      -1.8149      -4.6408      82.2563       1.0236
    6748.0    1067.3918       0.0000      50.8611     -17.3103       5.0130      -1.4899      -4.7854      88.3457       1.0130
    6749.0    1088.4288       0.0000      50.8611      -8.7043       4.7791      -0.7237      -4.7225      94.8438       1.0236
    6750.0    1105.8651       0.0000      50.8611      -5.3673       4.8888      -0.4567      -4.8672     100.9587       1.0226
    6751.0    1135.5663       0.0000      50.8611       0.0232       4.6666       0.0037      -4.6665     107.0605       1.0226
    6752.0    1175.2514       0.0000      50.8611       3.9232       4.6479       0.3176      -4.6370     113.1499       1.0226
    6753.0    1214.1846       0.0000      50.8611       9.8373       4.4496       0.7595      -4.3841     119.2517       1.0226
    6754.0    1246.8804       0.0000      50.8611      16.1042       4.4172       1.2229      -4.2432     125.3411       1.0226
    6755.0    1273.1403       0.0000      50.8611      20.3310       4.2915       1.4899      -4.0237     131.4430       1.0226
    6756.0    1285.6383       0.0000      50.8611      27.1139       4.2414       1.9317      -3.7745     137.5449       1.0226
