~VERSION INFORMATION
VERS.           2.0   :CWLS Log ASCII Standard - VERSION 2.0
WRAP.           NO    :One Line per depth step
PROD.  Schlumberger   :LAS Producer
PROG.  DLIS to ASCII 19C2-270                          :LAS Program name and version
CREA.        2017/09/16 17:42                          :LAS Creation date {YYYY/MM/DD hh:mm}
DLIS_CREA.  2017-Sep-15 18:49                          :DLIS Creation date and time {YYYY-MMM-DD hh:mm}
SOURCE.     LPC_S5-1_AV.DLIS                           :DLIS File Name
FILE-ID.     PERFO_Perfo_WPGRT_057LTP                  :File Identification Number
#--------------------------------------------------
~WELL INFORMATION
#MNEM.UNIT      DATA             DESCRIPTION
#---- ------ --------------   -----------------------------
STRT .S         6545.0       :START TIME      
STOP .S         7010.0       :STOP TIME      
STEP .S            1.0       :STEP     
NULL .          -999.25      :NULL VALUE
COMP .        SHELL INTERNATIONAL E P                  :COMPANY
WELL .        WPP TEST 2                               :WELL
FLD  .        WILDCAT                                  :FIELD
LOC  .        NA                                       :LOCATION
CNTY .        HARRIS                                   :COUNTY
STAT .        TEXAS                                    :STATE
CTRY .                                                 :COUNTRY
API  .        NA                                       :API NUMBER
UWI  .                                                 :UNIQUE WELL ID
DATE .        15-Sep-2017                              :LOG DATE {DD-MMM-YYYY}
SRVC .        Schlumberger                             :SERVICE COMPANY
LATI .DEG                                              :LATITUDE
LONG .DEG                                              :LONGITUDE
GDAT .                                                 :GeoDetic Datum
SECT .        NA                                       :Section
RANG .        NA                                       :Range
TOWN .        NA                                       :Township
#-----------------------------------------------------------------------------
~PARAMETER INFORMATION
#MNEM.UNIT    VALUE                      DESCRIPTION
#---- -----   --------------------       ------------------------
U-PHASE_B_COMP_PER_YT.                 0 :Phase B Comparator Period Yt
U-PHASE_A_COMP_PER_XT.                 0 :Phase A Comparator Period Xt
U-MAX_EXC_CUR_LIMIT.MA       240.00000   :Requested CM Current Limit
U-REQ_EXC_FQ.HZ              50          :Requested CM Frequency
U-TILT_Y_OFFSET.           0.19916       :WPTET Tilt Y Offset
U-TILT_Y_GAIN.           1.01796         :WPTET Tilt Y Gain
U-TILT_X_OFFSET.          -1.77103       :WPTET Tilt X Offset
U-TILT_X_GAIN.           1.00000         :WPTET Tilt X Gain
U-TILT_OFFSET_TOL.           0.00100     :WPTET Tilt Offset Calibration Tolerance
U-NO_TILT_CAL_ROTATIONS.                 3 :Number of Rotations for Tilt Calibration
HAZI .DEG        0.00000                 :Hole Azimuth
U-STD_TOL_TILT.           0.01000        :Tilt Standard Deviation Tolerance
U-GUN_POS_TOL.DEG        5.00000         :Gun Position Tolerance
ROT_ANGLE_THRESHOLD.DEG        5.00000   :Rotation Stop Angle Tolerance
STOP_ROT_ANGLE.DEG        0.00000        :Rotation Stop Angle
WITN .        MR. DHRUA ARORA            :Witness's Name
ENGI .        MORRIS MOORE               :Engineer's Name
COUN .        HARRIS                     :County or Rig Name
FN   .        WILDCAT                    :Field Name
WN   .        WPP TEST 2                 :Well Name
CN   .        SHELL INTERNATIONAL E P    :Company Name
CLAB .        County                     :County/Rig Label
SLAB .        State                      :State/Province Label
RUN  .          1                        :RUN NUMBER
PDAT .        GROUND LEVEL               :Permanent Datum
EPD  .                                   :Elevation of Permanent Datum above Mean Sea Level
LMF  .          NA                       :Logging Measured From (Name of Logging Elevation Reference)
APD  .                                   :Elevation of Depth Reference (LMF) above Permanent Datum
#-----------------------------------------------------------------------------
~CURVE INFORMATION
#MNEM.UNIT   API CODE                                  DESCRIPTION
#---- -----  --------                                  -----------------------
TIME .S                                                :TIME {F10.1}
FREQ_EMF_SL.HZ                                         :Electromagnetic Field Frequency {F13.4}
PH_SH_WPPCM_SL.DEG                                     :WPPCM Phase Shift {F13.4}
FREQ_EXC_REQ_SL.HZ                                     :Requested Exciter Frequency {F13.4}
RB_SL.DEG                                              :Relative Bearing {F13.4}
SDEV_SL.DEG                                            :Sonde Deviation {F13.4}
TILX_SL.DEG                                            :X-axis Tilt {F13.4}
TILY_SL.DEG                                            :Y-axis Tilt {F13.4}
ROTA_SL.DEG                                            :Motor Rotation Angle {F13.4}
MSPE_SL.RPM                                            :Motor Speed {F13.4}
#-----------------------------------------------------------------------------
# 
#     TIME    FREQ_EMF_SL  PH_SH_WPPCM_ FREQ_EXC_REQ    RB_SL       SDEV_SL      TILX_SL      TILY_SL      ROTA_SL      MSPE_SL
#                          SL           _SL
~A  
# ...
    6860.0    1302.3733       0.0000      50.8611     -48.8931       0.8171      -0.6158      -0.5368     212.0623       1.0239
    6861.0    1309.0655       0.0000      50.8611     -50.9272       0.7870      -0.6110      -0.4959     218.5834       1.0213
    6862.0    1328.8579       0.0000      50.8611     -51.7737       0.8678      -0.6817      -0.5368     224.6904       1.0226
    6863.0    1336.7396       0.0000      50.8611     -49.3997       0.9507      -0.7219      -0.6186     230.7869       1.0226
    6864.0    1339.5925       0.0000      50.8611     -51.0282       0.9248      -0.7203      -0.5777     236.8915       1.0226
    6865.0    1354.7688       0.0000      50.8611     -54.9174       1.0937      -0.8938      -0.6301     242.9810       1.0133
    6866.0    1369.6578       0.0000      50.8611     -57.3864       0.8163      -0.6865      -0.4403     249.0829       1.0226
    6867.0    1369.2350       0.0000      50.8611     -63.9206       0.9899      -0.8890      -0.4354     255.2014       1.0226
    6868.0    1379.6555       0.0000      50.8611     -54.7903       0.8783      -0.7171      -0.5058     261.3141       1.0226
    6869.0    1399.3188       0.0000      50.8611     -54.8954       0.8457      -0.6913      -0.4861     267.4159       1.0226
    6870.0    1406.5882       0.0000      50.8611     -53.5798       0.7466      -0.5998      -0.4354     273.5309       1.0226
    6871.0    1415.4243       0.0000      50.8611     -65.0415       0.8848      -0.8022      -0.3733     279.6339       1.0321
    6872.0    1424.0243       0.0000      50.8611     -66.2813       0.9650      -0.8825      -0.3880     285.7475       1.0226
    6873.0    1429.1158       0.0000      50.8611     -59.0500       0.8943      -0.7669      -0.4600     292.2570       1.0226
    6874.0    1440.4763       0.0000      50.8611     -63.9999       1.0267      -0.9227      -0.4501     298.3588       1.0226
    6875.0    1447.8376       0.0000      50.8611     -74.9835       0.8943      -0.8617      -0.2343     304.4606       1.0226
    6876.0    1459.1294       0.0000      50.8611     -60.7652       0.9884      -0.8617      -0.4812     310.5628       1.0213
    6877.0    1469.8720       0.0000      50.8611     -63.3550       0.9138      -0.8167      -0.4093     316.6654       1.0226
    6878.0    1476.4117       0.0000      50.8611     -66.5998       1.0834      -0.9934      -0.4289     322.7799       1.0213
    6879.0    1477.1533       0.0000      50.8611     -68.6565       1.0391      -0.9677      -0.3782     328.8706       1.0226
    6880.0    1485.7710       0.0000      50.8611     -60.4096       1.0671      -0.9275      -0.5270     334.9709       1.0133
    6881.0    1488.9174       0.0000      50.8611     -67.0843       1.0894      -1.0030      -0.4240     341.0602       1.0133
    6882.0    1489.6716       0.0000      50.8611     -61.3869       1.0273      -0.9018      -0.4910     347.1644       1.0226
    6883.0    1492.4548       0.0000      50.8611     -59.5557       0.9883      -0.8520      -0.5008     353.2662       1.0226
    6884.0    1487.2796       0.0000      50.8611     -64.5802       1.0715      -0.9677      -0.4600     316.1811       1.0226
    6885.0    1483.3861       0.0000      50.8611     -57.4189       1.0646      -0.8970      -0.5728       5.9036       1.0226
    6886.0    1480.2632       0.0000      50.8611     -62.0663       1.1354      -1.0030      -0.5319      12.0062       1.0226
    6887.0    1477.9013       0.0000      50.8611     -62.2200       1.0539      -0.9323      -0.4910      18.1117       1.0321
    6888.0    1474.4282       0.0000      50.8611     -62.1866       1.1289      -0.9982      -0.5270      24.2104       1.0226
    6889.0    1473.6866       0.0000      50.8611     -60.2921       1.1659      -1.0127      -0.5777      30.3254       1.0321
    6890.0    1468.2704       0.0000      50.8611     -62.3004       1.1332      -1.0030      -0.5270      36.4392       1.0133
    6891.0    1457.6827       0.0000      50.8611     -57.7136       1.1393      -0.9629      -0.6088      42.5302       1.0226
    6892.0    1453.9555       0.0000      50.8611     -58.7494       1.1323      -0.9677      -0.5875      48.6320       1.0226
    6893.0    1437.5313       0.0000      50.8611     -51.9912       1.0608      -0.8359      -0.6497      54.7339       1.0226
    6894.0    1429.1158       0.0000      50.8611     -49.2092       1.1195      -0.8472      -0.7315      60.8485       1.0226
    6895.0    1416.9076       0.0000      50.8611     -60.5353       1.5098      -1.3163      -0.7364      66.9506       1.0226
    6896.0    1408.3932       0.0000      50.8611     -55.0053       1.1327      -0.9275      -0.6497      73.0386       1.0133
    6897.0    1397.1985       0.0000      50.8611     -69.2736       0.9933      -0.9275      -0.3520      79.5372       1.0226
    6898.0    1385.0911       0.0000      50.8611     -53.5598       0.9452      -0.7604      -0.5614      85.6390       1.0226
    6899.0    1368.5887       0.0000      50.8611     -40.3312       1.0343      -0.6737      -0.7723      91.7543       1.0226
    6900.0    1363.7159       0.0000      50.8611     -54.0186       1.1471      -0.9275      -0.6742      97.8557       1.0226
    6901.0    1352.1635       0.0000      50.8611     -51.8136       1.1169      -0.8777      -0.6906     103.9452       1.0226
    6902.0    1331.6761       0.0000      50.8611     -59.3026       1.1335      -0.9693      -0.5712     110.0473       1.0226
    6903.0    1322.0851       0.0000      50.8611     -52.2019       1.0843      -0.8568      -0.6644     116.1491       1.0226
    6904.0    1304.2091       0.0000      50.8611     -51.4109       1.0510      -0.8215      -0.6546     122.2525       1.0239
    6905.0    1283.3563       0.0000      50.8611     -50.5746       1.1030      -0.8520      -0.7004     128.3550       1.0146
    6906.0    1257.2884       0.0000      50.8611     -52.8998       1.2394      -0.9886      -0.7462     134.4685       1.0226
    6907.0    1235.9816       0.0000      50.8611     -57.9545       0.8956      -0.7572      -0.4747     140.5704       1.0226
    6908.0    1232.7776       0.0000      50.8611     -53.3510       1.0377      -0.8327      -0.6186     146.6723       1.0226
    6909.0    1231.1340       0.0000      50.8611     -49.5052       1.0886      -0.8279      -0.7053     153.1699       1.0226
    6910.0    1205.5516       0.0000      50.8611     -49.5588       0.9612      -0.7315      -0.6235     159.2591       1.0226
    6911.0    1204.2289       0.0000      50.8611     -53.3510       1.0377      -0.8327      -0.6186     165.3626       1.0239
    6912.0    1200.3652       0.0000      50.8611     -47.1408       0.9569      -0.7010      -0.6497     171.4760       1.0226
    6913.0    1205.7985       0.0000      50.8611     -49.5588       0.9612      -0.7315      -0.6235     177.5782       1.0226
    6914.0    1216.2271       0.0000      50.8611     -48.4836       1.0263      -0.7669      -0.6808     183.6821       1.0239
    6915.0    1225.4704       0.0000      50.8611     -48.7189       1.0009      -0.7524      -0.6595     189.7952       1.0226
    6916.0    1237.0352       0.0000      50.8611     -56.2455       0.9113      -0.7572      -0.5058     195.9102       1.0321
    6917.0    1250.8455       0.0000      50.8611     -52.8774       0.9060      -0.7219      -0.5466     201.9997       1.0226
    6918.0    1281.9591       0.0000      50.8611     -52.3215       0.8618      -0.6817      -0.5270     208.1147       1.0226
    6919.0    1295.4640       0.0000      50.8611     -52.1645       0.8753      -0.6913      -0.5368     214.2193       1.0226
    6920.0    1309.9449       0.0000      50.8611     -46.6028       0.9454      -0.6865      -0.6497     220.3170       1.0146
    6921.0    1319.4814       0.0000      50.8611     -54.7057       0.9215      -0.7524      -0.5319     226.8289       1.0226
    6922.0    1333.5977       0.0000      50.8611     -57.7670       0.8534      -0.7219      -0.4551     232.9316       1.0226
