~VERSION INFORMATION
VERS.           2.0   :CWLS Log ASCII Standard - VERSION 2.0
WRAP.           NO    :One Line per depth step
PROD.  Schlumberger   :LAS Producer
PROG.  DLIS to ASCII 19C2-270                          :LAS Program name and version
CREA.        2017/09/16 17:42                          :LAS Creation date {YYYY/MM/DD hh:mm}
DLIS_CREA.  2017-Sep-15 11:44                          :DLIS Creation date and time {YYYY-MMM-DD hh:mm}
SOURCE.     LPC_S1-1_AV_4TH-LOG.DLIS                   :DLIS File Name
FILE-ID.     PERFO_Perfo_WPGRT_017LTP                  :File Identification Number
#--------------------------------------------------
~WELL INFORMATION
#MNEM.UNIT      DATA             DESCRIPTION
#---- ------ --------------   -----------------------------
STRT .S         3425.0       :START TIME      
STOP .S         3810.0       :STOP TIME      
STEP .S            1.0       :STEP     
NULL .          -999.25      :NULL VALUE
COMP .        SHELL INTERNATIONAL E P                  :COMPANY
WELL .        WPP TEST 2                               :WELL
FLD  .        WILDCAT                                  :FIELD
LOC  .                                                 :LOCATION
CNTY .        HARRIS                                   :COUNTY
STAT .        TEXAS                                    :STATE
CTRY .                                                 :COUNTRY
API  .                                                 :API NUMBER
UWI  .                                                 :UNIQUE WELL ID
DATE .                                                 :LOG DATE
SRVC .        Schlumberger                             :SERVICE COMPANY
LATI .DEG                                              :LATITUDE
LONG .DEG                                              :LONGITUDE
GDAT .                                                 :GeoDetic Datum
#-----------------------------------------------------------------------------
~PARAMETER INFORMATION
#MNEM.UNIT    VALUE                      DESCRIPTION
#---- -----   --------------------       ------------------------
U-PHASE_B_COMP_PER_YT.                 0 :Phase B Comparator Period Yt
U-PHASE_A_COMP_PER_XT.                 0 :Phase A Comparator Period Xt
U-MAX_EXC_CUR_LIMIT.MA       240.00000   :Requested CM Current Limit
U-REQ_EXC_FQ.HZ              50          :Requested CM Frequency
U-TILT_Y_OFFSET.           0.19916       :WPTET Tilt Y Offset
U-TILT_Y_GAIN.           1.01796         :WPTET Tilt Y Gain
U-TILT_X_OFFSET.          -1.77103       :WPTET Tilt X Offset
U-TILT_X_GAIN.           1.00000         :WPTET Tilt X Gain
U-TILT_OFFSET_TOL.           0.00100     :WPTET Tilt Offset Calibration Tolerance
U-NO_TILT_CAL_ROTATIONS.                 3 :Number of Rotations for Tilt Calibration
HAZI .DEG        0.00000                 :Hole Azimuth
U-STD_TOL_TILT.           0.01000        :Tilt Standard Deviation Tolerance
U-GUN_POS_TOL.DEG        5.00000         :Gun Position Tolerance
ROT_ANGLE_THRESHOLD.DEG        5.00000   :Rotation Stop Angle Tolerance
STOP_ROT_ANGLE.DEG       80.00000        :Rotation Stop Angle
WITN .                                   :Witness's Name
ENGI .                                   :Engineer's Name
COUN .        HARRIS                     :County or Rig Name
FN   .        WILDCAT                    :Field Name
WN   .        WPP TEST 2                 :Well Name
CN   .        SHELL INTERNATIONAL E P    :Company Name
CLAB .        County                     :County/Rig Label
SLAB .        State                      :State/Province Label
RUN  .          1                        :RUN NUMBER
PDAT .        GROUND LEVEL               :Permanent Datum
EPD  .                                   :Elevation of Permanent Datum above Mean Sea Level
LMF  .                                   :Logging Measured From (Name of Logging Elevation Reference)
APD  .                                   :Elevation of Depth Reference (LMF) above Permanent Datum
#-----------------------------------------------------------------------------
~CURVE INFORMATION
#MNEM.UNIT   API CODE                                  DESCRIPTION
#---- -----  --------                                  -----------------------
TIME .S                                                :TIME {F10.1}
FREQ_EMF_SL.HZ                                         :Electromagnetic Field Frequency {F13.4}
PH_SH_WPPCM_SL.DEG                                     :WPPCM Phase Shift {F13.4}
FREQ_EXC_REQ_SL.HZ                                     :Requested Exciter Frequency {F13.4}
RB_SL.DEG                                              :Relative Bearing {F13.4}
SDEV_SL.DEG                                            :Sonde Deviation {F13.4}
TILX_SL.DEG                                            :X-axis Tilt {F13.4}
TILY_SL.DEG                                            :Y-axis Tilt {F13.4}
ROTA_SL.DEG                                            :Motor Rotation Angle {F13.4}
MSPE_SL.RPM                                            :Motor Speed {F13.4}
#-----------------------------------------------------------------------------
# 
#     TIME    FREQ_EMF_SL  PH_SH_WPPCM_ FREQ_EXC_REQ    RB_SL       SDEV_SL      TILX_SL      TILY_SL      ROTA_SL      MSPE_SL
#                          SL           _SL
~A  
# ...
    3488.0    1596.9696       0.0000      50.8611     -65.9381       1.1164      -1.0194      -0.4551     132.3484       1.0226
    3489.0    1582.1071       0.0000      50.8611     -61.7903       1.1114      -0.9792      -0.5251     138.4503       1.0226
    3490.0    1560.5123       0.0000      50.8611     -65.7697       1.1270      -1.0249      -0.4612     144.5522       1.0226
    3491.0    1541.4579       0.0000      50.8611     -59.4457       1.0571      -0.9105      -0.5368     150.6637       1.0151
    3492.0    1512.0968       0.0000      50.8611     -60.2263       1.1157      -0.9677      -0.5542     156.7444       1.0196
    3493.0    1486.9667       0.0000      50.8611     -61.2610       1.1168      -0.9792      -0.5368     162.8339       1.0226
    3494.0    1466.1471       0.0000      50.8611     -60.5480       1.0464      -0.9105      -0.5133     168.9358       1.0226
    3495.0    1437.0398       0.0000      50.8611     -60.7900       1.1608      -1.0134      -0.5660     175.0377       1.0226
    3496.0    1410.2739       0.0000      50.8611     -57.9436       1.1045      -0.9330      -0.5838     181.1274       1.0226
    3497.0    1383.7133       0.0000      50.8611     -65.4593       1.1171      -1.0134      -0.4612     187.2424       1.0303
    3498.0    1352.5303       0.0000      50.8611     -53.3836       1.2106      -0.9677      -0.7234     193.7514       1.0226
    3499.0    1324.1526       0.0000      50.8611     -56.5645       1.1826      -0.9848      -0.6534     199.8637       1.0196
    3500.0    1275.4492       0.0000      50.8611     -64.5565       1.2620      -1.1394      -0.5424     205.9559       1.0226
    3501.0    1192.0214       0.0000      50.8611     -56.0120       1.1688      -0.9677      -0.6539     212.0463       1.0151
    3502.0    1129.9191       0.0000      50.8611     -49.9810       1.1013      -0.8417      -0.7060     218.1613       1.0196
    3503.0    1059.8333       0.0000      50.8611     -48.4794       1.2353      -0.9220      -0.8169     224.2509       1.0226
    3504.0    1016.4961       0.0000      50.8611     -58.8909       1.2252      -1.0485      -0.6242     230.3528       1.0226
    3505.0     988.1265       0.0000      50.8611     -58.0199       1.1470      -0.9732      -0.6068     236.4738       1.0257
    3506.0     964.3277       0.0000      50.8611     -50.4088       1.2102      -0.9330      -0.7704     242.5829       1.0226
    3507.0     948.8867       0.0000      50.8611     -50.4844       1.1205      -0.8643      -0.7121     248.6834       1.0196
    3508.0     937.5011       0.0000      50.8611     -52.3334       1.1071      -0.8758      -0.6769     254.7708       1.0151
    3509.0     926.0330       0.0000      50.8611     -58.2303       1.2842      -1.0882      -0.6774     260.8515       1.0151
    3510.0     919.3031       0.0000      50.8611     -56.2056       1.0398      -0.8643      -0.5777     267.3481       1.0226
    3511.0     911.1233       0.0000      50.8611     -48.1410       1.0845      -0.8070      -0.7239     273.4508       1.0226
    3512.0     911.1233       0.0000      50.8611     -46.9302       1.0507      -0.7669      -0.7178     279.5526       1.0226
    3513.0     913.6549       0.0000      50.8611     -51.1496       0.9491      -0.7382      -0.5951     285.6666       1.0226
    3514.0     919.3031       0.0000      50.8611     -41.2346       0.8746      -0.5721      -0.6534     291.7693       1.0257
    3515.0     920.1580       0.0000      50.8611     -43.2878       0.9572      -0.6464      -0.6999     297.8842       1.0226
    3516.0     929.0495       0.0000      50.8611     -45.7020       0.9451      -0.6766      -0.6595     303.9860       1.0226
    3517.0     944.1567       0.0000      50.8611     -48.4432       0.9328      -0.6981      -0.6186     310.0878       1.0226
    3518.0     955.1577       0.0000      50.8611     -46.4906       1.0421      -0.7553      -0.7178     316.1897       1.0226
    3519.0     973.6754       0.0000      50.8611     -52.3214       0.8856      -0.6981      -0.5430     322.2915       1.0226
    3520.0     994.3294       0.0000      50.8611     -45.5091       0.8664      -0.6177      -0.6068     328.3810       1.0226
    3521.0    1020.3011       0.0000      50.8611     -56.6801       0.8707      -0.7267      -0.4786     334.4924       1.0226
    3522.0    1047.4643       0.0000      50.8611     -53.1233       0.9240      -0.7382      -0.5542     340.7019       1.0226
    3523.0    1111.8603       0.0000      50.8611     -54.3709       0.9101      -0.7382      -0.5312     347.0944       1.0226
    3524.0    1199.9328       0.0000      50.8611     -52.2956       0.7816      -0.6177      -0.4786     353.1969       1.0226
    3525.0    1259.1250       0.0000      50.8611     -49.7251       1.0091      -0.7669      -0.6534     255.7987       1.0226
    3526.0    1302.4598       0.0000      50.8611     -55.9102       0.8637      -0.7151      -0.4842       5.4052       1.0257
    3527.0    1326.6509       0.0000      50.8611     -61.9676       0.8559      -0.7553      -0.4024      11.5295       1.0226
    3528.0    1358.4302       0.0000      50.8611     -57.9115       0.8613      -0.7295      -0.4579      17.6351       1.0257
    3529.0    1388.0599       0.0000      50.8611     -57.3494       0.7677      -0.6464      -0.4142      23.7462       1.0257
    3530.0    1416.3818       0.0000      50.8611     -58.1977       0.8081      -0.6865      -0.4259      29.8612       1.0226
    3531.0    1445.5002       0.0000      50.8611     -59.2105       0.8328      -0.7151      -0.4259      35.9630       1.0226
    3532.0    1469.6714       0.0000      50.8611     -67.2742       0.8936      -0.8241      -0.3441      42.0524       1.0226
    3533.0    1497.4394       0.0000      50.8611     -65.0248       0.8146      -0.7382      -0.3441      48.1542       1.0226
    3534.0    1527.1276       0.0000      50.8611     -69.3348       0.8940      -0.8356      -0.3150      54.3746       1.0226
    3535.0    1549.7164       0.0000      50.8611     -63.5068       0.9020      -0.8070      -0.4024      60.7659       1.0226
    3536.0    1581.5732       0.0000      50.8611     -67.7084       0.8297      -0.7669      -0.3150      66.8677       1.0226
    3537.0    1590.7806       0.0000      50.8611     -69.7818       1.0298      -0.9617      -0.3503      72.9732       1.0257
    3538.0    1603.7589       0.0000      50.8611     -60.3125       0.9862      -0.8582      -0.4842      79.0844       1.0226
    3539.0    1621.6988       0.0000      50.8611     -62.5399       0.8845      -0.7844      -0.4085      85.1862       1.0226
    3540.0    1634.6284       0.0000      50.8611     -68.1486       1.0017      -0.9275      -0.3735      91.2880       1.0226
    3541.0    1637.3712       0.0000      50.8611     -69.8206       1.1025      -1.0360      -0.3733      97.3897       1.0226
    3542.0    1641.7144       0.0000      50.8611     -71.5922       0.9597      -0.9105      -0.3033     103.4915       1.0226
    3543.0    1637.8901       0.0000      50.8611     -66.5472       1.1053      -1.0134      -0.4377     109.5933       1.0226
    3544.0    1633.5671       0.0000      50.8611     -60.0194       1.0768      -0.9330      -0.5368     115.6969       1.0226
    3545.0    1630.2948       0.0000      50.8611     -64.0530       0.9742      -0.8758      -0.4259     121.7991       1.0226
    3546.0    1614.2525       0.0000      50.8611     -68.1055       1.1794      -1.0937      -0.4377     128.0151       1.0226
    3547.0    1610.5550       0.0000      50.8611     -68.5412       1.1946      -1.1113      -0.4377     134.4077       1.0226
    3548.0    1593.3507       0.0000      50.8611     -64.7408       1.1647      -1.0535      -0.4959     140.5096       1.0226
    3549.0    1572.9866       0.0000      50.8611     -61.3770       1.1217      -0.9848      -0.5368     146.6124       1.0226
    3550.0    1562.9917       0.0000      50.8611     -61.8925       1.0777      -0.9506      -0.5077     152.7143       1.0226
