~VERSION INFORMATION
VERS.           2.0   :CWLS Log ASCII Standard - VERSION 2.0
WRAP.           NO    :One Line per depth step
PROD.  Schlumberger   :LAS Producer
PROG.  DLIS to ASCII 19C2-270                          :LAS Program name and version
CREA.        2017/09/16 17:42                          :LAS Creation date {YYYY/MM/DD hh:mm}
DLIS_CREA.  2017-Sep-15 19:35                          :DLIS Creation date and time {YYYY-MMM-DD hh:mm}
SOURCE.     LPC_S5-1_2AV.DLIS                          :DLIS File Name
FILE-ID.     PERFO_Perfo_WPGRT_062LTP                  :File Identification Number
#--------------------------------------------------
~WELL INFORMATION
#MNEM.UNIT      DATA             DESCRIPTION
#---- ------ --------------   -----------------------------
STRT .S          757.0       :START TIME      
STOP .S         1169.0       :STOP TIME      
STEP .S            1.0       :STEP     
NULL .          -999.25      :NULL VALUE
COMP .        SHELL INTERNATIONAL E P                  :COMPANY
WELL .        WPP TEST 2                               :WELL
FLD  .        WILDCAT                                  :FIELD
LOC  .        NA                                       :LOCATION
CNTY .        HARRIS                                   :COUNTY
STAT .        TEXAS                                    :STATE
CTRY .                                                 :COUNTRY
API  .        NA                                       :API NUMBER
UWI  .                                                 :UNIQUE WELL ID
DATE .        15-Sep-2017                              :LOG DATE {DD-MMM-YYYY}
SRVC .        Schlumberger                             :SERVICE COMPANY
LATI .DEG                                              :LATITUDE
LONG .DEG                                              :LONGITUDE
GDAT .                                                 :GeoDetic Datum
SECT .        NA                                       :Section
RANG .        NA                                       :Range
TOWN .        NA                                       :Township
#-----------------------------------------------------------------------------
~PARAMETER INFORMATION
#MNEM.UNIT    VALUE                      DESCRIPTION
#---- -----   --------------------       ------------------------
U-PHASE_B_COMP_PER_YT.                 0 :Phase B Comparator Period Yt
U-PHASE_A_COMP_PER_XT.                 0 :Phase A Comparator Period Xt
U-MAX_EXC_CUR_LIMIT.MA       240.00000   :Requested CM Current Limit
U-REQ_EXC_FQ.HZ              50          :Requested CM Frequency
U-TILT_Y_OFFSET.           0.19916       :WPTET Tilt Y Offset
U-TILT_Y_GAIN.           1.01796         :WPTET Tilt Y Gain
U-TILT_X_OFFSET.          -1.77103       :WPTET Tilt X Offset
U-TILT_X_GAIN.           1.00000         :WPTET Tilt X Gain
U-TILT_OFFSET_TOL.           0.00100     :WPTET Tilt Offset Calibration Tolerance
U-NO_TILT_CAL_ROTATIONS.                 3 :Number of Rotations for Tilt Calibration
HAZI .DEG        0.00000                 :Hole Azimuth
U-STD_TOL_TILT.           0.01000        :Tilt Standard Deviation Tolerance
U-GUN_POS_TOL.DEG        5.00000         :Gun Position Tolerance
ROT_ANGLE_THRESHOLD.DEG        5.00000   :Rotation Stop Angle Tolerance
STOP_ROT_ANGLE.DEG        0.00000        :Rotation Stop Angle
WITN .        MR. DHRUA ARORA            :Witness's Name
ENGI .        MORRIS MOORE               :Engineer's Name
COUN .        HARRIS                     :County or Rig Name
FN   .        WILDCAT                    :Field Name
WN   .        WPP TEST 2                 :Well Name
CN   .        SHELL INTERNATIONAL E P    :Company Name
CLAB .        County                     :County/Rig Label
SLAB .        State                      :State/Province Label
RUN  .          1                        :RUN NUMBER
PDAT .        GROUND LEVEL               :Permanent Datum
EPD  .                                   :Elevation of Permanent Datum above Mean Sea Level
LMF  .          NA                       :Logging Measured From (Name of Logging Elevation Reference)
APD  .                                   :Elevation of Depth Reference (LMF) above Permanent Datum
#-----------------------------------------------------------------------------
~CURVE INFORMATION
#MNEM.UNIT   API CODE                                  DESCRIPTION
#---- -----  --------                                  -----------------------
TIME .S                                                :TIME {F10.1}
FREQ_EMF_SL.HZ                                         :Electromagnetic Field Frequency {F13.4}
PH_SH_WPPCM_SL.DEG                                     :WPPCM Phase Shift {F13.4}
FREQ_EXC_REQ_SL.HZ                                     :Requested Exciter Frequency {F13.4}
RB_SL.DEG                                              :Relative Bearing {F13.4}
SDEV_SL.DEG                                            :Sonde Deviation {F13.4}
TILX_SL.DEG                                            :X-axis Tilt {F13.4}
TILY_SL.DEG                                            :Y-axis Tilt {F13.4}
ROTA_SL.DEG                                            :Motor Rotation Angle {F13.4}
MSPE_SL.RPM                                            :Motor Speed {F13.4}
#-----------------------------------------------------------------------------
# 
#     TIME    FREQ_EMF_SL  PH_SH_WPPCM_ FREQ_EXC_REQ    RB_SL       SDEV_SL      TILX_SL      TILY_SL      ROTA_SL      MSPE_SL
#                          SL           _SL
~A  
# ...
    1009.0    1335.1459       0.0000      50.8611     -66.4820       0.7769      -0.7113      -0.3117     110.4788       1.0226
    1010.0    1357.3842       0.0000      50.8611     -69.9576       0.8221      -0.7718      -0.2814     116.5938       1.0226
    1011.0    1390.3088       0.0000      50.8611     -68.9352       0.9404      -0.8774      -0.3374     122.6956       1.0226
    1012.0    1403.7896       0.0000      50.8611     -65.8049       0.9346      -0.8521      -0.3834     129.2027       1.0226
    1013.0    1398.8981       0.0000      50.8611     -69.9012       0.9825      -0.9226      -0.3374     135.2982       1.0160
    1014.0    1416.5388       0.0000      50.8611     -67.4663       0.9608      -0.8874      -0.3682     141.4079       1.0226
    1015.0    1423.3300       0.0000      50.8611     -71.0425       1.0232      -0.9677      -0.3324     147.5230       1.0226
    1016.0    1426.2170       0.0000      50.8611     -77.7044       1.0319      -1.0079      -0.2198     153.6276       1.0226
    1017.0    1437.5212       0.0000      50.8611     -66.7187       1.0481      -0.9627      -0.4142     159.7268       1.0226
    1018.0    1433.6668       0.0000      50.8611     -74.8394       1.1337      -1.0943      -0.2965     165.8418       1.0297
    1019.0    1434.5882       0.0000      50.8611     -65.8264       1.0778      -0.9826      -0.4399     171.9437       1.0226
    1020.0    1443.4234       0.0000      50.8611     -68.1037       1.2715      -1.1789      -0.4758     178.0482       1.0226
    1021.0    1440.4661       0.0000      50.8611     -69.2466       1.1269      -1.0530      -0.3990     184.1501       1.0226
    1022.0    1444.1553       0.0000      50.8611     -60.7200       1.0916      -0.9523      -0.5318     190.2524       1.0226
    1023.0    1447.1275       0.0000      50.8611     -63.8044       1.1695      -1.0480      -0.5166     196.3675       1.0226
    1024.0    1446.0274       0.0000      50.8611     -65.1218       1.0830      -0.9826      -0.4551     202.5220       1.0226
    1025.0    1448.2784       0.0000      50.8611     -69.1606       1.0897      -1.0178      -0.3884     208.9843       1.0239
    1026.0    1440.8298       0.0000      50.8611     -58.1370       1.2886      -1.0931      -0.6802     215.0913       1.0226
    1027.0    1440.8298       0.0000      50.8611     -72.9547       1.2081      -1.1537      -0.3526     221.1932       1.0226
    1028.0    1426.5749       0.0000      50.8611     -60.6900       1.2426      -1.0832      -0.6085     227.2986       1.0226
    1029.0    1422.2694       0.0000      50.8611     -62.7816       1.2633      -1.1234      -0.5777     233.3994       1.0239
    1030.0    1406.1633       0.0000      50.8611     -58.2082       1.2376      -1.0517      -0.6519     239.5128       1.0226
    1031.0    1399.9459       0.0000      50.8611     -58.5903       1.2752      -1.0882      -0.6645     245.6174       1.0226
    1032.0    1378.6765       0.0000      50.8611     -59.0881       1.2742      -1.0931      -0.6544     251.7070       1.0226
    1033.0    1370.9445       0.0000      50.8611     -54.6505       1.2727      -1.0381      -0.7362     257.8089       1.0226
    1034.0    1357.0613       0.0000      50.8611     -56.6677       1.2004      -1.0029      -0.6595     263.9107       1.0226
    1035.0    1356.4194       0.0000      50.8611     -52.4227       1.2658      -1.0029      -0.7721     270.0136       1.0226
    1036.0    1321.3575       0.0000      50.8611     -54.3653       1.2289      -0.9979      -0.7155     276.1647       1.0226
    1037.0    1306.0292       0.0000      50.8611     -47.9057       1.2586      -0.9325      -0.8437     282.6241       1.0226
    1038.0    1292.2165       0.0000      50.8611     -52.3623       1.2221      -0.9677      -0.7463     288.7259       1.0226
    1039.0    1267.7418       0.0000      50.8611     -47.6362       1.1535      -0.8521      -0.7771     294.8250       1.0226
    1040.0    1259.2489       0.0000      50.8611     -49.6804       1.2563      -0.9578      -0.8129     300.9295       1.0226
    1041.0    1248.3442       0.0000      50.8611     -40.2548       1.2667      -0.8169      -0.9664     307.0303       1.0239
    1042.0    1229.1732       0.0000      50.8611     -47.1065       1.2130      -0.8886      -0.8256     313.1436       1.0226
    1043.0    1222.0426       0.0000      50.8611     -46.9333       1.1389      -0.8323      -0.7771     319.2481       1.0226
    1044.0    1203.4739       0.0000      50.8611     -52.4474       1.1150      -0.8824      -0.6797     325.3499       1.0226
    1045.0    1189.4728       0.0000      50.8611     -50.0455       1.3083      -1.0034      -0.8331     331.4394       1.0226
    1046.0    1183.4666       0.0000      50.8611     -44.6241       1.0918      -0.7669      -0.7771     337.5261       1.0226
    1047.0    1175.5520       0.0000      50.8611     -43.2748       1.0675      -0.7316      -0.7771     343.6438       1.0226
    1048.0    1166.2839       0.0000      50.8611     -45.5923       1.0667      -0.7619      -0.7463     349.7456       1.0226
    1049.0    1162.6671       0.0000      50.8611     -41.0875       0.9835      -0.6464      -0.7413     356.2531       1.0226
    1050.0    1159.5649       0.0000      50.8611     -47.0112       0.9280      -0.6766      -0.6342       2.3549       1.0226
    1051.0    1155.7529       0.0000      50.8611     -44.2481       0.9986      -0.6965      -0.7156       8.4698       1.0226
    1052.0    1151.4800       0.0000      50.8611     -41.7559       0.9260      -0.6161      -0.6903      14.5594       1.0226
    1053.0    1150.3048       0.0000      50.8611     -42.9609       0.8313      -0.5660      -0.6085      20.6612       1.0239
    1054.0    1158.1251       0.0000      50.8611     -35.7676       0.6584      -0.3851      -0.5318      26.7761       1.0226
    1055.0    1164.8581       0.0000      50.8611     -51.7178       0.9522      -0.7470      -0.5878      32.8780       1.0226
    1056.0    1169.1922       0.0000      50.8611     -46.2549       0.7695      -0.5561      -0.5318      38.9825       1.0226
    1057.0    1174.8079       0.0000      50.8611     -48.0445       0.7098      -0.5259      -0.4753      45.0859       1.0320
    1058.0    1185.2069       0.0000      50.8611     -54.3409       0.7896      -0.6414      -0.4601      51.1992       1.0226
    1059.0    1204.2367       0.0000      50.8611     -52.5014       0.8147      -0.6464      -0.4959      57.2890       1.0226
    1060.0    1208.6341       0.0000      50.8611     -47.8571       0.7786      -0.5760      -0.5216      63.3908       1.0226
    1061.0    1219.6402       0.0000      50.8611     -58.6133       0.7865      -0.6716      -0.4091      69.8975       1.0226
    1062.0    1231.3923       0.0000      50.8611     -59.9519       0.8279      -0.7168      -0.4142      75.9993       1.0213
    1063.0    1244.7422       0.0000      50.8611     -53.7576       0.7523      -0.6062      -0.4449      82.0888       1.0226
    1064.0    1266.8918       0.0000      50.8611     -63.8312       0.7651      -0.6865      -0.3374      88.1905       1.0226
    1065.0    1285.7119       0.0000      50.8611     -61.2914       0.7338      -0.6414      -0.3526      94.2977       1.0226
    1066.0    1299.0841       0.0000      50.8611     -65.8819       0.7136      -0.6513      -0.2915     100.3817       1.0226
    1067.0    1322.5911       0.0000      50.8611     -66.1266       0.7597      -0.6915      -0.3071     106.4870       1.0226
    1068.0    1347.9463       0.0000      50.8611     -58.1137       0.6507      -0.5457      -0.3379     112.5888       1.0213
    1069.0    1365.6200       0.0000      50.8611     -63.3292       0.8082      -0.7217      -0.3632     118.6782       1.0213
    1070.0    1386.4965       0.0000      50.8611     -68.8624       0.8223      -0.7669      -0.2966     124.7807       1.0226
    1071.0    1393.7024       0.0000      50.8611     -70.5533       0.9263      -0.8724      -0.3067     130.8825       1.0226
