~VERSION INFORMATION
VERS.           2.0   :CWLS Log ASCII Standard - VERSION 2.0
WRAP.           NO    :One Line per depth step
PROD.  Schlumberger   :LAS Producer
PROG.  DLIS to ASCII 19C2-270                          :LAS Program name and version
CREA.        2017/09/16 17:42                          :LAS Creation date {YYYY/MM/DD hh:mm}
DLIS_CREA.  2017-Sep-15 13:29                          :DLIS Creation date and time {YYYY-MMM-DD hh:mm}
SOURCE.     LPC_S1-1_2A5.DLIS                          :DLIS File Name
FILE-ID.     PERFO_Perfo_WPGRT_025LTP                  :File Identification Number
#--------------------------------------------------
~WELL INFORMATION
#MNEM.UNIT      DATA             DESCRIPTION
#---- ------ --------------   -----------------------------
STRT .S         9747.0       :START TIME      
STOP .S        10374.0       :STOP TIME      
STEP .S            1.0       :STEP     
NULL .          -999.25      :NULL VALUE
COMP .        SHELL INTERNATIONAL E P                  :COMPANY
WELL .        WPP TEST 2                               :WELL
FLD  .        WILDCAT                                  :FIELD
LOC  .                                                 :LOCATION
CNTY .        HARRIS                                   :COUNTY
STAT .        TEXAS                                    :STATE
CTRY .                                                 :COUNTRY
API  .                                                 :API NUMBER
UWI  .                                                 :UNIQUE WELL ID
DATE .                                                 :LOG DATE
SRVC .        Schlumberger                             :SERVICE COMPANY
LATI .DEG                                              :LATITUDE
LONG .DEG                                              :LONGITUDE
GDAT .                                                 :GeoDetic Datum
#-----------------------------------------------------------------------------
~PARAMETER INFORMATION
#MNEM.UNIT    VALUE                      DESCRIPTION
#---- -----   --------------------       ------------------------
U-PHASE_B_COMP_PER_YT.                 0 :Phase B Comparator Period Yt
U-PHASE_A_COMP_PER_XT.                 0 :Phase A Comparator Period Xt
U-MAX_EXC_CUR_LIMIT.MA       240.00000   :Requested CM Current Limit
U-REQ_EXC_FQ.HZ              40          :Requested CM Frequency
U-TILT_Y_OFFSET.           0.19916       :WPTET Tilt Y Offset
U-TILT_Y_GAIN.           1.01796         :WPTET Tilt Y Gain
U-TILT_X_OFFSET.          -1.77103       :WPTET Tilt X Offset
U-TILT_X_GAIN.           1.00000         :WPTET Tilt X Gain
U-TILT_OFFSET_TOL.           0.00100     :WPTET Tilt Offset Calibration Tolerance
U-NO_TILT_CAL_ROTATIONS.                 3 :Number of Rotations for Tilt Calibration
HAZI .DEG        0.00000                 :Hole Azimuth
U-STD_TOL_TILT.           0.01000        :Tilt Standard Deviation Tolerance
U-GUN_POS_TOL.DEG        5.00000         :Gun Position Tolerance
ROT_ANGLE_THRESHOLD.DEG        5.00000   :Rotation Stop Angle Tolerance
STOP_ROT_ANGLE.DEG       80.00000        :Rotation Stop Angle
WITN .                                   :Witness's Name
ENGI .                                   :Engineer's Name
COUN .        HARRIS                     :County or Rig Name
FN   .        WILDCAT                    :Field Name
WN   .        WPP TEST 2                 :Well Name
CN   .        SHELL INTERNATIONAL E P    :Company Name
CLAB .        County                     :County/Rig Label
SLAB .        State                      :State/Province Label
RUN  .          1                        :RUN NUMBER
PDAT .        GROUND LEVEL               :Permanent Datum
EPD  .                                   :Elevation of Permanent Datum above Mean Sea Level
LMF  .                                   :Logging Measured From (Name of Logging Elevation Reference)
APD  .                                   :Elevation of Depth Reference (LMF) above Permanent Datum
#-----------------------------------------------------------------------------
~CURVE INFORMATION
#MNEM.UNIT   API CODE                                  DESCRIPTION
#---- -----  --------                                  -----------------------
TIME .S                                                :TIME {F10.1}
FREQ_EMF_SL.HZ                                         :Electromagnetic Field Frequency {F13.4}
PH_SH_WPPCM_SL.DEG                                     :WPPCM Phase Shift {F13.4}
FREQ_EXC_REQ_SL.HZ                                     :Requested Exciter Frequency {F13.4}
RB_SL.DEG                                              :Relative Bearing {F13.4}
SDEV_SL.DEG                                            :Sonde Deviation {F13.4}
TILX_SL.DEG                                            :X-axis Tilt {F13.4}
TILY_SL.DEG                                            :Y-axis Tilt {F13.4}
ROTA_SL.DEG                                            :Motor Rotation Angle {F13.4}
MSPE_SL.RPM                                            :Motor Speed {F13.4}
#-----------------------------------------------------------------------------
# 
#     TIME    FREQ_EMF_SL  PH_SH_WPPCM_ FREQ_EXC_REQ    RB_SL       SDEV_SL      TILX_SL      TILY_SL      ROTA_SL      MSPE_SL
#                          SL           _SL
~A  
    9747.0    1513.5475       0.0000      40.6889    -100.3106       4.7398      -4.6630       0.8474      83.9062       1.0226
    9748.0    1510.2472       0.0000      40.6889     -96.2044       4.8716      -4.8410       0.5267      90.2330       1.0226
    9749.0    1504.2376       0.0000      40.6889     -89.5987       4.9045      -4.9040      -0.0343      96.3358       1.0226
    9750.0    1502.8601       0.0000      40.6889     -85.8365       4.9806      -4.9671      -0.3614     102.4511       1.0272
    9751.0    1502.8601       0.0000      40.6889     -80.4736       5.0137      -4.9442      -0.8288     108.5524       1.0226
    9752.0    1496.9492       0.0000      40.6889     -76.0157       5.0546      -4.9040      -1.2201     114.6538       1.0226
    9753.0    1490.1201       0.0000      40.6889     -71.1116       5.0932      -4.8181      -1.6465     120.7634       1.0287
    9754.0    1486.0889       0.0000      40.6889     -66.0339       5.1234      -4.6803      -2.0787     126.8713       1.0226
    9755.0    1478.4906       0.0000      40.6889     -61.2066       5.2442      -4.5943      -2.5228     132.9727       1.0226
    9756.0    1481.6060       0.0000      40.6889     -56.7004       5.1213      -4.2786      -2.8090     139.0617       1.0226
    9757.0    1470.5484       0.0000      40.6889     -50.9674       5.2530      -4.0778      -3.3054     145.1676       1.0226
    9758.0    1469.6524       0.0000      40.6889     -46.2172       5.1269      -3.6990      -3.5450     151.2672       1.0226
    9759.0    1462.6941       0.0000      40.6889     -41.4778       5.0696      -3.3548      -3.7960     157.3571       1.0226
    9760.0    1456.1735       0.0000      40.6889     -37.1130       5.0701      -3.0564      -4.0413     163.8546       1.0226
    9761.0    1458.7655       0.0000      40.6889     -32.4534       5.0266      -2.6949      -4.2401     169.9376       1.0166
    9762.0    1449.7422       0.0000      40.6889     -26.9117       5.1103      -2.3105      -4.5557     176.0344       1.0181
    9763.0    1447.6173       0.0000      40.6889     -21.1334       4.9664      -1.7883      -4.6318     182.1550       1.0166
    9764.0    1444.2096       0.0000      40.6889     -17.1156       4.8111      -1.4156      -4.5966     188.2651       1.0226
    9765.0    1440.8298       0.0000      40.6889     -11.3536       4.8619      -0.9564      -4.7659     194.3674       1.0226
    9766.0    1439.1504       0.0000      40.6889      -4.8077       4.6956      -0.3941      -4.6784     200.4822       1.0226
    9767.0    1434.9490       0.0000      40.6889       0.1101       4.4273       0.0080      -4.4269     206.5967       1.0226
    9768.0    1433.6923       0.0000      40.6889       3.0595       4.4508       0.2373      -4.4445     212.7121       1.0226
    9769.0    1433.2832       0.0000      40.6889       9.2702       4.2912       0.6904      -4.2343     218.8021       1.0226
    9770.0    1432.4407       0.0000      40.6889      14.9979       4.4022       1.1382      -4.2519     224.9167       1.0166
    9771.0    1436.6216       0.0000      40.6889      21.6174       4.1534       1.5283      -3.8606     231.0133       1.0272
    9772.0    1434.9490       0.0000      40.6889      26.4176       4.1092       1.8267      -3.6795     237.5297       1.0226
    9773.0    1436.2108       0.0000      40.6889      31.9587       4.0281       2.1308      -3.4166     243.6187       1.0181
    9774.0    1438.3011       0.0000      40.6889      38.8787       3.8271       2.4007      -2.9787     249.7332       1.0272
    9775.0    1442.5163       0.0000      40.6889      44.5752       3.7242       2.6132      -2.6516     255.8486       1.0226
    9776.0    1443.3795       0.0000      40.6889      50.5058       3.6100       2.7851      -2.2950     261.9507       1.0226
    9777.0    1442.1244       0.0000      40.6889      57.4918       3.5007       2.9514      -1.8804     268.0520       1.0226
    9778.0    1443.7886       0.0000      40.6889      65.1451       3.4051       3.0891      -1.4306     274.1462       1.0181
    9779.0    1450.1670       0.0000      40.6889      73.0205       3.3622       3.2153      -0.9809     280.2430       1.0166
    9780.0    1455.3296       0.0000      40.6889      79.2021       3.2091       3.1522      -0.6010     286.3461       1.0226
    9781.0    1457.4668       0.0000      40.6889      83.9362       3.0508       3.0313      -0.3152     292.4474       1.0226
    9782.0    1463.1079       0.0000      40.6889      95.6430       3.0986       3.0835       0.3042     298.5486       1.0226
    9783.0    1464.4229       0.0000      40.6889     104.6999       3.0882       2.9859       0.7830     304.6459       1.0287
    9784.0    1471.8602       0.0000      40.6889     109.4553       3.1271       2.9461       1.0341     311.1612       1.0226
    9785.0    1465.7434       0.0000      40.6889     120.0728       3.0665       2.6529       1.5366     317.2560       1.0226
    9786.0    1469.6524       0.0000      40.6889     127.7325       3.0233       2.3894       1.8461     323.3661       1.0226
    9787.0    1482.9545       0.0000      40.6889     139.4735       2.8700       1.8665       2.1790     329.4682       1.0226
    9788.0    1481.6060       0.0000      40.6889     144.6824       3.1511       1.8211       2.5707     335.5695       1.0226
    9789.0    1485.6260       0.0000      40.6889     149.9118       3.1877       1.5974       2.7575     341.6840       1.0226
    9790.0    1487.4489       0.0000      40.6889     158.6599       3.2247       1.1728       3.0028     347.7861       1.0226
    9791.0    1493.2849       0.0000      40.6889     165.5167       3.3608       0.8398       3.2539     353.8984       1.0272
    9792.0    1500.5779       0.0000      40.6889     172.3542       3.4659       0.4610       3.4350     154.8027       1.0287
    9793.0    1494.2001       0.0000      40.6889    -178.9155       3.5175      -0.0668       3.5168       6.1172       1.0226
    9794.0    1497.8288       0.0000      40.6889    -172.7005       3.6300      -0.4624       3.5986      12.2202       1.0181
    9795.0    1501.9613       0.0000      40.6889    -166.3979       3.6786      -0.8645       3.5753      18.3277       1.0226
    9796.0    1501.4885       0.0000      40.6889    -160.2493       3.7809      -1.2774       3.5577      24.8199       1.0181
    9797.0    1509.3122       0.0000      40.6889    -154.3142       3.9164      -1.6963       3.5287      30.9222       1.0226
    9798.0    1510.2472       0.0000      40.6889    -147.3101       3.9508      -2.1325       3.3242      37.0244       1.0226
    9799.0    1512.5590       0.0000      40.6889    -143.1074       4.0919      -2.4539       3.2719      43.1258       1.0226
    9800.0    1512.0968       0.0000      40.6889    -136.4332       4.1875      -2.8840       3.0323      49.2272       1.0226
    9801.0    1511.1697       0.0000      40.6889    -130.7429       4.3086      -3.2628       2.8103      55.3294       1.0226
    9802.0    1516.7630       0.0000      40.6889    -124.4288       4.3743      -3.6070       2.4713      61.4316       1.0226
    9803.0    1521.9155       0.0000      40.6889    -119.7802       4.5208      -3.9228       2.2436      67.5207       1.0226
    9804.0    1511.6485       0.0000      40.6889    -113.3692       4.5559      -4.1810       1.8056      73.6096       1.0226
    9805.0    1509.3122       0.0000      40.6889    -108.9096       4.6566      -4.4048       1.5076      79.7118       1.0226
    9806.0    1511.6485       0.0000      40.6889    -103.1567       4.7301      -4.6056       1.0754      85.8141       1.0226
    9807.0    1507.4626       0.0000      40.6889     -98.6770       4.8504      -4.7948       0.7307      91.9359       1.0350
    9808.0    1503.7872       0.0000      40.6889     -93.2290       4.8947      -4.8868       0.2752      98.4853       1.0287
    9809.0    1498.7597       0.0000      40.6889     -87.4193       4.9323      -4.9269      -0.2216     104.6062       1.0226
