~VERSION INFORMATION
VERS.           2.0   :CWLS Log ASCII Standard - VERSION 2.0
WRAP.           NO    :One Line per depth step
PROD.  Schlumberger   :LAS Producer
PROG.  DLIS to ASCII 19C2-270                          :LAS Program name and version
CREA.        2017/09/16 17:42                          :LAS Creation date {YYYY/MM/DD hh:mm}
DLIS_CREA.  2017-Sep-15 16:10                          :DLIS Creation date and time {YYYY-MMM-DD hh:mm}
SOURCE.     LPC_S3-1_B5.DLIS                           :DLIS File Name
FILE-ID.     PERFO_Perfo_WPGRT_039LTP                  :File Identification Number
#--------------------------------------------------
~WELL INFORMATION
#MNEM.UNIT      DATA             DESCRIPTION
#---- ------ --------------   -----------------------------
STRT .S         2439.0       :START TIME      
STOP .S         2874.0       :STOP TIME      
STEP .S            1.0       :STEP     
NULL .          -999.25      :NULL VALUE
COMP .        SHELL INTERNATIONAL E P                  :COMPANY
WELL .        WPP TEST 2                               :WELL
FLD  .        WILDCAT                                  :FIELD
LOC  .                                                 :LOCATION
CNTY .        HARRIS                                   :COUNTY
STAT .        TEXAS                                    :STATE
CTRY .                                                 :COUNTRY
API  .                                                 :API NUMBER
UWI  .                                                 :UNIQUE WELL ID
DATE .                                                 :LOG DATE
SRVC .        Schlumberger                             :SERVICE COMPANY
LATI .DEG                                              :LATITUDE
LONG .DEG                                              :LONGITUDE
GDAT .                                                 :GeoDetic Datum
#-----------------------------------------------------------------------------
~PARAMETER INFORMATION
#MNEM.UNIT    VALUE                      DESCRIPTION
#---- -----   --------------------       ------------------------
U-PHASE_B_COMP_PER_YT.                 0 :Phase B Comparator Period Yt
U-PHASE_A_COMP_PER_XT.                 0 :Phase A Comparator Period Xt
U-MAX_EXC_CUR_LIMIT.MA       240.00000   :Requested CM Current Limit
U-REQ_EXC_FQ.HZ              50          :Requested CM Frequency
U-TILT_Y_OFFSET.           0.19916       :WPTET Tilt Y Offset
U-TILT_Y_GAIN.           1.01796         :WPTET Tilt Y Gain
U-TILT_X_OFFSET.          -1.77103       :WPTET Tilt X Offset
U-TILT_X_GAIN.           1.00000         :WPTET Tilt X Gain
U-TILT_OFFSET_TOL.           0.00100     :WPTET Tilt Offset Calibration Tolerance
U-NO_TILT_CAL_ROTATIONS.                 3 :Number of Rotations for Tilt Calibration
HAZI .DEG        0.00000                 :Hole Azimuth
U-STD_TOL_TILT.           0.01000        :Tilt Standard Deviation Tolerance
U-GUN_POS_TOL.DEG        5.00000         :Gun Position Tolerance
ROT_ANGLE_THRESHOLD.DEG        5.00000   :Rotation Stop Angle Tolerance
STOP_ROT_ANGLE.DEG        0.00000        :Rotation Stop Angle
WITN .                                   :Witness's Name
ENGI .                                   :Engineer's Name
COUN .        HARRIS                     :County or Rig Name
FN   .        WILDCAT                    :Field Name
WN   .        WPP TEST 2                 :Well Name
CN   .        SHELL INTERNATIONAL E P    :Company Name
CLAB .        County                     :County/Rig Label
SLAB .        State                      :State/Province Label
RUN  .          1                        :RUN NUMBER
PDAT .        GROUND LEVEL               :Permanent Datum
EPD  .                                   :Elevation of Permanent Datum above Mean Sea Level
LMF  .                                   :Logging Measured From (Name of Logging Elevation Reference)
APD  .                                   :Elevation of Depth Reference (LMF) above Permanent Datum
#-----------------------------------------------------------------------------
~CURVE INFORMATION
#MNEM.UNIT   API CODE                                  DESCRIPTION
#---- -----  --------                                  -----------------------
TIME .S                                                :TIME {F10.1}
FREQ_EMF_SL.HZ                                         :Electromagnetic Field Frequency {F13.4}
PH_SH_WPPCM_SL.DEG                                     :WPPCM Phase Shift {F13.4}
FREQ_EXC_REQ_SL.HZ                                     :Requested Exciter Frequency {F13.4}
RB_SL.DEG                                              :Relative Bearing {F13.4}
SDEV_SL.DEG                                            :Sonde Deviation {F13.4}
TILX_SL.DEG                                            :X-axis Tilt {F13.4}
TILY_SL.DEG                                            :Y-axis Tilt {F13.4}
ROTA_SL.DEG                                            :Motor Rotation Angle {F13.4}
MSPE_SL.RPM                                            :Motor Speed {F13.4}
#-----------------------------------------------------------------------------
# 
#     TIME    FREQ_EMF_SL  PH_SH_WPPCM_ FREQ_EXC_REQ    RB_SL       SDEV_SL      TILX_SL      TILY_SL      ROTA_SL      MSPE_SL
#                          SL           _SL
~A  
# ...
    2817.0    1552.1523       0.0000      50.8611     113.9469       3.4203       3.1255       1.3875      57.3064       1.0229
    2818.0    1572.6589       0.0000      50.8611     122.2524       3.5139       2.9712       1.8743      63.4087       1.0226
    2819.0    1587.1896       0.0000      50.8611     129.1915       3.4182       2.6486       2.1592      69.4857       1.0226
    2820.0    1598.2394       0.0000      50.8611     132.1337       3.4082       2.5268       2.2857      70.7449       0.0005
    2821.0    1608.6389       0.0000      50.8611     132.0741       3.4084       2.5293       2.2832      70.7449       0.0005
    2822.0    1605.0802       0.0000      50.8611     133.0935       3.4647       2.5293       2.3662      70.7449       0.0005
    2823.0    1598.2394       0.0000      50.8611     131.2685       3.4628       2.6021       2.2832      70.7449       0.0005
    2824.0    1601.7658       0.0000      50.8611     130.6670       3.3851       2.5670       2.2052      70.7449       0.0005
    2825.0    1608.6389       0.0000      50.8611     130.2594       3.4174       2.6071       2.2078      70.7449       0.0005
    2826.0    1605.1940       0.0000      50.8611     132.1949       3.5184       2.6059       2.3624      70.7449       0.0005
    2827.0    1601.7658       0.0000      50.8611     131.2327       3.4127       2.5657       2.2487      70.7449       0.0005
    2828.0    1608.8669       0.0000      50.8611     132.5483       3.3813       2.4904       2.2857      70.7449       0.0005
    2829.0    1612.3277       0.0000      50.8611     131.1860       3.4101       2.5657       2.2448      70.7449       0.0005
    2830.0    1608.8669       0.0000      50.8611     131.6530       3.4365       2.5670       2.2832      70.7449       0.0005
    2831.0    1605.3082       0.0000      50.8611     131.9997       3.2929       2.4465       2.2027      70.7449       0.0005
    2832.0    1608.8669       0.0000      50.8611     133.0462       3.4621       2.5293       2.3624      70.7449       0.0005
    2833.0    1608.7526       0.0000      50.8611     130.4050       3.5219       2.6812       2.2819      70.7449       0.0005
    2834.0    1605.3082       0.0000      50.8611     132.6380       3.4340       2.5256       2.3253      70.7449       0.0005
    2835.0    1605.5383       0.0000      50.8611     130.3269       3.4701       2.6448       2.2448      70.7449       0.0005
    2836.0    1605.4230       0.0000      50.8611     134.5057       3.4332       2.4477       2.4058      70.7449       0.0005
    2837.0    1608.7526       0.0000      50.8611     132.2129       3.5211       2.6071       2.3649      70.7449       0.0005
    2838.0    1608.9817       0.0000      50.8611     131.6951       3.4893       2.6046       2.3202      70.7449       0.0005
    2839.0    1605.1940       0.0000      50.8611     133.0600       3.4612       2.5281       2.3624      70.7449       0.0005
    2840.0    1605.3082       0.0000      50.8611     133.5013       3.4311       2.4879       2.3611      70.7449       0.0005
    2841.0    1605.3082       0.0000      50.8611     131.2932       3.5211       2.6448       2.3228      70.7449       0.0005
    2842.0    1601.8806       0.0000      50.8611     131.2558       3.4656       2.6046       2.2844      70.7449       0.0005
    2843.0    1605.3082       0.0000      50.8611     131.1536       3.4084       2.5657       2.2423      70.7449       0.0005
    2844.0    1601.5377       0.0000      50.8611     133.5337       3.4328       2.4879       2.3637      70.7449       0.0005
    2845.0    1601.7658       0.0000      50.8611     131.2234       3.4639       2.6046       2.2819      70.7449       0.0005
    2846.0    1605.3082       0.0000      50.8611     131.7767       3.4953       2.6059       2.3279      70.7449       0.0005
    2847.0    1608.9817       0.0000      50.8611     132.9672       3.2927       2.4088       2.2436      70.7449       0.0005
    2848.0    1608.7526       0.0000      50.8611     131.1984       3.4675       2.6084       2.2832      70.7449       0.0005
    2849.0    1598.3542       0.0000      50.8611     133.1744       3.5192       2.5657       2.4071      70.7449       0.0005
    2850.0    1608.9817       0.0000      50.8611     131.2437       3.4683       2.6071       2.2857      70.7449       0.0005
    2851.0    1608.8669       0.0000      50.8611     131.2120       3.4666       2.6071       2.2832      70.7449       0.0005
    2852.0    1608.6389       0.0000      50.8611     134.0201       3.3472       2.4063       2.3253      70.7449       0.0005
    2853.0    1601.8806       0.0000      50.8611     132.2480       3.5757       2.6461       2.4033      70.7449       0.0005
    2854.0    1605.3082       0.0000      50.8611     130.4130       3.5290       2.6862       2.2870      70.7449       0.0005
    2855.0    1605.3082       0.0000      50.8611     132.5622       3.3804       2.4892       2.2857      70.7449       0.0005
    2856.0    1608.7526       0.0000      50.8611     130.6140       3.3279       2.5256       2.1656      70.7449       0.0005
    2857.0    1605.3082       0.0000      50.8611     132.6405       3.4376       2.5281       2.3279      70.7449       0.0005
    2858.0    1605.3082       0.0000      50.8611     131.2191       3.4720       2.6109       2.2870      70.7449       0.0005
    2859.0    1605.3082       0.0000      50.8611     131.6710       3.4391       2.5682       2.2857      70.7449       0.0005
    2860.0    1605.1940       0.0000      50.8611     130.5673       3.3271       2.5268       2.1631      70.7449       0.0005
    2861.0    1608.9817       0.0000      50.8611     131.2539       3.4638       2.6034       2.2832      70.7449       0.0005
    2862.0    1605.3082       0.0000      50.8611     133.6567       3.6047       2.6071       2.4876      70.7449       0.0005
    2863.0    1605.3082       0.0000      50.8611     131.6553       3.4382       2.5682       2.2844      70.7449       0.0005
    2864.0    1601.8806       0.0000      50.8611     130.6670       3.3851       2.5670       2.2052      70.7449       0.0005
    2865.0    1609.0970       0.0000      50.8611     133.0957       3.4046       2.4854       2.3253      70.7449       0.0005
    2866.0    1608.9817       0.0000      50.8611     132.5777       3.3812       2.4892       2.2870      70.7449       0.0005
    2867.0    1608.8669       0.0000      50.8611     132.6252       3.4368       2.5281       2.3266      70.7449       0.0005
    2868.0    1601.7658       0.0000      50.8611     130.2399       3.4130       2.6046       2.2039      70.7449       0.0005
    2869.0    1601.6515       0.0000      50.8611     130.7274       3.4379       2.6046       2.2423      70.7449       0.0005
    2870.0    1605.3082       0.0000      50.8611     132.7140       3.4895       2.5632       2.3662      70.7449       0.0005
    2871.0    1605.1940       0.0000      50.8611     131.7280       3.4910       2.6046       2.3228      70.7449       0.0005
    2872.0    1598.3542       0.0000      50.8611     131.6500       3.3809       2.5256       2.2461      70.7449       0.0005
    2873.0    1612.4420       0.0000      50.8611     132.1322       3.4064       2.5256       2.2844      70.7449       0.0005
    2874.0    1608.7526       0.0000      50.8611     131.3472       3.5792       2.6862       2.3637      70.7449       0.0005
