~VERSION INFORMATION
VERS.           2.0   :CWLS Log ASCII Standard - VERSION 2.0
WRAP.           NO    :One Line per depth step
PROD.  Schlumberger   :LAS Producer
PROG.  DLIS to ASCII 19C2-270                          :LAS Program name and version
CREA.        2017/09/16 17:42                          :LAS Creation date {YYYY/MM/DD hh:mm}
DLIS_CREA.  2017-Sep-15 15:51                          :DLIS Creation date and time {YYYY-MMM-DD hh:mm}
SOURCE.     LPC_S3-1_AV.DLIS                           :DLIS File Name
FILE-ID.     PERFO_Perfo_WPGRT_037LTP                  :File Identification Number
#--------------------------------------------------
~WELL INFORMATION
#MNEM.UNIT      DATA             DESCRIPTION
#---- ------ --------------   -----------------------------
STRT .S         1283.0       :START TIME      
STOP .S         1755.0       :STOP TIME      
STEP .S            1.0       :STEP     
NULL .          -999.25      :NULL VALUE
COMP .        SHELL INTERNATIONAL E P                  :COMPANY
WELL .        WPP TEST 2                               :WELL
FLD  .        WILDCAT                                  :FIELD
LOC  .                                                 :LOCATION
CNTY .        HARRIS                                   :COUNTY
STAT .        TEXAS                                    :STATE
CTRY .                                                 :COUNTRY
API  .                                                 :API NUMBER
UWI  .                                                 :UNIQUE WELL ID
DATE .                                                 :LOG DATE
SRVC .        Schlumberger                             :SERVICE COMPANY
LATI .DEG                                              :LATITUDE
LONG .DEG                                              :LONGITUDE
GDAT .                                                 :GeoDetic Datum
#-----------------------------------------------------------------------------
~PARAMETER INFORMATION
#MNEM.UNIT    VALUE                      DESCRIPTION
#---- -----   --------------------       ------------------------
U-PHASE_B_COMP_PER_YT.                 0 :Phase B Comparator Period Yt
U-PHASE_A_COMP_PER_XT.                 0 :Phase A Comparator Period Xt
U-MAX_EXC_CUR_LIMIT.MA       240.00000   :Requested CM Current Limit
U-REQ_EXC_FQ.HZ              50          :Requested CM Frequency
U-TILT_Y_OFFSET.           0.19916       :WPTET Tilt Y Offset
U-TILT_Y_GAIN.           1.01796         :WPTET Tilt Y Gain
U-TILT_X_OFFSET.          -1.77103       :WPTET Tilt X Offset
U-TILT_X_GAIN.           1.00000         :WPTET Tilt X Gain
U-TILT_OFFSET_TOL.           0.00100     :WPTET Tilt Offset Calibration Tolerance
U-NO_TILT_CAL_ROTATIONS.                 3 :Number of Rotations for Tilt Calibration
HAZI .DEG        0.00000                 :Hole Azimuth
U-STD_TOL_TILT.           0.01000        :Tilt Standard Deviation Tolerance
U-GUN_POS_TOL.DEG        5.00000         :Gun Position Tolerance
ROT_ANGLE_THRESHOLD.DEG        5.00000   :Rotation Stop Angle Tolerance
STOP_ROT_ANGLE.DEG        0.00000        :Rotation Stop Angle
WITN .                                   :Witness's Name
ENGI .                                   :Engineer's Name
COUN .        HARRIS                     :County or Rig Name
FN   .        WILDCAT                    :Field Name
WN   .        WPP TEST 2                 :Well Name
CN   .        SHELL INTERNATIONAL E P    :Company Name
CLAB .        County                     :County/Rig Label
SLAB .        State                      :State/Province Label
RUN  .          1                        :RUN NUMBER
PDAT .        GROUND LEVEL               :Permanent Datum
EPD  .                                   :Elevation of Permanent Datum above Mean Sea Level
LMF  .                                   :Logging Measured From (Name of Logging Elevation Reference)
APD  .                                   :Elevation of Depth Reference (LMF) above Permanent Datum
#-----------------------------------------------------------------------------
~CURVE INFORMATION
#MNEM.UNIT   API CODE                                  DESCRIPTION
#---- -----  --------                                  -----------------------
TIME .S                                                :TIME {F10.1}
FREQ_EMF_SL.HZ                                         :Electromagnetic Field Frequency {F13.4}
PH_SH_WPPCM_SL.DEG                                     :WPPCM Phase Shift {F13.4}
FREQ_EXC_REQ_SL.HZ                                     :Requested Exciter Frequency {F13.4}
RB_SL.DEG                                              :Relative Bearing {F13.4}
SDEV_SL.DEG                                            :Sonde Deviation {F13.4}
TILX_SL.DEG                                            :X-axis Tilt {F13.4}
TILY_SL.DEG                                            :Y-axis Tilt {F13.4}
ROTA_SL.DEG                                            :Motor Rotation Angle {F13.4}
MSPE_SL.RPM                                            :Motor Speed {F13.4}
#-----------------------------------------------------------------------------
# 
#     TIME    FREQ_EMF_SL  PH_SH_WPPCM_ FREQ_EXC_REQ    RB_SL       SDEV_SL      TILX_SL      TILY_SL      ROTA_SL      MSPE_SL
#                          SL           _SL
~A  
    1283.0    1437.8834       0.0000      50.8435     -59.9174       1.0713      -0.9275 9999999.9999      82.8373       1.0222
    1284.0    1439.2084       0.0000      50.8611     -69.7506       1.0469      -0.9808      -0.3599      85.8076       1.0226
    1285.0    1430.4247       0.0000      50.8611     -60.2430       0.9559      -0.8292      -0.4734      91.8929       1.0193
    1286.0    1414.1010       0.0000      50.8611     -69.5884       0.9802      -0.9185      -0.3416      98.0037       1.0250
    1287.0    1405.6202       0.0000      50.8611     -70.1511       1.0486      -0.9857      -0.3549     104.1200       1.0226
    1288.0    1388.0667       0.0000      50.8611     -56.2574       0.9339      -0.7759      -0.5185     110.2138       1.0144
    1289.0    1369.7495       0.0000      50.8611     -64.5014       0.9833      -0.8874      -0.4233     116.7190       1.0309
    1290.0    1350.7350       0.0000      50.8611     -56.0190       1.1184      -0.9283      -0.6236     122.8057       1.0419
    1291.0    1336.7396       0.0000      50.8611     -56.5439       0.9814      -0.8160      -0.5410     128.9574       1.0358
    1292.0    1319.1838       0.0000      50.8611     -58.9175       0.9789      -0.8382      -0.5051     135.0493       1.0250
    1293.0    1301.3026       0.0000      50.8611     -59.9159       1.0950      -0.9407      -0.5544     141.1273       1.0226
    1294.0    1267.7088       0.0000      50.8611     -64.0012       1.1438      -1.0259      -0.5001     147.2402       1.0144
    1295.0    1231.1818       0.0000      50.8611     -54.6409       0.9133      -0.7447      -0.5277     153.3718       1.0250
    1296.0    1199.8721       0.0000      50.8611     -55.6436       1.1128      -0.9185      -0.6278     159.4746       1.0226
    1297.0    1151.4494       0.0000      50.8611     -64.3858       1.2212      -1.1013      -0.5277     165.5867       1.0250
    1298.0    1129.6712       0.0000      50.8611     -55.1180       1.0817      -0.8874      -0.6186     171.6900       1.0250
    1299.0    1104.5869       0.0000      50.8611     -58.3991       0.9311      -0.7890      -0.4910     177.7941       1.0226
    1300.0    1081.9085       0.0000      50.8611     -61.2017       1.2464      -1.0923      -0.6003     183.8975       1.0226
    1301.0    1067.6863       0.0000      50.8611     -61.0217       1.2588      -1.1013      -0.6094     190.4074       1.0226
    1302.0    1060.5856       0.0000      50.8611     -59.6888       1.0639      -0.9185      -0.5368     196.5086       1.0226
    1303.0    1059.8047       0.0000      50.8611     -56.9636       1.2508      -1.0480      -0.6820     202.6129       1.0226
    1304.0    1060.5232       0.0000      50.8611     -53.9610       1.3232      -1.0709      -0.7730     208.7124       1.0226
    1305.0    1064.6188       0.0000      50.8611     -63.6486       1.0833      -0.9636      -0.4876     214.8274       1.0250
    1306.0    1065.1823       0.0000      50.8611     -59.0172       1.0290      -0.8783      -0.5318     220.9293       1.0226
    1307.0    1071.1059       0.0000      50.8611     -57.0320       1.1536      -0.9677      -0.6278     227.0583       1.0226
    1308.0    1092.9350       0.0000      50.8611     -54.2171       1.1435      -0.9275      -0.6687     233.1748       1.0226
    1309.0    1099.9664       0.0000      50.8611     -54.6732       1.0044      -0.8160      -0.5827     239.2774       1.0226
    1310.0    1123.6061       0.0000      50.8611     -51.3357       1.0565      -0.8250      -0.6595     245.3837       1.0144
    1311.0    1170.5668       0.0000      50.8611     -49.8834       1.1366      -0.8693      -0.7321     251.4740       1.0121
    1312.0    1219.9926       0.0000      50.8611     -55.9958       1.1459      -0.9497      -0.6411     257.5535       1.0121
    1313.0    1247.1724       0.0000      50.8611     -55.7210       1.1384      -0.9407      -0.6411     264.0599       1.0226
    1314.0    1278.6591       0.0000      50.8611     -45.5684       1.1175      -0.7980      -0.7822     270.1624       1.0226
    1315.0    1296.2085       0.0000      50.8611     -48.9946       1.0814      -0.8160      -0.7096     276.2767       1.0226
    1316.0    1314.2523       0.0000      50.8611     -52.1283       1.0226      -0.8070      -0.6278     282.3594       1.0064
    1317.0    1336.7396       0.0000      50.8611     -43.6485       1.1119      -0.7669      -0.8047     288.4563       1.0226
    1318.0    1352.1635       0.0000      50.8611     -47.2302       1.0449      -0.7669      -0.7096     294.5479       1.0144
    1319.0    1364.1062       0.0000      50.8611     -58.3020       0.9653      -0.8160      -0.5101     300.6470       1.0226
    1320.0    1387.4493       0.0000      50.8611     -47.3262       1.0365      -0.7627      -0.7004     306.7488       1.0226
    1321.0    1403.4431       0.0000      50.8611     -46.6426       1.0887      -0.7931      -0.7455     312.8513       1.0226
    1322.0    1426.5299       0.0000      50.8611     -52.2098       1.0098      -0.7980      -0.6186     318.9435       1.0202
    1323.0    1438.2015       0.0000      50.8611     -53.4656       1.0969      -0.8825      -0.6503     325.0308       1.0202
    1324.0    1448.4063       0.0000      50.8611     -43.0901       0.9593      -0.6554      -0.7004     331.1474       1.0226
    1325.0    1460.1293       0.0000      50.8611     -50.7218       0.9274      -0.7177      -0.5869     337.6803       1.0226
    1326.0    1470.2838       0.0000      50.8611     -45.1185       0.9302      -0.6603      -0.6503     343.7821       1.0226
    1327.0    1480.2632       0.0000      50.8611     -50.1353       0.9999      -0.7669      -0.6411     349.8888       1.0144
    1328.0    1492.8344       0.0000      50.8611     -48.1343       0.7591      -0.5472      -0.4784     356.0230       1.0275
    1329.0    1503.1257       0.0000      50.8611     -51.4925       0.9455      -0.7398      -0.5869       2.1277       1.0226
    1330.0    1515.7100       0.0000      50.8611     -58.6371       1.0041      -0.8562      -0.5235       8.2397       1.0250
    1331.0    1521.9155       0.0000      50.8611     -54.9939       0.8402      -0.6865      -0.4826      14.3461       1.0226
    1332.0    1520.8508       0.0000      50.8611     -45.8322       1.0338      -0.7406      -0.7137      20.4603       1.0226
    1333.0    1522.6563       0.0000      50.8611     -51.5338       0.9796      -0.7669      -0.6094      26.5652       1.0226
    1334.0    1522.6563       0.0000      50.8611     -56.0848       0.9537      -0.7931      -0.5277      32.6747       1.0309
    1335.0    1528.5327       0.0000      50.8611     -54.6968       0.8032      -0.6554      -0.4642      38.7949       1.0226
    1336.0    1523.4003       0.0000      50.8611     -50.0246       0.9485      -0.7267      -0.6094      44.8952       1.0226
    1337.0    1509.5800       0.0000      50.8611     -49.5437       0.8624      -0.6554      -0.5594      51.4175       1.0226
    1338.0    1509.9219       0.0000      50.8611     -57.4831       0.7878      -0.6644      -0.4233      57.5193       1.0226
    1339.0    1496.7263       0.0000      50.8611     -61.3927       0.8839      -0.7759      -0.4233      63.6444       1.0309
    1340.0    1484.7964       0.0000      50.8611     -54.8154       0.9161      -0.7488      -0.5277      69.7491       1.0226
    1341.0    1482.6854       0.0000      50.8611     -56.4620       0.8237      -0.6865      -0.4551      75.8509       1.0226
    1342.0    1469.2828       0.0000      50.8611     -61.8476       0.9263      -0.8160      -0.4367      81.9657       1.0226
    1343.0    1447.2610       0.0000      50.8611     -58.4509       0.9391      -0.8003      -0.4914      88.0689       1.0226
    1344.0    1440.1687       0.0000      50.8611     -65.7223       1.0076      -0.9185      -0.4142      94.1700       1.0144
    1345.0    1428.4654       0.0000      50.8611     -63.9056       0.8994      -0.8070      -0.3958     100.2472       1.0226
