~VERSION INFORMATION
VERS.           2.0   :CWLS Log ASCII Standard - VERSION 2.0
WRAP.           NO    :One Line per depth step
PROD.  Schlumberger   :LAS Producer
PROG.  DLIS to ASCII 19C2-270                          :LAS Program name and version
CREA.        2017/09/16 17:42                          :LAS Creation date {YYYY/MM/DD hh:mm}
DLIS_CREA.  2017-Sep-15 16:10                          :DLIS Creation date and time {YYYY-MMM-DD hh:mm}
SOURCE.     LPC_S3-1_B5.DLIS                           :DLIS File Name
FILE-ID.     PERFO_Perfo_WPGRT_039LTP                  :File Identification Number
#--------------------------------------------------
~WELL INFORMATION
#MNEM.UNIT      DATA             DESCRIPTION
#---- ------ --------------   -----------------------------
STRT .S         2439.0       :START TIME      
STOP .S         2874.0       :STOP TIME      
STEP .S            1.0       :STEP     
NULL .          -999.25      :NULL VALUE
COMP .        SHELL INTERNATIONAL E P                  :COMPANY
WELL .        WPP TEST 2                               :WELL
FLD  .        WILDCAT                                  :FIELD
LOC  .                                                 :LOCATION
CNTY .        HARRIS                                   :COUNTY
STAT .        TEXAS                                    :STATE
CTRY .                                                 :COUNTRY
API  .                                                 :API NUMBER
UWI  .                                                 :UNIQUE WELL ID
DATE .                                                 :LOG DATE
SRVC .        Schlumberger                             :SERVICE COMPANY
LATI .DEG                                              :LATITUDE
LONG .DEG                                              :LONGITUDE
GDAT .                                                 :GeoDetic Datum
#-----------------------------------------------------------------------------
~PARAMETER INFORMATION
#MNEM.UNIT    VALUE                      DESCRIPTION
#---- -----   --------------------       ------------------------
U-PHASE_B_COMP_PER_YT.                 0 :Phase B Comparator Period Yt
U-PHASE_A_COMP_PER_XT.                 0 :Phase A Comparator Period Xt
U-MAX_EXC_CUR_LIMIT.MA       240.00000   :Requested CM Current Limit
U-REQ_EXC_FQ.HZ              50          :Requested CM Frequency
U-TILT_Y_OFFSET.           0.19916       :WPTET Tilt Y Offset
U-TILT_Y_GAIN.           1.01796         :WPTET Tilt Y Gain
U-TILT_X_OFFSET.          -1.77103       :WPTET Tilt X Offset
U-TILT_X_GAIN.           1.00000         :WPTET Tilt X Gain
U-TILT_OFFSET_TOL.           0.00100     :WPTET Tilt Offset Calibration Tolerance
U-NO_TILT_CAL_ROTATIONS.                 3 :Number of Rotations for Tilt Calibration
HAZI .DEG        0.00000                 :Hole Azimuth
U-STD_TOL_TILT.           0.01000        :Tilt Standard Deviation Tolerance
U-GUN_POS_TOL.DEG        5.00000         :Gun Position Tolerance
ROT_ANGLE_THRESHOLD.DEG        5.00000   :Rotation Stop Angle Tolerance
STOP_ROT_ANGLE.DEG        0.00000        :Rotation Stop Angle
WITN .                                   :Witness's Name
ENGI .                                   :Engineer's Name
COUN .        HARRIS                     :County or Rig Name
FN   .        WILDCAT                    :Field Name
WN   .        WPP TEST 2                 :Well Name
CN   .        SHELL INTERNATIONAL E P    :Company Name
CLAB .        County                     :County/Rig Label
SLAB .        State                      :State/Province Label
RUN  .          1                        :RUN NUMBER
PDAT .        GROUND LEVEL               :Permanent Datum
EPD  .                                   :Elevation of Permanent Datum above Mean Sea Level
LMF  .                                   :Logging Measured From (Name of Logging Elevation Reference)
APD  .                                   :Elevation of Depth Reference (LMF) above Permanent Datum
#-----------------------------------------------------------------------------
~CURVE INFORMATION
#MNEM.UNIT   API CODE                                  DESCRIPTION
#---- -----  --------                                  -----------------------
TIME .S                                                :TIME {F10.1}
FREQ_EMF_SL.HZ                                         :Electromagnetic Field Frequency {F13.4}
PH_SH_WPPCM_SL.DEG                                     :WPPCM Phase Shift {F13.4}
FREQ_EXC_REQ_SL.HZ                                     :Requested Exciter Frequency {F13.4}
RB_SL.DEG                                              :Relative Bearing {F13.4}
SDEV_SL.DEG                                            :Sonde Deviation {F13.4}
TILX_SL.DEG                                            :X-axis Tilt {F13.4}
TILY_SL.DEG                                            :Y-axis Tilt {F13.4}
ROTA_SL.DEG                                            :Motor Rotation Angle {F13.4}
MSPE_SL.RPM                                            :Motor Speed {F13.4}
#-----------------------------------------------------------------------------
# 
#     TIME    FREQ_EMF_SL  PH_SH_WPPCM_ FREQ_EXC_REQ    RB_SL       SDEV_SL      TILX_SL      TILY_SL      ROTA_SL      MSPE_SL
#                          SL           _SL
~A  
# ...
    2754.0    1482.9982       0.0000      50.8611      85.8330       3.5027       3.4933      -0.2544      31.2563       1.0327
    2755.0    1505.1226       0.0000      50.8611      93.3705       3.4554       3.4494       0.2030      37.3842       1.0226
    2756.0    1525.2169       0.0000      50.8611     101.7456       3.3669       3.2963       0.6847      43.4870       1.0330
    2757.0    1545.3296       0.0000      50.8611     107.7242       3.4556       3.2912       1.0514      49.5653       1.0223
    2758.0    1565.8711       0.0000      50.8611     118.3702       3.4188       3.0076       1.6238      55.6829       1.0330
    2759.0    1583.3929       0.0000      50.8611     125.0487       3.3340       2.7289       1.9139      62.2029       1.0226
    2760.0    1590.6684       0.0000      50.8611     132.0878       3.4075       2.5281       2.2832      68.3186       1.0223
    2761.0    1608.9817       0.0000      50.8611     141.6032       3.4896       2.1666       2.7342      74.3962       1.0124
    2762.0    1616.1481       0.0000      50.8611     147.1258       3.5468       1.9243       2.9783      80.5106       1.0226
    2763.0    1623.7284       0.0000      50.8611     155.5841       3.4971       1.4448       3.1840      86.6001       1.0226
    2764.0    1627.6041       0.0000      50.8611     160.5203       3.5972       1.1988       3.3910      92.7019       1.0226
    2765.0    1616.4957       0.0000      50.8611     169.6397       3.7720       0.6779       3.7104      98.7798       1.0219
    2766.0    1620.2206       0.0000      50.8611     177.5921       3.7994       0.1595       3.7960     104.8943       1.0330
    2767.0    1609.4462       0.0000      50.8611    -176.5838       4.0435      -0.2409       4.0362     110.9965       1.0226
    2768.0    1601.8806       0.0000      50.8611    -169.3701       4.1123      -0.7581       4.0413     117.1115       1.0226
    2769.0    1597.7854       0.0000      50.8611    -161.8912       4.1262      -1.2815       3.9212     123.2133       1.0124
    2770.0    1580.2792       0.0000      50.8611    -155.3001       4.2297      -1.7660       3.8420     129.3058       1.0330
    2771.0    1556.0202       0.0000      50.8611    -149.5296       4.3595      -2.2091       3.7564     135.8389       1.0226
    2772.0    1545.2237       0.0000      50.8611    -145.1396       4.4346      -2.5329       3.6376     141.9408       1.0226
    2773.0    1525.1138       0.0000      50.8611    -139.7735       4.5488      -2.9359       3.4715     148.0427       1.0226
    2774.0    1496.1103       0.0000      50.8611    -133.0277       4.6710      -3.4128       3.1853     154.1446       1.0226
    2775.0    1477.5445       0.0000      50.8611    -127.2446       4.7938      -3.8145       2.8990     160.2499       1.0330
    2776.0    1461.7983       0.0000      50.8611    -121.3993       4.9412      -4.2162       2.5719     166.3492       1.0226
    2777.0    1432.0721       0.0000      50.8611    -114.6335       4.9108      -4.4628       2.0449     172.4387       1.0330
    2778.0    1406.7837       0.0000      50.8611    -110.6001       5.1044      -4.7772       1.7938     178.5669       1.0226
    2779.0    1381.8133       0.0000      50.8611    -104.9650       5.0728      -4.9003       1.3082     184.6688       1.0226
    2780.0    1362.6454       0.0000      50.8611    -100.0372       5.1449      -5.0659       0.8955     190.7707       1.0226
    2781.0    1316.7907       0.0000      50.8611     -94.9931       5.1281      -5.1086       0.4458     196.8602       1.0226
    2782.0    1278.9242       0.0000      50.8611     -87.7786       5.1956      -5.1915      -0.2008     202.9621       1.0330
    2783.0    1221.0372       0.0000      50.8611     -82.9334       5.3477      -5.3069      -0.6569     209.4608       1.0226
    2784.0    1170.2319       0.0000      50.8611     -79.2989       5.3207      -5.2279      -0.9866     215.5881       1.0229
    2785.0    1121.7501       0.0000      50.8611     -73.9490       5.4798      -5.2655      -1.5130     221.6904       1.0226
    2786.0    1079.1521       0.0000      50.8611     -69.1223       5.5118      -5.1488      -1.9615     227.7799       1.0226
    2787.0    1041.6666       0.0000      50.8611     -63.0019       5.5070      -4.9053      -2.4969     233.8695       1.0226
    2788.0    1014.3833       0.0000      50.8611     -59.2318       5.5241      -4.7446      -2.8227     239.9722       1.0229
    2789.0     993.0488       0.0000      50.8611     -53.8046       5.6828      -4.5833      -3.3523     246.0741       1.0226
    2790.0     974.0695       0.0000      50.8611     -49.6831       5.3864      -4.1045      -3.4820     252.1892       1.0226
    2791.0     968.6173       0.0000      50.8611     -43.3736       5.5170      -3.7856      -4.0072     258.2910       1.0226
    2792.0     961.7853       0.0000      50.8611     -41.2893       5.6090      -3.6978      -4.2116     264.3928       1.0226
    2793.0     951.6573       0.0000      50.8611     -36.1848       5.5822      -3.2923      -4.5030     270.4823       1.0226
    2794.0     954.0771       0.0000      50.8611     -31.3155       5.5606      -2.8869      -4.7483     276.5841       1.0226
    2795.0     953.9962       0.0000      50.8611     -24.6138       5.2255      -2.1739      -4.7496     283.0815       1.0330
    2796.0     956.5515       0.0000      50.8611     -18.9094       5.2388      -1.6957      -4.9553     289.1965       1.0226
    2797.0     967.0354       0.0000      50.8611     -13.4777       5.2196      -1.2150      -5.0754     295.2983       1.0226
    2798.0     972.4265       0.0000      50.8611      -8.6827       5.1359      -0.7744      -5.0767     301.4001       1.0226
    2799.0     979.1978       0.0000      50.8611      -4.1866       5.0930      -0.3715      -5.0792     307.4896       1.0226
    2800.0     998.7128       0.0000      50.8611       1.3165       4.8749       0.1118      -4.8735     313.5914       1.0226
    2801.0    1016.6058       0.0000      50.8611       8.3837       4.7636       0.6936      -4.7125     319.2852       1.0149
    2802.0    1053.4832       0.0000      50.8611      13.1170       4.7512       1.0770      -4.6269     325.3747       1.0226
    2803.0    1101.6503       0.0000      50.8611      17.7403       4.6021       1.4009      -4.3829     331.4650       1.0124
    2804.0    1152.4293       0.0000      50.8611      27.1711       4.5557       2.0787      -4.0519     337.5554       1.0226
    2805.0    1212.2193       0.0000      50.8611      28.0555       4.2680       2.0059      -3.7657     343.6577       1.0229
    2806.0    1282.7123       0.0000      50.8611      35.5126       4.4758       2.5984      -3.6418     349.7489       1.0127
    2807.0    1313.8720       0.0000      50.8611      42.0403       4.1896       2.8042      -3.1102     355.8502       1.0226
    2808.0    1339.2062       0.0000      50.8611      46.0230       4.0135       2.8871      -2.7857       2.3489       1.0124
    2809.0    1367.8645       0.0000      50.8611      54.2343       3.9969       3.2423      -2.3346       8.4634       1.0229
    2810.0    1400.4738       0.0000      50.8611      59.6685       3.9042       3.3691      -1.9705      14.5652       1.0226
    2811.0    1425.7696       0.0000      50.8611      68.0543       3.6367       3.3728      -1.3584      20.6675       1.0229
    2812.0    1443.6961       0.0000      50.8611      75.0985       3.6904       3.5661      -0.9483      26.7838       1.0226
    2813.0    1476.2090       0.0000      50.8611      81.8995       3.6282       3.5919      -0.5110      32.8856       1.0226
    2814.0    1495.9114       0.0000      50.8611      89.2750       3.4535       3.4532      -0.0436      38.9874       1.0226
    2815.0    1508.7510       0.0000      50.8611      98.6861       3.4540       3.4142       0.5211      45.0893       1.0226
    2816.0    1534.9988       0.0000      50.8611     105.8025       3.4220       3.2925       0.9313      51.1920       1.0226
