~VERSION INFORMATION
VERS.           2.0   :CWLS Log ASCII Standard - VERSION 2.0
WRAP.           NO    :One Line per depth step
PROD.  Schlumberger   :LAS Producer
PROG.  DLIS to ASCII 19C2-270                          :LAS Program name and version
CREA.        2017/09/16 17:42                          :LAS Creation date {YYYY/MM/DD hh:mm}
DLIS_CREA.  2017-Sep-15 15:01                          :DLIS Creation date and time {YYYY-MMM-DD hh:mm}
SOURCE.     LPC_S2-1_2AV.DLIS                          :DLIS File Name
FILE-ID.     PERFO_Perfo_WPGRT_032LTP                  :File Identification Number
#--------------------------------------------------
~WELL INFORMATION
#MNEM.UNIT      DATA             DESCRIPTION
#---- ------ --------------   -----------------------------
STRT .S        15223.0       :START TIME      
STOP .S        15655.0       :STOP TIME      
STEP .S            1.0       :STEP     
NULL .          -999.25      :NULL VALUE
COMP .        SHELL INTERNATIONAL E P                  :COMPANY
WELL .                                                 :WELL
FLD  .        WPP TEST 2                               :FIELD
LOC  .                                                 :LOCATION
CNTY .        HARRIS                                   :COUNTY
STAT .        TEXAS                                    :STATE
CTRY .                                                 :COUNTRY
API  .                                                 :API NUMBER
UWI  .                                                 :UNIQUE WELL ID
DATE .                                                 :LOG DATE
SRVC .        Schlumberger                             :SERVICE COMPANY
LATI .DEG                                              :LATITUDE
LONG .DEG                                              :LONGITUDE
GDAT .                                                 :GeoDetic Datum
#-----------------------------------------------------------------------------
~PARAMETER INFORMATION
#MNEM.UNIT    VALUE                      DESCRIPTION
#---- -----   --------------------       ------------------------
U-PHASE_B_COMP_PER_YT.                 0 :Phase B Comparator Period Yt
U-PHASE_A_COMP_PER_XT.                 0 :Phase A Comparator Period Xt
U-MAX_EXC_CUR_LIMIT.MA       240.00000   :Requested CM Current Limit
U-REQ_EXC_FQ.HZ              50          :Requested CM Frequency
U-TILT_Y_OFFSET.           0.19916       :WPTET Tilt Y Offset
U-TILT_Y_GAIN.           1.01796         :WPTET Tilt Y Gain
U-TILT_X_OFFSET.          -1.77103       :WPTET Tilt X Offset
U-TILT_X_GAIN.           1.00000         :WPTET Tilt X Gain
U-TILT_OFFSET_TOL.           0.00100     :WPTET Tilt Offset Calibration Tolerance
U-NO_TILT_CAL_ROTATIONS.                 3 :Number of Rotations for Tilt Calibration
HAZI .DEG        0.00000                 :Hole Azimuth
U-STD_TOL_TILT.           0.01000        :Tilt Standard Deviation Tolerance
U-GUN_POS_TOL.DEG        5.00000         :Gun Position Tolerance
ROT_ANGLE_THRESHOLD.DEG        5.00000   :Rotation Stop Angle Tolerance
STOP_ROT_ANGLE.DEG       80.00000        :Rotation Stop Angle
WITN .                                   :Witness's Name
ENGI .                                   :Engineer's Name
COUN .        HARRIS                     :County or Rig Name
FN   .        WPP TEST 2                 :Field Name
WN   .                                   :Well Name
CN   .        SHELL INTERNATIONAL E P    :Company Name
CLAB .        County                     :County/Rig Label
SLAB .        State                      :State/Province Label
RUN  .          1                        :RUN NUMBER
PDAT .        GROUND LEVEL               :Permanent Datum
EPD  .                                   :Elevation of Permanent Datum above Mean Sea Level
LMF  .                                   :Logging Measured From (Name of Logging Elevation Reference)
APD  .                                   :Elevation of Depth Reference (LMF) above Permanent Datum
#-----------------------------------------------------------------------------
~CURVE INFORMATION
#MNEM.UNIT   API CODE                                  DESCRIPTION
#---- -----  --------                                  -----------------------
TIME .S                                                :TIME {F10.1}
FREQ_EMF_SL.HZ                                         :Electromagnetic Field Frequency {F13.4}
PH_SH_WPPCM_SL.DEG                                     :WPPCM Phase Shift {F13.4}
FREQ_EXC_REQ_SL.HZ                                     :Requested Exciter Frequency {F13.4}
RB_SL.DEG                                              :Relative Bearing {F13.4}
SDEV_SL.DEG                                            :Sonde Deviation {F13.4}
TILX_SL.DEG                                            :X-axis Tilt {F13.4}
TILY_SL.DEG                                            :Y-axis Tilt {F13.4}
ROTA_SL.DEG                                            :Motor Rotation Angle {F13.4}
MSPE_SL.RPM                                            :Motor Speed {F13.4}
#-----------------------------------------------------------------------------
# 
#     TIME    FREQ_EMF_SL  PH_SH_WPPCM_ FREQ_EXC_REQ    RB_SL       SDEV_SL      TILX_SL      TILY_SL      ROTA_SL      MSPE_SL
#                          SL           _SL
~A  
# ...
   15538.0    1439.5255       0.0000      50.8611     -52.4144       0.9391      -0.7416      -0.5746      93.4823       1.0140
   15539.0    1448.6408       0.0000      50.8611     -51.4609       1.0263      -0.8026      -0.6337      99.5960       1.0140
   15540.0    1441.3772       0.0000      50.8611     -52.1195       0.9429      -0.7446      -0.5777     105.6974       1.0226
   15541.0    1444.3382       0.0000      50.8611     -56.3187       0.8340      -0.6940      -0.4626     111.8165       1.0226
   15542.0    1459.3266       0.0000      50.8611     -60.1336       0.8467      -0.7341      -0.4217     117.9273       1.0226
   15543.0    1461.8568       0.0000      50.8611     -50.1255       0.8908      -0.6843      -0.5694     124.0272       1.0226
   15544.0    1457.6504       0.0000      50.8611     -60.4022       0.8835      -0.7669      -0.4369     130.1309       1.0226
   15545.0    1458.7655       0.0000      50.8611     -55.8646       0.7990      -0.6612      -0.4475     136.2347       1.0226
   15546.0    1459.8900       0.0000      50.8611     -52.3043       0.6648      -0.5259      -0.4066     142.3480       1.0314
   15547.0    1458.2068       0.0000      50.8611     -58.7836       0.8758      -0.7446      -0.4520     148.4610       1.0226
   15548.0    1452.7377       0.0000      50.8611     -62.1647       0.8308      -0.7341      -0.3884     154.5779       1.0226
   15549.0    1453.2941       0.0000      50.8611     -63.0900       0.9335      -0.8323      -0.4217     160.6829       1.0226
   15550.0    1452.7377       0.0000      50.8611     -60.9906       0.8562      -0.7490      -0.4142     167.1984       1.0314
   15551.0    1446.7593       0.0000      50.8611     -57.3730       0.8450      -0.7118      -0.4551     173.2924       1.0226
   15552.0    1430.1950       0.0000      50.8611     -59.2426       0.9398      -0.8070      -0.4808     179.3962       1.0226
   15553.0    1433.1100       0.0000      50.8611     -57.7848       0.9927      -0.8398      -0.5293     185.4968       1.0226
   15554.0    1419.1867       0.0000      50.8611     -63.8955       0.9077      -0.8145      -0.3990     191.6100       1.0226
   15555.0    1407.8204       0.0000      50.8611     -65.8184       0.9123      -0.8323      -0.3733     197.7138       1.0226
   15556.0    1404.4838       0.0000      50.8611     -65.1722       0.8538      -0.7743      -0.3581     203.8177       1.0140
   15557.0    1398.0920       0.0000      50.8611     -70.1556       0.9457      -0.8874      -0.3218     209.9053       1.0226
   15558.0    1393.5621       0.0000      50.8611     -60.5243       0.9935      -0.8651      -0.4884     216.0153       1.0226
   15559.0    1379.6807       0.0000      50.8611     -64.9498       0.8991      -0.8145      -0.3808     222.1091       1.0226
   15560.0    1374.7884       0.0000      50.8611     -62.3538       0.9649      -0.8546      -0.4475     228.2016       1.0226
   15561.0    1366.4790       0.0000      50.8611     -64.4032       0.9927      -0.8948      -0.4293     234.3005       1.0226
   15562.0    1347.4611       0.0000      50.8611     -57.6819       1.0677      -0.9022      -0.5702     240.8104       1.0226
   15563.0    1337.0455       0.0000      50.8611     -59.4049       0.9955      -0.8546      -0.5066     246.9163       1.0246
   15564.0    1332.1436       0.0000      50.8611     -66.2994       1.1559      -1.0585      -0.4626     253.0135       1.0314
   15565.0    1318.7268       0.0000      50.8611     -60.8402       1.0713      -0.9350      -0.5217     259.1035       1.0226
   15566.0    1298.1675       0.0000      50.8611     -62.1479       0.9749      -0.8621      -0.4551     265.2071       1.0226
   15567.0    1270.7552       0.0000      50.8611     -62.5156       1.0910      -0.9677      -0.5035     271.2984       1.0226
   15568.0    1259.0821       0.0000      50.8611     -60.4438       1.1041      -0.9603      -0.5444     277.3857       1.0226
   15569.0    1238.4722       0.0000      50.8611     -75.8296       1.1305      -1.0956      -0.2764     283.4855       1.0314
   15570.0    1214.3783       0.0000      50.8611     -55.7956       1.2013      -0.9930      -0.6746     289.5923       1.0206
   15571.0    1203.0693       0.0000      50.8611     -57.9419       1.2783      -1.0838      -0.6777     295.7064       1.0334
   15572.0    1197.4510       0.0000      50.8611     -57.0638       1.0485      -0.8799      -0.5702     301.8217       1.0226
   15573.0    1189.3490       0.0000      50.8611     -65.7636       1.1005      -1.0004      -0.4520     307.9203       1.0226
   15574.0    1185.7083       0.0000      50.8611     -46.4303       0.9612      -0.6909      -0.6550     314.4338       1.0226
   15575.0    1177.2591       0.0000      50.8611     -59.9824       1.0884      -0.9424      -0.5444     320.5347       1.0314
   15576.0    1182.2474       0.0000      50.8611     -54.8753       1.1275      -0.9201      -0.6489     326.6325       1.0314
   15577.0    1186.6033       0.0000      50.8611     -55.3265       1.1148      -0.9171      -0.6337     332.7385       1.0226
   15578.0    1184.6041       0.0000      50.8611     -58.0346       1.0975      -0.9319      -0.5777     338.8432       1.0314
   15579.0    1192.4872       0.0000      50.8611     -55.4288       1.2117      -0.9974      -0.6852     344.9549       1.0226
   15580.0    1207.7352       0.0000      50.8611     -56.1923       1.1253      -0.9350      -0.6262     351.0653       1.0246
   15581.0    1225.3519       0.0000      50.8611     -56.6097       1.2488      -1.0436      -0.6852     357.1713       1.0226
   15582.0    1243.6570       0.0000      50.8611     -49.5782       1.1581      -0.8799      -0.7519       3.2867       1.0314
   15583.0    1278.5993       0.0000      50.8611     -50.1856       1.0980      -0.8442      -0.7004       9.3898       1.0226
   15584.0    1290.3315       0.0000      50.8611     -51.7354       1.0889      -0.8546      -0.6746      15.4868       1.0246
   15585.0    1306.4752       0.0000      50.8611     -49.8830       1.1506      -0.8799      -0.7413      21.5985       1.0226
   15586.0    1319.6426       0.0000      50.8611     -49.4279       1.0532      -0.7996      -0.6852      28.0911       1.0226
   15587.0    1337.4123       0.0000      50.8611     -46.9236       1.0154      -0.7416      -0.6928      34.2016       1.0314
   15588.0    1349.3100       0.0000      50.8611     -53.9766       1.0075      -0.8145      -0.5928      40.3078       1.0226
   15589.0    1361.6721       0.0000      50.8611     -49.6572       1.1345      -0.8651      -0.7337      46.4115       1.0226
   15590.0    1368.4408       0.0000      50.8611     -44.5243       1.0221      -0.7162      -0.7261      52.4997       1.0206
   15591.0    1379.8876       0.0000      50.8611     -46.9236       1.0154      -0.7416      -0.6928      58.6137       1.0226
   15592.0    1392.5540       0.0000      50.8611     -48.9390       0.9645      -0.7267      -0.6337      64.7304       1.0140
   15593.0    1400.6475       0.0000      50.8611     -50.3834       0.9719      -0.7490      -0.6186      70.8217       1.0226
   15594.0    1409.5917       0.0000      50.8611     -50.8611       0.9276      -0.7193      -0.5853      76.9227       1.0226
   15595.0    1424.6212       0.0000      50.8611     -56.7820       0.9951      -0.8323      -0.5444      83.0214       1.0226
   15596.0    1426.7533       0.0000      50.8611     -50.4781       1.0365      -0.7996      -0.6595      89.1432       1.0246
   15597.0    1437.8834       0.0000      50.8611     -50.5715       0.9634      -0.7446      -0.6110      95.2430       1.0226
   15598.0    1441.3772       0.0000      50.8611     -53.3759       0.9977      -0.7996      -0.5959     101.7478       1.0226
   15599.0    1453.2941       0.0000      50.8611     -53.7657       0.9515      -0.7669      -0.5626     107.8646       1.0246
   15600.0    1458.2068       0.0000      50.8611     -47.1543       0.9115      -0.6687      -0.6186     113.9825       1.0160
