~VERSION INFORMATION
VERS.           2.0   :CWLS Log ASCII Standard - VERSION 2.0
WRAP.           NO    :One Line per depth step
PROD.  Schlumberger   :LAS Producer
PROG.  DLIS to ASCII 19C2-270                          :LAS Program name and version
CREA.        2017/09/16 17:42                          :LAS Creation date {YYYY/MM/DD hh:mm}
DLIS_CREA.  2017-Sep-15 13:29                          :DLIS Creation date and time {YYYY-MMM-DD hh:mm}
SOURCE.     LPC_S1-1_2A5.DLIS                          :DLIS File Name
FILE-ID.     PERFO_Perfo_WPGRT_025LTP                  :File Identification Number
#--------------------------------------------------
~WELL INFORMATION
#MNEM.UNIT      DATA             DESCRIPTION
#---- ------ --------------   -----------------------------
STRT .S         9747.0       :START TIME      
STOP .S        10374.0       :STOP TIME      
STEP .S            1.0       :STEP     
NULL .          -999.25      :NULL VALUE
COMP .        SHELL INTERNATIONAL E P                  :COMPANY
WELL .        WPP TEST 2                               :WELL
FLD  .        WILDCAT                                  :FIELD
LOC  .                                                 :LOCATION
CNTY .        HARRIS                                   :COUNTY
STAT .        TEXAS                                    :STATE
CTRY .                                                 :COUNTRY
API  .                                                 :API NUMBER
UWI  .                                                 :UNIQUE WELL ID
DATE .                                                 :LOG DATE
SRVC .        Schlumberger                             :SERVICE COMPANY
LATI .DEG                                              :LATITUDE
LONG .DEG                                              :LONGITUDE
GDAT .                                                 :GeoDetic Datum
#-----------------------------------------------------------------------------
~PARAMETER INFORMATION
#MNEM.UNIT    VALUE                      DESCRIPTION
#---- -----   --------------------       ------------------------
U-PHASE_B_COMP_PER_YT.                 0 :Phase B Comparator Period Yt
U-PHASE_A_COMP_PER_XT.                 0 :Phase A Comparator Period Xt
U-MAX_EXC_CUR_LIMIT.MA       240.00000   :Requested CM Current Limit
U-REQ_EXC_FQ.HZ              40          :Requested CM Frequency
U-TILT_Y_OFFSET.           0.19916       :WPTET Tilt Y Offset
U-TILT_Y_GAIN.           1.01796         :WPTET Tilt Y Gain
U-TILT_X_OFFSET.          -1.77103       :WPTET Tilt X Offset
U-TILT_X_GAIN.           1.00000         :WPTET Tilt X Gain
U-TILT_OFFSET_TOL.           0.00100     :WPTET Tilt Offset Calibration Tolerance
U-NO_TILT_CAL_ROTATIONS.                 3 :Number of Rotations for Tilt Calibration
HAZI .DEG        0.00000                 :Hole Azimuth
U-STD_TOL_TILT.           0.01000        :Tilt Standard Deviation Tolerance
U-GUN_POS_TOL.DEG        5.00000         :Gun Position Tolerance
ROT_ANGLE_THRESHOLD.DEG        5.00000   :Rotation Stop Angle Tolerance
STOP_ROT_ANGLE.DEG       80.00000        :Rotation Stop Angle
WITN .                                   :Witness's Name
ENGI .                                   :Engineer's Name
COUN .        HARRIS                     :County or Rig Name
FN   .        WILDCAT                    :Field Name
WN   .        WPP TEST 2                 :Well Name
CN   .        SHELL INTERNATIONAL E P    :Company Name
CLAB .        County                     :County/Rig Label
SLAB .        State                      :State/Province Label
RUN  .          1                        :RUN NUMBER
PDAT .        GROUND LEVEL               :Permanent Datum
EPD  .                                   :Elevation of Permanent Datum above Mean Sea Level
LMF  .                                   :Logging Measured From (Name of Logging Elevation Reference)
APD  .                                   :Elevation of Depth Reference (LMF) above Permanent Datum
#-----------------------------------------------------------------------------
~CURVE INFORMATION
#MNEM.UNIT   API CODE                                  DESCRIPTION
#---- -----  --------                                  -----------------------
TIME .S                                                :TIME {F10.1}
FREQ_EMF_SL.HZ                                         :Electromagnetic Field Frequency {F13.4}
PH_SH_WPPCM_SL.DEG                                     :WPPCM Phase Shift {F13.4}
FREQ_EXC_REQ_SL.HZ                                     :Requested Exciter Frequency {F13.4}
RB_SL.DEG                                              :Relative Bearing {F13.4}
SDEV_SL.DEG                                            :Sonde Deviation {F13.4}
TILX_SL.DEG                                            :X-axis Tilt {F13.4}
TILY_SL.DEG                                            :Y-axis Tilt {F13.4}
ROTA_SL.DEG                                            :Motor Rotation Angle {F13.4}
MSPE_SL.RPM                                            :Motor Speed {F13.4}
#-----------------------------------------------------------------------------
# 
#     TIME    FREQ_EMF_SL  PH_SH_WPPCM_ FREQ_EXC_REQ    RB_SL       SDEV_SL      TILX_SL      TILY_SL      ROTA_SL      MSPE_SL
#                          SL           _SL
~A  
# ...
   10125.0    1434.9490       0.0000      40.6889       9.2338       4.3787       0.7020      -4.3218     235.5477       1.0226
   10126.0    1433.6923       0.0000      40.6889      13.9295       4.2790       1.0290      -4.1526     241.6500       1.0226
   10127.0    1432.8859       0.0000      40.6889      20.0472       4.2777       1.4652      -4.0180     247.7648       1.0166
   10128.0    1436.2108       0.0000      40.6889      25.1902       4.1894       1.7809      -3.7907     253.8475       1.0166
   10129.0    1436.2108       0.0000      40.6889      30.2525       4.0039       2.0163      -3.4575     259.9452       1.0226
   10130.0    1436.2108       0.0000      40.6889      37.3491       3.7990       2.3031      -3.0195     266.0473       1.0226
   10131.0    1437.8834       0.0000      40.6889      42.1457       3.7586       2.5212      -2.7857     272.1486       1.0226
   10132.0    1440.8298       0.0000      40.6889      49.6259       3.6714       2.7963      -2.3768     278.2498       1.0226
   10133.0    1446.7593       0.0000      40.6889      55.3290       3.5388       2.9108      -2.0088     284.3650       1.0166
   10134.0    1446.7593       0.0000      40.6889      62.0317       3.4134       3.0144      -1.5999     290.4548       1.0226
   10135.0    1451.4496       0.0000      40.6889      70.1017       3.3828       3.1807      -1.1501     296.9514       1.0226
   10136.0    1449.3300       0.0000      40.6889      76.4029       3.2552       3.1639      -0.7646     303.0597       1.0181
   10137.0    1459.1956       0.0000      40.6889      86.0062       3.1721       3.1639      -0.2216     309.1596       1.0242
   10138.0    1464.4229       0.0000      40.6889      93.4096       3.0545       3.0490       0.1816     315.2743       1.0226
   10139.0    1463.1079       0.0000      40.6889     100.9239       3.1831       3.1237       0.6019     321.3729       1.0226
   10140.0    1462.2301       0.0000      40.6889     109.7471       2.9593       2.7851       0.9993     327.4750       1.0226
   10141.0    1468.8053       0.0000      40.6889     119.2995       3.0101       2.6244       1.4724     333.5648       1.0226
   10142.0    1474.9478       0.0000      40.6889     139.6656       2.8226       1.7998       2.0673     339.6661       1.0226
   10143.0    1477.1533       0.0000      40.6889     133.9752       3.0812       2.2171       2.1385     345.7708       1.0226
   10144.0    1479.3744       0.0000      40.6889     142.2260       3.1347       1.9187       2.4770     351.8694       1.0226
   10145.0    1489.6716       0.0000      40.6889     149.2436       3.2702       1.6717       2.8099     357.9723       1.0226
   10146.0    1487.8764       0.0000      40.6889     156.3137       3.2923       1.3218       3.0147       4.0736       1.0226
   10147.0    1493.7488       0.0000      40.6889     165.2097       3.3597       0.8571       3.2482      10.5967       1.0226
   10148.0    1492.8344       0.0000      40.6889     171.8677       3.4244       0.4843       3.3884      16.7120       1.0226
   10149.0    1497.8288       0.0000      40.6889     178.5756       3.5536       0.0883       3.5520      22.8134       1.0226
   10150.0    1503.7872       0.0000      40.6889    -174.4577       3.5453      -0.3423       3.5287      28.9148       1.0226
   10151.0    1508.4056       0.0000      40.6889    -168.4064       3.7037      -0.7440       3.6280      35.0171       1.0226
   10152.0    1508.8519       0.0000      40.6889    -161.1962       3.7840      -1.2199       3.5810      41.1193       1.0226
   10153.0    1510.2472       0.0000      40.6889    -154.3646       3.8822      -1.6790       3.4992      47.2269       1.0181
   10154.0    1512.0968       0.0000      40.6889    -149.6478       3.9955      -2.0176       3.4469      53.3230       1.0226
   10155.0    1508.4056       0.0000      40.6889    -142.6603       4.1610      -2.5225       3.3066      59.4230       1.0226
   10156.0    3200.1640       0.0000      40.6889    -137.6014       4.1873      -2.8210       3.0908      65.5281       1.0615
   10157.0       0.0000       0.0000      40.6889    -130.8837       4.3403      -3.2801       2.8393      72.2244       1.0319
   10158.0       0.0000       0.0000      40.6889    -124.8587       4.3485      -3.5669       2.4832      78.3315       1.0287
   10159.0       0.0000       0.0000      40.6889    -119.7211       4.5308      -3.9340       2.2436      84.8552       1.0287
   10160.0       0.0000       0.0000      40.6889    -114.6507       4.5441      -4.1292       1.8931      90.9596       1.0181
   10161.0       0.0000       0.0000      40.6889    -109.3767       4.6893      -4.4220       1.5546      97.0583       1.0226
   10162.0       0.0000       0.0000      40.6889    -104.8844       4.7365      -4.5771       1.2156     103.1493       1.0226
   10163.0       0.0000       0.0000      40.6889     -99.5184       4.7005      -4.6345       0.7777     109.2721       1.0287
   10164.0       0.0000       0.0000      40.6889     -93.2827       4.9121      -4.9040       0.2809     115.3801       1.0226
   10165.0       0.0000       0.0000      40.6889     -87.4045       4.9041      -4.8984      -0.2212     121.4858       1.0287
   10166.0       0.0000       0.0000      40.6889     -84.4926       4.9325      -4.9096      -0.4726     127.5976       1.0226
   10167.0       0.0000       0.0000      40.6889     -77.5910       5.0281      -4.9096      -1.0798     133.6876       1.0226
   10168.0       0.0000       0.0000      40.6889     -73.1429       5.0185      -4.8008      -1.4535     139.7768       1.0226
   10169.0       0.0000       0.0000      40.6889     -69.1935       5.0385      -4.7092      -1.7868     145.8713       1.0166
   10170.0       0.0000       0.0000      40.6889     -62.9411       5.0255      -4.4738      -2.2832     151.9816       1.0226
   10171.0    1171.9717       0.0000      50.8611     -58.2898       5.0718      -4.3132      -2.6630     158.0140       1.0050
   10172.0    1337.4704       0.0000      50.8611     -53.4832       5.1766      -4.1581      -3.0776     164.1112       1.0181
   10173.0    1364.9253       0.0000      50.8611     -49.8753       5.0055      -3.8251      -3.2236     170.2136       1.0226
   10174.0    1365.6676       0.0000      50.8611     -43.6833       5.1260      -3.5388      -3.7028     176.3088       1.0181
   10175.0    1361.8912       0.0000      50.8611     -40.0268       5.0058      -3.2170      -3.8312     182.4049       1.0226
   10176.0    1351.0475       0.0000      50.8611     -34.2048       5.0531      -2.8387      -4.1759     188.5064       1.0226
   10177.0    1347.7425       0.0000      50.8611     -30.0021       4.9331      -2.4719      -4.2642     194.6093       1.0287
   10178.0    1341.1102       0.0000      50.8611     -24.5587       4.8876      -2.0293      -4.4445     200.7177       1.0287
   10179.0    1328.0804       0.0000      50.8611     -17.7010       4.7724      -1.4501      -4.5438     206.8146       1.0226
   10180.0    1322.0650       0.0000      50.8611     -14.6242       4.8792      -1.2320      -4.7193     212.9294       1.0226
   10181.0    1323.8081       0.0000      50.8611      -9.2611       4.6633      -0.7496      -4.6023     219.0317       1.0226
   10182.0    1332.0340       0.0000      50.8611      -4.2339       4.6441      -0.3423      -4.6313     225.1340       1.0226
   10183.0    1329.8813       0.0000      50.8611       1.6266       4.5407       0.1281      -4.5381     231.6431       1.0226
   10184.0    1332.7627       0.0000      50.8611       6.9877       4.4544       0.5414      -4.4212     237.7454       1.0226
   10185.0    1336.0473       0.0000      50.8611      10.4405       4.3780       0.7936      -4.3042     243.8435       1.0287
   10186.0    1332.0340       0.0000      50.8611      18.2216       4.3561       1.3616      -4.1350     249.9506       1.0226
   10187.0    1337.4704       0.0000      50.8611      23.0212       4.1830       1.6315      -3.8492     256.0396       1.0226
