~VERSION INFORMATION
VERS.           2.0   :CWLS Log ASCII Standard - VERSION 2.0
WRAP.           NO    :One Line per depth step
PROD.  Schlumberger   :LAS Producer
PROG.  DLIS to ASCII 19C2-270                          :LAS Program name and version
CREA.        2017/09/16 17:42                          :LAS Creation date {YYYY/MM/DD hh:mm}
DLIS_CREA.  2017-Sep-15 16:38                          :DLIS Creation date and time {YYYY-MMM-DD hh:mm}
SOURCE.     LPC_S3-1_2A5.DLIS                          :DLIS File Name
FILE-ID.     PERFO_Perfo_WPGRT_042LTP                  :File Identification Number
#--------------------------------------------------
~WELL INFORMATION
#MNEM.UNIT      DATA             DESCRIPTION
#---- ------ --------------   -----------------------------
STRT .S         4115.0       :START TIME      
STOP .S         4682.0       :STOP TIME      
STEP .S            1.0       :STEP     
NULL .          -999.25      :NULL VALUE
COMP .        SHELL INTERNATIONAL E P                  :COMPANY
WELL .        WPP TEST 2                               :WELL
FLD  .        WILDCAT                                  :FIELD
LOC  .                                                 :LOCATION
CNTY .        HARRIS                                   :COUNTY
STAT .        TEXAS                                    :STATE
CTRY .                                                 :COUNTRY
API  .                                                 :API NUMBER
UWI  .                                                 :UNIQUE WELL ID
DATE .                                                 :LOG DATE
SRVC .        Schlumberger                             :SERVICE COMPANY
LATI .DEG                                              :LATITUDE
LONG .DEG                                              :LONGITUDE
GDAT .                                                 :GeoDetic Datum
#-----------------------------------------------------------------------------
~PARAMETER INFORMATION
#MNEM.UNIT    VALUE                      DESCRIPTION
#---- -----   --------------------       ------------------------
U-PHASE_B_COMP_PER_YT.                 0 :Phase B Comparator Period Yt
U-PHASE_A_COMP_PER_XT.                 0 :Phase A Comparator Period Xt
U-MAX_EXC_CUR_LIMIT.MA       240.00000   :Requested CM Current Limit
U-REQ_EXC_FQ.HZ              50          :Requested CM Frequency
U-TILT_Y_OFFSET.           0.19916       :WPTET Tilt Y Offset
U-TILT_Y_GAIN.           1.01796         :WPTET Tilt Y Gain
U-TILT_X_OFFSET.          -1.77103       :WPTET Tilt X Offset
U-TILT_X_GAIN.           1.00000         :WPTET Tilt X Gain
U-TILT_OFFSET_TOL.           0.00100     :WPTET Tilt Offset Calibration Tolerance
U-NO_TILT_CAL_ROTATIONS.                 3 :Number of Rotations for Tilt Calibration
HAZI .DEG        0.00000                 :Hole Azimuth
U-STD_TOL_TILT.           0.01000        :Tilt Standard Deviation Tolerance
U-GUN_POS_TOL.DEG        5.00000         :Gun Position Tolerance
ROT_ANGLE_THRESHOLD.DEG        5.00000   :Rotation Stop Angle Tolerance
STOP_ROT_ANGLE.DEG        0.00000        :Rotation Stop Angle
WITN .                                   :Witness's Name
ENGI .                                   :Engineer's Name
COUN .        HARRIS                     :County or Rig Name
FN   .        WILDCAT                    :Field Name
WN   .        WPP TEST 2                 :Well Name
CN   .        SHELL INTERNATIONAL E P    :Company Name
CLAB .        County                     :County/Rig Label
SLAB .        State                      :State/Province Label
RUN  .          1                        :RUN NUMBER
PDAT .        GROUND LEVEL               :Permanent Datum
EPD  .                                   :Elevation of Permanent Datum above Mean Sea Level
LMF  .                                   :Logging Measured From (Name of Logging Elevation Reference)
APD  .                                   :Elevation of Depth Reference (LMF) above Permanent Datum
#-----------------------------------------------------------------------------
~CURVE INFORMATION
#MNEM.UNIT   API CODE                                  DESCRIPTION
#---- -----  --------                                  -----------------------
TIME .S                                                :TIME {F10.1}
FREQ_EMF_SL.HZ                                         :Electromagnetic Field Frequency {F13.4}
PH_SH_WPPCM_SL.DEG                                     :WPPCM Phase Shift {F13.4}
FREQ_EXC_REQ_SL.HZ                                     :Requested Exciter Frequency {F13.4}
RB_SL.DEG                                              :Relative Bearing {F13.4}
SDEV_SL.DEG                                            :Sonde Deviation {F13.4}
TILX_SL.DEG                                            :X-axis Tilt {F13.4}
TILY_SL.DEG                                            :Y-axis Tilt {F13.4}
ROTA_SL.DEG                                            :Motor Rotation Angle {F13.4}
MSPE_SL.RPM                                            :Motor Speed {F13.4}
#-----------------------------------------------------------------------------
# 
#     TIME    FREQ_EMF_SL  PH_SH_WPPCM_ FREQ_EXC_REQ    RB_SL       SDEV_SL      TILX_SL      TILY_SL      ROTA_SL      MSPE_SL
#                          SL           _SL
~A  
    4115.0    1437.8834 9999999.9999      50.8611    -150.9377       5.1408      -2.4939       4.4922     150.6958       0.9916
    4116.0    1440.5657       0.0000      50.8611    -150.7765       5.1961      -2.5342       4.5333     155.1435       1.0226
    4117.0    1426.4790       0.0000      50.8611    -140.3330       5.4223      -3.4580       4.1714     161.2454       1.0226
    4118.0    1437.8834       0.0000      50.8611    -135.1705       5.4738      -3.8561       3.8791     167.3473       1.0226
    4119.0    1443.3484       0.0000      50.8611    -130.0392       5.5188      -4.2224       3.5471     173.4492       1.0226
    4120.0    1435.0370       0.0000      50.8611    -123.9962       5.8613      -4.8566       3.2731     179.5511       1.0226
    4121.0    1429.1158       0.0000      50.8611    -119.8785       5.7495      -4.9832       2.8606     185.6657       1.0229
    4122.0    1429.1158       0.0000      50.8611    -111.1850       5.7778      -5.3860       2.0849     191.7680       1.0226
    4123.0    1426.3913       0.0000      50.8611    -107.0670       5.8426      -5.5844       1.7120     197.8699       1.0226
    4124.0    1417.5908       0.0000      50.8611    -103.4083       5.9880      -5.8242       1.3861     203.9980       1.0226
    4125.0    1414.8240       0.0000      50.8611     -97.2299       6.1618      -6.1126       0.7740     210.0999       1.0226
    4126.0    1409.2383       0.0000      50.8611     -90.7570       5.9879      -5.9873       0.0789     216.6099       1.0226
    4127.0    1400.8155       0.0000      50.8611     -85.6804       6.1205      -6.1030      -0.4600     222.7147       1.0226
    4128.0    1398.0302       0.0000      50.8611     -81.1716       6.4168      -6.3404      -0.9829     228.8137       1.0226
    4129.0    1386.8344       0.0000      50.8611     -78.0764       6.3650      -6.2271      -1.3125     234.9155       1.0226
    4130.0    1381.3038       0.0000      50.8611     -66.7399       6.0113      -5.5210      -2.3694     241.0174       1.0226
    4131.0    1378.5956       0.0000      50.8611     -62.7067       6.1606      -5.4724      -2.8204     247.1073       1.0223
    4132.0    1378.5956       0.0000      50.8611     -59.8562       6.3737      -5.5089      -3.1958     253.1966       1.0226
    4133.0    1357.1497       0.0000      50.8611     -55.4492       6.5011      -5.3507      -3.6815     259.2983       1.0226
    4134.0    1354.7688       0.0000      50.8611     -51.1657       6.2005      -4.8261      -3.8835     265.3879       1.0226
    4135.0    1329.3862       0.0000      50.8611     -43.4417       6.0418      -4.1505      -4.3827     271.5027       1.0124
    4136.0    1334.0517       0.0000      50.8611     -39.6416       6.4356      -4.1007      -4.9515     277.5923       1.0226
    4137.0    1316.5661       0.0000      50.8611     -36.2696       6.4012      -3.7818      -5.1572     283.6698       1.0226
    4138.0    1304.6448       0.0000      50.8611     -30.7787       6.1501      -3.1427      -5.2811     290.1924       1.0226
    4139.0    1290.3518       0.0000      50.8611     -26.8518       6.1481      -2.7728      -5.4830     296.2950       1.0229
    4140.0    1290.1376       0.0000      50.8611     -17.3401       6.1351      -1.8257      -5.8547     302.3968       1.0226
    4141.0    1282.7959       0.0000      50.8611     -16.1346       6.2273      -1.7272      -5.9811     308.4994       1.0226
    4142.0    1271.4049       0.0000      50.8611     -10.3019       5.8704      -1.0480      -5.7754     314.6143       1.0229
    4143.0    1267.1678       0.0000      50.8611      -4.9228       5.7111      -0.4893      -5.6899     320.7293       1.0226
    4144.0    1276.0195       0.0000      50.8611       2.6666       5.8947       0.2739      -5.8882     326.8348       1.0226
    4145.0    1271.3363       0.0000      50.8611       9.3620       5.8914       0.9567      -5.8126     332.9336       1.0226
    4146.0    1273.6393       0.0000      50.8611      10.9076       5.7080       1.0784      -5.6045     339.0355       1.0226
    4147.0    1285.3502       0.0000      50.8611      17.1803       5.3814       1.5885      -5.1400     345.1534       1.0124
    4148.0    1285.4205       0.0000      50.8611      24.5761       5.5760       2.3163      -5.0693     351.2399       1.0226
    4149.0    1299.3903       0.0000      50.8611      30.4813       5.4673       2.7702      -4.7099     357.3418       1.0226
    4150.0    1314.0325       0.0000      50.8611      35.3355       5.0740       2.9321      -4.1374       3.8516       1.0226
    4151.0    1331.5254       0.0000      50.8611      39.0901       4.9085       3.0928      -3.8079       9.9414       1.0124
    4152.0    1334.2791       0.0000      50.8611      46.7555       4.8467       3.5286      -3.3184      16.0428       1.0226
    4153.0    1341.8416       0.0000      50.8611      57.0968       5.0600       4.2467      -2.7460      22.1577       1.0226
    4154.0    1349.5681       0.0000      50.8611      62.8543       4.7792       4.2516      -2.1785      28.2595       1.0226
    4155.0    1365.1328       0.0000      50.8611      65.2682       4.5062       4.0921      -1.8837      34.3493       1.0223
    4156.0    1365.1328       0.0000      50.8611      74.0781       4.5000       4.3271      -1.2331      40.4508       1.0226
    4157.0    1370.8559       0.0000      50.8611      85.2302       4.5522       4.5363      -0.3782      46.5658       1.0226
    4158.0    1381.4666       0.0000      50.8611      90.9446       4.4932       4.4926       0.0740      52.6808       1.0226
    4159.0    1397.5319       0.0000      50.8611      98.3065       4.1787       4.1347       0.6031      58.7702       1.0226
    4160.0    1394.8416       0.0000      50.8611     103.7543       4.2546       4.1323       1.0108      64.8720       1.0226
    4161.0    1395.3398       0.0000      50.8611     112.8610       4.3942       4.0483       1.7059      70.9869       1.0124
    4162.0    1403.6119       0.0000      50.8611     122.4362       4.3292       3.6527       2.3204      77.4843       1.0226
    4163.0    1417.5052       0.0000      50.8611     129.9809       4.2462       3.2522       2.7269      83.5992       1.0226
    4164.0    1417.4200       0.0000      50.8611     135.4006       4.1797       2.9333       2.9746      89.7010       1.0226
    4165.0    1412.2406       0.0000      50.8611     142.3039       4.3340       2.6485       3.4281      95.8159       1.0226
    4166.0    1414.9961       0.0000      50.8611     153.6576       4.4588       1.9765       3.9944     101.9307       1.0226
    4167.0    1428.9423       0.0000      50.8611     157.5896       4.3321       1.6504       4.0042     108.0453       1.0229
    4168.0    1426.2170       0.0000      50.8611     164.1740       4.4135       1.2025       4.2458     114.1606       1.0226
    4169.0    1434.6870       0.0000      50.8611     170.1253       4.6821       0.8021       4.6126     120.2625       1.0226
    4170.0    1429.1158       0.0000      50.8611     178.1168       4.8197       0.1582       4.8170     126.3642       1.0226
    4171.0    1434.8613       0.0000      50.8611    -174.2340       4.8042      -0.4821       4.7798     132.4660       1.0226
    4172.0    1440.8298       0.0000      50.8611    -170.3225       4.8063      -0.8070       4.7377     138.5561       1.0124
    4173.0    1432.1142       0.0000      50.8611    -163.2604       5.1577      -1.4838       4.9385     144.6576       1.0226
    4174.0    1440.9186       0.0000      50.8611    -155.8179       5.1077      -2.0899       4.6584     151.1552       1.0226
    4175.0    1435.1254       0.0000      50.8611    -149.5795       5.1640      -2.6121       4.4515     157.2330       1.0121
    4176.0    1437.8834       0.0000      50.8611    -144.3683       5.3225      -3.0977       4.3239     163.3341       1.0226
    4177.0    1432.1142       0.0000      50.8611    -139.3388       5.4913      -3.5749       4.1628     169.4360       1.0226
