~VERSION INFORMATION
VERS.           2.0   :CWLS Log ASCII Standard - VERSION 2.0
WRAP.           NO    :One Line per depth step
PROD.  Schlumberger   :LAS Producer
PROG.  DLIS to ASCII 19C2-270                          :LAS Program name and version
CREA.        2017/09/16 17:42                          :LAS Creation date {YYYY/MM/DD hh:mm}
DLIS_CREA.  2017-Sep-15 19:54                          :DLIS Creation date and time {YYYY-MMM-DD hh:mm}
SOURCE.     LPC_S5-1_2B5.DLIS                          :DLIS File Name
FILE-ID.     PERFO_Perfo_WPGRT_064LTP                  :File Identification Number
#--------------------------------------------------
~WELL INFORMATION
#MNEM.UNIT      DATA             DESCRIPTION
#---- ------ --------------   -----------------------------
STRT .S         1886.0       :START TIME      
STOP .S         2307.0       :STOP TIME      
STEP .S            1.0       :STEP     
NULL .          -999.25      :NULL VALUE
COMP .        SHELL INTERNATIONAL E P                  :COMPANY
WELL .        WPP TEST 2                               :WELL
FLD  .        WILDCAT                                  :FIELD
LOC  .        NA                                       :LOCATION
CNTY .        HARRIS                                   :COUNTY
STAT .        TEXAS                                    :STATE
CTRY .                                                 :COUNTRY
API  .        NA                                       :API NUMBER
UWI  .                                                 :UNIQUE WELL ID
DATE .        15-Sep-2017                              :LOG DATE {DD-MMM-YYYY}
SRVC .        Schlumberger                             :SERVICE COMPANY
LATI .DEG                                              :LATITUDE
LONG .DEG                                              :LONGITUDE
GDAT .                                                 :GeoDetic Datum
SECT .        NA                                       :Section
RANG .        NA                                       :Range
TOWN .        NA                                       :Township
#-----------------------------------------------------------------------------
~PARAMETER INFORMATION
#MNEM.UNIT    VALUE                      DESCRIPTION
#---- -----   --------------------       ------------------------
U-PHASE_B_COMP_PER_YT.                 0 :Phase B Comparator Period Yt
U-PHASE_A_COMP_PER_XT.                 0 :Phase A Comparator Period Xt
U-MAX_EXC_CUR_LIMIT.MA       240.00000   :Requested CM Current Limit
U-REQ_EXC_FQ.HZ              50          :Requested CM Frequency
U-TILT_Y_OFFSET.           0.19916       :WPTET Tilt Y Offset
U-TILT_Y_GAIN.           1.01796         :WPTET Tilt Y Gain
U-TILT_X_OFFSET.          -1.77103       :WPTET Tilt X Offset
U-TILT_X_GAIN.           1.00000         :WPTET Tilt X Gain
U-TILT_OFFSET_TOL.           0.00100     :WPTET Tilt Offset Calibration Tolerance
U-NO_TILT_CAL_ROTATIONS.                 3 :Number of Rotations for Tilt Calibration
HAZI .DEG        0.00000                 :Hole Azimuth
U-STD_TOL_TILT.           0.01000        :Tilt Standard Deviation Tolerance
U-GUN_POS_TOL.DEG        5.00000         :Gun Position Tolerance
ROT_ANGLE_THRESHOLD.DEG        5.00000   :Rotation Stop Angle Tolerance
STOP_ROT_ANGLE.DEG        0.00000        :Rotation Stop Angle
WITN .        MR. DHRUA ARORA            :Witness's Name
ENGI .        MORRIS MOORE               :Engineer's Name
COUN .        HARRIS                     :County or Rig Name
FN   .        WILDCAT                    :Field Name
WN   .        WPP TEST 2                 :Well Name
CN   .        SHELL INTERNATIONAL E P    :Company Name
CLAB .        County                     :County/Rig Label
SLAB .        State                      :State/Province Label
RUN  .          1                        :RUN NUMBER
PDAT .        GROUND LEVEL               :Permanent Datum
EPD  .                                   :Elevation of Permanent Datum above Mean Sea Level
LMF  .          NA                       :Logging Measured From (Name of Logging Elevation Reference)
APD  .                                   :Elevation of Depth Reference (LMF) above Permanent Datum
#-----------------------------------------------------------------------------
~CURVE INFORMATION
#MNEM.UNIT   API CODE                                  DESCRIPTION
#---- -----  --------                                  -----------------------
TIME .S                                                :TIME {F10.1}
FREQ_EMF_SL.HZ                                         :Electromagnetic Field Frequency {F13.4}
PH_SH_WPPCM_SL.DEG                                     :WPPCM Phase Shift {F13.4}
FREQ_EXC_REQ_SL.HZ                                     :Requested Exciter Frequency {F13.4}
RB_SL.DEG                                              :Relative Bearing {F13.4}
SDEV_SL.DEG                                            :Sonde Deviation {F13.4}
TILX_SL.DEG                                            :X-axis Tilt {F13.4}
TILY_SL.DEG                                            :Y-axis Tilt {F13.4}
ROTA_SL.DEG                                            :Motor Rotation Angle {F13.4}
MSPE_SL.RPM                                            :Motor Speed {F13.4}
#-----------------------------------------------------------------------------
# 
#     TIME    FREQ_EMF_SL  PH_SH_WPPCM_ FREQ_EXC_REQ    RB_SL       SDEV_SL      TILX_SL      TILY_SL      ROTA_SL      MSPE_SL
#                          SL           _SL
~A  
# ...
    2012.0    1404.9514       0.0000      50.8611     -90.0540       6.0983      -6.0983       0.0057     295.5001       1.0305
    2013.0    1407.9915       0.0000      50.8611     -85.4235       6.2279      -6.2080      -0.4959     301.6019       1.0226
    2014.0    1373.8252       0.0000      50.8611     -80.5389       6.1500      -6.0659      -1.0085     307.7037       1.0226
    2015.0    1357.2101       0.0000      50.8611     -74.2460       6.2456      -6.0101      -1.6927     313.8055       1.0226
    2016.0    1316.0536       0.0000      50.8611     -67.0476       6.3519      -5.8465      -2.4725     319.9073       1.0226
    2017.0    1300.3219       0.0000      50.8611     -64.4433       6.3289      -5.7074      -2.7258     326.0121       1.0226
    2018.0    1283.5406       0.0000      50.8611     -58.9170       6.3617      -5.4448      -3.2793     332.1117       1.0226
    2019.0    1256.6242       0.0000      50.8611     -54.0767       6.3083      -5.1049      -3.6962     338.2021       1.0226
    2020.0    1234.5601       0.0000      50.8611     -48.5957       6.3547      -4.7620      -4.1978     344.3161       1.0226
    2021.0    1217.0445       0.0000      50.8611     -43.6360       6.3410      -4.3711      -4.5847     350.8229       1.0226
    2022.0    1199.1920       0.0000      50.8611     -39.9858       6.2602      -4.0174      -4.7921     356.9124       1.0149
    2023.0    1178.1556       0.0000      50.8611     -36.5002       6.1961      -3.6804      -4.9776       2.9919       1.0226
    2024.0    1156.8334       0.0000      50.8611     -30.4564       6.2238      -3.1504      -5.3616       9.0945       1.0305
    2025.0    1144.2929       0.0000      50.8611     -22.1957       6.1371      -2.3147      -5.6807      15.1963       1.0226
    2026.0    1134.3260       0.0000      50.8611     -18.8787       6.1801      -1.9954      -5.8443      21.2990       1.0226
    2027.0    1114.1834       0.0000      50.8611     -13.9293       5.9655      -1.4326      -5.7884      27.4000       1.0226
    2028.0    1106.6068       0.0000      50.8611      -7.9097       5.9782      -0.8227      -5.9201      33.5018       1.0226
    2029.0    1086.7465       0.0000      50.8611      -1.7793       5.9071      -0.1830      -5.9041      39.5921       1.0226
    2030.0    1073.6000       0.0000      50.8611       2.9361       5.8571       0.2990      -5.8493      45.6940       1.0226
    2031.0    1068.4690       0.0000      50.8611       7.6453       5.8003       0.7702      -5.7486      51.7958       1.0226
    2032.0    1062.4406       0.0000      50.8611      12.8340       5.4724       1.2150      -5.3346      57.8976       1.0226
    2033.0    1051.6960       0.0000      50.8611      20.7014       5.4593       1.9272      -5.1053      64.4044       1.0226
    2034.0    1050.7059       0.0000      50.8611      26.3634       5.4012       2.3955      -4.8381      70.5061       1.0226
    2035.0    1050.1690       0.0000      50.8611      30.3755       5.1611       2.6071      -4.4511      76.5923       1.0198
    2036.0    1058.0706       0.0000      50.8611      36.6664       5.0793       3.0303      -4.0722      82.6873       1.0226
    2037.0    1065.0296       0.0000      50.8611      43.7723       4.9064       3.3918      -3.5406      88.7891       1.0226
    2038.0    1065.4657       0.0000      50.8611      49.5845       4.9430       3.7612      -3.2025      94.8944       1.0305
    2039.0    1077.3464       0.0000      50.8611      56.2389       4.7633       3.9581      -2.6451     101.0080       1.0226
    2040.0    1093.5071       0.0000      50.8611      61.0505       4.5536       3.9836      -2.2023     107.0953       1.0198
    2041.0    1108.0949       0.0000      50.8611      69.9913       4.4967       4.2246      -1.5371     113.1897       1.0305
    2042.0    1119.2821       0.0000      50.8611      77.3968       4.4646       4.3558      -0.9727     119.3011       1.0226
    2043.0    1130.9141       0.0000      50.8611      83.6076       4.3586       4.3314      -0.4850     125.4028       1.0226
    2044.0    1148.3946       0.0000      50.8611      90.7627       4.3721       4.3716       0.0575     131.5082       1.0305
    2045.0    1162.7060       0.0000      50.8611      95.4944       4.2495       4.2275       0.4095     137.7318       1.0305
    2046.0    1181.7228       0.0000      50.8611     108.3159       4.2535       4.0374       1.3360     144.1274       1.0226
    2047.0    1198.3760       0.0000      50.8611     115.0119       4.2723       3.8709       1.8048     150.2300       1.0226
    2048.0    1218.7522       0.0000      50.8611     119.8368       4.2070       3.6486       2.0910     156.3218       1.0226
    2049.0    1238.3294       0.0000      50.8611     127.6631       4.2456       3.3595       2.5926     162.4237       1.0226
    2050.0    1258.4309       0.0000      50.8611     136.6610       4.3391       2.9765       3.1541     168.5234       1.0226
    2051.0    1273.1321       0.0000      50.8611     144.9917       4.2473       2.4352       3.4777     174.6275       1.0198
    2052.0    1289.8883       0.0000      50.8611     151.1210       4.3976       2.1222       3.8492     180.7309       1.0226
    2053.0    1315.1123       0.0000      50.8611     157.6370       4.4281       1.6833       4.0945     186.8460       1.0226
    2054.0    1333.5255       0.0000      50.8611     165.0794       4.5877       1.1798       4.4325     192.9479       1.0226
    2055.0    1367.9475       0.0000      50.8611     171.7335       4.5631       0.6547       4.5143     199.0629       1.0305
    2056.0    1377.4281       0.0000      50.8611     -83.5453       4.6750       0.0071       4.6749     205.1499       1.0149
    2057.0    1392.5439       0.0000      50.8611    -175.5284       4.7227      -0.3681       4.7078     211.3513       1.0226
    2058.0    1418.9219       0.0000      50.8611    -168.0529       4.9265      -1.0186       4.8195     217.7518       1.0226
    2059.0    1436.5258       0.0000      50.8611    -161.2965       4.9362      -1.5810       4.6749     223.8646       1.0305
    2060.0    1448.3622       0.0000      50.8611    -158.5277       5.0042      -1.8298       4.6559     226.3873       0.0005
    2061.0    1445.1694       0.0000      50.8611    -160.3409       5.0087      -1.6828       4.7158     226.3873       0.0005
    2062.0    1445.9628       0.0000      50.8611    -159.4770       5.0044      -1.7524       4.6859     226.3873       0.0005
    2063.0    1454.5369       0.0000      50.8611    -159.7952       4.9648      -1.7122       4.6585     226.3873       0.0005
    2064.0    1450.3382       0.0000      50.8611    -157.6342       4.9268      -1.8729       4.5552     226.3873       0.0005
    2065.0    1441.6231       0.0000      50.8611    -159.5590       5.0771      -1.7710       4.7567     226.3873       0.0005
    2066.0    1447.5591       0.0000      50.8611    -160.1648       5.0224      -1.7015       4.7238     226.3873       0.0005
    2067.0    1447.5591       0.0000      50.8611    -158.9129       4.9793      -1.7897       4.6450     226.3873       0.0005
    2068.0    1442.9953       0.0000      50.8611    -159.4770       5.0044      -1.7524       4.6859     226.3873       0.0005
    2069.0    1451.1347       0.0000      50.8611    -158.8411       4.9934      -1.8004       4.6559     226.3873       0.0005
    2070.0    1451.3518       0.0000      50.8611    -159.6332       4.9789      -1.7309       4.6669     226.3873       0.0005
    2071.0    1449.7422       0.0000      50.8611    -159.7855       4.8985      -1.6907       4.5961     226.3873       0.0005
    2072.0    1447.5591       0.0000      50.8611    -157.6086       5.0485      -1.9209       4.6669     226.3873       0.0005
    2073.0    1457.1493       0.0000      50.8611    -158.6567       5.0114      -1.8220       4.6669     226.3873       0.0005
    2074.0    1443.7886       0.0000      50.8611    -158.4786       5.0819      -1.8621       4.7268     226.3873       0.0005
