~VERSION INFORMATION
VERS.           2.0   :CWLS Log ASCII Standard - VERSION 2.0
WRAP.           NO    :One Line per depth step
PROD.  Schlumberger   :LAS Producer
PROG.  DLIS to ASCII 19C2-270                          :LAS Program name and version
CREA.        2017/09/16 17:42                          :LAS Creation date {YYYY/MM/DD hh:mm}
DLIS_CREA.  2017-Sep-15 18:02                          :DLIS Creation date and time {YYYY-MMM-DD hh:mm}
SOURCE.     LPC_S4-1_2AV.DLIS                          :DLIS File Name
FILE-ID.     PERFO_Perfo_WPGRT_052LTP                  :File Identification Number
#--------------------------------------------------
~WELL INFORMATION
#MNEM.UNIT      DATA             DESCRIPTION
#---- ------ --------------   -----------------------------
STRT .S         3713.0       :START TIME      
STOP .S         4115.0       :STOP TIME      
STEP .S            1.0       :STEP     
NULL .          -999.25      :NULL VALUE
COMP .        SHELL INTERNATIONAL E P                  :COMPANY
WELL .        WPP TEST 2                               :WELL
FLD  .        WILDCAT                                  :FIELD
LOC  .        NA                                       :LOCATION
CNTY .        HARRIS                                   :COUNTY
STAT .        TEXAS                                    :STATE
CTRY .                                                 :COUNTRY
API  .        NA                                       :API NUMBER
UWI  .                                                 :UNIQUE WELL ID
DATE .        15-Sep-2017                              :LOG DATE {DD-MMM-YYYY}
SRVC .        Schlumberger                             :SERVICE COMPANY
LATI .DEG                                              :LATITUDE
LONG .DEG                                              :LONGITUDE
GDAT .                                                 :GeoDetic Datum
SECT .        NA                                       :Section
RANG .        NA                                       :Range
TOWN .        NA                                       :Township
#-----------------------------------------------------------------------------
~PARAMETER INFORMATION
#MNEM.UNIT    VALUE                      DESCRIPTION
#---- -----   --------------------       ------------------------
U-PHASE_B_COMP_PER_YT.                 0 :Phase B Comparator Period Yt
U-PHASE_A_COMP_PER_XT.                 0 :Phase A Comparator Period Xt
U-MAX_EXC_CUR_LIMIT.MA       240.00000   :Requested CM Current Limit
U-REQ_EXC_FQ.HZ              50          :Requested CM Frequency
U-TILT_Y_OFFSET.           0.19916       :WPTET Tilt Y Offset
U-TILT_Y_GAIN.           1.01796         :WPTET Tilt Y Gain
U-TILT_X_OFFSET.          -1.77103       :WPTET Tilt X Offset
U-TILT_X_GAIN.           1.00000         :WPTET Tilt X Gain
U-TILT_OFFSET_TOL.           0.00100     :WPTET Tilt Offset Calibration Tolerance
U-NO_TILT_CAL_ROTATIONS.                 3 :Number of Rotations for Tilt Calibration
HAZI .DEG        0.00000                 :Hole Azimuth
U-STD_TOL_TILT.           0.01000        :Tilt Standard Deviation Tolerance
U-GUN_POS_TOL.DEG        5.00000         :Gun Position Tolerance
ROT_ANGLE_THRESHOLD.DEG        5.00000   :Rotation Stop Angle Tolerance
STOP_ROT_ANGLE.DEG        0.00000        :Rotation Stop Angle
WITN .        MR. DHRUA ARORA            :Witness's Name
ENGI .        MORRIS MOORE               :Engineer's Name
COUN .        HARRIS                     :County or Rig Name
FN   .        WILDCAT                    :Field Name
WN   .        WPP TEST 2                 :Well Name
CN   .        SHELL INTERNATIONAL E P    :Company Name
CLAB .        County                     :County/Rig Label
SLAB .        State                      :State/Province Label
RUN  .          1                        :RUN NUMBER
PDAT .        GROUND LEVEL               :Permanent Datum
EPD  .                                   :Elevation of Permanent Datum above Mean Sea Level
LMF  .          NA                       :Logging Measured From (Name of Logging Elevation Reference)
APD  .                                   :Elevation of Depth Reference (LMF) above Permanent Datum
#-----------------------------------------------------------------------------
~CURVE INFORMATION
#MNEM.UNIT   API CODE                                  DESCRIPTION
#---- -----  --------                                  -----------------------
TIME .S                                                :TIME {F10.1}
FREQ_EMF_SL.HZ                                         :Electromagnetic Field Frequency {F13.4}
PH_SH_WPPCM_SL.DEG                                     :WPPCM Phase Shift {F13.4}
FREQ_EXC_REQ_SL.HZ                                     :Requested Exciter Frequency {F13.4}
RB_SL.DEG                                              :Relative Bearing {F13.4}
SDEV_SL.DEG                                            :Sonde Deviation {F13.4}
TILX_SL.DEG                                            :X-axis Tilt {F13.4}
TILY_SL.DEG                                            :Y-axis Tilt {F13.4}
ROTA_SL.DEG                                            :Motor Rotation Angle {F13.4}
MSPE_SL.RPM                                            :Motor Speed {F13.4}
#-----------------------------------------------------------------------------
# 
#     TIME    FREQ_EMF_SL  PH_SH_WPPCM_ FREQ_EXC_REQ    RB_SL       SDEV_SL      TILX_SL      TILY_SL      ROTA_SL      MSPE_SL
#                          SL           _SL
~A  
    3713.0    1455.6933       0.0000      50.8611     -72.1866       1.3539      -1.2890      -0.4142     237.9588       1.0226
    3714.0    1454.7340       0.0000      50.8611     -79.2092       1.3397      -1.3160      -0.2506     242.8453       1.0226
    3715.0    1449.7422       0.0000      50.8611     -71.8483       1.3299      -1.2624      -0.4138     248.9755       1.0226
    3716.0    1444.7875       0.0000      50.8611     -75.2495       1.3607      -1.3157      -0.3461     255.0712       1.0226
    3717.0    1435.9357       0.0000      50.8611     -67.7486       1.3503      -1.2492      -0.5093     261.1780       1.0226
    3718.0    1432.0167       0.0000      50.8611     -69.1487       1.5083      -1.4095      -0.5368     267.2607       1.0226
    3719.0    1423.3300       0.0000      50.8611     -66.1537       1.3947      -1.2755      -0.5640     273.3709       1.0226
    3720.0    1420.4546       0.0000      50.8611     -66.5277       1.4505      -1.3292      -0.5781     279.4727       1.0226
    3721.0    1415.6765       0.0000      50.8611     -61.3242       1.5457      -1.3562      -0.7413     285.5752       1.0226
    3722.0    1401.5875       0.0000      50.8611     -61.1597       1.5943      -1.3960      -0.7688     291.6777       1.0297
    3723.0    1393.2557       0.0000      50.8611     -58.2124       1.4851      -1.2624      -0.7822     297.7859       1.0297
    3724.0    1391.4015       0.0000      50.8611     -55.8914       1.4932      -1.2357      -0.8364     304.0290       1.0407
    3725.0    1379.5872       0.0000      50.8611     -52.5615       1.4887      -1.1820      -0.9048     310.4118       1.0262
    3726.0    1369.7443       0.0000      50.8611     -49.9830       1.4366      -1.1024      -0.9186     316.5230       1.0226
    3727.0    1360.8763       0.0000      50.8611     -52.4462       1.4595      -1.1550      -0.8907     322.6125       1.0226
    3728.0    1348.6988       0.0000      50.8611     -52.6366       2.0398      -1.6228      -1.2319     328.7164       1.0226
    3729.0    1338.4296       0.0000      50.8611     -42.6715       1.5658      -1.0619      -1.1505     334.8161       1.0226
    3730.0    1327.4824       0.0000      50.8611     -44.4260       1.3348      -0.9340      -0.9527     340.9200       1.0226
    3731.0    1316.7011       0.0000      50.8611     -44.0551       1.3919      -0.9677      -1.0003     347.0197       1.0226
    3732.0    1303.6923       0.0000      50.8611     -32.8033       1.3710      -0.7405      -1.1498     353.1226       1.0226
    3733.0    1294.8774       0.0000      50.8611     -40.8879       1.5204      -0.9944      -1.1498     238.1733       1.0226
    3734.0    1276.1177       0.0000      50.8611     -39.3586       1.2939      -0.8205      -1.0003       5.3251       1.0226
    3735.0    1265.3770       0.0000      50.8611     -40.6531       1.3030      -0.8468      -0.9870      11.4066       1.0262
    3736.0    1258.5674       0.0000      50.8611     -33.8603       1.1877      -0.6599      -0.9862      17.6550       1.0226
    3737.0    1252.5924       0.0000      50.8611     -34.9621       1.2215      -0.6997      -1.0003      24.0154       1.0226
    3738.0    1237.8961       0.0000      50.8611     -35.0709       1.1717      -0.6730      -0.9591      30.1180       1.0297
    3739.0    1240.0679       0.0000      50.8611     -33.0530       1.2468      -0.6737      -1.0405      36.2198       1.0226
    3740.0    1237.1862       0.0000      50.8611     -28.1894       1.0348      -0.4850      -0.9052      42.3092       1.0226
    3741.0    1238.6302       0.0000      50.8611     -29.5128       1.0403      -0.5127      -0.9052      48.4155       1.0262
    3742.0    1244.5390       0.0000      50.8611     -31.0797       1.0570      -0.5458      -0.9048      54.5013       1.0226
    3743.0    1255.6081       0.0000      50.8611     -30.6468       0.8505      -0.4317      -0.7279      60.5908       1.0226
    3744.0    1269.9843       0.0000      50.8611     -32.4861       0.9283      -0.4988      -0.7822      66.6970       1.0297
    3745.0    1278.4379       0.0000      50.8611     -31.3298       0.9035      -0.4718      -0.7684      72.8075       1.0226
    3746.0    1306.1085       0.0000      50.8611     -23.1506       0.6581      -0.2582      -0.6049      78.9224       1.0226
    3747.0    1316.7444       0.0000      50.8611     -27.5993       0.7593      -0.3517      -0.6729      85.0241       1.0226
    3748.0    1322.5005       0.0000      50.8611     -16.1086       0.7232      -0.2066      -0.6045      91.1266       1.0226
    3749.0    1329.1903       0.0000      50.8611     -37.5201       0.7117      -0.4320      -0.5643      97.6364       1.0226
    3750.0    1346.1168       0.0000      50.8611     -33.2400       0.5930      -0.3250      -0.4959     103.7512       1.0297
    3751.0    1353.0395       0.0000      50.8611     -36.4068       0.5482      -0.3250      -0.4413     109.8529       1.0226
    3752.0    1363.5154       0.0000      50.8611     -42.4066       0.5614      -0.3787      -0.4142     115.9568       1.0190
    3753.0    1369.7174       0.0000      50.8611     -46.2794       0.5421      -0.3922      -0.3733     122.0449       1.0226
    3754.0    1380.4743       0.0000      50.8611     -58.3025       0.5358      -0.4557      -0.2812     128.1598       1.0297
    3755.0    1389.5751       0.0000      50.8611     -58.0944       0.5253      -0.4455      -0.2778     134.2617       1.0226
    3756.0    1392.3618       0.0000      50.8611     -66.3905       0.5595      -0.5124      -0.2235     140.3767       1.0226
    3757.0    1402.5313       0.0000      50.8611     -72.7346       0.6077      -0.5792      -0.1822     146.4796       1.0226
    3758.0    1419.4858       0.0000      50.8611     -77.0073       0.6492      -0.6325      -0.1417     152.5805       1.0226
    3759.0    1427.1918       0.0000      50.8611     -82.3288       0.6522      -0.6464      -0.0871     158.6824       1.0226
    3760.0    1423.3669       0.0000      50.8611     -80.6955       0.7096      -0.7000      -0.1142     164.7863       1.0226
    3761.0    1434.9866       0.0000      50.8611     -82.9057       0.7054      -0.7000      -0.0871     171.2942       1.0226
    3762.0    1444.7655       0.0000      50.8611     -83.2458       0.7611      -0.7537      -0.0867     177.3961       1.0226
    3763.0    1449.7422       0.0000      50.8611     -84.2103       0.8647      -0.8603      -0.0871     183.5118       1.0226
    3764.0    1449.7808       0.0000      50.8611     -90.4911       0.9836      -0.9801       0.0215     189.6269       1.0226
    3765.0    1456.7609       0.0000      50.8611     -86.7114       0.8087      -0.8074      -0.0462     195.7298       1.0226
    3766.0    1454.7340       0.0000      50.8611     -87.2679       0.9972      -0.9944      -0.0465     201.8327       1.0226
    3767.0    1453.7268       0.0000      50.8611     -80.5222       0.9678      -0.9538      -0.1554     207.9326       1.0226
    3768.0    1458.7655       0.0000      50.8611     -84.6842       1.2273      -1.2218      -0.1142     214.0476       1.0226
    3769.0    1460.8093       0.0000      50.8611     -78.0857       1.0757      -1.0480      -0.2228     220.1515       1.0226
    3770.0    1457.7807       0.0000      50.8611     -77.0941       1.1851      -1.1550      -0.2644     226.2534       1.0226
    3771.0    1461.7983       0.0000      50.8611     -81.5865       1.1543      -1.1419      -0.1688     232.3533       1.0226
    3772.0    1453.7490       0.0000      50.8611     -81.5459       1.3299      -1.3153      -0.1960     238.4572       1.0226
    3773.0    1453.7268       0.0000      50.8611     -80.7906       1.3072      -1.2890      -0.2094     244.9610       1.0190
    3774.0    1448.7695       0.0000      50.8611     -75.3856       1.3185      -1.2759      -0.3324     251.0546       1.0226
    3775.0    1442.7937       0.0000      50.8611     -73.6496       1.3717      -1.3157      -0.3867     257.1565       1.0226
