~VERSION INFORMATION
VERS.           2.0   :CWLS Log ASCII Standard - VERSION 2.0
WRAP.           NO    :One Line per depth step
PROD.  Schlumberger   :LAS Producer
PROG.  DLIS to ASCII 19C2-270                          :LAS Program name and version
CREA.        2017/09/16 17:42                          :LAS Creation date {YYYY/MM/DD hh:mm}
DLIS_CREA.  2017-Sep-15 14:28                          :DLIS Creation date and time {YYYY-MMM-DD hh:mm}
SOURCE.     LPC_S2-1_A5.DLIS                           :DLIS File Name
FILE-ID.     PERFO_Perfo_WPGRT_029LTP                  :File Identification Number
#--------------------------------------------------
~WELL INFORMATION
#MNEM.UNIT      DATA             DESCRIPTION
#---- ------ --------------   -----------------------------
STRT .S        13288.0       :START TIME      
STOP .S        13773.0       :STOP TIME      
STEP .S            1.0       :STEP     
NULL .          -999.25      :NULL VALUE
COMP .        SHELL INTERNATIONAL E P                  :COMPANY
WELL .        WPP TEST 2                               :WELL
FLD  .        WILDCAT                                  :FIELD
LOC  .                                                 :LOCATION
CNTY .        HARRIS                                   :COUNTY
STAT .        TEXAS                                    :STATE
CTRY .                                                 :COUNTRY
API  .                                                 :API NUMBER
UWI  .                                                 :UNIQUE WELL ID
DATE .                                                 :LOG DATE
SRVC .        Schlumberger                             :SERVICE COMPANY
LATI .DEG                                              :LATITUDE
LONG .DEG                                              :LONGITUDE
GDAT .                                                 :GeoDetic Datum
#-----------------------------------------------------------------------------
~PARAMETER INFORMATION
#MNEM.UNIT    VALUE                      DESCRIPTION
#---- -----   --------------------       ------------------------
U-PHASE_B_COMP_PER_YT.                 0 :Phase B Comparator Period Yt
U-PHASE_A_COMP_PER_XT.                 0 :Phase A Comparator Period Xt
U-MAX_EXC_CUR_LIMIT.MA       240.00000   :Requested CM Current Limit
U-REQ_EXC_FQ.HZ              50          :Requested CM Frequency
U-TILT_Y_OFFSET.           0.19916       :WPTET Tilt Y Offset
U-TILT_Y_GAIN.           1.01796         :WPTET Tilt Y Gain
U-TILT_X_OFFSET.          -1.77103       :WPTET Tilt X Offset
U-TILT_X_GAIN.           1.00000         :WPTET Tilt X Gain
U-TILT_OFFSET_TOL.           0.00100     :WPTET Tilt Offset Calibration Tolerance
U-NO_TILT_CAL_ROTATIONS.                 3 :Number of Rotations for Tilt Calibration
HAZI .DEG        0.00000                 :Hole Azimuth
U-STD_TOL_TILT.           0.01000        :Tilt Standard Deviation Tolerance
U-GUN_POS_TOL.DEG        5.00000         :Gun Position Tolerance
ROT_ANGLE_THRESHOLD.DEG        5.00000   :Rotation Stop Angle Tolerance
STOP_ROT_ANGLE.DEG       80.00000        :Rotation Stop Angle
WITN .                                   :Witness's Name
ENGI .                                   :Engineer's Name
COUN .        HARRIS                     :County or Rig Name
FN   .        WILDCAT                    :Field Name
WN   .        WPP TEST 2                 :Well Name
CN   .        SHELL INTERNATIONAL E P    :Company Name
CLAB .        County                     :County/Rig Label
SLAB .        State                      :State/Province Label
RUN  .          1                        :RUN NUMBER
PDAT .        GROUND LEVEL               :Permanent Datum
EPD  .                                   :Elevation of Permanent Datum above Mean Sea Level
LMF  .                                   :Logging Measured From (Name of Logging Elevation Reference)
APD  .                                   :Elevation of Depth Reference (LMF) above Permanent Datum
#-----------------------------------------------------------------------------
~CURVE INFORMATION
#MNEM.UNIT   API CODE                                  DESCRIPTION
#---- -----  --------                                  -----------------------
TIME .S                                                :TIME {F10.1}
FREQ_EMF_SL.HZ                                         :Electromagnetic Field Frequency {F13.4}
PH_SH_WPPCM_SL.DEG                                     :WPPCM Phase Shift {F13.4}
FREQ_EXC_REQ_SL.HZ                                     :Requested Exciter Frequency {F13.4}
RB_SL.DEG                                              :Relative Bearing {F13.4}
SDEV_SL.DEG                                            :Sonde Deviation {F13.4}
TILX_SL.DEG                                            :X-axis Tilt {F13.4}
TILY_SL.DEG                                            :Y-axis Tilt {F13.4}
ROTA_SL.DEG                                            :Motor Rotation Angle {F13.4}
MSPE_SL.RPM                                            :Motor Speed {F13.4}
#-----------------------------------------------------------------------------
# 
#     TIME    FREQ_EMF_SL  PH_SH_WPPCM_ FREQ_EXC_REQ    RB_SL       SDEV_SL      TILX_SL      TILY_SL      ROTA_SL      MSPE_SL
#                          SL           _SL
~A  
# ...
   13477.0    1678.1025       0.0000      50.8611     159.5115       3.1749       1.1113       2.9734      75.8001       0.0005
   13478.0    1682.0570       0.0000      50.8611     162.4881       3.0845       0.9280       2.9411      75.8001       0.0005
   13479.0    1685.7898       0.0000      50.8611     164.6021       3.0487       0.8093       2.9387      75.8001       0.0005
   13480.0    1682.1173       0.0000      50.8611     156.2861       3.1709       1.2744       2.9027      75.8001       0.0005
   13481.0    1678.3440       0.0000      50.8611     161.2899       3.2260       1.0346       3.0552      75.8001       0.0005
   13482.0    1681.8770       0.0000      50.8611     157.5493       3.2273       1.2318       2.9820      75.8001       0.0005
   13483.0    1678.2230       0.0000      50.8611     157.6922       3.2624       1.2379       3.0180      75.8001       0.0005
   13484.0    1678.2230       0.0000      50.8611     165.3066       3.1637       0.8021       3.0601      75.8001       0.0005
   13485.0    1685.7898       0.0000      50.8611     158.9293       3.1135       1.1186       2.9051      75.8001       0.0005
   13486.0    1686.1511       0.0000      50.8611     161.4256       3.1460       1.0017       2.9820      75.8001       0.0005
   13487.0    1678.2230       0.0000      50.8611     158.0742       3.0009       1.1198       2.7837      75.8001       0.0005
   13488.0    1678.1025       0.0000      50.8611     154.8659       2.8023       1.1893       2.5359      75.8001       0.0005
   13489.0    1682.1173       0.0000      50.8611     156.5656       3.2061       1.2744       2.9411      75.8001       0.0005
   13490.0    1681.9969       0.0000      50.8611     160.2940       3.2033       1.0796       3.0155      75.8001       0.0005
   13491.0    1685.9097       0.0000      50.8611     159.9733       3.2651       1.1174       3.0674      75.8001       0.0005
   13492.0    1674.3475       0.0000      50.8611     155.4389       2.9687       1.2330       2.6995      75.8001       0.0005
   13493.0    1681.9969       0.0000      50.8611     159.9142       3.3799       1.1599       3.1742      75.8001       0.0005
   13494.0    1686.0301       0.0000      50.8611     162.5844       3.2060       0.9591       3.0589      75.8001       0.0005
   13495.0    1680.1075       0.0000      50.8611     142.8879       1.4124       0.8261       1.1360      75.8001       0.0005
   13496.0    1682.1173       0.0000      50.8611     158.3742       3.0334       1.1174       2.8197      75.8001       0.0005
   13497.0    1681.9969       0.0000      50.8611     158.9027       3.1127       1.1198       2.9039      75.8001       0.0005
   13498.0    1681.9969       0.0000      50.8611     153.1008       3.7153       1.6797       3.3128      75.8001       0.0005
   13499.0    1678.4656       0.0000      50.8611     176.7798       2.9026       0.1630       2.8978      75.8001       0.0005
   13500.0    1681.8770       0.0000      50.8611     157.2880       3.3987       1.3122       3.1345      75.8001       0.0005
   13501.0    1685.9097       0.0000      50.8611     164.5319       3.0042       0.8008       2.8953      75.8001       0.0005
   13502.0    1669.8938       0.0000      50.8611     156.9244       3.3710       1.3206       3.1010      75.8014       0.0005
   13503.0    1670.1307       0.0000      50.8611     162.2071       3.1371       0.9579       2.9869      78.6280       0.6934
   13504.0    1666.1730       0.0000      50.8611     170.6469       3.2284       0.5245       3.1852      83.6064       0.9457
   13505.0    1669.6592       0.0000      50.8611     177.9567       3.3472       0.1192       3.3451      89.6461       1.0226
   13506.0    1654.2952       0.0000      50.8611    -176.0051       3.5147      -0.2447       3.5062      95.7510       1.0226
   13507.0    1641.6560       0.0000      50.8611    -169.3338       3.5730      -0.6609       3.5111     101.8557       1.0226
   13508.0    1627.1562       0.0000      50.8611    -163.5176       3.5793      -1.0151       3.4318     107.9546       1.0226
   13509.0    1601.7612       0.0000      50.8611    -156.2536       3.7049      -1.4911       3.3909     114.0535       1.0229
   13510.0    1576.4076       0.0000      50.8611    -151.0272       3.9151      -1.8951       3.4244     120.1771       1.0226
   13511.0    1545.3296       0.0000      50.8611    -143.3872       3.9184      -2.3358       3.1443     126.2758       1.0226
   13512.0    1531.8628       0.0000      50.8611    -140.2093       4.0358      -2.5816       3.0998     132.3745       1.0223
   13513.0    1492.9296       0.0000      50.8611    -131.9048       4.2146      -3.1355       2.8135     138.4735       1.0226
   13514.0    1473.9641       0.0000      50.8611    -127.6141       4.2162      -3.3387       2.5719     144.9767       1.0223
   13515.0    1443.6998       0.0000      50.8611    -121.5673       4.4356      -3.7782       2.3204     151.0511       1.0226
   13516.0    1420.2831       0.0000      50.8611    -115.0123       4.3512      -3.9424       1.8384     157.1502       1.0226
   13517.0    1392.2442       0.0000      50.8611    -111.6754       4.6296      -4.3015       1.7083     163.2551       1.0226
   13518.0    1367.7094       0.0000      50.8611    -104.8280       4.6125      -4.4586       1.1792     169.3599       1.0226
   13519.0    1344.4232       0.0000      50.8611    -100.6261       4.7137      -4.6326       0.8683     175.4466       1.0149
   13520.0    1309.2118       0.0000      50.8611     -93.9705       4.6352      -4.6241       0.3206     181.5338       1.0229
   13521.0    1266.8235       0.0000      50.8611     -90.3647       4.8227      -4.8225       0.0307     187.6514       1.0226
   13522.0    1222.1374       0.0000      50.8611     -85.4831       4.7606      -4.7458      -0.3745     193.7562       1.0229
   13523.0    1154.1075       0.0000      50.8611     -81.2184       4.8847      -4.8273      -0.7449     199.8683       1.0226
   13524.0    1084.8202       0.0000      50.8611     -75.2795       4.8632      -4.7032      -1.2344     205.9673       1.0229
   13525.0    1041.4825       0.0000      50.8611     -64.3212       4.8656      -4.3819      -2.1069     212.0858       1.0232
   13526.0    1008.5294       0.0000      50.8611     -64.4185       4.9470      -4.4610      -2.1339     218.5968       1.0229
   13527.0     994.3095       0.0000      50.8611     -60.2908       5.1336      -4.4574      -2.5416     224.7085       1.0226
   13528.0     975.4124       0.0000      50.8611     -54.0149       4.8802      -3.9473      -2.8650     230.8135       1.0226
   13529.0     967.2396       0.0000      50.8611     -51.0745       4.9638      -3.8597      -3.1164     236.9062       1.0127
   13530.0     961.7494       0.0000      50.8611     -44.1460       5.0802      -3.5359      -3.6431     243.0056       1.0226
   13531.0     957.8384       0.0000      50.8611     -40.4600       4.9009      -3.1781      -3.7270     249.1050       1.0228
   13532.0     950.2075       0.0000      50.8611     -36.6699       4.8545      -2.8969      -3.8921     255.2359       1.0330
   13533.0     955.2940       0.0000      50.8611     -32.6471       4.7740      -2.5732      -4.0184     261.3405       1.0226
   13534.0     960.5140       0.0000      50.8611     -27.0037       4.8730      -2.2104      -4.3406     267.4274       1.0229
   13535.0     965.8310       0.0000      50.8611     -20.4930       4.7192      -1.6505      -4.4200     273.5390       1.0226
   13536.0     973.8573       0.0000      50.8611     -16.4645       4.6946      -1.3292      -4.5017     279.6436       1.0226
   13537.0     986.1500       0.0000      50.8611     -11.6763       4.5996      -0.9299      -4.5042     285.7480       1.0226
   13538.0    1000.1779       0.0000      50.8611      -6.8830       4.6558      -0.5576      -4.6219     292.2528       1.0330
   13539.0    1019.0661       0.0000      50.8611      -1.0963       4.4604      -0.0852      -4.4596     298.3574       1.0226
