~VERSION INFORMATION
VERS.           2.0   :CWLS Log ASCII Standard - VERSION 2.0
WRAP.           NO    :One Line per depth step
PROD.  Schlumberger   :LAS Producer
PROG.  DLIS to ASCII 19C2-270                          :LAS Program name and version
CREA.        2017/09/16 17:42                          :LAS Creation date {YYYY/MM/DD hh:mm}
DLIS_CREA.  2017-Sep-15 16:38                          :DLIS Creation date and time {YYYY-MMM-DD hh:mm}
SOURCE.     LPC_S3-1_2A5.DLIS                          :DLIS File Name
FILE-ID.     PERFO_Perfo_WPGRT_042LTP                  :File Identification Number
#--------------------------------------------------
~WELL INFORMATION
#MNEM.UNIT      DATA             DESCRIPTION
#---- ------ --------------   -----------------------------
STRT .S         4115.0       :START TIME      
STOP .S         4682.0       :STOP TIME      
STEP .S            1.0       :STEP     
NULL .          -999.25      :NULL VALUE
COMP .        SHELL INTERNATIONAL E P                  :COMPANY
WELL .        WPP TEST 2                               :WELL
FLD  .        WILDCAT                                  :FIELD
LOC  .                                                 :LOCATION
CNTY .        HARRIS                                   :COUNTY
STAT .        TEXAS                                    :STATE
CTRY .                                                 :COUNTRY
API  .                                                 :API NUMBER
UWI  .                                                 :UNIQUE WELL ID
DATE .                                                 :LOG DATE
SRVC .        Schlumberger                             :SERVICE COMPANY
LATI .DEG                                              :LATITUDE
LONG .DEG                                              :LONGITUDE
GDAT .                                                 :GeoDetic Datum
#-----------------------------------------------------------------------------
~PARAMETER INFORMATION
#MNEM.UNIT    VALUE                      DESCRIPTION
#---- -----   --------------------       ------------------------
U-PHASE_B_COMP_PER_YT.                 0 :Phase B Comparator Period Yt
U-PHASE_A_COMP_PER_XT.                 0 :Phase A Comparator Period Xt
U-MAX_EXC_CUR_LIMIT.MA       240.00000   :Requested CM Current Limit
U-REQ_EXC_FQ.HZ              50          :Requested CM Frequency
U-TILT_Y_OFFSET.           0.19916       :WPTET Tilt Y Offset
U-TILT_Y_GAIN.           1.01796         :WPTET Tilt Y Gain
U-TILT_X_OFFSET.          -1.77103       :WPTET Tilt X Offset
U-TILT_X_GAIN.           1.00000         :WPTET Tilt X Gain
U-TILT_OFFSET_TOL.           0.00100     :WPTET Tilt Offset Calibration Tolerance
U-NO_TILT_CAL_ROTATIONS.                 3 :Number of Rotations for Tilt Calibration
HAZI .DEG        0.00000                 :Hole Azimuth
U-STD_TOL_TILT.           0.01000        :Tilt Standard Deviation Tolerance
U-GUN_POS_TOL.DEG        5.00000         :Gun Position Tolerance
ROT_ANGLE_THRESHOLD.DEG        5.00000   :Rotation Stop Angle Tolerance
STOP_ROT_ANGLE.DEG        0.00000        :Rotation Stop Angle
WITN .                                   :Witness's Name
ENGI .                                   :Engineer's Name
COUN .        HARRIS                     :County or Rig Name
FN   .        WILDCAT                    :Field Name
WN   .        WPP TEST 2                 :Well Name
CN   .        SHELL INTERNATIONAL E P    :Company Name
CLAB .        County                     :County/Rig Label
SLAB .        State                      :State/Province Label
RUN  .          1                        :RUN NUMBER
PDAT .        GROUND LEVEL               :Permanent Datum
EPD  .                                   :Elevation of Permanent Datum above Mean Sea Level
LMF  .                                   :Logging Measured From (Name of Logging Elevation Reference)
APD  .                                   :Elevation of Depth Reference (LMF) above Permanent Datum
#-----------------------------------------------------------------------------
~CURVE INFORMATION
#MNEM.UNIT   API CODE                                  DESCRIPTION
#---- -----  --------                                  -----------------------
TIME .S                                                :TIME {F10.1}
FREQ_EMF_SL.HZ                                         :Electromagnetic Field Frequency {F13.4}
PH_SH_WPPCM_SL.DEG                                     :WPPCM Phase Shift {F13.4}
FREQ_EXC_REQ_SL.HZ                                     :Requested Exciter Frequency {F13.4}
RB_SL.DEG                                              :Relative Bearing {F13.4}
SDEV_SL.DEG                                            :Sonde Deviation {F13.4}
TILX_SL.DEG                                            :X-axis Tilt {F13.4}
TILY_SL.DEG                                            :Y-axis Tilt {F13.4}
ROTA_SL.DEG                                            :Motor Rotation Angle {F13.4}
MSPE_SL.RPM                                            :Motor Speed {F13.4}
#-----------------------------------------------------------------------------
# 
#     TIME    FREQ_EMF_SL  PH_SH_WPPCM_ FREQ_EXC_REQ    RB_SL       SDEV_SL      TILX_SL      TILY_SL      ROTA_SL      MSPE_SL
#                          SL           _SL
~A  
# ...
    4493.0    1240.1451       0.0000      50.8611     -16.4374       6.4881      -1.8341      -6.2211     328.4221       1.0226
    4494.0    1244.5353       0.0000      50.8611     -12.6311       7.0029      -1.5264      -6.8328     334.5239       1.0226
    4495.0    1237.6364       0.0000      50.8611      -1.3289       5.6396      -0.1302      -5.6380     340.6265       1.0226
    4496.0    1240.2110       0.0000      50.8611      -0.0937       6.9302      -0.0097      -6.9301     346.7415       1.0226
    4497.0    1235.9171       0.0000      50.8611       1.9182       6.1855       0.2068      -6.1818     352.8433       1.0226
    4498.0    1253.1423       0.0000      50.8611      11.2275       5.5599       1.0808      -5.4532     358.9451       1.0226
    4499.0    1257.6251       0.0000      50.8611      16.3639       6.2542       1.7588      -5.9999       5.0601       1.0226
    4500.0    1262.5480       0.0000      50.8611      25.7134       5.8181       2.5208      -5.2402      11.1628       1.0124
    4501.0    1273.9162       0.0000      50.8611      27.2624       6.2360       2.8518      -5.5411      17.6602       1.0226
    4502.0    1287.6338       0.0000      50.8611      29.9280       5.1504       2.5670      -4.4621      23.7620       1.0124
    4503.0    1301.9392       0.0000      50.8611      43.5845       4.8314       3.3277      -3.4979      29.8514       1.0226
    4504.0    1323.9294       0.0000      50.8611      46.3222       6.0455       4.3684      -4.1710      35.9663       1.0226
    4505.0    1344.4073       0.0000      50.8611      49.4445       6.1064       4.6315      -3.9694      42.0681       1.0226
    4506.0    1354.5352       0.0000      50.8611      59.1672       4.6823       4.0178      -2.3989      48.1831       1.0226
    4507.0    1360.0888       0.0000      50.8611      68.0748       4.5968       4.2640      -1.7140      54.2849       1.0330
    4508.0    1375.8979       0.0000      50.8611      83.8382       4.4945       4.4657      -0.4845      60.4000       1.0226
    4509.0    1378.4346       0.0000      50.8611      82.6047       5.2366       5.1923      -0.6742      66.4898       1.0223
    4510.0    1386.8344       0.0000      50.8611      86.6628       4.5423       4.5339      -0.2641      72.5951       1.0226
    4511.0    1389.8237       0.0000      50.8611      95.1493       4.5023       4.4841       0.4036      78.6939       1.0330
    4512.0    1408.8995       0.0000      50.8611      99.0698       5.9342       5.8598       0.9327      84.8346       1.0229
    4513.0    1414.5683       0.0000      50.8611     109.0334       5.2640       4.9762       1.7108      91.3323       1.0226
    4514.0    1411.8976       0.0000      50.8611     120.5159       4.3344       3.7338       2.1929      97.4349       1.0226
    4515.0    1412.0684       0.0000      50.8611     125.0989       4.5068       3.6844       2.5907     103.5629       1.0226
    4516.0    1420.6275       0.0000      50.8611     136.1018       4.7994       3.3253       3.4567     109.6647       1.0226
    4517.0    1434.6004       0.0000      50.8611     140.2889       5.4416       3.4711       4.1816     115.7797       1.0226
    4518.0    1437.6204       0.0000      50.8611     144.4612       5.1024       2.9678       4.1444     121.8692       1.0226
    4519.0    1435.1254       0.0000      50.8611     160.7462       4.4949       1.4809       4.2373     127.9709       1.0226
    4520.0    1440.8298       0.0000      50.8611     163.6941       4.5711       1.2816       4.3869     134.0728       1.0226
    4521.0    1446.4930       0.0000      50.8611     169.3158       5.1781       0.9579       5.0881     140.1624       1.0226
    4522.0    1449.5636       0.0000      50.8611     160.9253       4.8032       0.6880       4.7500     146.2643       1.0226
    4523.0    1443.7886       0.0000      50.8611     164.7913       4.4262       0.3397       4.4118     152.3793       1.0330
    4524.0    1446.7593       0.0000      50.8611    -175.4814       5.1528      -0.4054       5.1368     158.4730       1.0124
    4525.0    1455.4758       0.0000      50.8611    -161.7883       5.4702      -1.7068       5.1936     164.9794       1.0226
    4526.0    1446.6702       0.0000      50.8611    -157.7704       5.8254      -2.2008       5.3907     171.0813       1.0330
    4527.0    1441.1871       0.0000      50.8611    -151.5411       5.1524      -2.4527       4.5284     177.2095       1.0226
    4528.0    1446.7593       0.0000      50.8611    -147.7112       5.3560      -2.8579       4.5259     183.2870       1.0223
    4529.0    1443.8777       0.0000      50.8611    -142.7599       6.0533      -3.6589       4.8158     189.3898       1.0229
    4530.0    1440.7414       0.0000      50.8611    -133.2587       5.7447      -4.1798       3.9335     195.4922       1.0330
    4531.0    1443.6998       0.0000      50.8611    -128.8862       5.4812      -4.2638       3.4379     201.5948       1.0226
    4532.0    1440.7414       0.0000      50.8611    -123.9440       5.8560      -4.8554       3.2658     207.6878       1.0327
    4533.0    1417.7630       0.0000      50.8611    -119.3757       6.4075      -5.5808       3.1382     213.7994       1.0226
    4534.0    1420.5409       0.0000      50.8611    -112.7830       6.3230      -5.8279       2.4443     219.9043       1.0226
    4535.0    1420.2831       0.0000      50.8611    -105.8443       5.9766      -5.7487       1.6290     226.0062       1.0226
    4536.0    1403.6967       0.0000      50.8611    -102.7669       6.0985      -5.9472       1.3452     232.1081       1.0226
    4537.0    1398.1990       0.0000      50.8611     -97.4526       6.6033      -6.5472       0.8546     238.6149       1.0226
    4538.0    1403.5273       0.0000      50.8611     -88.9914       6.5948      -6.5934      -0.1157     244.7178       1.0229
    4539.0    1392.0801       0.0000      50.8611     -82.1805       6.2909      -6.2319      -0.8541     250.8197       1.0226
    4540.0    1375.9785       0.0000      50.8611     -80.0137       6.4024      -6.3050      -1.1080     256.9216       1.0124
    4541.0    1365.3709       0.0000      50.8611     -76.0059       6.7898      -6.5874      -1.6383     263.0109       1.0226
    4542.0    1331.9044       0.0000      50.8611     -70.4340       6.7448      -6.3536      -2.2541     269.1128       1.0226
    4543.0    1339.2094       0.0000      50.8611     -63.9119       6.4415      -5.7829      -2.8278     275.2022       1.0226
    4544.0    1316.6397       0.0000      50.8611     -58.7425       6.4052      -5.4724      -3.3184     281.3040       1.0226
    4545.0    1295.1053       0.0000      50.8611     -55.0619       6.7267      -5.5101      -3.8463     287.4216       1.0330
    4546.0    1294.8181       0.0000      50.8611     -47.5460       6.6136      -4.8747      -4.4584     293.5123       1.0226
    4547.0    1273.7772       0.0000      50.8611     -43.7490       6.5784      -4.5437      -4.7471     299.6141       1.0226
    4548.0    1251.3136       0.0000      50.8611     -37.8001       6.5747      -4.0240      -5.1907     305.7037       1.0226
    4549.0    1242.6696       0.0000      50.8611     -34.6794       6.8612      -3.8974      -5.6380     312.2109       1.0330
    4550.0    1235.9171       0.0000      50.8611     -30.3752       6.6911      -3.3777      -5.7693     318.3140       1.0229
    4551.0    1237.8961       0.0000      50.8611     -22.4754       6.1231      -2.3370      -5.6564     324.4034       1.0226
    4552.0    1233.4232       0.0000      50.8611     -17.2078       6.3016      -1.8610      -6.0183     330.5052       1.0226
    4553.0    1225.0849       0.0000      50.8611     -11.4948       6.3090      -1.2549      -6.1818     336.6070       1.0226
    4554.0    1227.2880       0.0000      50.8611     -10.4009       6.6963      -1.2063      -6.5858     342.7089       1.0226
    4555.0    1231.4571       0.0000      50.8611      -0.8920       6.0192      -0.0937      -6.0183     348.8108       1.0226
