~VERSION INFORMATION
VERS.           2.0   :CWLS Log ASCII Standard - VERSION 2.0
WRAP.           NO    :One Line per depth step
PROD.  Schlumberger   :LAS Producer
PROG.  DLIS to ASCII 19C2-270                          :LAS Program name and version
CREA.        2017/09/16 17:42                          :LAS Creation date {YYYY/MM/DD hh:mm}
DLIS_CREA.  2017-Sep-15 17:02                          :DLIS Creation date and time {YYYY-MMM-DD hh:mm}
SOURCE.     LPC_S3-1_2BV.DLIS                          :DLIS File Name
FILE-ID.     PERFO_Perfo_WPGRT_045LTP                  :File Identification Number
#--------------------------------------------------
~WELL INFORMATION
#MNEM.UNIT      DATA             DESCRIPTION
#---- ------ --------------   -----------------------------
STRT .S          126.0       :START TIME      
STOP .S          554.0       :STOP TIME      
STEP .S            1.0       :STEP     
NULL .          -999.25      :NULL VALUE
COMP .        SHELL INTERNATIONAL E P                  :COMPANY
WELL .        WPP TEST 2                               :WELL
FLD  .        WILDCAT                                  :FIELD
LOC  .        NA                                       :LOCATION
CNTY .        HARRIS                                   :COUNTY
STAT .        TEXAS                                    :STATE
CTRY .                                                 :COUNTRY
API  .        NA                                       :API NUMBER
UWI  .                                                 :UNIQUE WELL ID
DATE .        15-Sep-2017                              :LOG DATE {DD-MMM-YYYY}
SRVC .        Schlumberger                             :SERVICE COMPANY
LATI .DEG                                              :LATITUDE
LONG .DEG                                              :LONGITUDE
GDAT .                                                 :GeoDetic Datum
SECT .        NA                                       :Section
RANG .        NA                                       :Range
TOWN .        NA                                       :Township
#-----------------------------------------------------------------------------
~PARAMETER INFORMATION
#MNEM.UNIT    VALUE                      DESCRIPTION
#---- -----   --------------------       ------------------------
U-PHASE_B_COMP_PER_YT.                 0 :Phase B Comparator Period Yt
U-PHASE_A_COMP_PER_XT.                 0 :Phase A Comparator Period Xt
U-MAX_EXC_CUR_LIMIT.MA       240.00000   :Requested CM Current Limit
U-REQ_EXC_FQ.HZ              50          :Requested CM Frequency
U-TILT_Y_OFFSET.           0.19916       :WPTET Tilt Y Offset
U-TILT_Y_GAIN.           1.01796         :WPTET Tilt Y Gain
U-TILT_X_OFFSET.          -1.77103       :WPTET Tilt X Offset
U-TILT_X_GAIN.           1.00000         :WPTET Tilt X Gain
U-TILT_OFFSET_TOL.           0.00100     :WPTET Tilt Offset Calibration Tolerance
U-NO_TILT_CAL_ROTATIONS.                 3 :Number of Rotations for Tilt Calibration
HAZI .DEG        0.00000                 :Hole Azimuth
U-STD_TOL_TILT.           0.01000        :Tilt Standard Deviation Tolerance
U-GUN_POS_TOL.DEG        5.00000         :Gun Position Tolerance
ROT_ANGLE_THRESHOLD.DEG        5.00000   :Rotation Stop Angle Tolerance
STOP_ROT_ANGLE.DEG        0.00000        :Rotation Stop Angle
WITN .        MR. DHRUA ARORA            :Witness's Name
ENGI .        MORRIS MOORE               :Engineer's Name
COUN .        HARRIS                     :County or Rig Name
FN   .        WILDCAT                    :Field Name
WN   .        WPP TEST 2                 :Well Name
CN   .        SHELL INTERNATIONAL E P    :Company Name
CLAB .        County                     :County/Rig Label
SLAB .        State                      :State/Province Label
RUN  .          1                        :RUN NUMBER
PDAT .        GROUND LEVEL               :Permanent Datum
EPD  .                                   :Elevation of Permanent Datum above Mean Sea Level
LMF  .          NA                       :Logging Measured From (Name of Logging Elevation Reference)
APD  .                                   :Elevation of Depth Reference (LMF) above Permanent Datum
#-----------------------------------------------------------------------------
~CURVE INFORMATION
#MNEM.UNIT   API CODE                                  DESCRIPTION
#---- -----  --------                                  -----------------------
TIME .S                                                :TIME {F10.1}
FREQ_EMF_SL.HZ                                         :Electromagnetic Field Frequency {F13.4}
PH_SH_WPPCM_SL.DEG                                     :WPPCM Phase Shift {F13.4}
FREQ_EXC_REQ_SL.HZ                                     :Requested Exciter Frequency {F13.4}
RB_SL.DEG                                              :Relative Bearing {F13.4}
SDEV_SL.DEG                                            :Sonde Deviation {F13.4}
TILX_SL.DEG                                            :X-axis Tilt {F13.4}
TILY_SL.DEG                                            :Y-axis Tilt {F13.4}
ROTA_SL.DEG                                            :Motor Rotation Angle {F13.4}
MSPE_SL.RPM                                            :Motor Speed {F13.4}
#-----------------------------------------------------------------------------
# 
#     TIME    FREQ_EMF_SL  PH_SH_WPPCM_ FREQ_EXC_REQ    RB_SL       SDEV_SL      TILX_SL      TILY_SL      ROTA_SL      MSPE_SL
#                          SL           _SL
~A  
# ...
     504.0    1339.2858       0.0000      50.8611     -48.1135       1.4626      -1.0882      -0.9766     307.2521       1.0226
     505.0    1324.1526       0.0000      50.8611     -49.2585       1.3865      -1.0505      -0.9048     313.3416       1.0226
     506.0    1304.3518       0.0000      50.8611     -43.3546       1.4132      -0.9701      -1.0275     319.4435       1.0226
     507.0    1303.7684       0.0000      50.8611     -43.3065       1.3559      -0.9300      -0.9866     325.5329       1.0226
     508.0    1277.7073       0.0000      50.8611     -50.5430       1.4359      -1.1088      -0.9098     331.6347       1.0226
     509.0    1253.3423       0.0000      50.8611     -30.5551       1.4248      -0.7242      -1.2269     337.7482       1.0220
     510.0    1244.3351       0.0000      50.8611     -42.1934       1.2937      -0.8678      -0.9557     344.2217       1.0226
     511.0    1229.2395       0.0000      50.8611     -42.6514       1.3559      -0.9177      -0.9966     350.3264       1.0226
     512.0    1220.4457       0.0000      50.8611     -36.0731       1.1701      -0.6890      -0.9457     356.4129       1.0226
     513.0    1218.2034       0.0000      50.8611     -37.2126       1.1940      -0.7218      -0.9507       2.5024       1.0226
     514.0    1199.3764       0.0000      50.8611     -42.1192       1.0664      -0.7145      -0.7896       8.6071       1.0226
     515.0    1187.6501       0.0000      50.8611     -37.0684       1.1857      -0.7151      -0.9451      14.7060       1.0226
     516.0    1180.1036       0.0000      50.8611     -28.6737       0.9295      -0.4455      -0.8156      20.8078       1.0226
     517.0    1175.9143       0.0000      50.8611     -35.9081       0.8787      -0.5136      -0.7103      26.8990       1.0334
     518.0    1179.3798       0.0000      50.8611     -21.6496       0.8074      -0.2995      -0.7487      33.0255       1.0226
     519.0    1177.7638       0.0000      50.8611     -31.3956       0.9610      -0.5038      -0.8156      39.1273       1.0226
     520.0    1178.0050       0.0000      50.8611     -35.5133       0.9615      -0.5587      -0.7822      45.2299       1.0232
     521.0    1183.7122       0.0000      50.8611     -33.3903       0.7410      -0.4078      -0.6186      51.3326       1.0232
     522.0    1185.7083       0.0000      50.8611     -39.7612       0.8609      -0.5513      -0.6595      57.8679       1.0327
     523.0    1196.0395       0.0000      50.8611     -19.0933       0.4807      -0.1536      -0.4351      63.9705       1.0232
     524.0    1206.2994       0.0000      50.8611     -41.6377       0.6670      -0.4431      -0.4984      70.0731       1.0327
     525.0    1214.6348       0.0000      50.8611     -46.4282       0.6675      -0.4832      -0.4600      76.1872       1.0226
     526.0    1229.3707       0.0000      50.8611     -39.7547       0.6351      -0.4054      -0.4885      82.2767       1.0226
     527.0    1246.5746       0.0000      50.8611     -49.2647       0.5846      -0.4419      -0.3814      88.3793       1.0226
     528.0    1262.2050       0.0000      50.8611     -47.7361       0.6091      -0.4504      -0.4092      94.4827       1.0232
     529.0    1280.4544       0.0000      50.8611     -54.6098       0.6360      -0.5185      -0.3683     100.5968       1.0226
     530.0    1298.0146       0.0000      50.8611     -61.1030       0.5979      -0.5234      -0.2890     106.6994       1.0327
     531.0    1317.6253       0.0000      50.8611     -66.4078       0.5356      -0.4906      -0.2147     112.8163       1.0226
     532.0    1349.2536       0.0000      50.8611     -71.9595       0.5531      -0.5259      -0.1713     118.9152       1.0226
     533.0    1360.0098       0.0000      50.8611     -84.6184       0.6131      -0.6086      -0.0586     125.0170       1.0226
     534.0    1371.2704       0.0000      50.8611     -76.9067       0.7562      -0.7365      -0.1713     131.5269       1.0220
     535.0    1368.6013       0.0000      50.8611     -88.9822       0.8357      -0.8350      -0.0128     137.6050       1.0232
     536.0    1384.2707       0.0000      50.8611     -79.9403       0.7331      -0.7218      -0.1279     143.7192       1.0226
     537.0    1400.6475       0.0000      50.8611     -81.7133       0.8490      -0.8398      -0.1230     149.8211       1.0226
     538.0    1406.4217       0.0000      50.8611     -79.3061       0.8956      -0.8800      -0.1663     155.9364       1.0226
     539.0    1414.7384       0.0000      50.8611     -86.6673       0.9271      -0.9251      -0.0536     162.0381       1.0226
     540.0    1417.9405       0.0000      50.8611     -75.9817       0.8758      -0.8496      -0.2122     168.1400       1.0226
     541.0    1428.7633       0.0000      50.8611     -85.1467       1.0898      -1.0857      -0.0920     174.2419       1.0220
     542.0    1437.8834       0.0000      50.8611     -75.1794       1.1307      -1.0931      -0.2890     180.3313       1.0226
     543.0    1435.3073       0.0000      50.8611     -81.0014       1.0968      -1.0833      -0.1713     183.1039       0.0005
     544.0    1434.9490       0.0000      50.8611     -86.9791       1.0121      -1.0103      -0.0536     183.1039       0.0005
     545.0    1438.0630       0.0000      50.8611     -80.3529       1.0224      -1.0079      -0.1713     183.1039       0.0005
     546.0    1440.6503       0.0000      50.8611     -80.6875       0.9839      -0.9701      -0.1589     183.1039       0.0005
     547.0    1432.3834       0.0000      50.8611     -80.1027       0.9823      -0.9677      -0.1688     183.1039       0.0005
     548.0    1435.1278       0.0000      50.8611     -85.2716       1.0565      -1.0529      -0.0871     183.1039       0.0005
     549.0    1440.2934       0.0000      50.8611     -80.5116       1.0243      -1.0103      -0.1688     183.1039       0.0005
     550.0    1437.8834       0.0000      50.8611     -85.1467       1.0898      -1.0857      -0.0920     183.1039       0.0005
     551.0    1440.8298       0.0000      50.8611     -85.2635       1.0871      -1.0833      -0.0896     183.1039       0.0005
     552.0    1440.8298       0.0000      50.8611     -82.8923       1.0132      -1.0054      -0.1255     183.1039       0.0005
     553.0    1432.5629       0.0000      50.8611     -80.4049       0.9841      -0.9701      -0.1639     183.1039       0.0005
     554.0    1434.9490       0.0000      50.8611     -80.3643       0.9768      -0.9628      -0.1639     183.1039       0.0005
