~VERSION INFORMATION
VERS.           2.0   :CWLS Log ASCII Standard - VERSION 2.0
WRAP.           NO    :One Line per depth step
PROD.  Schlumberger   :LAS Producer
PROG.  DLIS to ASCII 19C2-270                          :LAS Program name and version
CREA.        2017/09/16 17:42                          :LAS Creation date {YYYY/MM/DD hh:mm}
DLIS_CREA.  2017-Sep-15 17:22                          :DLIS Creation date and time {YYYY-MMM-DD hh:mm}
SOURCE.     LPC_S4-1_AV.DLIS                           :DLIS File Name
FILE-ID.     PERFO_Perfo_WPGRT_047LTP                  :File Identification Number
#--------------------------------------------------
~WELL INFORMATION
#MNEM.UNIT      DATA             DESCRIPTION
#---- ------ --------------   -----------------------------
STRT .S         1296.0       :START TIME      
STOP .S         1779.0       :STOP TIME      
STEP .S            1.0       :STEP     
NULL .          -999.25      :NULL VALUE
COMP .        SHELL INTERNATIONAL E P                  :COMPANY
WELL .        WPP TEST 2                               :WELL
FLD  .        WILDCAT                                  :FIELD
LOC  .        NA                                       :LOCATION
CNTY .        HARRIS                                   :COUNTY
STAT .        TEXAS                                    :STATE
CTRY .                                                 :COUNTRY
API  .        NA                                       :API NUMBER
UWI  .                                                 :UNIQUE WELL ID
DATE .        15-Sep-2017                              :LOG DATE {DD-MMM-YYYY}
SRVC .        Schlumberger                             :SERVICE COMPANY
LATI .DEG                                              :LATITUDE
LONG .DEG                                              :LONGITUDE
GDAT .                                                 :GeoDetic Datum
SECT .        NA                                       :Section
RANG .        NA                                       :Range
TOWN .        NA                                       :Township
#-----------------------------------------------------------------------------
~PARAMETER INFORMATION
#MNEM.UNIT    VALUE                      DESCRIPTION
#---- -----   --------------------       ------------------------
U-PHASE_B_COMP_PER_YT.                 0 :Phase B Comparator Period Yt
U-PHASE_A_COMP_PER_XT.                 0 :Phase A Comparator Period Xt
U-MAX_EXC_CUR_LIMIT.MA       240.00000   :Requested CM Current Limit
U-REQ_EXC_FQ.HZ              50          :Requested CM Frequency
U-TILT_Y_OFFSET.           0.19916       :WPTET Tilt Y Offset
U-TILT_Y_GAIN.           1.01796         :WPTET Tilt Y Gain
U-TILT_X_OFFSET.          -1.77103       :WPTET Tilt X Offset
U-TILT_X_GAIN.           1.00000         :WPTET Tilt X Gain
U-TILT_OFFSET_TOL.           0.00100     :WPTET Tilt Offset Calibration Tolerance
U-NO_TILT_CAL_ROTATIONS.                 3 :Number of Rotations for Tilt Calibration
HAZI .DEG        0.00000                 :Hole Azimuth
U-STD_TOL_TILT.           0.01000        :Tilt Standard Deviation Tolerance
U-GUN_POS_TOL.DEG        5.00000         :Gun Position Tolerance
ROT_ANGLE_THRESHOLD.DEG        5.00000   :Rotation Stop Angle Tolerance
STOP_ROT_ANGLE.DEG        0.00000        :Rotation Stop Angle
WITN .        MR. DHRUA ARORA            :Witness's Name
ENGI .        MORRIS MOORE               :Engineer's Name
COUN .        HARRIS                     :County or Rig Name
FN   .        WILDCAT                    :Field Name
WN   .        WPP TEST 2                 :Well Name
CN   .        SHELL INTERNATIONAL E P    :Company Name
CLAB .        County                     :County/Rig Label
SLAB .        State                      :State/Province Label
RUN  .          1                        :RUN NUMBER
PDAT .        GROUND LEVEL               :Permanent Datum
EPD  .                                   :Elevation of Permanent Datum above Mean Sea Level
LMF  .          NA                       :Logging Measured From (Name of Logging Elevation Reference)
APD  .                                   :Elevation of Depth Reference (LMF) above Permanent Datum
#-----------------------------------------------------------------------------
~CURVE INFORMATION
#MNEM.UNIT   API CODE                                  DESCRIPTION
#---- -----  --------                                  -----------------------
TIME .S                                                :TIME {F10.1}
FREQ_EMF_SL.HZ                                         :Electromagnetic Field Frequency {F13.4}
PH_SH_WPPCM_SL.DEG                                     :WPPCM Phase Shift {F13.4}
FREQ_EXC_REQ_SL.HZ                                     :Requested Exciter Frequency {F13.4}
RB_SL.DEG                                              :Relative Bearing {F13.4}
SDEV_SL.DEG                                            :Sonde Deviation {F13.4}
TILX_SL.DEG                                            :X-axis Tilt {F13.4}
TILY_SL.DEG                                            :Y-axis Tilt {F13.4}
ROTA_SL.DEG                                            :Motor Rotation Angle {F13.4}
MSPE_SL.RPM                                            :Motor Speed {F13.4}
#-----------------------------------------------------------------------------
# 
#     TIME    FREQ_EMF_SL  PH_SH_WPPCM_ FREQ_EXC_REQ    RB_SL       SDEV_SL      TILX_SL      TILY_SL      ROTA_SL      MSPE_SL
#                          SL           _SL
~A  
    1296.0    1552.1523       0.0000      50.8611     -57.0707       0.8187      -0.6865      -0.4453     189.4886       1.0226
    1297.0    1505.5835       0.0000      50.8611     -56.3779       0.8235      -0.6860      -0.4551     195.3908       1.0226
    1298.0    1455.6874       0.0000      50.8611     -63.4366       0.8352      -0.7471      -0.3733     201.5058       1.0226
    1299.0    1420.4209       0.0000      50.8611     -64.7419       0.8256      -0.7465      -0.3525     207.6077       1.0226
    1300.0    1369.2991       0.0000      50.8611     -61.2570       0.8563      -0.7476      -0.4153     214.1161       1.0226
    1301.0    1320.3819       0.0000      50.8611     -62.9115       0.9076      -0.8070      -0.4136     220.2180       1.0226
    1302.0    1258.8935       0.0000      50.8611     -67.8942       0.8280      -0.7669      -0.3117     226.3214       1.0226
    1303.0    1161.1811       0.0000      50.8611     -68.0892       0.8912      -0.8268      -0.3324     232.4233       1.0226
    1304.0    1071.8017       0.0000      50.8611     -63.3822       0.9248      -0.8268      -0.4142     238.5252       1.0226
    1305.0    1013.1071       0.0000      50.8611     -60.7328       0.9743      -0.8477      -0.4747     244.6271       1.0226
    1306.0     965.1340       0.0000      50.8611     -69.4644       0.9476      -0.8874      -0.3324     250.7290       1.0226
    1307.0     933.1543       0.0000      50.8611     -60.0053       0.9099      -0.7872      -0.4556     256.8247       1.0121
    1308.0     904.8968       0.0000      50.8611     -70.2842       0.9862      -0.9275      -0.3329     262.9213       1.0226
    1309.0     882.7321       0.0000      50.8611     -69.6042       1.0109      -0.9473      -0.3525     269.0231       1.0226
    1310.0     870.1908       0.0000      50.8611     -74.1071       1.0678      -1.0271      -0.2915     275.1379       1.0226
    1311.0     851.7639       0.0000      50.8611     -54.9685       0.9784      -0.8043      -0.5374     281.2413       1.0226
    1312.0     842.0351       0.0000      50.8611     -67.5277       1.0891      -1.0068      -0.4142     287.7417       1.0173
    1313.0     837.0309       0.0000      50.8611     -69.7307       1.0736      -1.0068      -0.3727     293.8374       1.0226
    1314.0     830.1235       0.0000      50.8611     -65.1944       1.1323      -1.0277      -0.4752     299.9330       1.0173
    1315.0     824.3110       0.0000      50.8611     -62.8654       1.1327      -1.0079      -0.5167     306.0435       1.0226
    1316.0     830.1357       0.0000      50.8611     -58.2741       1.1379      -0.9677      -0.5984     312.1330       1.0174
    1317.0     833.0509       0.0000      50.8611     -62.8743       1.1790      -1.0486      -0.5363     318.2224       1.0174
    1318.0     841.0911       0.0000      50.8611     -66.4143       1.1876      -1.0882      -0.4752     324.3242       1.0226
    1319.0     853.3406       0.0000      50.8611     -60.1809       1.1632      -1.0084      -0.5772     330.4203       1.0226
    1320.0     867.5277       0.0000      50.8611     -63.3349       1.1508      -1.0282      -0.5161     336.5286       1.0226
    1321.0     887.2713       0.0000      50.8611     -60.7593       1.2246      -1.0684      -0.5979     342.6304       1.0226
    1322.0     906.7227       0.0000      50.8611     -59.1328       1.1258      -0.9666      -0.5772     348.7260       1.0173
    1323.0     930.7543       0.0000      50.8611     -56.7458       1.2776      -1.0684      -0.7004     354.8348       1.0226
    1324.0     960.6235       0.0000      50.8611     -60.6310       1.1356      -0.9881      -0.5581       1.3374       1.0280
    1325.0     994.5190       0.0000      50.8611     -55.7070       1.2461      -1.0288      -0.6998       7.4472       1.0226
    1326.0    1059.0929       0.0000      50.8611     -54.9686       1.2552      -1.0277      -0.7205      13.5490       1.0226
    1327.0    1168.1957       0.0000      50.8611     -55.7313       1.2442      -1.0282      -0.7004      19.6581       1.0334
    1328.0    1264.6922       0.0000      50.8611     -54.9698       1.2586      -1.0288      -0.7200      25.7794       1.0226
    1329.0    1323.0217       0.0000      50.8611     -52.3319       1.0473      -0.8268      -0.6399      31.8813       1.0226
    1330.0    1368.1039       0.0000      50.8611     -48.8148       1.1257      -0.8472      -0.7413      37.9831       1.0226
    1331.0    1416.2349       0.0000      50.8611     -51.8299       1.2330      -0.9677      -0.7626      44.0849       1.0226
    1332.0    1460.2611       0.0000      50.8611     -52.4010       1.1174      -0.8863      -0.6797      50.1998       1.0226
    1333.0    1521.9680       0.0000      50.8611     -48.2582       1.2134      -0.9061      -0.8029      56.3016       1.0280
    1334.0    1567.8154       0.0000      50.8611     -48.1329       1.1110      -0.8274      -0.7413      62.4170       1.0229
    1335.0    1620.1636       0.0000      50.8611     -50.0884       1.1845      -0.9072      -0.7609      68.5193       1.0226
    1336.0    1666.1730       0.0000      50.8611     -41.8127       1.0989      -0.7619      -0.7609      75.0341       1.0280
    1337.0    1704.5196       0.0000      50.8611     -46.0136       1.0383      -0.7471      -0.7211      81.1300       1.0226
    1338.0    1753.5000       0.0000      50.8611     -44.4539       1.0389      -0.7267      -0.7418      87.2464       1.0226
    1339.0    1789.2937       0.0000      50.8611     -46.9518       0.9665      -0.7063      -0.6595      93.3491       1.0279
    1340.0    1807.5951       0.0000      50.8611     -42.7075       0.9855      -0.6656      -0.7217      99.4517       1.0279
    1341.0    1831.0547       0.0000      50.8611     -45.3562       0.9678      -0.6865      -0.6808     105.5534       1.0226
    1342.0    1838.3627       0.0000      50.8611     -46.2456       0.9820      -0.7069      -0.6791     111.6552       1.0226
    1343.0    1860.1190       0.0000      50.8611     -46.2045       0.9229      -0.6662      -0.6388     117.7570       1.0226
    1344.0    1864.9981       0.0000      50.8611     -39.8236       0.8878      -0.5655      -0.6808     123.8588       1.0226
    1345.0    1862.6200       0.0000      50.8611     -45.3508       0.8806      -0.6266      -0.6186     129.9359       1.0226
    1346.0    1850.2748       0.0000      50.8611     -50.3212       0.8395      -0.6458      -0.5363     136.0378       1.0226
    1347.0    1840.5877       0.0000      50.8611     -51.3252       0.8575      -0.6673      -0.5380     142.1397       1.0226
    1348.0    1826.2988       0.0000      50.8611     -53.4291       0.9318      -0.7465      -0.5564     148.6579       1.0279
    1349.0    1807.5192       0.0000      50.8611     -51.5947       0.7999      -0.6271      -0.4965     154.7648       1.0226
    1350.0    1782.2912       0.0000      50.8611     -53.6377       0.8031      -0.6469      -0.4758     160.8651       1.0226
    1351.0    1751.1799       0.0000      50.8611     -50.2133       0.8421      -0.6458      -0.5374     166.9686       1.0226
    1352.0    1714.8918       0.0000      50.8611     -57.1902       0.9136      -0.7669      -0.4954     173.0711       1.0279
    1353.0    1668.1246       0.0000      50.8611     -58.5221       0.7575      -0.6458      -0.3940     179.1746       1.0173
    1354.0    1625.6645       0.0000      50.8611     -55.8569       0.8830      -0.7267      -0.4971     185.2628       1.0226
    1355.0    1578.2277       0.0000      50.8611     -54.8921       0.7915      -0.6464      -0.4556     191.3646       1.0226
    1356.0    1525.2169       0.0000      50.8611     -62.2077       0.8448      -0.7471      -0.3934     197.4739       1.0279
    1357.0    1473.9875       0.0000      50.8611     -64.0500       0.9000      -0.8070      -0.3946     203.5890       1.0279
    1358.0    1434.8820       0.0000      50.8611     -65.2733       0.8007      -0.7261      -0.3329     209.6851       1.0226
