~VERSION INFORMATION
VERS.           2.0   :CWLS Log ASCII Standard - VERSION 2.0
WRAP.           NO    :One Line per depth step
PROD.  Schlumberger   :LAS Producer
PROG.  DLIS to ASCII 19C2-270                          :LAS Program name and version
CREA.        2017/09/16 17:42                          :LAS Creation date {YYYY/MM/DD hh:mm}
DLIS_CREA.  2017-Sep-15 17:53                          :DLIS Creation date and time {YYYY-MMM-DD hh:mm}
SOURCE.     LPC_S4-1_BV.DLIS                           :DLIS File Name
FILE-ID.     PERFO_Perfo_WPGRT_051LTP                  :File Identification Number
#--------------------------------------------------
~WELL INFORMATION
#MNEM.UNIT      DATA             DESCRIPTION
#---- ------ --------------   -----------------------------
STRT .S         3166.0       :START TIME      
STOP .S         3598.0       :STOP TIME      
STEP .S            1.0       :STEP     
NULL .          -999.25      :NULL VALUE
COMP .        SHELL INTERNATIONAL E P                  :COMPANY
WELL .        WPP TEST 2                               :WELL
FLD  .        WILDCAT                                  :FIELD
LOC  .        NA                                       :LOCATION
CNTY .        HARRIS                                   :COUNTY
STAT .        TEXAS                                    :STATE
CTRY .                                                 :COUNTRY
API  .        NA                                       :API NUMBER
UWI  .                                                 :UNIQUE WELL ID
DATE .        15-Sep-2017                              :LOG DATE {DD-MMM-YYYY}
SRVC .        Schlumberger                             :SERVICE COMPANY
LATI .DEG                                              :LATITUDE
LONG .DEG                                              :LONGITUDE
GDAT .                                                 :GeoDetic Datum
SECT .        NA                                       :Section
RANG .        NA                                       :Range
TOWN .        NA                                       :Township
#-----------------------------------------------------------------------------
~PARAMETER INFORMATION
#MNEM.UNIT    VALUE                      DESCRIPTION
#---- -----   --------------------       ------------------------
U-PHASE_B_COMP_PER_YT.                 0 :Phase B Comparator Period Yt
U-PHASE_A_COMP_PER_XT.                 0 :Phase A Comparator Period Xt
U-MAX_EXC_CUR_LIMIT.MA       240.00000   :Requested CM Current Limit
U-REQ_EXC_FQ.HZ              50          :Requested CM Frequency
U-TILT_Y_OFFSET.           0.19916       :WPTET Tilt Y Offset
U-TILT_Y_GAIN.           1.01796         :WPTET Tilt Y Gain
U-TILT_X_OFFSET.          -1.77103       :WPTET Tilt X Offset
U-TILT_X_GAIN.           1.00000         :WPTET Tilt X Gain
U-TILT_OFFSET_TOL.           0.00100     :WPTET Tilt Offset Calibration Tolerance
U-NO_TILT_CAL_ROTATIONS.                 3 :Number of Rotations for Tilt Calibration
HAZI .DEG        0.00000                 :Hole Azimuth
U-STD_TOL_TILT.           0.01000        :Tilt Standard Deviation Tolerance
U-GUN_POS_TOL.DEG        5.00000         :Gun Position Tolerance
ROT_ANGLE_THRESHOLD.DEG        5.00000   :Rotation Stop Angle Tolerance
STOP_ROT_ANGLE.DEG        0.00000        :Rotation Stop Angle
WITN .        MR. DHRUA ARORA            :Witness's Name
ENGI .        MORRIS MOORE               :Engineer's Name
COUN .        HARRIS                     :County or Rig Name
FN   .        WILDCAT                    :Field Name
WN   .        WPP TEST 2                 :Well Name
CN   .        SHELL INTERNATIONAL E P    :Company Name
CLAB .        County                     :County/Rig Label
SLAB .        State                      :State/Province Label
RUN  .          1                        :RUN NUMBER
PDAT .        GROUND LEVEL               :Permanent Datum
EPD  .                                   :Elevation of Permanent Datum above Mean Sea Level
LMF  .          NA                       :Logging Measured From (Name of Logging Elevation Reference)
APD  .                                   :Elevation of Depth Reference (LMF) above Permanent Datum
#-----------------------------------------------------------------------------
~CURVE INFORMATION
#MNEM.UNIT   API CODE                                  DESCRIPTION
#---- -----  --------                                  -----------------------
TIME .S                                                :TIME {F10.1}
FREQ_EMF_SL.HZ                                         :Electromagnetic Field Frequency {F13.4}
PH_SH_WPPCM_SL.DEG                                     :WPPCM Phase Shift {F13.4}
FREQ_EXC_REQ_SL.HZ                                     :Requested Exciter Frequency {F13.4}
RB_SL.DEG                                              :Relative Bearing {F13.4}
SDEV_SL.DEG                                            :Sonde Deviation {F13.4}
TILX_SL.DEG                                            :X-axis Tilt {F13.4}
TILY_SL.DEG                                            :Y-axis Tilt {F13.4}
ROTA_SL.DEG                                            :Motor Rotation Angle {F13.4}
MSPE_SL.RPM                                            :Motor Speed {F13.4}
#-----------------------------------------------------------------------------
# 
#     TIME    FREQ_EMF_SL  PH_SH_WPPCM_ FREQ_EXC_REQ    RB_SL       SDEV_SL      TILX_SL      TILY_SL      ROTA_SL      MSPE_SL
#                          SL           _SL
~A  
# ...
    3229.0    1753.2691       0.0000      50.8611     -79.2990       1.0758      -1.0568      -0.1993     226.2982       1.0318
    3230.0    1725.2125       0.0000      50.8611     -83.7509       1.1755      -1.1685      -0.1279     232.4047       1.0226
    3231.0    1707.8316       0.0000      50.8611     -79.9391       1.2687      -1.2489      -0.2217     238.5066       1.0318
    3232.0    1690.7999       0.0000      50.8611     -77.0393       1.3999      -1.3635      -0.3144     244.6215       1.0226
    3233.0    1637.4199       0.0000      50.8611     -73.3262       1.4839      -1.4213      -0.4261     250.7077       1.0318
    3234.0    1610.0636       0.0000      50.8611     -70.9646       1.3577      -1.2832      -0.4431     256.8257       1.0226
    3235.0    1578.0748       0.0000      50.8611     -72.1365       1.5456      -1.4713      -0.4670     263.2864       1.0318
    3236.0    1532.8432       0.0000      50.8611     -75.7823       1.3773      -1.3351      -0.3384     269.4375       1.0226
    3237.0    1491.0652       0.0000      50.8611     -66.6720       1.5918      -1.4614      -0.6306     275.5393       1.0226
    3238.0    1460.1017       0.0000      50.8611     -61.5885       1.4722      -1.2949      -0.7004     281.6418       1.0226
    3239.0    1424.1761       0.0000      50.8611     -63.2188       1.3993      -1.2489      -0.6306     287.7436       1.0226
    3240.0    1383.3893       0.0000      50.8611     -62.0350       1.6287      -1.4379      -0.7642     293.8566       1.0318
    3241.0    1339.9507       0.0000      50.8611     -65.4334       1.5025      -1.3664      -0.6246     299.9506       1.0214
    3242.0    1311.8003       0.0000      50.8611     -57.3384       1.6127      -1.3576      -0.8699     306.0524       1.0226
    3243.0    1252.4238       0.0000      50.8611     -46.2892       1.5284      -1.1147      -1.0385     312.1546       1.0226
    3244.0    1174.7799       0.0000      50.8611     -55.5197       1.4041      -1.1577      -0.7941     318.2436       1.0136
    3245.0    1101.1832       0.0000      50.8611     -55.8841       1.5717      -1.3008      -0.8819     324.3332       1.0226
    3246.0    1043.6355       0.0000      50.8611     -49.6874       1.4196      -1.0833      -0.9168     330.4350       1.0226
    3247.0     986.1500       0.0000      50.8611     -47.2479       1.5060      -1.1058      -1.0215     336.8825       1.0226
    3248.0     956.1507       0.0000      50.8611     -47.3192       1.4192      -1.0422      -0.9627     343.0317       1.0226
    3249.0     940.9318       0.0000      50.8611     -35.9327       1.3745      -0.8080      -1.1093     349.1335       1.0226
    3250.0     920.3207       0.0000      50.8611     -43.6355       1.4939      -1.0304      -1.0803     355.2230       1.0226
    3251.0     902.5995       0.0000      50.8611     -45.3110       1.3617      -0.9677      -0.9577       1.3249       1.0318
    3252.0     888.6570       0.0000      50.8611     -43.6892       1.3174      -0.9099      -0.9517       7.4398       1.0226
    3253.0     881.7582       0.0000      50.8611     -39.7863       1.2612      -0.8070      -0.9691      13.5310       1.0295
    3254.0     880.3066       0.0000      50.8611     -27.8404       1.2208      -0.5729      -1.0744      19.6352       1.0226
    3255.0     871.5991       0.0000      50.8611     -30.5150       1.3544      -0.6865      -1.1671      25.7365       1.0226
    3256.0     869.1622       0.0000      50.8611     -48.7309       1.2488      -0.9402      -0.8171      31.8373       1.0242
    3257.0     876.3955       0.0000      50.8611     -31.3291       1.1003      -0.5719      -0.9397      37.9410       1.0226
    3258.0     877.9494       0.0000      50.8611     -30.5036       1.1386      -0.5778      -0.9806      44.0417       1.0242
    3259.0     885.2225       0.0000      50.8611     -22.1643       1.0286      -0.3877      -0.9517      50.4789       1.0226
    3260.0     897.4873       0.0000      50.8611     -26.7410       0.8893      -0.3995      -0.7941      56.6457       1.0226
    3261.0     910.0970       0.0000      50.8611     -25.4897       0.9867      -0.4328      -0.8809      62.7410       1.0242
    3262.0     930.3953       0.0000      50.8611     -28.0692       1.0587      -0.4974      -0.9337      68.8324       1.0226
    3263.0     952.9099       0.0000      50.8611     -25.9031       0.8635      -0.3769      -0.7762      74.9341       1.0226
    3264.0     976.7371       0.0000      50.8611     -21.1576       0.6276      -0.2280      -0.5847      81.0359       1.0226
    3265.0    1020.0582       0.0000      50.8611     -30.9001       0.8061      -0.4139      -0.6917      87.1403       1.0226
    3266.0    1100.5751       0.0000      50.8611     -31.2495       0.6490      -0.3368      -0.5548      93.2316       1.0136
    3267.0    1193.1543       0.0000      50.8611     -29.6085       0.6387      -0.3133      -0.5548      99.3315       1.0226
    3268.0    1269.8075       0.0000      50.8611     -25.4785       0.6651      -0.2849      -0.6007     105.4333       1.0226
    3269.0    1318.8000       0.0000      50.8611     -39.7082       0.4472      -0.2849      -0.3443     111.5351       1.0226
    3270.0    1358.4827       0.0000      50.8611     -45.2120       0.5798      -0.4112      -0.4082     117.6369       1.0226
    3271.0    1394.6852       0.0000      50.8611     -43.2119       0.5848      -0.3995      -0.4261     123.7263       1.0226
    3272.0    1440.8298       0.0000      50.8611     -65.6077       0.4831      -0.4338      -0.1987     130.2466       1.0226
    3273.0    1482.0217       0.0000      50.8611     -53.0682       0.4070      -0.3250      -0.2446     136.3480       1.0226
    3274.0    1529.4486       0.0000      50.8611     -62.0483       0.4724      -0.4112      -0.2207     142.4662       1.0226
    3275.0    1568.9642       0.0000      50.8611     -64.8942       0.6571      -0.5944      -0.2795     148.5786       1.0226
    3276.0    1615.2974       0.0000      50.8611     -58.0174       0.4984      -0.4171      -0.2616     154.6838       1.0242
    3277.0    1660.5220       0.0000      50.8611     -86.1972       0.5959      -0.5944      -0.0402     160.8101       1.0334
    3278.0    1689.0215       0.0000      50.8611     -79.2451       0.6521      -0.6405      -0.1220     166.9139       1.0226
    3279.0    1717.9086       0.0000      50.8611     -90.3265       0.8445      -0.8413       0.0057     173.0289       1.0226
    3280.0    1739.1545       0.0000      50.8611     -83.0151       0.8136      -0.8070      -0.0990     179.1439       1.0226
    3281.0    1761.5737       0.0000      50.8611     -91.1852       0.7851      -0.7835       0.0127     185.2458       1.0136
    3282.0    1774.9141       0.0000      50.8611     -90.6248       0.8243      -0.8237       0.0067     191.3485       1.0226
    3283.0    1785.2454       0.0000      50.8611     -84.6955       0.8286      -0.8246      -0.0751     197.4504       1.0226
    3284.0    1788.4581       0.0000      50.8611     -88.8973       1.0783      -1.0764      -0.0223     203.9707       1.0136
    3285.0    1785.2454       0.0000      50.8611     -87.1313       0.9228      -0.9217      -0.0462     210.0996       1.0226
    3286.0    1789.1222       0.0000      50.8611     -84.3339       1.1746      -1.1685      -0.1160     216.1892       1.0226
    3287.0    1771.7499       0.0000      50.8611     -90.9668       1.0491      -1.0480       0.0177     222.2911       1.0226
    3288.0    1764.7127       0.0000      50.8611     -83.5800       1.0892      -1.0823      -0.1220     228.3956       1.0226
    3289.0    1741.0400       0.0000      50.8611     -81.9521       1.1131      -1.0999      -0.1578     234.4975       1.0226
    3290.0    1720.3676       0.0000      50.8611     -78.1273       1.3586      -1.3292      -0.2795     240.5994       1.0226
    3291.0    1694.2772       0.0000      50.8611     -85.4488       1.3282      -1.3233      -0.1050     246.7013       1.0226
