~VERSION INFORMATION
VERS.           2.0   :CWLS Log ASCII Standard - VERSION 2.0
WRAP.           NO    :One Line per depth step
PROD.  Schlumberger   :LAS Producer
PROG.  DLIS to ASCII 19C2-270                          :LAS Program name and version
CREA.        2017/09/16 17:42                          :LAS Creation date {YYYY/MM/DD hh:mm}
DLIS_CREA.  2017-Sep-15 16:20                          :DLIS Creation date and time {YYYY-MMM-DD hh:mm}
SOURCE.     LPC_S3-1_BV.DLIS                           :DLIS File Name
FILE-ID.     PERFO_Perfo_WPGRT_040LTP                  :File Identification Number
#--------------------------------------------------
~WELL INFORMATION
#MNEM.UNIT      DATA             DESCRIPTION
#---- ------ --------------   -----------------------------
STRT .S         2992.0       :START TIME      
STOP .S         3401.0       :STOP TIME      
STEP .S            1.0       :STEP     
NULL .          -999.25      :NULL VALUE
COMP .        SHELL INTERNATIONAL E P                  :COMPANY
WELL .        WPP TEST 2                               :WELL
FLD  .        WILDCAT                                  :FIELD
LOC  .                                                 :LOCATION
CNTY .        HARRIS                                   :COUNTY
STAT .        TEXAS                                    :STATE
CTRY .                                                 :COUNTRY
API  .                                                 :API NUMBER
UWI  .                                                 :UNIQUE WELL ID
DATE .                                                 :LOG DATE
SRVC .        Schlumberger                             :SERVICE COMPANY
LATI .DEG                                              :LATITUDE
LONG .DEG                                              :LONGITUDE
GDAT .                                                 :GeoDetic Datum
#-----------------------------------------------------------------------------
~PARAMETER INFORMATION
#MNEM.UNIT    VALUE                      DESCRIPTION
#---- -----   --------------------       ------------------------
U-PHASE_B_COMP_PER_YT.                 0 :Phase B Comparator Period Yt
U-PHASE_A_COMP_PER_XT.                 0 :Phase A Comparator Period Xt
U-MAX_EXC_CUR_LIMIT.MA       240.00000   :Requested CM Current Limit
U-REQ_EXC_FQ.HZ              50          :Requested CM Frequency
U-TILT_Y_OFFSET.           0.19916       :WPTET Tilt Y Offset
U-TILT_Y_GAIN.           1.01796         :WPTET Tilt Y Gain
U-TILT_X_OFFSET.          -1.77103       :WPTET Tilt X Offset
U-TILT_X_GAIN.           1.00000         :WPTET Tilt X Gain
U-TILT_OFFSET_TOL.           0.00100     :WPTET Tilt Offset Calibration Tolerance
U-NO_TILT_CAL_ROTATIONS.                 3 :Number of Rotations for Tilt Calibration
HAZI .DEG        0.00000                 :Hole Azimuth
U-STD_TOL_TILT.           0.01000        :Tilt Standard Deviation Tolerance
U-GUN_POS_TOL.DEG        5.00000         :Gun Position Tolerance
ROT_ANGLE_THRESHOLD.DEG        5.00000   :Rotation Stop Angle Tolerance
STOP_ROT_ANGLE.DEG        0.00000        :Rotation Stop Angle
WITN .                                   :Witness's Name
ENGI .                                   :Engineer's Name
COUN .        HARRIS                     :County or Rig Name
FN   .        WILDCAT                    :Field Name
WN   .        WPP TEST 2                 :Well Name
CN   .        SHELL INTERNATIONAL E P    :Company Name
CLAB .        County                     :County/Rig Label
SLAB .        State                      :State/Province Label
RUN  .          1                        :RUN NUMBER
PDAT .        GROUND LEVEL               :Permanent Datum
EPD  .                                   :Elevation of Permanent Datum above Mean Sea Level
LMF  .                                   :Logging Measured From (Name of Logging Elevation Reference)
APD  .                                   :Elevation of Depth Reference (LMF) above Permanent Datum
#-----------------------------------------------------------------------------
~CURVE INFORMATION
#MNEM.UNIT   API CODE                                  DESCRIPTION
#---- -----  --------                                  -----------------------
TIME .S                                                :TIME {F10.1}
FREQ_EMF_SL.HZ                                         :Electromagnetic Field Frequency {F13.4}
PH_SH_WPPCM_SL.DEG                                     :WPPCM Phase Shift {F13.4}
FREQ_EXC_REQ_SL.HZ                                     :Requested Exciter Frequency {F13.4}
RB_SL.DEG                                              :Relative Bearing {F13.4}
SDEV_SL.DEG                                            :Sonde Deviation {F13.4}
TILX_SL.DEG                                            :X-axis Tilt {F13.4}
TILY_SL.DEG                                            :Y-axis Tilt {F13.4}
ROTA_SL.DEG                                            :Motor Rotation Angle {F13.4}
MSPE_SL.RPM                                            :Motor Speed {F13.4}
#-----------------------------------------------------------------------------
# 
#     TIME    FREQ_EMF_SL  PH_SH_WPPCM_ FREQ_EXC_REQ    RB_SL       SDEV_SL      TILX_SL      TILY_SL      ROTA_SL      MSPE_SL
#                          SL           _SL
~A  
# ...
    3055.0    1597.1190       0.0000      50.8611     -63.4224       1.0836      -0.9677      -0.4853     113.5239       1.0175
    3056.0    1589.8963       0.0000      50.8611     -66.1191       1.0256      -0.9380      -0.4142     119.6358       1.0226
    3057.0    1588.1398       0.0000      50.8611     -61.6034       1.0431      -0.9176      -0.4959     125.7515       1.0226
    3058.0    1573.8551       0.0000      50.8611     -66.6026       1.1204      -1.0282      -0.4450     131.8526       1.0226
    3059.0    1566.8407       0.0000      50.8611     -64.4930       1.0839      -0.9782      -0.4651     137.9553       1.0226
    3060.0    1549.6378       0.0000      50.8611     -60.1947       1.0803      -0.9374      -0.5368     144.0572       1.0226
    3061.0    1529.3352       0.0000      50.8611     -62.3654       1.2210      -1.0783      -0.5683     150.1614       1.0226
    3062.0    1521.9155       0.0000      50.8611     -63.5128       1.1141      -0.9974      -0.4959     156.2633       1.0226
    3063.0    1506.4166       0.0000      50.8611     -58.5983       1.1097      -0.9473      -0.5777     162.3652       1.0226
    3064.0    1483.3861       0.0000      50.8611     -59.3568       1.0542      -0.9071      -0.5368     168.4547       1.0121
    3065.0    1458.7389       0.0000      50.8611     -62.3910       1.1158      -0.9881      -0.5161     174.5551       1.0226
    3066.0    1448.2315       0.0000      50.8611     -61.0858       1.1301      -0.9881      -0.5475     181.0642       1.0226
    3067.0    1426.2170       0.0000      50.8611     -61.6625       1.2599      -1.1086      -0.5985     187.1390       1.0256
    3068.0    1403.4431       0.0000      50.8611     -61.5104       1.0345      -0.9071      -0.4953     193.2704       1.0226
    3069.0    1365.9287       0.0000      50.8611     -58.8228       1.1553      -0.9881      -0.5985     199.3730       1.0226
    3070.0    1346.9589       0.0000      50.8611     -58.2967       1.1979      -1.0177      -0.6293     205.4749       1.0226
    3071.0    1311.7773       0.0000      50.8611     -57.6359       1.1578      -0.9782      -0.6186     211.5645       1.0226
    3072.0    1273.1816       0.0000      50.8611     -54.5858       1.1381      -0.9275      -0.6595     217.6541       1.0226
    3073.0    1213.3175       0.0000      50.8611     -53.9100       1.1090      -0.8966      -0.6494     223.7459       1.0226
    3074.0    1167.4805       0.0000      50.8611     -55.6161       1.1527      -0.9473      -0.6500     229.8478       1.0226
    3075.0    1127.6853       0.0000      50.8611     -52.9932       1.0976      -0.8769      -0.6595     235.9404       1.0146
    3076.0    1085.0521       0.0000      50.8611     -52.8304       1.1062      -0.8775      -0.6689     242.0392       1.0226
    3077.0    1049.8135       0.0000      50.8611     -46.2211       1.2227      -0.8769      -0.8444     248.1411       1.0226
    3078.0    1017.9102       0.0000      50.8611     -51.0192       1.0871      -0.8379      -0.6790     254.6487       1.0226
    3079.0    1000.1625       0.0000      50.8611     -65.9207       1.2168      -1.1086      -0.4953     260.7391       1.0252
    3080.0     997.6893       0.0000      50.8611     -53.8770       1.3238      -1.0678      -0.7815     266.8408       1.0226
    3081.0     982.3563       0.0000      50.8611     -52.1957       1.0433      -0.8175      -0.6381     272.9303       1.0200
    3082.0     978.5924       0.0000      50.8611     -48.5768       1.1195      -0.8373      -0.7419     279.0321       1.0226
    3083.0     976.2290       0.0000      50.8611     -44.8080       1.0019      -0.7063      -0.7104     285.1368       1.0226
    3084.0     973.8573       0.0000      50.8611     -53.6229       1.0785      -0.8676      -0.6387     291.2388       1.0226
    3085.0     977.6151       0.0000      50.8611     -50.0985       1.0128      -0.7767      -0.6494     297.3406       1.0226
    3086.0     975.5416       0.0000      50.8611     -53.4741       1.0051      -0.8070      -0.5985     303.4631       1.0334
    3087.0     985.7921       0.0000      50.8611     -54.6466       1.2113      -0.9881      -0.7004     309.5705       1.0226
    3088.0    1000.5530       0.0000      50.8611     -51.3135       1.0222      -0.7971      -0.6387     315.6600       1.0226
    3089.0    1007.3702       0.0000      50.8611     -47.9790       0.9241      -0.6865      -0.6186     321.7627       1.0252
    3090.0    1019.0502       0.0000      50.8611     -52.7103       0.9384      -0.7465      -0.5676     328.2800       1.0252
    3091.0    1050.9924       0.0000      50.8611     -48.9459       0.9901      -0.7465      -0.6494     334.3949       1.0307
    3092.0    1096.1201       0.0000      50.8611     -53.3506       0.9681      -0.7767      -0.5777     340.4975       1.0307
    3093.0    1145.7658       0.0000      50.8611     -52.6397       0.9523      -0.7570      -0.5777     346.6025       1.0226
    3094.0    1185.2616       0.0000      50.8611     -52.7103       0.9384      -0.7465      -0.5676     352.6921       1.0226
    3095.0    1247.8577       0.0000      50.8611     -52.0152       0.9222      -0.7267      -0.5676     358.8070       1.0307
    3096.0    1300.9002       0.0000      50.8611     -55.1741       0.9222      -0.7570      -0.5268       4.9097       1.0226
    3097.0    1329.2106       0.0000      50.8611     -64.3098       0.9076      -0.8175      -0.3940      11.0139       1.0226
    3098.0    1352.1635       0.0000      50.8611     -58.3009       0.9485      -0.8076      -0.4959      17.1387       1.0252
    3099.0    1378.0121       0.0000      50.8611     -50.5616       0.9267      -0.7162      -0.5878      23.2545       1.0146
    3100.0    1399.2787       0.0000      50.8611     -62.5878       0.9441      -0.8373      -0.4343      29.3216       1.0226
    3101.0    1422.6219       0.0000      50.8611     -54.7737       0.8778      -0.7168      -0.5060      35.4110       1.0226
    3102.0    1452.7377       0.0000      50.8611     -60.4376       0.9633      -0.8373      -0.4758      41.9186       1.0226
    3103.0    1472.5410       0.0000      50.8611     -63.4230       0.9706      -0.8676      -0.4349      48.0204       1.0226
    3104.0    1492.9018       0.0000      50.8611     -55.8324       0.9044      -0.7465      -0.5066      54.1122       1.0226
    3105.0    1512.1662       0.0000      50.8611     -62.4082       0.9899      -0.8781      -0.4551      60.2125       1.0226
    3106.0    1527.7162       0.0000      50.8611     -64.0545       0.8687      -0.7767      -0.3827      66.3167       1.0226
    3107.0    1541.9408       0.0000      50.8611     -63.2987       0.7896      -0.6970      -0.3519      72.4184       1.0226
    3108.0    1559.9519       0.0000      50.8611     -60.7929       0.9657      -0.8379      -0.4645      78.5079       1.0226
    3109.0    1569.4755       0.0000      50.8611     -67.3408       1.2883      -1.1889      -0.4959      84.6228       1.0173
    3110.0    1591.6689       0.0000      50.8611     -67.0076       1.0083      -0.9275      -0.3940      90.7000       1.0226
    3111.0    1587.1896       0.0000      50.8611     -56.1734       0.9365      -0.7891      -0.4859      96.7924       1.0146
    3112.0    1589.8963       0.0000      50.8611     -62.1983       0.8892      -0.7866      -0.4142     102.9043       1.0226
    3113.0    1598.0114       0.0000      50.8611     -62.9637       0.8846      -0.7866      -0.4035     109.0193       1.0252
    3114.0    1601.6515       0.0000      50.8611     -61.7227       1.0449      -0.9176      -0.4966     115.5275       1.0226
    3115.0    1594.3877       0.0000      50.8611     -65.4346       0.9973      -0.9071      -0.4142     121.6293       1.0226
    3116.0    1589.0161       0.0000      50.8611     -61.3266       0.8793      -0.7669      -0.4236     127.7574       1.0252
    3117.0    1576.5134       0.0000      50.8611     -65.3885       1.0659      -0.9677      -0.4444     133.8616       1.0226
