~VERSION INFORMATION
VERS.           2.0   :CWLS Log ASCII Standard - VERSION 2.0
WRAP.           NO    :One Line per depth step
PROD.  Schlumberger   :LAS Producer
PROG.  DLIS to ASCII 19C2-270                          :LAS Program name and version
CREA.        2017/09/16 17:42                          :LAS Creation date {YYYY/MM/DD hh:mm}
DLIS_CREA.  2017-Sep-15 14:28                          :DLIS Creation date and time {YYYY-MMM-DD hh:mm}
SOURCE.     LPC_S2-1_A5.DLIS                           :DLIS File Name
FILE-ID.     PERFO_Perfo_WPGRT_029LTP                  :File Identification Number
#--------------------------------------------------
~WELL INFORMATION
#MNEM.UNIT      DATA             DESCRIPTION
#---- ------ --------------   -----------------------------
STRT .S        13288.0       :START TIME      
STOP .S        13773.0       :STOP TIME      
STEP .S            1.0       :STEP     
NULL .          -999.25      :NULL VALUE
COMP .        SHELL INTERNATIONAL E P                  :COMPANY
WELL .        WPP TEST 2                               :WELL
FLD  .        WILDCAT                                  :FIELD
LOC  .                                                 :LOCATION
CNTY .        HARRIS                                   :COUNTY
STAT .        TEXAS                                    :STATE
CTRY .                                                 :COUNTRY
API  .                                                 :API NUMBER
UWI  .                                                 :UNIQUE WELL ID
DATE .                                                 :LOG DATE
SRVC .        Schlumberger                             :SERVICE COMPANY
LATI .DEG                                              :LATITUDE
LONG .DEG                                              :LONGITUDE
GDAT .                                                 :GeoDetic Datum
#-----------------------------------------------------------------------------
~PARAMETER INFORMATION
#MNEM.UNIT    VALUE                      DESCRIPTION
#---- -----   --------------------       ------------------------
U-PHASE_B_COMP_PER_YT.                 0 :Phase B Comparator Period Yt
U-PHASE_A_COMP_PER_XT.                 0 :Phase A Comparator Period Xt
U-MAX_EXC_CUR_LIMIT.MA       240.00000   :Requested CM Current Limit
U-REQ_EXC_FQ.HZ              50          :Requested CM Frequency
U-TILT_Y_OFFSET.           0.19916       :WPTET Tilt Y Offset
U-TILT_Y_GAIN.           1.01796         :WPTET Tilt Y Gain
U-TILT_X_OFFSET.          -1.77103       :WPTET Tilt X Offset
U-TILT_X_GAIN.           1.00000         :WPTET Tilt X Gain
U-TILT_OFFSET_TOL.           0.00100     :WPTET Tilt Offset Calibration Tolerance
U-NO_TILT_CAL_ROTATIONS.                 3 :Number of Rotations for Tilt Calibration
HAZI .DEG        0.00000                 :Hole Azimuth
U-STD_TOL_TILT.           0.01000        :Tilt Standard Deviation Tolerance
U-GUN_POS_TOL.DEG        5.00000         :Gun Position Tolerance
ROT_ANGLE_THRESHOLD.DEG        5.00000   :Rotation Stop Angle Tolerance
STOP_ROT_ANGLE.DEG       80.00000        :Rotation Stop Angle
WITN .                                   :Witness's Name
ENGI .                                   :Engineer's Name
COUN .        HARRIS                     :County or Rig Name
FN   .        WILDCAT                    :Field Name
WN   .        WPP TEST 2                 :Well Name
CN   .        SHELL INTERNATIONAL E P    :Company Name
CLAB .        County                     :County/Rig Label
SLAB .        State                      :State/Province Label
RUN  .          1                        :RUN NUMBER
PDAT .        GROUND LEVEL               :Permanent Datum
EPD  .                                   :Elevation of Permanent Datum above Mean Sea Level
LMF  .                                   :Logging Measured From (Name of Logging Elevation Reference)
APD  .                                   :Elevation of Depth Reference (LMF) above Permanent Datum
#-----------------------------------------------------------------------------
~CURVE INFORMATION
#MNEM.UNIT   API CODE                                  DESCRIPTION
#---- -----  --------                                  -----------------------
TIME .S                                                :TIME {F10.1}
FREQ_EMF_SL.HZ                                         :Electromagnetic Field Frequency {F13.4}
PH_SH_WPPCM_SL.DEG                                     :WPPCM Phase Shift {F13.4}
FREQ_EXC_REQ_SL.HZ                                     :Requested Exciter Frequency {F13.4}
RB_SL.DEG                                              :Relative Bearing {F13.4}
SDEV_SL.DEG                                            :Sonde Deviation {F13.4}
TILX_SL.DEG                                            :X-axis Tilt {F13.4}
TILY_SL.DEG                                            :Y-axis Tilt {F13.4}
ROTA_SL.DEG                                            :Motor Rotation Angle {F13.4}
MSPE_SL.RPM                                            :Motor Speed {F13.4}
#-----------------------------------------------------------------------------
# 
#     TIME    FREQ_EMF_SL  PH_SH_WPPCM_ FREQ_EXC_REQ    RB_SL       SDEV_SL      TILX_SL      TILY_SL      ROTA_SL      MSPE_SL
#                          SL           _SL
~A  
# ...
   13603.0    1255.7153       0.0000      50.8611      24.3691       4.0885       1.6857      -3.7236     330.9344       1.0226
   13604.0    1297.0643       0.0000      50.8611      29.3053       3.8516       1.8841      -3.3581     337.0211       1.0226
   13605.0    1316.9367       0.0000      50.8611      36.5255       3.7728       2.2444      -3.0310     343.0951       1.0226
   13606.0    1344.7182       0.0000      50.8611      39.2660       3.4934       2.2103      -2.7039     349.2131       1.0330
   13607.0    1384.1863       0.0000      50.8611      49.6118       3.4781       2.6485      -2.2529     355.3179       1.0226
   13608.0    1406.3345       0.0000      50.8611      53.7773       3.1958       2.5778      -1.8874       1.4171       1.0229
   13609.0    1435.1254       0.0000      50.8611      62.3137       3.2635       2.8895      -1.5157       7.5422       1.0226
   13610.0    1456.2022       0.0000      50.8611      70.7528       3.2272       3.0466      -1.0635      14.0578       1.0226
   13611.0    1486.8068       0.0000      50.8611      73.8005       3.2185       3.0903      -0.8975      20.1567       1.0226
   13612.0    1518.7271       0.0000      50.8611      87.4133       2.9719       2.9686      -0.1341      26.2553       1.0127
   13613.0    1552.2554       0.0000      50.8611      94.4355       3.1375       3.1281       0.2425      32.3610       1.0226
   13614.0    1569.6866       0.0000      50.8611     101.3990       2.8645       2.8080       0.5659      38.4656       1.0229
   13615.0    1594.6056       0.0000      50.8611     108.9662       3.0118       2.8481       0.9785      44.5776       1.0226
   13616.0    1620.2159       0.0000      50.8611     117.2870       2.8407       2.5244       1.3019      50.6777       1.0226
   13617.0    1635.2888       0.0000      50.8611     125.9582       2.9207       2.3637       1.7145      56.7953       1.0226
   13618.0    1650.7618       0.0000      50.8611     133.9153       3.0015       2.1617       2.0812      62.9000       1.0226
   13619.0    1662.2340       0.0000      50.8611     140.3538       3.0205       1.9267       2.3253      68.9870       1.0226
   13620.0    1674.1072       0.0000      50.8611     150.1866       3.0589       1.5202       2.6537      75.0867       1.0330
   13621.0    1674.3475       0.0000      50.8611     155.2614       3.2389       1.3547       2.9411      81.2102       1.0226
   13622.0    1678.4656       0.0000      50.8611     162.8714       3.1218       0.9189       2.9832      87.7140       1.0226
   13623.0    1670.1307       0.0000      50.8611     171.5165       3.2193       0.4747       3.1840      93.8135       1.0330
   13624.0    1661.9993       0.0000      50.8611     177.4676       3.4712       0.1534       3.4677      99.9182       1.0229
   13625.0    1665.9372       0.0000      50.8611    -174.0827       3.5686      -0.3676       3.5495     106.0237       1.0226
   13626.0    1642.5861       0.0000      50.8611    -170.8320       3.5995      -0.5733       3.5532     112.1226       1.0226
   13627.0    1616.1573       0.0000      50.8611    -158.7037       3.5545      -1.2902       3.3116     118.2088       1.0223
   13628.0    1598.1206       0.0000      50.8611    -156.2128       3.7048      -1.4935       3.3896     124.3016       1.0226
   13629.0    1576.6197       0.0000      50.8611    -148.0203       3.8055      -2.0144       3.2273     130.4063       1.0226
   13630.0    1548.6314       0.0000      50.8611    -146.6253       3.9071      -2.1482       3.2608     136.5184       1.0226
   13631.0    1528.2356       0.0000      50.8611    -136.9550       4.1873      -2.8567       3.0589     142.6174       1.0226
   13632.0    1495.9153       0.0000      50.8611    -132.5986       4.1056      -3.0210       2.7776     148.7222       1.0226
   13633.0    1461.7983       0.0000      50.8611    -126.6928       4.3672      -3.5006       2.6079     154.8147       1.0226
   13634.0    1443.5234       0.0000      50.8611    -120.1188       4.4621      -3.8585       2.2374     161.3188       1.0223
   13635.0    1417.2506       0.0000      50.8611    -115.2157       4.4002      -3.9802       1.8731     167.4246       1.0330
   13636.0    1383.9415       0.0000      50.8611    -109.9308       4.5360      -4.2638       1.5448     173.5294       1.0226
   13637.0    1354.6906       0.0000      50.8611    -105.7720       4.6397      -4.4646       1.2598     179.6284       1.0226
   13638.0    1331.3758       0.0000      50.8611     -99.7721       4.7702      -4.7008       0.8088     185.7282       1.0330
   13639.0    1299.3195       0.0000      50.8611     -93.3969       4.7469      -4.7385       0.2809     191.8330       1.0226
   13640.0    1268.1483       0.0000      50.8611     -88.6655       4.6984      -4.6971      -0.1093     197.9255       1.0226
   13641.0    1195.1320       0.0000      50.8611     -84.2463       4.9657      -4.9406      -0.4972     204.0253       1.0330
   13642.0    1137.1458       0.0000      50.8611     -77.9343       4.9329      -4.8237      -1.0299     210.1243       1.0226
   13643.0    1076.4185       0.0000      50.8611     -75.4490       4.9389      -4.7799      -1.2393     216.2291       1.0226
   13644.0    1020.5452       0.0000      50.8611     -76.7830       4.9571      -4.8237      -1.1326     222.3338       1.0226
   13645.0    1004.2082       0.0000      50.8611     -63.5655       5.0743      -4.5425      -2.2566     228.4334       1.0223
   13646.0     992.8640       0.0000      50.8611     -59.4843       4.8534      -4.1798      -2.4622     234.5074       1.0226
   13647.0     971.1672       0.0000      50.8611     -55.8769       5.0498      -4.1786      -2.8302     241.0240       1.0226
   13648.0     958.0934       0.0000      50.8611     -49.5738       5.1195      -3.8950      -3.3172     247.1491       1.0330
   13649.0     956.5160       0.0000      50.8611     -44.4219       5.1685      -3.6151      -3.6889     253.2489       1.0226
   13650.0     955.0629       0.0000      50.8611     -40.1565       5.0436      -3.2500      -3.8524     259.3536       1.0226
   13651.0     947.8007       0.0000      50.8611     -35.7108       4.8961      -2.8555      -3.9739     265.4714       1.0226
   13652.0     948.9155       0.0000      50.8611     -32.1046       4.8403      -2.5701      -4.0987     271.5704       1.0226
   13653.0     954.0366       0.0000      50.8611     -25.9421       4.9633      -2.1691      -4.4621     277.6690       1.0223
   13654.0     963.2643       0.0000      50.8611     -18.4485       4.8324      -1.5276      -4.5835     283.7743       1.0226
   13655.0     969.8276       0.0000      50.8611     -14.9995       4.6660      -1.2063      -4.5066     289.8922       1.0226
   13656.0     980.7309       0.0000      50.8611     -10.9796       4.6002      -0.8741      -4.5152     295.9917       1.0124
   13657.0     997.6405       0.0000      50.8611      -3.5620       4.5899      -0.2849      -4.5811     302.1038       1.0226
   13658.0    1026.5953       0.0000      50.8611       1.4758       4.5405       0.1168      -4.5389     308.2264       1.0226
   13659.0    1055.8387       0.0000      50.8611       8.1605       4.2224       0.5988      -4.1795     314.7180       1.0226
   13660.0    1111.2626       0.0000      50.8611      13.3471       4.1634       0.9603      -4.0507     320.8168       1.0226
   13661.0    1188.1375       0.0000      50.8611      15.4134       4.0787       1.0832      -3.9318     326.9346       1.0226
   13662.0    1242.6024       0.0000      50.8611      21.8702       4.1065       1.5287      -3.8103     333.0269       1.0226
   13663.0    1267.2374       0.0000      50.8611      28.6831       4.0094       1.9231      -3.5167     339.1257       1.0226
   13664.0    1309.3028       0.0000      50.8611      32.9846       3.7601       2.0460      -3.1534     345.2376       1.0226
   13665.0    1334.3555       0.0000      50.8611      36.7615       3.8295       2.2906      -3.0670     351.3421       1.0223
