~VERSION INFORMATION
VERS.           2.0   :CWLS Log ASCII Standard - VERSION 2.0
WRAP.           NO    :One Line per depth step
PROD.  Schlumberger   :LAS Producer
PROG.  DLIS to ASCII 19C2-270                          :LAS Program name and version
CREA.        2017/09/16 17:42                          :LAS Creation date {YYYY/MM/DD hh:mm}
DLIS_CREA.  2017-Sep-15 12:22                          :DLIS Creation date and time {YYYY-MMM-DD hh:mm}
SOURCE.     LPC_S1-1_B5.DLIS                           :DLIS File Name
FILE-ID.     PERFO_Perfo_WPGRT_020LTP                  :File Identification Number
#--------------------------------------------------
~WELL INFORMATION
#MNEM.UNIT      DATA             DESCRIPTION
#---- ------ --------------   -----------------------------
STRT .S         5686.0       :START TIME      
STOP .S         6834.0       :STOP TIME      
STEP .S            1.0       :STEP     
NULL .          -999.25      :NULL VALUE
COMP .        SHELL INTERNATIONAL E P                  :COMPANY
WELL .        WPP TEST 2                               :WELL
FLD  .        WILDCAT                                  :FIELD
LOC  .                                                 :LOCATION
CNTY .        HARRIS                                   :COUNTY
STAT .        TEXAS                                    :STATE
CTRY .                                                 :COUNTRY
API  .                                                 :API NUMBER
UWI  .                                                 :UNIQUE WELL ID
DATE .                                                 :LOG DATE
SRVC .        Schlumberger                             :SERVICE COMPANY
LATI .DEG                                              :LATITUDE
LONG .DEG                                              :LONGITUDE
GDAT .                                                 :GeoDetic Datum
#-----------------------------------------------------------------------------
~PARAMETER INFORMATION
#MNEM.UNIT    VALUE                      DESCRIPTION
#---- -----   --------------------       ------------------------
U-PHASE_B_COMP_PER_YT.                 0 :Phase B Comparator Period Yt
U-PHASE_A_COMP_PER_XT.                 0 :Phase A Comparator Period Xt
U-MAX_EXC_CUR_LIMIT.MA       240.00000   :Requested CM Current Limit
U-REQ_EXC_FQ.HZ              50          :Requested CM Frequency
U-TILT_Y_OFFSET.           0.19916       :WPTET Tilt Y Offset
U-TILT_Y_GAIN.           1.01796         :WPTET Tilt Y Gain
U-TILT_X_OFFSET.          -1.77103       :WPTET Tilt X Offset
U-TILT_X_GAIN.           1.00000         :WPTET Tilt X Gain
U-TILT_OFFSET_TOL.           0.00100     :WPTET Tilt Offset Calibration Tolerance
U-NO_TILT_CAL_ROTATIONS.                 3 :Number of Rotations for Tilt Calibration
HAZI .DEG        0.00000                 :Hole Azimuth
U-STD_TOL_TILT.           0.01000        :Tilt Standard Deviation Tolerance
U-GUN_POS_TOL.DEG        5.00000         :Gun Position Tolerance
ROT_ANGLE_THRESHOLD.DEG        5.00000   :Rotation Stop Angle Tolerance
STOP_ROT_ANGLE.DEG       80.00000        :Rotation Stop Angle
WITN .                                   :Witness's Name
ENGI .                                   :Engineer's Name
COUN .        HARRIS                     :County or Rig Name
FN   .        WILDCAT                    :Field Name
WN   .        WPP TEST 2                 :Well Name
CN   .        SHELL INTERNATIONAL E P    :Company Name
CLAB .        County                     :County/Rig Label
SLAB .        State                      :State/Province Label
RUN  .          1                        :RUN NUMBER
PDAT .        GROUND LEVEL               :Permanent Datum
EPD  .                                   :Elevation of Permanent Datum above Mean Sea Level
LMF  .                                   :Logging Measured From (Name of Logging Elevation Reference)
APD  .                                   :Elevation of Depth Reference (LMF) above Permanent Datum
#-----------------------------------------------------------------------------
~CURVE INFORMATION
#MNEM.UNIT   API CODE                                  DESCRIPTION
#---- -----  --------                                  -----------------------
TIME .S                                                :TIME {F10.1}
FREQ_EMF_SL.HZ                                         :Electromagnetic Field Frequency {F13.4}
PH_SH_WPPCM_SL.DEG                                     :WPPCM Phase Shift {F13.4}
FREQ_EXC_REQ_SL.HZ                                     :Requested Exciter Frequency {F13.4}
RB_SL.DEG                                              :Relative Bearing {F13.4}
SDEV_SL.DEG                                            :Sonde Deviation {F13.4}
TILX_SL.DEG                                            :X-axis Tilt {F13.4}
TILY_SL.DEG                                            :Y-axis Tilt {F13.4}
ROTA_SL.DEG                                            :Motor Rotation Angle {F13.4}
MSPE_SL.RPM                                            :Motor Speed {F13.4}
#-----------------------------------------------------------------------------
# 
#     TIME    FREQ_EMF_SL  PH_SH_WPPCM_ FREQ_EXC_REQ    RB_SL       SDEV_SL      TILX_SL      TILY_SL      ROTA_SL      MSPE_SL
#                          SL           _SL
~A  
# ...
    6631.0    1107.2834       0.0000      50.8611      -6.2225       4.8923      -0.5296      -4.8634      90.6972       1.0226
    6632.0    1140.2504       0.0000      50.8611      -1.5075       4.8689      -0.1279      -4.8672      96.7998       1.0226
    6633.0    1175.4421       0.0000      50.8611       2.0592       4.8860       0.1748      -4.8823     102.9015       1.0226
    6634.0    1211.7075       0.0000      50.8611       9.9301       4.7048       0.8101      -4.6332     109.0029       1.0236
    6635.0    1246.0654       0.0000      50.8611      16.4862       4.4951       1.2742      -4.3099     115.1179       1.0236
    6636.0    1266.6811       0.0000      50.8611      21.2939       4.3867       1.5918      -4.0865     121.2085       1.0226
    6637.0    1285.4205       0.0000      50.8611      25.8966       4.3663       1.9057      -3.9267     127.3221       1.0324
    6638.0    1310.9015       0.0000      50.8611      31.0033       4.3483       2.2382      -3.7261     133.4372       1.0236
    6639.0    1326.4198       0.0000      50.8611      38.5905       4.0937       2.5521      -3.1983     139.5410       1.0226
    6640.0    1336.7396       0.0000      50.8611      45.5512       3.8735       2.7641      -2.7115     146.0509       1.0226
    6641.0    1360.4983       0.0000      50.8611      50.5448       3.8887       3.0014      -2.4699     152.1415       1.0130
    6642.0    1384.1044       0.0000      50.8611      56.4114       3.7136       3.0929      -2.0535     158.2423       1.0226
    6643.0    1404.7076       0.0000      50.8611      62.2861       3.6261       3.2096      -1.6855     164.3442       1.0226
    6644.0    1414.4756       0.0000      50.8611      71.3048       3.3580       3.1806      -1.0759     170.4338       1.0226
    6645.0    1432.0265       0.0000      50.8611      79.4872       3.4135       3.3561      -0.6224     176.5488       1.0226
    6646.0    1449.2601       0.0000      50.8611      85.8296       3.4223       3.4133      -0.2487     182.6507       1.0226
    6647.0    1466.7774       0.0000      50.8611      94.7902       3.3679       3.3561       0.2809     188.7526       1.0226
    6648.0    1474.0566       0.0000      50.8611     101.9186       3.6283       3.5496       0.7496     194.8552       1.0226
    6649.0    1480.8421       0.0000      50.8611     111.3266       3.2263       3.0051       1.1729     200.9571       1.0226
    6650.0    1496.3057       0.0000      50.8611     118.8186       3.2138       2.8154       1.5485     207.0612       1.0130
    6651.0    1508.5531       0.0000      50.8611     126.5995       3.2028       2.5707       1.9089     213.1494       1.0226
    6652.0    1515.3556       0.0000      50.8611     134.8246       3.1672       2.2456       2.2322     219.6594       1.0226
    6653.0    1522.2209       0.0000      50.8611     142.7600       3.4123       2.0634       2.7153     225.7489       1.0226
    6654.0    1525.5236       0.0000      50.8611     150.2091       3.4853       1.7309       3.0242     231.8638       1.0226
    6655.0    1524.9115       0.0000      50.8611     161.1491       3.4044       1.0994       3.2211     237.9657       1.0130
    6656.0    1522.2209       0.0000      50.8611     163.6594       3.4541       0.9715       3.3142     244.0683       1.0226
    6657.0    1512.3982       0.0000      50.8611     172.1400       3.5821       0.4895       3.5482     250.1834       1.0236
    6658.0    1518.2503       0.0000      50.8611     178.7679       3.7887       0.0813       3.7878     256.2730       1.0226
    6659.0    1499.7943       0.0000      50.8611    -172.5137       3.8643      -0.5036       3.8306     262.3748       1.0226
    6660.0    1493.1282       0.0000      50.8611    -167.6098       3.8805      -0.8323       3.7897     268.4642       1.0226
    6661.0    1483.3861       0.0000      50.8611    -161.8695       3.9921      -1.2414       3.7935     274.5548       1.0216
    6662.0    1476.5816       0.0000      50.8611    -155.5559       4.1677      -1.7234       3.7935     280.6555       1.0226
    6663.0    1462.0800       0.0000      50.8611    -149.3831       4.2327      -2.1541       3.6413     286.7573       1.0226
    6664.0    1447.3123       0.0000      50.8611    -143.9651       4.2421      -2.4940       3.4293     293.2294       1.0226
    6665.0    1446.2108       0.0000      50.8611    -137.0547       4.3061      -2.9321       3.1507     299.3689       1.0226
    6666.0    1425.6840       0.0000      50.8611    -132.2151       4.5035      -3.3338       3.0242     305.4735       1.0226
    6667.0    1407.0352       0.0000      50.8611    -125.9145       4.6142      -3.7355       2.7047     311.5845       1.0324
    6668.0    1397.8628       0.0000      50.8611    -120.6182       4.5840      -3.9437       2.3329     317.6751       1.0121
    6669.0    1381.8891       0.0000      50.8611    -114.7718       4.8025      -4.3596       2.0096     323.7646       1.0226
    6670.0    1364.4453       0.0000      50.8611    -109.5040       4.8780      -4.5972       1.6268     329.8795       1.0226
    6671.0    1345.6077       0.0000      50.8611    -104.8239       5.0542      -4.8854       1.2918     335.9813       1.0226
    6672.0    1332.1445       0.0000      50.8611     -99.4466       4.9792      -4.9115       0.8163     342.0831       1.0226
    6673.0    1318.9553       0.0000      50.8611     -90.8865       4.7454      -4.7434       0.0734     348.1877       1.0226
    6674.0    1299.2337       0.0000      50.8611     -88.6796       5.0773      -5.0758      -0.1166     354.2867       1.0226
    6675.0    1276.9520       0.0000      50.8611     -83.3172       5.2575      -5.2216      -0.6110      33.6765       1.0216
    6676.0    1265.0357       0.0000      50.8611     -79.1312       5.2393      -5.1450      -0.9866       6.8622       1.0226
    6677.0    1235.7206       0.0000      50.8611     -73.5358       5.2058      -4.9918      -1.4735      13.0148       1.0226
    6678.0    1196.5484       0.0000      50.8611     -68.5867       5.1631      -4.8058      -1.8823      19.1054       1.0037
    6679.0    1155.7985       0.0000      50.8611     -63.3473       5.3624      -4.7910      -2.4025      25.2228       1.0226
    6680.0    1134.0725       0.0000      50.8611     -59.2912       5.2854      -4.5425      -2.6963      31.3218       1.0226
    6681.0    1113.9771       0.0000      50.8611     -53.7541       5.2506      -4.2323      -3.1014      37.4244       1.0216
    6682.0    1081.3533       0.0000      50.8611     -49.3179       5.3268      -4.0369      -3.4694      43.5263       1.0226
    6683.0    1076.6088       0.0000      50.8611     -44.2022       5.3726      -3.7429      -3.8488      49.6309       1.0226
    6684.0    1068.4291       0.0000      50.8611     -39.0020       5.2616      -3.3085      -4.0865      55.7430       1.0226
    6685.0    1048.1660       0.0000      50.8611     -34.6589       5.1738      -2.9396      -4.2539      61.8448       1.0226
    6686.0    1053.0215       0.0000      50.8611     -28.6777       5.1342      -2.4613      -4.5030      67.9466       1.0226
    6687.0    1051.8589       0.0000      50.8611     -23.0989       4.8727      -1.9101      -4.4810      74.0484       1.0226
    6688.0    1055.7433       0.0000      50.8611     -20.1307       5.1411      -1.7673      -4.8263      80.1524       1.0130
    6689.0    1076.7611       0.0000      50.8611     -15.8272       5.0674      -1.3805      -4.8747      86.6608       1.0226
    6690.0    1103.6469       0.0000      50.8611      -6.4854       4.6421      -0.5252      -4.6105      92.7626       1.0226
    6691.0    1131.2441       0.0000      50.8611      -6.2071       4.9036      -0.5296      -4.8747      98.8776       1.0226
    6692.0    1148.7237       0.0000      50.8611      -0.6231       5.0720      -0.0550      -5.0716     104.9793       1.0130
    6693.0    1192.6471       0.0000      50.8611       7.0673       4.7810       0.5877      -4.7445     111.0688       1.0226
