~VERSION INFORMATION
VERS.           2.0   :CWLS Log ASCII Standard - VERSION 2.0
WRAP.           NO    :One Line per depth step
PROD.  Schlumberger   :LAS Producer
PROG.  DLIS to ASCII 19C2-270                          :LAS Program name and version
CREA.        2017/09/16 17:42                          :LAS Creation date {YYYY/MM/DD hh:mm}
DLIS_CREA.  2017-Sep-15 18:24                          :DLIS Creation date and time {YYYY-MMM-DD hh:mm}
SOURCE.     LPC_S4-1_2B5.DLIS                          :DLIS File Name
FILE-ID.     PERFO_Perfo_WPGRT_055LTP                  :File Identification Number
#--------------------------------------------------
~WELL INFORMATION
#MNEM.UNIT      DATA             DESCRIPTION
#---- ------ --------------   -----------------------------
STRT .S         5021.0       :START TIME      
STOP .S         5478.0       :STOP TIME      
STEP .S            1.0       :STEP     
NULL .          -999.25      :NULL VALUE
COMP .        SHELL INTERNATIONAL E P                  :COMPANY
WELL .        WPP TEST 2                               :WELL
FLD  .        WILDCAT                                  :FIELD
LOC  .        NA                                       :LOCATION
CNTY .        HARRIS                                   :COUNTY
STAT .        TEXAS                                    :STATE
CTRY .                                                 :COUNTRY
API  .        NA                                       :API NUMBER
UWI  .                                                 :UNIQUE WELL ID
DATE .        15-Sep-2017                              :LOG DATE {DD-MMM-YYYY}
SRVC .        Schlumberger                             :SERVICE COMPANY
LATI .DEG                                              :LATITUDE
LONG .DEG                                              :LONGITUDE
GDAT .                                                 :GeoDetic Datum
SECT .        NA                                       :Section
RANG .        NA                                       :Range
TOWN .        NA                                       :Township
#-----------------------------------------------------------------------------
~PARAMETER INFORMATION
#MNEM.UNIT    VALUE                      DESCRIPTION
#---- -----   --------------------       ------------------------
U-PHASE_B_COMP_PER_YT.                 0 :Phase B Comparator Period Yt
U-PHASE_A_COMP_PER_XT.                 0 :Phase A Comparator Period Xt
U-MAX_EXC_CUR_LIMIT.MA       240.00000   :Requested CM Current Limit
U-REQ_EXC_FQ.HZ              50          :Requested CM Frequency
U-TILT_Y_OFFSET.           0.19916       :WPTET Tilt Y Offset
U-TILT_Y_GAIN.           1.01796         :WPTET Tilt Y Gain
U-TILT_X_OFFSET.          -1.77103       :WPTET Tilt X Offset
U-TILT_X_GAIN.           1.00000         :WPTET Tilt X Gain
U-TILT_OFFSET_TOL.           0.00100     :WPTET Tilt Offset Calibration Tolerance
U-NO_TILT_CAL_ROTATIONS.                 3 :Number of Rotations for Tilt Calibration
HAZI .DEG        0.00000                 :Hole Azimuth
U-STD_TOL_TILT.           0.01000        :Tilt Standard Deviation Tolerance
U-GUN_POS_TOL.DEG        5.00000         :Gun Position Tolerance
ROT_ANGLE_THRESHOLD.DEG        5.00000   :Rotation Stop Angle Tolerance
STOP_ROT_ANGLE.DEG        0.00000        :Rotation Stop Angle
WITN .        MR. DHRUA ARORA            :Witness's Name
ENGI .        MORRIS MOORE               :Engineer's Name
COUN .        HARRIS                     :County or Rig Name
FN   .        WILDCAT                    :Field Name
WN   .        WPP TEST 2                 :Well Name
CN   .        SHELL INTERNATIONAL E P    :Company Name
CLAB .        County                     :County/Rig Label
SLAB .        State                      :State/Province Label
RUN  .          1                        :RUN NUMBER
PDAT .        GROUND LEVEL               :Permanent Datum
EPD  .                                   :Elevation of Permanent Datum above Mean Sea Level
LMF  .          NA                       :Logging Measured From (Name of Logging Elevation Reference)
APD  .                                   :Elevation of Depth Reference (LMF) above Permanent Datum
#-----------------------------------------------------------------------------
~CURVE INFORMATION
#MNEM.UNIT   API CODE                                  DESCRIPTION
#---- -----  --------                                  -----------------------
TIME .S                                                :TIME {F10.1}
FREQ_EMF_SL.HZ                                         :Electromagnetic Field Frequency {F13.4}
PH_SH_WPPCM_SL.DEG                                     :WPPCM Phase Shift {F13.4}
FREQ_EXC_REQ_SL.HZ                                     :Requested Exciter Frequency {F13.4}
RB_SL.DEG                                              :Relative Bearing {F13.4}
SDEV_SL.DEG                                            :Sonde Deviation {F13.4}
TILX_SL.DEG                                            :X-axis Tilt {F13.4}
TILY_SL.DEG                                            :Y-axis Tilt {F13.4}
ROTA_SL.DEG                                            :Motor Rotation Angle {F13.4}
MSPE_SL.RPM                                            :Motor Speed {F13.4}
#-----------------------------------------------------------------------------
# 
#     TIME    FREQ_EMF_SL  PH_SH_WPPCM_ FREQ_EXC_REQ    RB_SL       SDEV_SL      TILX_SL      TILY_SL      ROTA_SL      MSPE_SL
#                          SL           _SL
~A  
# ...
    5273.0    1264.4058       0.0000      50.8611      19.1077       5.1350       1.6797      -4.8499     144.2224       1.0226
    5274.0    1279.6084       0.0000      50.8611      25.2885       5.1658       2.2031      -4.6690     150.3243       1.0226
    5275.0    1309.3575       0.0000      50.8611      30.4189       5.0338       2.5463      -4.3394     156.4218       1.0172
    5276.0    1321.5331       0.0000      50.8611      35.0534       4.8553       2.7861      -3.9726     162.5229       1.0121
    5277.0    1334.2030       0.0000      50.8611      42.1518       4.7258       3.1695      -3.5018     168.6208       1.0226
    5278.0    1343.0860       0.0000      50.8611      48.8581       4.5808       3.4482      -3.0112     175.1293       1.0226
    5279.0    1353.5934       0.0000      50.8611      56.1473       4.5679       3.7915      -2.5428     181.2326       1.0226
    5280.0    1361.1605       0.0000      50.8611      61.4983       4.4308       3.8925      -2.1129     187.3339       1.0226
    5281.0    1365.2913       0.0000      50.8611      68.5583       4.2731       3.9752      -1.5627     193.4358       1.0226
    5282.0    1378.6007       0.0000      50.8611      74.8920       4.3423       4.1919      -1.1303     199.5509       1.0226
    5283.0    1388.2458       0.0000      50.8611      83.7432       4.1791       4.1542      -0.4551     205.6528       1.0226
    5284.0    1393.6666       0.0000      50.8611      89.6274       4.0533       4.0531      -0.0263     211.7547       1.0226
    5285.0    1399.0795       0.0000      50.8611      98.4921       3.9567       3.9120       0.5845     217.8566       1.0226
    5286.0    1413.4574       0.0000      50.8611     105.8262       3.9425       3.7915       1.0752     223.9600       1.0226
    5287.0    1419.0657       0.0000      50.8611     114.8594       4.0250       3.6515       1.6910     230.0742       1.0226
    5288.0    1423.1805       0.0000      50.8611     121.3217       3.9221       3.3496       2.0379     236.1893       1.0226
    5289.0    1433.3681       0.0000      50.8611     127.9453       3.9168       3.0879       2.4071     242.2852       1.0175
    5290.0    1433.5316       0.0000      50.8611     135.1951       3.9946       2.8104       2.8321     248.7764       1.0226
    5291.0    1443.8835       0.0000      50.8611     147.3142       4.1227       2.2250       3.4690     254.8783       1.0175
    5292.0    1443.7886       0.0000      50.8611     151.1994       4.1235       1.9852       3.6127     260.9678       1.0226
    5293.0    1445.1523       0.0000      50.8611     156.3785       4.1701       1.6686       3.8159     267.0826       1.0226
    5294.0    1445.4197       0.0000      50.8611     164.9014       4.3134       1.1222       4.1641     273.1844       1.0226
    5295.0    1451.2849       0.0000      50.8611     173.4645       4.4008       0.5014       4.3710     279.2862       1.0226
    5296.0    1452.8338       0.0000      50.8611       5.4081       4.4333      -0.0001       4.4317     285.3884       1.0224
    5297.0    1452.8338       0.0000      50.8611    -172.2998       4.4925      -0.6026       4.4503     291.4910       1.0226
    5298.0    1454.1964       0.0000      50.8611    -167.6300       4.5159      -0.9665       4.4106     297.5932       1.0226
    5299.0    1451.2849       0.0000      50.8611    -161.2078       4.8105      -1.5483       4.5531     303.6950       1.0226
    5300.0    1448.2060       0.0000      50.8611    -154.2773       4.8735      -2.1130       4.3896     309.8032       1.0278
    5301.0    1443.8835       0.0000      50.8611    -147.6787       4.9308      -2.6340       4.1653     315.9380       1.0226
    5302.0    1442.2648       0.0000      50.8611    -142.4941       5.0221      -3.0552       3.9819     322.4486       1.0281
    5303.0    1433.3681       0.0000      50.8611    -137.6517       5.2238      -3.5165       3.8580     328.5504       1.0226
    5304.0    1435.0428       0.0000      50.8611    -130.1896       5.2905      -4.0386       3.4107     334.6522       1.0226
    5305.0    1439.4008       0.0000      50.8611    -125.5020       5.3820      -4.3794       3.1220     340.7540       1.0226
    5306.0    1430.6148       0.0000      50.8611    -119.7258       5.4405      -4.7227       2.6946     346.8574       1.0226
    5307.0    1427.6230       0.0000      50.8611    -113.5682       5.5250      -5.0623       2.2051     352.9576       1.0226
    5308.0    1411.9884       0.0000      50.8611    -109.2560       5.6408      -5.3240       1.8570     359.0594       1.0226
    5309.0    1408.0227       0.0000      50.8611    -101.7531       5.7069      -5.5869       1.1606       5.1490       1.0172
    5310.0    1399.2134       0.0000      50.8611     -97.2093       5.8328      -5.7865       0.7307      11.2508       1.0226
    5311.0    1385.4284       0.0000      50.8611     -92.9312       5.9160      -5.9082       0.3020      17.3482       1.0278
    5312.0    1375.9785       0.0000      50.8611     -87.5589       5.8504      -5.8449      -0.2494      23.4684       1.0226
    5313.0    1356.3029       0.0000      50.8611     -82.0609       5.7843      -5.7268      -0.7983      29.5702       1.0226
    5314.0    1352.1635       0.0000      50.8611     -75.6242       5.9555      -5.7682      -1.4760      36.0800       1.0226
    5315.0    1327.8015       0.0000      50.8611     -71.9066       6.0050      -5.7062      -1.8626      42.1818       1.0226
    5316.0    1321.8313       0.0000      50.8611     -67.7848       6.0798      -5.6270      -2.2950      48.2837       1.0226
    5317.0    1315.6028       0.0000      50.8611     -61.7759       6.0245      -5.3057      -2.8452      54.3795       1.0226
    5318.0    1288.9207       0.0000      50.8611     -55.6493       6.0674      -5.0062      -3.4188      60.4634       1.0172
    5319.0    1273.8505       0.0000      50.8611     -51.4667       6.2352      -4.8749      -3.8710      66.5593       1.0281
    5320.0    1262.4150       0.0000      50.8611     -47.0498       6.1049      -4.4646      -4.1548      72.6619       1.0172
    5321.0    1252.2607       0.0000      50.8611     -41.4719       5.9563      -3.9400      -4.4596      78.7450       1.0226
    5322.0    1234.6691       0.0000      50.8611     -37.0890       6.0828      -3.6625      -4.8474      84.8468       1.0226
    5323.0    1230.2836       0.0000      50.8611     -31.1899       6.0286      -3.1172      -5.1547      90.9486       1.0226
    5324.0    1228.1990       0.0000      50.8611     -25.9636       5.8725      -2.5695      -5.2762      97.0451       1.0278
    5325.0    1214.4448       0.0000      50.8611     -22.0151       5.8076      -2.1739      -5.3827     103.1536       1.0226
    5326.0    1212.2254       0.0000      50.8611     -14.6984       5.8174      -1.4728      -5.6255     109.6634       1.0226
    5327.0    1219.6771       0.0000      50.8611     -10.0852       5.7759      -1.0091      -5.6863     115.7529       1.0226
    5328.0    1219.5574       0.0000      50.8611      -5.8144       5.6167      -0.5684      -5.5871     121.8546       1.0226
    5329.0    1222.7660       0.0000      50.8611      -1.3366       5.5478      -0.1278      -5.5450     127.9696       1.0226
    5330.0    1225.9933       0.0000      50.8611       5.5950       5.4925       0.5343      -5.4644     134.0656       1.0278
    5331.0    1238.9550       0.0000      50.8611      11.4208       5.3448       1.0577      -5.2377     140.1742       1.0226
    5332.0    1262.4150       0.0000      50.8611      17.5339       5.3236       1.6018      -5.0754     146.2761       1.0226
    5333.0    1268.9700       0.0000      50.8611      21.8962       5.1627       1.9231      -4.7892     152.3811       1.0226
    5334.0    1284.2125       0.0000      50.8611      27.5511       4.9894       2.3053      -4.4224     158.4739       1.0172
    5335.0    1298.5944       0.0000      50.8611      34.8679       4.8467       2.7666      -3.9751     164.5695       1.0226
