~VERSION INFORMATION
VERS.           2.0   :CWLS Log ASCII Standard - VERSION 2.0
WRAP.           NO    :One Line per depth step
PROD.  Schlumberger   :LAS Producer
PROG.  DLIS to ASCII 19C2-270                          :LAS Program name and version
CREA.        2017/09/16 17:42                          :LAS Creation date {YYYY/MM/DD hh:mm}
DLIS_CREA.  2017-Sep-15 17:22                          :DLIS Creation date and time {YYYY-MMM-DD hh:mm}
SOURCE.     LPC_S4-1_AV.DLIS                           :DLIS File Name
FILE-ID.     PERFO_Perfo_WPGRT_047LTP                  :File Identification Number
#--------------------------------------------------
~WELL INFORMATION
#MNEM.UNIT      DATA             DESCRIPTION
#---- ------ --------------   -----------------------------
STRT .S         1296.0       :START TIME      
STOP .S         1779.0       :STOP TIME      
STEP .S            1.0       :STEP     
NULL .          -999.25      :NULL VALUE
COMP .        SHELL INTERNATIONAL E P                  :COMPANY
WELL .        WPP TEST 2                               :WELL
FLD  .        WILDCAT                                  :FIELD
LOC  .        NA                                       :LOCATION
CNTY .        HARRIS                                   :COUNTY
STAT .        TEXAS                                    :STATE
CTRY .                                                 :COUNTRY
API  .        NA                                       :API NUMBER
UWI  .                                                 :UNIQUE WELL ID
DATE .        15-Sep-2017                              :LOG DATE {DD-MMM-YYYY}
SRVC .        Schlumberger                             :SERVICE COMPANY
LATI .DEG                                              :LATITUDE
LONG .DEG                                              :LONGITUDE
GDAT .                                                 :GeoDetic Datum
SECT .        NA                                       :Section
RANG .        NA                                       :Range
TOWN .        NA                                       :Township
#-----------------------------------------------------------------------------
~PARAMETER INFORMATION
#MNEM.UNIT    VALUE                      DESCRIPTION
#---- -----   --------------------       ------------------------
U-PHASE_B_COMP_PER_YT.                 0 :Phase B Comparator Period Yt
U-PHASE_A_COMP_PER_XT.                 0 :Phase A Comparator Period Xt
U-MAX_EXC_CUR_LIMIT.MA       240.00000   :Requested CM Current Limit
U-REQ_EXC_FQ.HZ              50          :Requested CM Frequency
U-TILT_Y_OFFSET.           0.19916       :WPTET Tilt Y Offset
U-TILT_Y_GAIN.           1.01796         :WPTET Tilt Y Gain
U-TILT_X_OFFSET.          -1.77103       :WPTET Tilt X Offset
U-TILT_X_GAIN.           1.00000         :WPTET Tilt X Gain
U-TILT_OFFSET_TOL.           0.00100     :WPTET Tilt Offset Calibration Tolerance
U-NO_TILT_CAL_ROTATIONS.                 3 :Number of Rotations for Tilt Calibration
HAZI .DEG        0.00000                 :Hole Azimuth
U-STD_TOL_TILT.           0.01000        :Tilt Standard Deviation Tolerance
U-GUN_POS_TOL.DEG        5.00000         :Gun Position Tolerance
ROT_ANGLE_THRESHOLD.DEG        5.00000   :Rotation Stop Angle Tolerance
STOP_ROT_ANGLE.DEG        0.00000        :Rotation Stop Angle
WITN .        MR. DHRUA ARORA            :Witness's Name
ENGI .        MORRIS MOORE               :Engineer's Name
COUN .        HARRIS                     :County or Rig Name
FN   .        WILDCAT                    :Field Name
WN   .        WPP TEST 2                 :Well Name
CN   .        SHELL INTERNATIONAL E P    :Company Name
CLAB .        County                     :County/Rig Label
SLAB .        State                      :State/Province Label
RUN  .          1                        :RUN NUMBER
PDAT .        GROUND LEVEL               :Permanent Datum
EPD  .                                   :Elevation of Permanent Datum above Mean Sea Level
LMF  .          NA                       :Logging Measured From (Name of Logging Elevation Reference)
APD  .                                   :Elevation of Depth Reference (LMF) above Permanent Datum
#-----------------------------------------------------------------------------
~CURVE INFORMATION
#MNEM.UNIT   API CODE                                  DESCRIPTION
#---- -----  --------                                  -----------------------
TIME .S                                                :TIME {F10.1}
FREQ_EMF_SL.HZ                                         :Electromagnetic Field Frequency {F13.4}
PH_SH_WPPCM_SL.DEG                                     :WPPCM Phase Shift {F13.4}
FREQ_EXC_REQ_SL.HZ                                     :Requested Exciter Frequency {F13.4}
RB_SL.DEG                                              :Relative Bearing {F13.4}
SDEV_SL.DEG                                            :Sonde Deviation {F13.4}
TILX_SL.DEG                                            :X-axis Tilt {F13.4}
TILY_SL.DEG                                            :Y-axis Tilt {F13.4}
ROTA_SL.DEG                                            :Motor Rotation Angle {F13.4}
MSPE_SL.RPM                                            :Motor Speed {F13.4}
#-----------------------------------------------------------------------------
# 
#     TIME    FREQ_EMF_SL  PH_SH_WPPCM_ FREQ_EXC_REQ    RB_SL       SDEV_SL      TILX_SL      TILY_SL      ROTA_SL      MSPE_SL
#                          SL           _SL
~A  
# ...
    1422.0    1141.3844       0.0000      50.8611     -65.8540       0.8630      -0.7872      -0.3525     242.5867       1.0226
    1423.0    1054.1110       0.0000      50.8611     -65.7445       0.9086      -0.8274      -0.3727     248.6886       1.0226
    1424.0     998.0121       0.0000      50.8611     -57.3256       0.8304      -0.7036      -0.4147     254.7905       1.0226
    1425.0     961.1868       0.0000      50.8611     -74.4988       0.9424      -0.9072      -0.2512     260.8923       1.0226
    1426.0     926.9725       0.0000      50.8611     -66.7535       0.9451      -0.8676      -0.3738     266.9879       1.0173
    1427.0     899.1111       0.0000      50.8611     -65.2219       1.0276      -0.9286      -0.4360     273.0712       1.0226
    1428.0     879.9650       0.0000      50.8611     -73.1174       0.9988      -0.9479      -0.2898     279.1668       1.0069
    1429.0     870.7143       0.0000      50.8611     -69.3725       1.0551      -0.9869      -0.3727     285.2510       1.0226
    1430.0     852.8330       0.0000      50.8611     -66.8274       1.2076      -1.1086      -0.4763     291.3404       1.0226
    1431.0     839.0286       0.0000      50.8611     -64.2625       1.0965      -0.9875      -0.4758     297.4300       1.0280
    1432.0     837.5187       0.0000      50.8611     -60.6154       1.0424      -0.9055      -0.4971     303.5449       1.0226
    1433.0     832.6162       0.0000      50.8611     -65.7026       1.1067      -1.0079      -0.4556     310.0679       1.0226
    1434.0     831.1487       0.0000      50.8611     -61.3123       1.2239      -1.0667      -0.5794     316.1697       1.0226
    1435.0     829.6396       0.0000      50.8611     -66.6002       1.0977      -1.0073      -0.4349     322.2731       1.0226
    1436.0     834.5365       0.0000      50.8611     -62.8370       1.1772      -1.0475      -0.5368     328.3733       1.0226
    1437.0     845.1021       0.0000      50.8611     -64.2994       1.0967      -0.9881      -0.4758     334.4751       1.0226
    1438.0     853.8905       0.0000      50.8611     -63.7409       1.2134      -1.0882      -0.5368     340.5647       1.0174
    1439.0     869.6738       0.0000      50.8611     -63.6730       1.1951      -1.0717      -0.4948     346.6731       1.0334
    1440.0     889.4768       0.0000      50.8611     -61.5023       1.1251      -0.9881      -0.5374     352.7946       1.0226
    1441.0     908.4923       0.0000      50.8611     -59.0891       1.1282      -0.9671      -0.5783     358.8964       1.0226
    1442.0     940.0480       0.0000      50.8611     -57.0424       1.2493      -1.0480      -0.6797       4.9982       1.0226
    1443.0     969.2166       0.0000      50.8611     -57.3669       1.2210      -1.0277      -0.6589      11.1000       1.0226
    1444.0    1003.9176       0.0000      50.8611     -51.6922       1.2901      -1.0079      -0.8012      17.2033       1.0226
    1445.0    1078.6961       0.0000      50.8611     -54.4237       1.2394      -1.0079      -0.7211      23.7117       1.0226
    1446.0    1191.9618       0.0000      50.8611     -51.7891       1.2318      -0.9677      -0.7620      29.8135       1.0226
    1447.0    1273.9099       0.0000      50.8611     -49.4792       1.1412      -0.8676      -0.7413      35.9153       1.0226
    1448.0    1327.9661       0.0000      50.8611     -50.7554       1.1720      -0.9077      -0.7413      42.0238       1.0280
    1449.0    1373.3858       0.0000      50.8611     -52.3991       1.1494      -0.9072      -0.7015      48.1330       1.0279
    1450.0    1426.3201       0.0000      50.8611     -48.8148       1.1257      -0.8472      -0.7413      54.2348       1.0226
    1451.0    1472.4936       0.0000      50.8611     -46.6515       1.0542      -0.7680      -0.7211      60.3366       1.0226
    1452.0    1528.5855       0.0000      50.8611     -47.2857       1.1531      -0.8472      -0.7822      66.4516       1.0226
    1453.0    1578.4543       0.0000      50.8611     -45.1968       1.1675      -0.8274      -0.8225      72.5534       1.0226
    1454.0    1631.4413       0.0000      50.8611     -40.4499       1.0828      -0.7602      -0.7194      78.6551       1.0226
    1455.0    1672.1463       0.0000      50.8611     -52.1989       1.0722      -0.8461      -0.6584      84.7507       1.0174
    1456.0    1715.0068       0.0000      50.8611     -45.1823       0.9964      -0.7074      -0.7004      90.8341       1.0226
    1457.0    1757.8839       0.0000      50.8611     -48.8438       1.0714      -0.8059      -0.7009      97.3569       1.0279
    1458.0    1784.7518       0.0000      50.8611     -47.5141       1.0668      -0.7867      -0.7205     103.4587       1.0226
    1459.0    1809.8165       0.0000      50.8611     -53.1747       0.9641      -0.7674      -0.5766     109.5737       1.0279
    1460.0    1828.7095       0.0000      50.8611     -50.0913       1.0264      -0.7867      -0.6589     115.6632       1.0226
    1461.0    1843.0901       0.0000      50.8611     -48.9395       0.9900      -0.7487      -0.6388     121.7781       0.5103
    1462.0    1855.2111       0.0000      50.8611     -47.5720       1.0393      -0.7674      -0.7004     122.3802       0.0005
    1463.0    1855.2111       0.0000      50.8611     -44.5005       0.9808      -0.6865      -0.6998     122.3802       0.0005
    1464.0    1855.2913       0.0000      50.8611     -44.3421       0.9278      -0.6475      -0.6589     122.3802       0.0005
    1465.0    1855.2111       0.0000      50.8611     -51.3142       0.9564      -0.7465      -0.5979     122.3802       0.0005
    1466.0    1857.5898       0.0000      50.8611     -46.0308       0.9818      -0.7074      -0.6802     122.3802       0.0005
    1467.0    1860.1190       0.0000      50.8611     -41.5412       0.9435      -0.6277      -0.7004     122.3802       0.0005
    1468.0    1855.2913       0.0000      50.8611     -43.7291       0.9978      -0.6871      -0.7200     122.3802       0.0005
    1469.0    1855.2111       0.0000      50.8611     -56.0338       0.9978      -0.8274      -0.5576     122.3802       0.0005
    1470.0    1847.8673       0.0000      50.8611     -45.3010       0.9662      -0.6865      -0.6797     122.3802       0.0005
    1471.0    1855.2111       0.0000      50.8611     -40.0996       0.9448      -0.6056      -0.7217     122.3802       0.0005
    1472.0    1857.6988       0.0000      50.8611     -43.6290       1.0244      -0.7069      -0.7413     122.3802       0.0005
    1473.0    1852.8036       0.0000      50.8611     -49.1559       0.8829      -0.6667      -0.5772     122.3802       0.0005
    1474.0    1852.7365       0.0000      50.8611     -56.7405       0.9418      -0.7872      -0.5161     122.3802       0.0005
    1475.0    1857.6988       0.0000      50.8611     -48.3141       1.0266      -0.7680      -0.6802     122.3802       0.0005
    1476.0    1862.6200       0.0000      50.8611     -42.8045       1.0104      -0.6865      -0.7413     122.3802       0.0005
    1477.0    1855.1567       0.0000      50.8611     -51.1813       0.9854      -0.7669      -0.6180     122.3802       0.0005
    1478.0    1852.7365       0.0000      50.8611     -50.3856       0.9443      -0.7278      -0.5979     122.3802       0.0005
    1479.0    1857.6313       0.0000      50.8611     -53.4784       1.0045      -0.8070      -0.5979     122.3802       0.0005
    1480.0    1855.2111       0.0000      50.8611     -43.5842       0.9680      -0.6662      -0.7009     122.3802       0.0005
    1481.0    1857.6313       0.0000      50.8611     -45.2549       1.0235      -0.7267      -0.7205     122.3802       0.0005
    1482.0    1860.1190       0.0000      50.8611     -44.4277       0.9808      -0.6865      -0.7004     122.3802       0.0005
    1483.0    1857.6313       0.0000      50.8611     -45.3241       0.9957      -0.7069      -0.6998     122.3802       0.0005
    1484.0    1857.6313       0.0000      50.8611     -52.9390       0.9600      -0.7663      -0.5777     122.3802       0.0005
