~VERSION INFORMATION
VERS.           2.0   :CWLS Log ASCII Standard - VERSION 2.0
WRAP.           NO    :One Line per depth step
PROD.  Schlumberger   :LAS Producer
PROG.  DLIS to ASCII 19C2-270                          :LAS Program name and version
CREA.        2017/09/16 17:42                          :LAS Creation date {YYYY/MM/DD hh:mm}
DLIS_CREA.  2017-Sep-15 11:15                          :DLIS Creation date and time {YYYY-MMM-DD hh:mm}
SOURCE.     LPC_S1-1_AV_1ST-LOG.DLIS                   :DLIS File Name
FILE-ID.     PERFO_Perfo_WPGRT_014LTP                  :File Identification Number
#--------------------------------------------------
~WELL INFORMATION
#MNEM.UNIT      DATA             DESCRIPTION
#---- ------ --------------   -----------------------------
STRT .S         1693.0       :START TIME      
STOP .S         2010.0       :STOP TIME      
STEP .S            1.0       :STEP     
NULL .          -999.25      :NULL VALUE
COMP .        SHELL INTERNATIONAL E P                  :COMPANY
WELL .        WPP TEST 2                               :WELL
FLD  .        WILDCAT                                  :FIELD
LOC  .                                                 :LOCATION
CNTY .        HARRIS                                   :COUNTY
STAT .        TEXAS                                    :STATE
CTRY .                                                 :COUNTRY
API  .                                                 :API NUMBER
UWI  .                                                 :UNIQUE WELL ID
DATE .                                                 :LOG DATE
SRVC .        Schlumberger                             :SERVICE COMPANY
LATI .DEG                                              :LATITUDE
LONG .DEG                                              :LONGITUDE
GDAT .                                                 :GeoDetic Datum
#-----------------------------------------------------------------------------
~PARAMETER INFORMATION
#MNEM.UNIT    VALUE                      DESCRIPTION
#---- -----   --------------------       ------------------------
U-PHASE_B_COMP_PER_YT.                 0 :Phase B Comparator Period Yt
U-PHASE_A_COMP_PER_XT.                 0 :Phase A Comparator Period Xt
U-MAX_EXC_CUR_LIMIT.MA       240.00000   :Requested CM Current Limit
U-REQ_EXC_FQ.HZ              50          :Requested CM Frequency
U-TILT_Y_OFFSET.           0.19916       :WPTET Tilt Y Offset
U-TILT_Y_GAIN.           1.01796         :WPTET Tilt Y Gain
U-TILT_X_OFFSET.          -1.77103       :WPTET Tilt X Offset
U-TILT_X_GAIN.           1.00000         :WPTET Tilt X Gain
U-TILT_OFFSET_TOL.           0.00100     :WPTET Tilt Offset Calibration Tolerance
U-NO_TILT_CAL_ROTATIONS.                 3 :Number of Rotations for Tilt Calibration
HAZI .DEG        0.00000                 :Hole Azimuth
U-STD_TOL_TILT.           0.01000        :Tilt Standard Deviation Tolerance
U-GUN_POS_TOL.DEG        5.00000         :Gun Position Tolerance
ROT_ANGLE_THRESHOLD.DEG        5.00000   :Rotation Stop Angle Tolerance
STOP_ROT_ANGLE.DEG        0.00000        :Rotation Stop Angle
WITN .                                   :Witness's Name
ENGI .                                   :Engineer's Name
COUN .        HARRIS                     :County or Rig Name
FN   .        WILDCAT                    :Field Name
WN   .        WPP TEST 2                 :Well Name
CN   .        SHELL INTERNATIONAL E P    :Company Name
CLAB .        County                     :County/Rig Label
SLAB .        State                      :State/Province Label
RUN  .          1                        :RUN NUMBER
PDAT .        GROUND LEVEL               :Permanent Datum
EPD  .                                   :Elevation of Permanent Datum above Mean Sea Level
LMF  .                                   :Logging Measured From (Name of Logging Elevation Reference)
APD  .                                   :Elevation of Depth Reference (LMF) above Permanent Datum
#-----------------------------------------------------------------------------
~CURVE INFORMATION
#MNEM.UNIT   API CODE                                  DESCRIPTION
#---- -----  --------                                  -----------------------
TIME .S                                                :TIME {F10.1}
FREQ_EMF_SL.HZ                                         :Electromagnetic Field Frequency {F13.4}
PH_SH_WPPCM_SL.DEG                                     :WPPCM Phase Shift {F13.4}
FREQ_EXC_REQ_SL.HZ                                     :Requested Exciter Frequency {F13.4}
RB_SL.DEG                                              :Relative Bearing {F13.4}
SDEV_SL.DEG                                            :Sonde Deviation {F13.4}
TILX_SL.DEG                                            :X-axis Tilt {F13.4}
TILY_SL.DEG                                            :Y-axis Tilt {F13.4}
ROTA_SL.DEG                                            :Motor Rotation Angle {F13.4}
MSPE_SL.RPM                                            :Motor Speed {F13.4}
#-----------------------------------------------------------------------------
# 
#     TIME    FREQ_EMF_SL  PH_SH_WPPCM_ FREQ_EXC_REQ    RB_SL       SDEV_SL      TILX_SL      TILY_SL      ROTA_SL      MSPE_SL
#                          SL           _SL
~A  
# ...
    1945.0     979.1038       0.0000      50.8611     -52.4983       0.9017      -0.7151      -0.5486     252.2606       1.0226
    1946.0    1003.4451       0.0000      50.8611     -50.9661       0.8991      -0.6981      -0.5659     258.3624       1.0226
    1947.0    1030.7770       0.0000      50.8611     -47.8342       0.9648      -0.7151      -0.6477     264.4634       1.0226
    1948.0    1061.9919       0.0000      50.8611     -48.4475       0.8565      -0.6410      -0.5659     270.5652       1.0226
    1949.0    1149.3049       0.0000      50.8611     -54.4829       0.8938      -0.7267      -0.5196     276.6679       1.0226
    1950.0    1236.7048       0.0000      50.8611     -52.4293       0.8807      -0.6981      -0.5368     282.7697       1.0226
    1951.0    1281.7276       0.0000      50.8611     -53.2715       0.8577      -0.6865      -0.5132     289.2764       1.0226
    1952.0    1319.5829       0.0000      50.8611     -56.1675       0.8474      -0.7035      -0.4723     295.3790       1.0226
    1953.0    1347.8487       0.0000      50.8611     -56.6287       0.7743      -0.6464      -0.4260     301.4846       1.0257
    1954.0    1380.2438       0.0000      50.8611     -53.4285       0.8213      -0.6580      -0.4905     307.5975       1.0226
    1955.0    1408.2545       0.0000      50.8611     -53.0923       0.8943      -0.7151      -0.5368     313.6997       1.0226
    1956.0    1436.6471       0.0000      50.8611     -60.9782       0.8189      -0.7151      -0.3969     319.8015       1.0226
    1957.0    1465.7268       0.0000      50.8611     -55.7857       0.8778      -0.7275      -0.4905     325.9033       1.0226
    1958.0    1492.4231       0.0000      50.8611     -64.0446       0.8529      -0.7669      -0.3733     332.0089       1.0302
    1959.0    1520.0213       0.0000      50.8611     -57.7508       0.8877      -0.7499      -0.4723     338.1200       1.0195
    1960.0    1549.2872       0.0000      50.8611     -69.0004       0.8835      -0.8240      -0.3151     344.1993       1.0226
    1961.0    1572.5307       0.0000      50.8611     -72.9429       0.8775      -0.8356      -0.2569     350.2998       1.0226
    1962.0    1591.8222       0.0000      50.8611     -58.8544       0.9722      -0.8302      -0.5014     356.4016       1.0226
    1963.0    1610.0473       0.0000      50.8611     -63.6252       0.9327      -0.8356      -0.4142       2.9214       1.0302
    1964.0    1627.6041       0.0000      50.8611     -64.6811       0.9688      -0.8758      -0.4142       9.0233       1.0226
    1965.0    1628.6946       0.0000      50.8611     -66.0192       0.9898      -0.9043      -0.4024      15.1260       1.0226
    1966.0    1631.3805       0.0000      50.8611     -65.2476       0.9464      -0.8588      -0.3969      21.2300       1.0226
    1967.0    1649.4121       0.0000      50.8611     -65.5132       1.0004      -0.9106      -0.4142      27.3296       1.0226
    1968.0    1641.2027       0.0000      50.8611     -66.5644       1.0733      -0.9847      -0.4260      33.4314       1.0195
    1969.0    1638.9860       0.0000      50.8611     -63.3249       0.9620      -0.8588      -0.4314      39.5239       1.0226
    1970.0    1630.2901       0.0000      50.8611     -68.2916       1.5374      -1.4256      -0.5550      45.6227       1.0226
    1971.0    1623.8453       0.0000      50.8611     -61.5199       1.0751      -0.9445      -0.5132      51.7245       1.0226
    1972.0    1603.7681       0.0000      50.8611     -60.0144       1.0386      -0.8990      -0.5196      57.8285       1.0226
    1973.0    1587.6840       0.0000      50.8611     -67.1351       1.0199      -0.9391      -0.3969      63.9312       1.0226
    1974.0    1573.4719       0.0000      50.8611     -61.4989       1.2118      -1.0650      -0.5777      70.0321       1.0257
    1975.0    1555.5862       0.0000      50.8611     -63.2670       1.1287      -1.0079      -0.5077      76.5625       1.0195
    1976.0    1521.9155       0.0000      50.8611     -60.9799       1.1066      -0.9677      -0.5368      82.6555       1.0226
    1977.0    1499.6406       0.0000      50.8611     -62.2566       1.1404      -1.0079      -0.5314      88.7450       1.0226
    1978.0    1471.3964       0.0000      50.8611     -59.5893       1.1751      -1.0132      -0.5950      94.8468       1.0226
    1979.0    1446.7593       0.0000      50.8611     -61.6080       1.2431      -1.0936      -0.5895     100.9486       1.0226
    1980.0    1414.7384       0.0000      50.8611     -63.0853       1.0601      -0.9445      -0.4787     107.0657       1.0226
    1981.0    1387.2102       0.0000      50.8611     -58.0180       1.1469      -0.9731      -0.6068     113.1784       1.0226
    1982.0    1359.6187       0.0000      50.8611     -59.7181       1.2059      -1.0418      -0.6068     119.2824       1.0226
    1983.0    1331.6761       0.0000      50.8611     -53.6603       1.2233      -0.9847      -0.7240     125.3842       1.0226
    1984.0    1291.8244       0.0000      50.8611     -56.0947       1.2347      -1.0248      -0.6886     131.4860       1.0226
    1985.0    1232.3208       0.0000      50.8611     -55.1004       1.0894      -0.8927      -0.6241     137.5879       1.0226
    1986.0    1152.6548       0.0000      50.8611     -51.6918       1.2514      -0.9793      -0.7758     143.6898       1.0226
    1987.0    1077.9357       0.0000      50.8611     -56.9675       1.1624      -0.9748      -0.6123     150.1940       1.0195
    1988.0    1026.6644       0.0000      50.8611     -55.9576       1.1053      -0.9159      -0.6186     156.2872       1.0226
    1989.0     998.3438       0.0000      50.8611     -50.8692       1.2024      -0.9329      -0.7585     162.3891       1.0226
    1990.0     974.4291       0.0000      50.8611     -54.7394       1.1218      -0.9159      -0.6477     168.4874       1.0195
    1991.0     952.9198       0.0000      50.8611     -39.4897       1.0361      -0.6580      -0.7994     174.5828       1.0226
    1992.0     936.9542       0.0000      50.8611     -54.1357       1.0958      -0.8874      -0.6422     180.6702       1.0151
    1993.0     924.3808       0.0000      50.8611     -50.5305       1.1438      -0.8829      -0.7267     186.7597       1.0170
    1994.0     914.8407       0.0000      50.8611     -51.1520       1.0887      -0.8472      -0.6831     192.8748       1.0226
    1995.0     908.5901       0.0000      50.8611     -46.8599       1.0672      -0.7785      -0.7295     198.9789       1.0226
    1996.0     905.7522       0.0000      50.8611     -50.2102       1.1398      -0.8758      -0.7295     205.0772       1.0195
    1997.0     903.2704       0.0000      50.8611     -51.0534       0.9977      -0.7722      -0.6249     211.1704       1.0226
    1998.0     902.5995       0.0000      50.8611     -39.0045       1.0506      -0.6580      -0.8167     217.2723       1.0226
    1999.0     910.9443       0.0000      50.8611     -46.8806       1.0914      -0.7954      -0.7467     223.7800       1.0226
    2000.0     918.6116       0.0000      50.8611     -47.5941       1.0386      -0.7669      -0.7004     229.8819       1.0226
    2001.0     927.2903       0.0000      50.8611     -47.8024       0.8968      -0.6633      -0.6013     235.9970       1.0226
    2002.0     935.7266       0.0000      50.8611     -39.7498       1.0932      -0.6981      -0.8403     242.0989       1.0226
    2003.0     952.9198       0.0000      50.8611     -44.9559       0.9559      -0.6749      -0.6768     248.2139       1.0226
    2004.0     971.3812       0.0000      50.8611     -46.4648       0.8433      -0.6124      -0.5777     254.3167       1.0226
    2005.0     989.5445       0.0000      50.8611     -50.1828       0.9091      -0.6981      -0.5823     260.4308       1.0283
    2006.0    1015.2714       0.0000      50.8611     -47.6150       0.8915      -0.6580      -0.6013     266.5203       1.0195
    2007.0    1043.4235       0.0000      50.8611     -49.7111       0.9456      -0.7205      -0.6123     272.6360       1.0226
