~VERSION INFORMATION
VERS.           2.0   :CWLS Log ASCII Standard - VERSION 2.0
WRAP.           NO    :One Line per depth step
PROD.  Schlumberger   :LAS Producer
PROG.  DLIS to ASCII 19C2-270                          :LAS Program name and version
CREA.        2017/09/16 17:42                          :LAS Creation date {YYYY/MM/DD hh:mm}
DLIS_CREA.  2017-Sep-15 15:20                          :DLIS Creation date and time {YYYY-MMM-DD hh:mm}
SOURCE.     LPC_S2-1_2B5.DLIS                          :DLIS File Name
FILE-ID.     PERFO_Perfo_WPGRT_034LTP                  :File Identification Number
#--------------------------------------------------
~WELL INFORMATION
#MNEM.UNIT      DATA             DESCRIPTION
#---- ------ --------------   -----------------------------
STRT .S        16366.0       :START TIME      
STOP .S        16828.0       :STOP TIME      
STEP .S            1.0       :STEP     
NULL .          -999.25      :NULL VALUE
COMP .        SHELL INTERNATIONAL E P                  :COMPANY
WELL .        WPP TEST 2                               :WELL
FLD  .        WILDCAT                                  :FIELD
LOC  .                                                 :LOCATION
CNTY .        HARRIS                                   :COUNTY
STAT .        TEXAS                                    :STATE
CTRY .                                                 :COUNTRY
API  .                                                 :API NUMBER
UWI  .                                                 :UNIQUE WELL ID
DATE .                                                 :LOG DATE
SRVC .        Schlumberger                             :SERVICE COMPANY
LATI .DEG                                              :LATITUDE
LONG .DEG                                              :LONGITUDE
GDAT .                                                 :GeoDetic Datum
#-----------------------------------------------------------------------------
~PARAMETER INFORMATION
#MNEM.UNIT    VALUE                      DESCRIPTION
#---- -----   --------------------       ------------------------
U-PHASE_B_COMP_PER_YT.                 0 :Phase B Comparator Period Yt
U-PHASE_A_COMP_PER_XT.                 0 :Phase A Comparator Period Xt
U-MAX_EXC_CUR_LIMIT.MA       240.00000   :Requested CM Current Limit
U-REQ_EXC_FQ.HZ              50          :Requested CM Frequency
U-TILT_Y_OFFSET.           0.19916       :WPTET Tilt Y Offset
U-TILT_Y_GAIN.           1.01796         :WPTET Tilt Y Gain
U-TILT_X_OFFSET.          -1.77103       :WPTET Tilt X Offset
U-TILT_X_GAIN.           1.00000         :WPTET Tilt X Gain
U-TILT_OFFSET_TOL.           0.00100     :WPTET Tilt Offset Calibration Tolerance
U-NO_TILT_CAL_ROTATIONS.                 3 :Number of Rotations for Tilt Calibration
HAZI .DEG        0.00000                 :Hole Azimuth
U-STD_TOL_TILT.           0.01000        :Tilt Standard Deviation Tolerance
U-GUN_POS_TOL.DEG        5.00000         :Gun Position Tolerance
ROT_ANGLE_THRESHOLD.DEG        5.00000   :Rotation Stop Angle Tolerance
STOP_ROT_ANGLE.DEG       80.00000        :Rotation Stop Angle
WITN .                                   :Witness's Name
ENGI .                                   :Engineer's Name
COUN .        HARRIS                     :County or Rig Name
FN   .        WILDCAT                    :Field Name
WN   .        WPP TEST 2                 :Well Name
CN   .        SHELL INTERNATIONAL E P    :Company Name
CLAB .        County                     :County/Rig Label
SLAB .        State                      :State/Province Label
RUN  .          1                        :RUN NUMBER
PDAT .        GROUND LEVEL               :Permanent Datum
EPD  .                                   :Elevation of Permanent Datum above Mean Sea Level
LMF  .                                   :Logging Measured From (Name of Logging Elevation Reference)
APD  .                                   :Elevation of Depth Reference (LMF) above Permanent Datum
#-----------------------------------------------------------------------------
~CURVE INFORMATION
#MNEM.UNIT   API CODE                                  DESCRIPTION
#---- -----  --------                                  -----------------------
TIME .S                                                :TIME {F10.1}
FREQ_EMF_SL.HZ                                         :Electromagnetic Field Frequency {F13.4}
PH_SH_WPPCM_SL.DEG                                     :WPPCM Phase Shift {F13.4}
FREQ_EXC_REQ_SL.HZ                                     :Requested Exciter Frequency {F13.4}
RB_SL.DEG                                              :Relative Bearing {F13.4}
SDEV_SL.DEG                                            :Sonde Deviation {F13.4}
TILX_SL.DEG                                            :X-axis Tilt {F13.4}
TILY_SL.DEG                                            :Y-axis Tilt {F13.4}
ROTA_SL.DEG                                            :Motor Rotation Angle {F13.4}
MSPE_SL.RPM                                            :Motor Speed {F13.4}
#-----------------------------------------------------------------------------
# 
#     TIME    FREQ_EMF_SL  PH_SH_WPPCM_ FREQ_EXC_REQ    RB_SL       SDEV_SL      TILX_SL      TILY_SL      ROTA_SL      MSPE_SL
#                          SL           _SL
~A  
# ...
   16618.0    1381.7765       0.0000      50.8611     -94.0959       5.3602      -5.3459       0.3823     272.3609       1.0226
   16619.0    1373.6778       0.0000      50.8611     -88.3127       5.4134      -5.4109      -0.1590     278.4571       1.0161
   16620.0    1361.0113       0.0000      50.8611     -83.1738       5.3807      -5.3418      -0.6399     284.5635       1.0226
   16621.0    1345.0291       0.0000      50.8611     -77.7429       5.4822      -5.3555      -1.1616     290.6790       1.0226
   16622.0    1346.3684       0.0000      50.8611     -72.7479       5.5404      -5.2904      -1.6408     297.1887       1.0226
   16623.0    1316.1263       0.0000      50.8611     -67.5395       5.6123      -5.1852      -2.1413     303.2896       1.0226
   16624.0    1310.5461       0.0000      50.8611     -62.2837       5.4579      -4.8293      -2.5362     309.3826       1.0121
   16625.0    1287.1512       0.0000      50.8611     -57.8090       5.5241      -4.6727      -2.9394     315.4827       1.0186
   16626.0    1262.0344       0.0000      50.8611     -53.1057       5.6260      -4.4967      -3.3736     321.5722       1.0226
   16627.0    1238.2095       0.0000      50.8611     -48.5816       5.6464      -4.2308      -3.7318     327.6862       1.0226
   16628.0    1212.7897       0.0000      50.8611     -43.1371       5.5102      -3.7641      -4.0180     333.7886       1.0226
   16629.0    1205.7643       0.0000      50.8611     -38.1761       5.5755      -3.4428      -4.3803     339.8910       1.0226
   16630.0    1197.3417       0.0000      50.8611     -34.7087       5.5681      -3.1672      -4.5749     345.9920       1.0226
   16631.0    1177.2936       0.0000      50.8611     -28.3383       5.4258      -2.5768      -4.7679     352.1060       1.0226
   16632.0    1172.8255       0.0000      50.8611     -22.9819       5.4374      -2.1213      -5.0034     358.2084       1.0267
   16633.0    1169.6595       0.0000      50.8611     -18.6164       5.3358      -1.7003      -5.0558       4.3372       1.0226
   16634.0    1163.6549       0.0000      50.8611     -13.0138       5.2840      -1.1878      -5.1474      10.8333       1.0161
   16635.0    1159.8159       0.0000      50.8611      -7.3360       5.1431      -0.6560      -5.1007      16.9366       1.0226
   16636.0    1169.6595       0.0000      50.8611      -3.0064       5.0634      -0.2640      -5.0558      23.0145       1.0226
   16637.0    1169.6595       0.0000      50.8611       3.2347       5.0273       0.2831      -5.0190      29.1163       1.0226
   16638.0    1183.0737       0.0000      50.8611       8.6644       4.9887       0.7498      -4.9315      35.2004       1.0121
   16639.0    1183.7122       0.0000      50.8611      13.0545       4.8853       1.1017      -4.7581      41.3036       1.0186
   16640.0    1199.8500       0.0000      50.8611      20.0835       4.6508       1.5961      -4.3670      47.4116       1.0186
   16641.0    1213.8785       0.0000      50.8611      25.0951       4.5777       1.9396      -4.1448      53.5004       1.0226
   16642.0    1235.7206       0.0000      50.8611      30.3180       4.4131       2.2264      -3.8079      59.6015       1.0226
   16643.0    1253.6636       0.0000      50.8611      36.6195       4.3914       2.6184      -3.5216      65.6795       1.0161
   16644.0    1287.5644       0.0000      50.8611      43.9820       4.2854       2.9743      -3.0817      71.7820       1.0226
   16645.0    1297.0654       0.0000      50.8611      49.0457       4.0659       3.0699      -2.6630      77.8831       1.0226
   16646.0    1320.1261       0.0000      50.8611      56.1007       4.0517       3.3607      -2.2582      84.1388       1.0226
   16647.0    1335.7757       0.0000      50.8611      64.3196       3.8924       3.5061      -1.6858      90.4968       1.0267
   16648.0    1343.7952       0.0000      50.8611      70.3634       3.8186       3.5960      -1.2826      96.6109       1.0226
   16649.0    1355.1451       0.0000      50.8611      78.2733       3.6224       3.5462      -0.7355     102.7127       1.0161
   16650.0    1362.0167       0.0000      50.8611      85.5349       3.6146       3.6017      -0.2800     108.8152       1.0226
   16651.0    1376.6300       0.0000      50.8611      91.8127       3.5992       3.5960       0.1133     114.9178       1.0226
   16652.0    1390.4273       0.0000      50.8611     102.6215       3.5456       3.4597       0.7745     121.0238       1.0276
   16653.0    1398.2637       0.0000      50.8611     108.8407       3.5817       3.3896       1.1551     127.1329       1.0226
   16654.0    1402.3808       0.0000      50.8611     115.9533       3.5194       3.1639       1.5386     133.2231       1.0226
   16655.0    1410.1434       0.0000      50.8611     124.6478       3.6160       2.9743       2.0547     139.3390       1.0267
   16656.0    1426.2170       0.0000      50.8611     133.6418       3.5482       2.5670       2.4480     145.4459       1.0293
   16657.0    1427.7452       0.0000      50.8611     139.8105       3.6213       2.3356       2.7653     151.5635       1.0161
   16658.0    1433.1370       0.0000      50.8611     147.2349       3.6598       1.9797       3.0769     157.8384       1.0226
   16659.0    1434.5517       0.0000      50.8611     154.0872       3.7397       1.6335       3.3631     164.1774       1.0161
   16660.0    1445.6304       0.0000      50.8611     163.2844       3.8802       1.1154       3.7155     170.2710       1.0226
   16661.0    1446.0509       0.0000      50.8611     169.1465       3.9007       0.7330       3.8284     176.3736       1.0226
   16662.0    1440.8298       0.0000      50.8611     176.9873       3.9411       0.2068       3.9355     182.4893       1.0226
   16663.0    1449.7422       0.0000      50.8611    -176.4547       4.0508      -0.2503       4.0426     188.5905       1.0226
   16664.0    1451.1657       0.0000      50.8611    -169.6244       4.1304      -0.7438       4.0620     194.6917       1.0226
   16665.0    1455.7454       0.0000      50.8611    -163.5854       4.3367      -1.2240       4.1596     200.7943       1.0226
   16666.0    1452.3306       0.0000      50.8611    -156.9628       4.3776      -1.7116       4.0271     206.9068       1.0334
   16667.0    1450.1740       0.0000      50.8611    -150.6353       4.4342      -2.1727       3.8635     213.0242       1.0226
   16668.0    1444.9174       0.0000      50.8611    -144.9239       4.5796      -2.6298       3.7466     219.1304       1.0267
   16669.0    1436.0641       0.0000      50.8611    -139.7164       4.6917      -3.0315       3.5773     225.2290       1.0226
   16670.0    1441.5446       0.0000      50.8611    -132.1383       4.7890      -3.5496       3.2093     231.3316       1.0226
   16671.0    1430.2219       0.0000      50.8611    -128.5741       4.9144      -3.8404       3.0613     237.8407       1.0226
   16672.0    1422.2373       0.0000      50.8611    -122.7151       4.9783      -4.1866       2.6876     243.9235       1.0267
   16673.0    1422.2373       0.0000      50.8611    -116.8590       4.9827      -4.4429       2.2476     250.0342       1.0226
   16674.0    1417.2029       0.0000      50.8611    -111.5619       5.0820      -4.7241       1.8641     256.1354       1.0226
   16675.0    1400.4013       0.0000      50.8611    -106.3931       5.2382      -5.0245       1.4765     262.2239       1.0226
   16676.0    1386.0559       0.0000      50.8611    -101.0552       5.2800      -5.1814       1.0112     268.3092       1.0196
   16677.0    1392.6346       0.0000      50.8611     -95.4171       5.3143      -5.2904       0.5009     274.3925       1.0226
   16678.0    1374.9573       0.0000      50.8611     -89.9437       5.3860      -5.3860      -0.0053     280.4810       1.0226
   16679.0    1362.6454       0.0000      50.8611     -84.6620       5.5056      -5.4816      -0.5115     286.5819       1.0226
   16680.0    1355.7626       0.0000      50.8611     -80.1426       5.4417      -5.3611      -0.9302     292.6843       1.0226
