~VERSION INFORMATION
VERS.           2.0   :CWLS Log ASCII Standard - VERSION 2.0
WRAP.           NO    :One Line per depth step
PROD.  Schlumberger   :LAS Producer
PROG.  DLIS to ASCII 19C2-270                          :LAS Program name and version
CREA.        2017/09/16 17:42                          :LAS Creation date {YYYY/MM/DD hh:mm}
DLIS_CREA.  2017-Sep-15 19:24                          :DLIS Creation date and time {YYYY-MMM-DD hh:mm}
SOURCE.     LPC_S5-1_BV.DLIS                           :DLIS File Name
FILE-ID.     PERFO_Perfo_WPGRT_061LTP                  :File Identification Number
#--------------------------------------------------
~WELL INFORMATION
#MNEM.UNIT      DATA             DESCRIPTION
#---- ------ --------------   -----------------------------
STRT .S          101.0       :START TIME      
STOP .S          592.0       :STOP TIME      
STEP .S            1.0       :STEP     
NULL .          -999.25      :NULL VALUE
COMP .        SHELL INTERNATIONAL E P                  :COMPANY
WELL .        WPP TEST 2                               :WELL
FLD  .        WILDCAT                                  :FIELD
LOC  .        NA                                       :LOCATION
CNTY .        HARRIS                                   :COUNTY
STAT .        TEXAS                                    :STATE
CTRY .                                                 :COUNTRY
API  .        NA                                       :API NUMBER
UWI  .                                                 :UNIQUE WELL ID
DATE .        15-Sep-2017                              :LOG DATE {DD-MMM-YYYY}
SRVC .        Schlumberger                             :SERVICE COMPANY
LATI .DEG                                              :LATITUDE
LONG .DEG                                              :LONGITUDE
GDAT .                                                 :GeoDetic Datum
SECT .        NA                                       :Section
RANG .        NA                                       :Range
TOWN .        NA                                       :Township
#-----------------------------------------------------------------------------
~PARAMETER INFORMATION
#MNEM.UNIT    VALUE                      DESCRIPTION
#---- -----   --------------------       ------------------------
U-PHASE_B_COMP_PER_YT.                 0 :Phase B Comparator Period Yt
U-PHASE_A_COMP_PER_XT.                 0 :Phase A Comparator Period Xt
U-MAX_EXC_CUR_LIMIT.MA       240.00000   :Requested CM Current Limit
U-REQ_EXC_FQ.HZ              50          :Requested CM Frequency
U-TILT_Y_OFFSET.           0.19916       :WPTET Tilt Y Offset
U-TILT_Y_GAIN.           1.01796         :WPTET Tilt Y Gain
U-TILT_X_OFFSET.          -1.77103       :WPTET Tilt X Offset
U-TILT_X_GAIN.           1.00000         :WPTET Tilt X Gain
U-TILT_OFFSET_TOL.           0.00100     :WPTET Tilt Offset Calibration Tolerance
U-NO_TILT_CAL_ROTATIONS.                 3 :Number of Rotations for Tilt Calibration
HAZI .DEG        0.00000                 :Hole Azimuth
U-STD_TOL_TILT.           0.01000        :Tilt Standard Deviation Tolerance
U-GUN_POS_TOL.DEG        5.00000         :Gun Position Tolerance
ROT_ANGLE_THRESHOLD.DEG        5.00000   :Rotation Stop Angle Tolerance
STOP_ROT_ANGLE.DEG        0.00000        :Rotation Stop Angle
WITN .        MR. DHRUA ARORA            :Witness's Name
ENGI .        MORRIS MOORE               :Engineer's Name
COUN .        HARRIS                     :County or Rig Name
FN   .        WILDCAT                    :Field Name
WN   .        WPP TEST 2                 :Well Name
CN   .        SHELL INTERNATIONAL E P    :Company Name
CLAB .        County                     :County/Rig Label
SLAB .        State                      :State/Province Label
RUN  .          1                        :RUN NUMBER
PDAT .        GROUND LEVEL               :Permanent Datum
EPD  .                                   :Elevation of Permanent Datum above Mean Sea Level
LMF  .          NA                       :Logging Measured From (Name of Logging Elevation Reference)
APD  .                                   :Elevation of Depth Reference (LMF) above Permanent Datum
#-----------------------------------------------------------------------------
~CURVE INFORMATION
#MNEM.UNIT   API CODE                                  DESCRIPTION
#---- -----  --------                                  -----------------------
TIME .S                                                :TIME {F10.1}
FREQ_EMF_SL.HZ                                         :Electromagnetic Field Frequency {F13.4}
PH_SH_WPPCM_SL.DEG                                     :WPPCM Phase Shift {F13.4}
FREQ_EXC_REQ_SL.HZ                                     :Requested Exciter Frequency {F13.4}
RB_SL.DEG                                              :Relative Bearing {F13.4}
SDEV_SL.DEG                                            :Sonde Deviation {F13.4}
TILX_SL.DEG                                            :X-axis Tilt {F13.4}
TILY_SL.DEG                                            :Y-axis Tilt {F13.4}
ROTA_SL.DEG                                            :Motor Rotation Angle {F13.4}
MSPE_SL.RPM                                            :Motor Speed {F13.4}
#-----------------------------------------------------------------------------
# 
#     TIME    FREQ_EMF_SL  PH_SH_WPPCM_ FREQ_EXC_REQ    RB_SL       SDEV_SL      TILX_SL      TILY_SL      ROTA_SL      MSPE_SL
#                          SL           _SL
~A  
     101.0       0.0000       0.0000      50.8611     -68.4359       1.1269      -1.0480      -0.4142     143.1174       1.0226
     102.0       0.0000       0.0000      50.8611     -73.1051       0.9787      -0.9338      -0.2736     147.1547       1.0226
     103.0       0.0000       0.0000      50.8611     -69.5652       1.1000      -1.0305      -0.3848     153.2678       1.0265
     104.0       0.0000       0.0000      50.8611     -72.6718       1.1213      -1.0706      -0.3324     159.3637       1.0158
     105.0       0.0000       0.0000      50.8611     -64.5832       1.3492      -1.2149      -0.5841     165.4751       1.0226
     106.0       0.0000       0.0000      50.8611     -65.5137       1.2964      -1.1798      -0.5368     171.5770       1.0226
     107.0       0.0000       0.0000      50.8611     -71.6377       1.0637      -1.0079      -0.3356     177.6789       1.0226
     108.0       0.0000       0.0000      50.8611     -67.5650       1.1589      -1.0687      -0.4467     183.7939       1.0226
     109.0       0.0000       0.0000      50.8611     -70.4001       1.0826      -1.0192      -0.3618     189.9089       1.0226
     110.0       0.0000       0.0000      50.8611     -65.6156       1.3278      -1.2087      -0.5483     196.0119       1.0226
     111.0       0.0000       0.0000      50.8611     -66.7664       1.3675      -1.2570      -0.5368     202.1048       1.0188
     112.0       0.0000       0.0000      50.8611     -62.2503       1.1844      -1.0480      -0.5515     208.6083       1.0226
     113.0       0.0000       0.0000      50.8611     -60.9671       1.2789      -1.1171      -0.6218     214.7253       1.0226
     114.0       0.0000       0.0000      50.8611     -56.8481       1.1820      -0.9903      -0.6448     220.8272       1.0226
     115.0       0.0000       0.0000      50.8611     -58.7150       1.4784      -1.2633      -0.7675     226.9271       1.0226
     116.0       0.0000       0.0000      50.8611     -58.5875       1.3657      -1.1654      -0.7119     233.0310       1.0226
     117.0       0.0000       0.0000      50.8611     -57.3982       1.3299      -1.1202      -0.7119     239.1250       1.0188
     118.0       0.0000       0.0000      50.8611     -55.7807       1.3248      -1.0954      -0.7449     245.2101       1.0197
     119.0       0.0000       0.0000      50.8611     -57.1373       1.2431      -1.0398      -0.6678     251.3120       1.0226
     120.0       0.0000       0.0000      50.8611     -51.3510       1.3451      -1.0480      -0.8409     257.4139       1.0226
     121.0       0.0000       0.0000      50.8611     -51.7470       1.3531      -1.0625      -0.8377     263.5289       1.0226
     122.0       0.0000       0.0000      50.8611     -48.2179       1.1561      -0.8616      -0.7706     269.6071       1.0226
     123.0       0.0000       0.0000      50.8611     -41.6966       1.2155      -0.8070      -0.9080     275.7141       1.0188
     124.0       0.0000       0.0000      50.8611     -50.3756       1.1858      -0.9131      -0.7560     282.0782       1.0295
     125.0       0.0000       0.0000      50.8611     -45.3283       1.1778      -0.8390      -0.8262     288.3294       1.0295
     126.0     905.0468       0.0000      50.8611     -51.1831       0.8443      -0.6557      -0.5317     294.1806       0.8891
     127.0    1293.4620       0.0000      50.8611     -52.8832       1.1755      -0.9357      -0.7036     300.0806       1.0226
     128.0    1361.6985       0.0000      50.8611     -44.4824       1.1867      -0.8378      -0.8346     306.1824       1.0226
     129.0    1366.2455       0.0000      50.8611     -52.8516       1.1331      -0.9037      -0.6627     312.2719       1.0226
     130.0    1360.5200       0.0000      50.8611     -39.7996       0.9478      -0.5985      -0.7324     318.3614       1.0197
     131.0    1345.5498       0.0000      50.8611     -40.2427       1.0446      -0.6752      -0.7968     324.4716       1.0265
     132.0    1334.4097       0.0000      50.8611     -44.4361       1.1321      -0.7926      -0.8084     330.5781       1.0226
     133.0    1330.7719       0.0000      50.8611     -41.2391       0.8375      -0.5516      -0.6301     336.6799       1.0226
     134.0    1303.6313       0.0000      50.8611     -43.9726       1.0100      -0.7010      -0.7266     342.7817       1.0226
     135.0    1289.4755       0.0000      50.8611     -38.9707       0.8264      -0.5145      -0.6416     348.8835       1.0226
     136.0    1272.4945       0.0000      50.8611     -45.0042       0.8808      -0.6237      -0.6218     355.2448       1.0226
     137.0    1259.1097       0.0000      50.8611     -39.0030       0.8025      -0.5032      -0.6250       1.4952       1.0226
     138.0    1249.6882       0.0000      50.8611     -30.7577       0.6633      -0.3426      -0.5662       7.5970       1.0226
     139.0    1239.0621       0.0000      50.8611     -50.6583       0.8538      -0.6577      -0.5400      13.6988       1.0226
     140.0    1235.7206       0.0000      50.8611     -51.5500       0.7560      -0.5918      -0.4697      19.8006       1.0226
     141.0    1238.5136       0.0000      50.8611     -49.8672       0.8275      -0.6175      -0.5420      25.9024       1.0226
     142.0    1238.2454       0.0000      50.8611     -43.8868       0.6544      -0.4553      -0.4682      32.0062       1.0226
     143.0    1237.8961       0.0000      50.8611     -54.0292       0.6380      -0.5145      -0.3764      38.1061       1.0226
     144.0    1240.8664       0.0000      50.8611     -54.0085       0.7992      -0.6464      -0.4697      44.2079       1.0226
     145.0    1245.7250       0.0000      50.8611     -52.5430       0.7513      -0.5949      -0.4582      50.3018       1.0188
     146.0    1249.5185       0.0000      50.8611     -67.1645       0.7888      -0.7267      -0.3062      56.4076       1.0295
     147.0    1256.3872       0.0000      50.8611     -82.5944       0.5566      -0.5516      -0.0724      62.5152       1.0226
     148.0    1278.2373       0.0000      50.8611     -54.7778       0.7995      -0.6464      -0.4634      68.8765       1.0226
     149.0    1287.6005       0.0000      50.8611     -68.4530       0.7604      -0.7010      -0.2832      75.1134       1.0226
     150.0    1300.5411       0.0000      50.8611     -70.2111       0.7734      -0.7267      -0.2621      81.2158       1.0265
     151.0    1315.8294       0.0000      50.8611     -66.2299       0.9621      -0.8862      -0.3701      87.3308       1.0226
     152.0    1330.7719       0.0000      50.8611     -71.7793       0.8354      -0.7926      -0.2621      93.4390       1.0295
     153.0    1343.4857       0.0000      50.8611     -71.0131       0.7741      -0.7298      -0.2474      99.5475       1.0226
     154.0    1347.2995       0.0000      50.8611     -78.0091       1.0139      -0.9901      -0.2129     105.6493       1.0226
     155.0    1357.1912       0.0000      50.8611     -70.7506       0.9280      -0.8760      -0.3062     111.7595       1.0265
     156.0    1362.4509       0.0000      50.8611     -70.4950       0.8798      -0.8296      -0.2915     117.8659       1.0226
     157.0    1364.3408       0.0000      50.8611     -84.1056       1.0793      -1.0706      -0.1049     123.9809       1.0226
     158.0    1372.3294       0.0000      50.8611     -68.7963       0.9237      -0.8554      -0.3240     130.0827       1.0226
     159.0    1385.0850       0.0000      50.8611     -71.7376       0.9769      -0.9275      -0.3062     136.1941       1.0265
     160.0    1386.6330       0.0000      50.8611     -58.7714       0.8643      -0.7029      -0.4122     142.2996       1.0226
     161.0    1389.5751       0.0000      50.8611     -71.9841       1.0701      -1.0110      -0.3260     148.8096       1.0226
     162.0    1399.8673       0.0000      50.8611     -72.4477       1.0152      -0.9677      -0.3062     154.9329       1.0265
     163.0    1409.0682       0.0000      50.8611     -68.9014       1.1509      -1.0738      -0.4142     161.0395       1.0226
