~VERSION INFORMATION
VERS.           2.0   :CWLS Log ASCII Standard - VERSION 2.0
WRAP.           NO    :One Line per depth step
PROD.  Schlumberger   :LAS Producer
PROG.  DLIS to ASCII 19C2-270                          :LAS Program name and version
CREA.        2017/09/16 17:42                          :LAS Creation date {YYYY/MM/DD hh:mm}
DLIS_CREA.  2017-Sep-15 11:15                          :DLIS Creation date and time {YYYY-MMM-DD hh:mm}
SOURCE.     LPC_S1-1_AV_1ST-LOG.DLIS                   :DLIS File Name
FILE-ID.     PERFO_Perfo_WPGRT_014LTP                  :File Identification Number
#--------------------------------------------------
~WELL INFORMATION
#MNEM.UNIT      DATA             DESCRIPTION
#---- ------ --------------   -----------------------------
STRT .S         1693.0       :START TIME      
STOP .S         2010.0       :STOP TIME      
STEP .S            1.0       :STEP     
NULL .          -999.25      :NULL VALUE
COMP .        SHELL INTERNATIONAL E P                  :COMPANY
WELL .        WPP TEST 2                               :WELL
FLD  .        WILDCAT                                  :FIELD
LOC  .                                                 :LOCATION
CNTY .        HARRIS                                   :COUNTY
STAT .        TEXAS                                    :STATE
CTRY .                                                 :COUNTRY
API  .                                                 :API NUMBER
UWI  .                                                 :UNIQUE WELL ID
DATE .                                                 :LOG DATE
SRVC .        Schlumberger                             :SERVICE COMPANY
LATI .DEG                                              :LATITUDE
LONG .DEG                                              :LONGITUDE
GDAT .                                                 :GeoDetic Datum
#-----------------------------------------------------------------------------
~PARAMETER INFORMATION
#MNEM.UNIT    VALUE                      DESCRIPTION
#---- -----   --------------------       ------------------------
U-PHASE_B_COMP_PER_YT.                 0 :Phase B Comparator Period Yt
U-PHASE_A_COMP_PER_XT.                 0 :Phase A Comparator Period Xt
U-MAX_EXC_CUR_LIMIT.MA       240.00000   :Requested CM Current Limit
U-REQ_EXC_FQ.HZ              50          :Requested CM Frequency
U-TILT_Y_OFFSET.           0.19916       :WPTET Tilt Y Offset
U-TILT_Y_GAIN.           1.01796         :WPTET Tilt Y Gain
U-TILT_X_OFFSET.          -1.77103       :WPTET Tilt X Offset
U-TILT_X_GAIN.           1.00000         :WPTET Tilt X Gain
U-TILT_OFFSET_TOL.           0.00100     :WPTET Tilt Offset Calibration Tolerance
U-NO_TILT_CAL_ROTATIONS.                 3 :Number of Rotations for Tilt Calibration
HAZI .DEG        0.00000                 :Hole Azimuth
U-STD_TOL_TILT.           0.01000        :Tilt Standard Deviation Tolerance
U-GUN_POS_TOL.DEG        5.00000         :Gun Position Tolerance
ROT_ANGLE_THRESHOLD.DEG        5.00000   :Rotation Stop Angle Tolerance
STOP_ROT_ANGLE.DEG        0.00000        :Rotation Stop Angle
WITN .                                   :Witness's Name
ENGI .                                   :Engineer's Name
COUN .        HARRIS                     :County or Rig Name
FN   .        WILDCAT                    :Field Name
WN   .        WPP TEST 2                 :Well Name
CN   .        SHELL INTERNATIONAL E P    :Company Name
CLAB .        County                     :County/Rig Label
SLAB .        State                      :State/Province Label
RUN  .          1                        :RUN NUMBER
PDAT .        GROUND LEVEL               :Permanent Datum
EPD  .                                   :Elevation of Permanent Datum above Mean Sea Level
LMF  .                                   :Logging Measured From (Name of Logging Elevation Reference)
APD  .                                   :Elevation of Depth Reference (LMF) above Permanent Datum
#-----------------------------------------------------------------------------
~CURVE INFORMATION
#MNEM.UNIT   API CODE                                  DESCRIPTION
#---- -----  --------                                  -----------------------
TIME .S                                                :TIME {F10.1}
FREQ_EMF_SL.HZ                                         :Electromagnetic Field Frequency {F13.4}
PH_SH_WPPCM_SL.DEG                                     :WPPCM Phase Shift {F13.4}
FREQ_EXC_REQ_SL.HZ                                     :Requested Exciter Frequency {F13.4}
RB_SL.DEG                                              :Relative Bearing {F13.4}
SDEV_SL.DEG                                            :Sonde Deviation {F13.4}
TILX_SL.DEG                                            :X-axis Tilt {F13.4}
TILY_SL.DEG                                            :Y-axis Tilt {F13.4}
ROTA_SL.DEG                                            :Motor Rotation Angle {F13.4}
MSPE_SL.RPM                                            :Motor Speed {F13.4}
#-----------------------------------------------------------------------------
# 
#     TIME    FREQ_EMF_SL  PH_SH_WPPCM_ FREQ_EXC_REQ    RB_SL       SDEV_SL      TILX_SL      TILY_SL      ROTA_SL      MSPE_SL
#                          SL           _SL
~A  
    1693.0     963.6472       0.0000      50.8611     -48.5810       1.1646      -0.8731      -0.7703     146.0112       1.0226
    1694.0     945.5988       0.0000      50.8611     -51.0651       1.1416      -0.8874      -0.7177     152.1113       1.0151
    1695.0     926.2232       0.0000      50.8611     -48.2096       1.1133      -0.8302      -0.7413     158.2167       1.0226
    1696.0     916.2176       0.0000      50.8611     -47.8653       1.0522      -0.7785      -0.7058     164.3186       1.0226
    1697.0     910.2683       0.0000      50.8611     -50.9758       1.1226      -0.8704      -0.7058     170.8276       1.0226
    1698.0     904.7472       0.0000      50.8611     -43.6768       1.0158      -0.6981      -0.7349     176.9273       1.0226
    1699.0     898.1711       0.0000      50.8611     -51.3550       1.0158      -0.7901      -0.6367     183.0292       1.0226
    1700.0     897.8378       0.0000      50.8611     -55.7189       0.9823      -0.8070      -0.5550     189.1442       1.0226
    1701.0     901.9321       0.0000      50.8611     -43.9590       0.9893      -0.6865      -0.7122     195.2359       1.0151
    1702.0     905.9356       0.0000      50.8611     -44.4277       0.9808      -0.6865      -0.7004     201.3509       1.0226
    1703.0     914.8727       0.0000      50.8611     -43.9344       1.0543      -0.7321      -0.7585     207.4507       1.0226
    1704.0     924.2998       0.0000      50.8611     -42.7748       1.0724      -0.7267      -0.7876     213.5547       1.0226
    1705.0     935.8922       0.0000      50.8611     -50.2622       0.9227      -0.7097      -0.5895     219.6566       1.0226
    1706.0     951.2857       0.0000      50.8611     -48.0601       0.8716      -0.6464      -0.5832     225.7594       1.0226
    1707.0     971.3812       0.0000      50.8611     -52.0853       0.9477      -0.7490      -0.5777     231.8735       1.0226
    1708.0     994.1577       0.0000      50.8611     -53.4510       0.9904      -0.7954      -0.5895     237.9727       1.0182
    1709.0    1019.2578       0.0000      50.8611     -50.6704       0.9764      -0.7553      -0.6186     244.4978       1.0226
    1710.0    1047.0203       0.0000      50.8611     -58.0844       0.8834      -0.7499      -0.4669     250.6118       1.0302
    1711.0    1113.9659       0.0000      50.8611     -48.7224       0.7994      -0.6008      -0.5250     256.7137       1.0226
    1712.0    1215.9435       0.0000      50.8611     -50.9871       0.9295      -0.7151      -0.5887     262.8287       1.0226
    1713.0    1278.1061       0.0000      50.8611     -53.6997       0.8674      -0.6981      -0.5132     268.9329       1.0182
    1714.0    1307.3153       0.0000      50.8611     -53.5264       0.8540      -0.6865      -0.5077     275.0463       1.0226
    1715.0    1340.1493       0.0000      50.8611     -52.5662       0.8668      -0.6883      -0.5250     281.1503       1.0226
    1716.0    1375.9785       0.0000      50.8611     -64.4419       0.8374      -0.7553      -0.3615     287.2523       1.0182
    1717.0    1409.0682       0.0000      50.8611     -51.9764       0.6087      -0.4848      -0.3615     293.3547       1.0226
    1718.0    1432.4983       0.0000      50.8611     -62.9690       0.8481      -0.7553      -0.3851     299.4565       1.0226
    1719.0    1459.2555       0.0000      50.8611     -65.2476       0.9464      -0.8588      -0.3969     305.5583       1.0226
    1720.0    1487.4315       0.0000      50.8611     -62.1070       0.8867      -0.7838      -0.4142     311.6601       1.0226
    1721.0    1522.8688       0.0000      50.8611     -66.9939       0.7771      -0.7151      -0.3033     318.1677       1.0226
    1722.0    1547.2997       0.0000      50.8611     -65.1516       0.9587      -0.8695      -0.3969     324.2695       1.0226
    1723.0    1568.0030       0.0000      50.8611     -62.8177       0.8430      -0.7499      -0.3851     330.3713       1.0226
    1724.0    1591.8222       0.0000      50.8611     -62.8956       1.0391      -0.9213      -0.4778     336.4863       1.0226
    1725.0    1612.6721       0.0000      50.8611     -64.2358       1.0254      -0.9213      -0.4487     342.5757       1.0257
    1726.0    1622.2694       0.0000      50.8611     -67.4027       0.8681      -0.8017      -0.3324     348.6915       1.0226
    1727.0    1638.9860       0.0000      50.8611     -63.5833       0.9833      -0.8811      -0.4360     354.7933       1.0226
    1728.0    1645.5519       0.0000      50.8611     -65.6130       1.0313      -0.9391      -0.4260       0.8951       1.0226
    1729.0    1647.7790       0.0000      50.8611     -64.7152       1.1335      -1.0248      -0.4841       6.9991       1.0226
    1730.0    1646.6628       0.0000      50.8611     -65.2840       0.9335      -0.8472      -0.3905      13.1009       1.0226
    1731.0    1642.8153       0.0000      50.8611     -65.0458       1.0104      -0.9159      -0.4260      19.2027       1.0226
    1732.0    1640.0917       0.0000      50.8611     -65.5334       1.6048      -1.4604      -0.6650      25.3046       1.0226
    1733.0    1627.6041       0.0000      50.8611     -64.8142       1.0694      -0.9677      -0.4551      31.5242       1.0226
    1734.0    1612.6721       0.0000      50.8611     -66.5028       1.0680      -0.9793      -0.4260      37.9140       1.0226
    1735.0    1596.4434       0.0000      50.8611     -64.5929       1.0902      -0.9847      -0.4669      44.0158       1.0226
    1736.0    1580.0563       0.0000      50.8611     -62.2678       1.0669      -0.9445      -0.4959      50.1177       1.0226
    1737.0    1553.6075       0.0000      50.8611     -63.1536       1.0717      -0.9561      -0.4841      56.2195       1.0226
    1738.0    1528.9905       0.0000      50.8611     -63.7576       1.1874      -1.0650      -0.5250      62.3128       1.0302
    1739.0    1503.9979       0.0000      50.8611     -61.7537       1.0727      -0.9449      -0.5077      68.4240       1.0226
    1740.0    1482.4844       0.0000      50.8611     -60.8026       1.1116      -0.9677      -0.5432      74.5258       1.0226
    1741.0    1449.7422       0.0000      50.8611     -64.1934       1.1701      -1.0534      -0.5077      80.6284       1.0226
    1742.0    1424.9644       0.0000      50.8611     -54.2922       1.1832      -0.9569      -0.6822      86.7315       1.0226
    1743.0    1402.6482       0.0000      50.8611     -58.3726       1.2037      -1.0248      -0.6304      92.8355       1.0226
    1744.0    1367.1805       0.0000      50.8611     -52.7202       1.0650      -0.8480      -0.6359      98.9214       1.0226
    1745.0    1330.2251       0.0000      50.8611     -54.0344       1.1526      -0.9329      -0.6768     105.0254       1.0226
    1746.0    1295.2166       0.0000      50.8611     -60.2518       1.1286      -0.9793      -0.5604     111.5220       1.0226
    1747.0    1234.4845       0.0000      50.8611     -49.9885       1.1849      -0.9043      -0.7640     117.6216       1.0226
    1748.0    1151.0351       0.0000      50.8611     -56.8658       1.1767      -0.9847      -0.6422     123.7112       1.0226
    1749.0    1079.5884       0.0000      50.8611     -57.0459       1.3298      -1.1159      -0.7231     129.8130       1.0226
    1750.0    1027.0978       0.0000      50.8611     -54.7640       1.1639      -0.9507      -0.6713     135.9170       1.0226
    1751.0     995.6169       0.0000      50.8611     -50.9042       1.1047      -0.8555      -0.6949     142.0168       1.0226
    1752.0     973.6804       0.0000      50.8611     -55.1609       1.1180      -0.9151      -0.6249     148.1064       1.0226
    1753.0     953.8418       0.0000      50.8611     -48.5038       1.0396      -0.7785      -0.6886     154.2083       1.0226
    1754.0     936.7800       0.0000      50.8611     -51.9507       1.0977      -0.8642      -0.6768     160.3088       1.0151
    1755.0     923.0863       0.0000      50.8611     -48.9092       1.2159      -0.9159      -0.7994     166.3873       1.0226
