~VERSION INFORMATION
VERS.           2.0   :CWLS Log ASCII Standard - VERSION 2.0
WRAP.           NO    :One Line per depth step
PROD.  Schlumberger   :LAS Producer
PROG.  DLIS to ASCII 19C2-270                          :LAS Program name and version
CREA.        2017/09/16 17:42                          :LAS Creation date {YYYY/MM/DD hh:mm}
DLIS_CREA.  2017-Sep-15 13:07                          :DLIS Creation date and time {YYYY-MMM-DD hh:mm}
SOURCE.     LPC_S1-1_2AV.DLIS                          :DLIS File Name
FILE-ID.     PERFO_Perfo_WPGRT_022LTP                  :File Identification Number
#--------------------------------------------------
~WELL INFORMATION
#MNEM.UNIT      DATA             DESCRIPTION
#---- ------ --------------   -----------------------------
STRT .S         8392.0       :START TIME      
STOP .S         9264.0       :STOP TIME      
STEP .S            1.0       :STEP     
NULL .          -999.25      :NULL VALUE
COMP .        SHELL INTERNATIONAL E P                  :COMPANY
WELL .        WPP TEST 2                               :WELL
FLD  .        WILDCAT                                  :FIELD
LOC  .                                                 :LOCATION
CNTY .        HARRIS                                   :COUNTY
STAT .        TEXAS                                    :STATE
CTRY .                                                 :COUNTRY
API  .                                                 :API NUMBER
UWI  .                                                 :UNIQUE WELL ID
DATE .                                                 :LOG DATE
SRVC .        Schlumberger                             :SERVICE COMPANY
LATI .DEG                                              :LATITUDE
LONG .DEG                                              :LONGITUDE
GDAT .                                                 :GeoDetic Datum
#-----------------------------------------------------------------------------
~PARAMETER INFORMATION
#MNEM.UNIT    VALUE                      DESCRIPTION
#---- -----   --------------------       ------------------------
U-PHASE_B_COMP_PER_YT.                 0 :Phase B Comparator Period Yt
U-PHASE_A_COMP_PER_XT.                 0 :Phase A Comparator Period Xt
U-MAX_EXC_CUR_LIMIT.MA       240.00000   :Requested CM Current Limit
U-REQ_EXC_FQ.HZ              50          :Requested CM Frequency
U-TILT_Y_OFFSET.           0.19916       :WPTET Tilt Y Offset
U-TILT_Y_GAIN.           1.01796         :WPTET Tilt Y Gain
U-TILT_X_OFFSET.          -1.77103       :WPTET Tilt X Offset
U-TILT_X_GAIN.           1.00000         :WPTET Tilt X Gain
U-TILT_OFFSET_TOL.           0.00100     :WPTET Tilt Offset Calibration Tolerance
U-NO_TILT_CAL_ROTATIONS.                 3 :Number of Rotations for Tilt Calibration
HAZI .DEG        0.00000                 :Hole Azimuth
U-STD_TOL_TILT.           0.01000        :Tilt Standard Deviation Tolerance
U-GUN_POS_TOL.DEG        5.00000         :Gun Position Tolerance
ROT_ANGLE_THRESHOLD.DEG        5.00000   :Rotation Stop Angle Tolerance
STOP_ROT_ANGLE.DEG       80.00000        :Rotation Stop Angle
WITN .                                   :Witness's Name
ENGI .                                   :Engineer's Name
COUN .        HARRIS                     :County or Rig Name
FN   .        WILDCAT                    :Field Name
WN   .        WPP TEST 2                 :Well Name
CN   .        SHELL INTERNATIONAL E P    :Company Name
CLAB .        County                     :County/Rig Label
SLAB .        State                      :State/Province Label
RUN  .          1                        :RUN NUMBER
PDAT .        GROUND LEVEL               :Permanent Datum
EPD  .                                   :Elevation of Permanent Datum above Mean Sea Level
LMF  .                                   :Logging Measured From (Name of Logging Elevation Reference)
APD  .                                   :Elevation of Depth Reference (LMF) above Permanent Datum
#-----------------------------------------------------------------------------
~CURVE INFORMATION
#MNEM.UNIT   API CODE                                  DESCRIPTION
#---- -----  --------                                  -----------------------
TIME .S                                                :TIME {F10.1}
FREQ_EMF_SL.HZ                                         :Electromagnetic Field Frequency {F13.4}
PH_SH_WPPCM_SL.DEG                                     :WPPCM Phase Shift {F13.4}
FREQ_EXC_REQ_SL.HZ                                     :Requested Exciter Frequency {F13.4}
RB_SL.DEG                                              :Relative Bearing {F13.4}
SDEV_SL.DEG                                            :Sonde Deviation {F13.4}
TILX_SL.DEG                                            :X-axis Tilt {F13.4}
TILY_SL.DEG                                            :Y-axis Tilt {F13.4}
ROTA_SL.DEG                                            :Motor Rotation Angle {F13.4}
MSPE_SL.RPM                                            :Motor Speed {F13.4}
#-----------------------------------------------------------------------------
# 
#     TIME    FREQ_EMF_SL  PH_SH_WPPCM_ FREQ_EXC_REQ    RB_SL       SDEV_SL      TILX_SL      TILY_SL      ROTA_SL      MSPE_SL
#                          SL           _SL
~A  
# ...
    8455.0    1357.3574       0.0000      50.8611     -50.4421       0.9856      -0.7608      -0.6256     248.3283       1.0226
    8456.0    1356.9395       0.0000      50.8611     -51.4983       0.9649      -0.7540      -0.5977     254.4322       1.0226
    8457.0    1360.4578       0.0000      50.8611     -50.5488       1.0273      -0.7934      -0.6525     260.5319       1.0226
    8458.0    1360.4578       0.0000      50.8611     -47.3753       0.9338      -0.6865      -0.6325     266.6316       1.0226
    8459.0    1365.2913       0.0000      50.8611     -55.2494       1.0143      -0.8335      -0.5777     272.7353       1.0226
    8460.0    1368.4008       0.0000      50.8611     -50.1211       0.9122      -0.7002      -0.5847     278.8520       1.0226
    8461.0    1367.4959       0.0000      50.8611     -50.5355       0.8983      -0.6934      -0.5708     284.9517       1.0226
    8462.0    1370.6140       0.0000      50.8611     -51.4106       1.0908      -0.8532      -0.6795     291.0513       1.0226
    8463.0    1379.5992       0.0000      50.8611     -50.8502       0.9800      -0.7600      -0.6186     297.5600       1.0226
    8464.0    1383.6421       0.0000      50.8611     -52.4267       0.9592      -0.7600      -0.5847     303.6647       1.0226
    8465.0    1379.5992       0.0000      50.8611     -55.0063       0.9361      -0.7669      -0.5368     309.7774       1.0226
    8466.0    1384.5685       0.0000      50.8611     -57.0196       0.8502      -0.7130      -0.4620     315.8811       1.0226
    8467.0    1381.3850       0.0000      50.8611     -59.5813       0.8856      -0.7600      -0.4489     321.9848       1.0226
    8468.0    1386.8344       0.0000      50.8611     -54.9805       1.1913      -1.0046      -0.6309     328.0844       1.0226
    8469.0    1398.6485       0.0000      50.8611     -59.0090       0.9244      -0.7917      -0.4768     334.1841       1.0226
    8470.0    1394.6196       0.0000      50.8611     -58.7493       0.9284      -0.7934      -0.4820     340.2878       1.0226
    8471.0    1391.4574       0.0000      50.8611     -55.6826       0.8551      -0.7062      -0.4820     346.3915       1.0226
    8472.0    1400.6475       0.0000      50.8611     -59.1640       0.9012      -0.7737      -0.4620     352.4919       1.0226
    8473.0    1396.4539       0.0000      50.8611     -56.9023       0.8844      -0.7403      -0.4820     358.6048       1.0138
    8474.0    1393.2679       0.0000      50.8611     -55.3234       0.8838      -0.7267      -0.5029       4.7094       1.0244
    8475.0    1390.0429       0.0000      50.8611     -63.8654       0.9738      -0.8737      -0.4281      11.1504       1.0226
    8476.0    1392.3268       0.0000      50.8611     -60.4248       0.9359      -0.8139      -0.4620      17.3251       1.0226
    8477.0    1398.7652       0.0000      50.8611     -61.1121       1.0820      -0.9472      -0.5229      23.4239       1.0226
    8478.0    1392.3268       0.0000      50.8611     -60.2616       1.0143      -0.8805      -0.5029      29.5277       1.0226
    8479.0    1385.5022       0.0000      50.8611     -59.8127       0.9723      -0.8404      -0.4890      35.6173       1.0208
    8480.0    1382.3114       0.0000      50.8611     -58.6767       1.0066      -0.8600      -0.5229      41.7281       1.0226
    8481.0    1386.1389       0.0000      50.8611     -64.6911       0.9681      -0.8736      -0.4167      47.8195       1.0226
    8482.0    1380.9246       0.0000      50.8611     -61.9435       0.9677      -0.8540      -0.4551      53.9233       1.0226
    8483.0    1385.4475       0.0000      50.8611     -70.7852       0.9263      -0.8745      -0.3054      60.0361       1.0226
    8484.0    1375.9785       0.0000      50.8611     -50.8412       0.9721      -0.7540      -0.6117      66.1359       1.0226
    8485.0    1370.6140       0.0000      50.8611     -65.1016       1.0008      -0.9078      -0.4211      72.2530       1.0226
    8486.0    1366.1961       0.0000      50.8611     -65.8969       1.0311      -0.9412      -0.4211      78.3493       1.0208
    8487.0    1364.8415       0.0000      50.8611     -63.1985       1.0397      -0.9275      -0.4690      84.7940       1.0138
    8488.0    1363.9471       0.0000      50.8611     -60.2659       1.0683      -0.9275      -0.5299      90.9300       1.0121
    8489.0    1360.0098       0.0000      50.8611     -62.3437       1.0701      -0.9480      -0.4959      97.0347       1.0226
    8490.0    1355.6598       0.0000      50.8611     -65.2452       1.0219      -0.9275      -0.4281     103.1455       1.0315
    8491.0    1349.5681       0.0000      50.8611     -65.6667       1.0006      -0.9131      -0.4072     109.2475       1.0226
    8492.0    1341.8416       0.0000      50.8611     -64.4737       1.2095      -1.0934      -0.5160     115.3513       1.0226
    8493.0    1338.1344       0.0000      50.8611     -60.5895       1.1457      -0.9980      -0.5623     121.4682       1.0226
    8494.0    1342.2777       0.0000      50.8611     -63.2886       1.1051      -0.9874      -0.4959     127.5680       1.0226
    8495.0    1337.5642       0.0000      50.8611     -58.9842       0.9891      -0.8472      -0.5098     133.6576       1.0208
    8496.0    1331.2482       0.0000      50.8611     -57.1210       1.1276      -0.9472      -0.6117     139.7645       1.0226
    8497.0    1325.0036       0.0000      50.8611     -56.6657       1.1264      -0.9412      -0.6186     145.8634       1.0226
    8498.0    1329.5868       0.0000      50.8611     -58.5858       1.0561      -0.9010      -0.5507     151.9633       1.0226
    8499.0    1335.4509       0.0000      50.8611     -59.5180       1.1538      -0.9942      -0.5847     158.3992       1.0226
    8500.0    1323.7295       0.0000      50.8611     -56.4431       1.2415      -1.0344      -0.6865     164.5720       1.0226
    8501.0    1330.4476       0.0000      50.8611     -64.4688       1.1189      -1.0079      -0.4829     170.6770       1.0226
    8502.0    1327.5052       0.0000      50.8611     -59.3346       1.1329      -0.9745      -0.5777     176.7644       1.0208
    8503.0    1335.4509       0.0000      50.8611     -54.7641       1.0623      -0.8677      -0.6117     182.8683       1.0226
    8504.0    1326.2262       0.0000      50.8611     -53.0035       1.0864      -0.8677      -0.6525     188.9855       1.0226
    8505.0    1330.5379       0.0000      50.8611     -54.1315       1.1139      -0.9025      -0.6525     195.0731       1.0226
    8506.0    1327.5052       0.0000      50.8611     -54.1790       1.1034      -0.8942      -0.6456     201.1729       1.0226
    8507.0    1341.8416       0.0000      50.8611     -53.8634       1.0490      -0.8472      -0.6186     207.2675       1.0297
    8508.0    1339.7203       0.0000      50.8611     -54.9047       1.0762      -0.8805      -0.6186     213.3823       1.0226
    8509.0    1338.8529       0.0000      50.8611     -52.4005       1.0695      -0.8472      -0.6525     219.4822       1.0226
    8510.0    1343.5367       0.0000      50.8611     -53.0051       1.0621      -0.8472      -0.6395     225.5937       1.0244
    8511.0    1349.5681       0.0000      50.8611     -57.9829       1.0392      -0.8805      -0.5507     231.6999       1.0226
    8512.0    1344.8452       0.0000      50.8611     -49.6111       1.0070      -0.7669      -0.6525     238.2238       1.0244
    8513.0    1346.9828       0.0000      50.8611     -58.4770       1.0706      -0.9131      -0.5507     244.3237       1.0226
    8514.0    1353.0510       0.0000      50.8611     -38.7459       0.9157      -0.5729      -0.7143     250.4407       1.0226
    8515.0    1358.2786       0.0000      50.8611     -51.1076       0.9853      -0.7669      -0.6186     256.5323       1.0297
    8516.0    1357.3842       0.0000      50.8611     -52.6841       0.9644      -0.7669      -0.5847     262.6450       1.0226
    8517.0    1363.9471       0.0000      50.8611     -56.6482       0.9267      -0.7737      -0.5098     268.7447       1.0226
