~VERSION INFORMATION
VERS.           2.0   :CWLS Log ASCII Standard - VERSION 2.0
WRAP.           NO    :One Line per depth step
PROD.  Schlumberger   :LAS Producer
PROG.  DLIS to ASCII 19C2-270                          :LAS Program name and version
CREA.        2017/09/16 17:42                          :LAS Creation date {YYYY/MM/DD hh:mm}
DLIS_CREA.  2017-Sep-15 16:01                          :DLIS Creation date and time {YYYY-MMM-DD hh:mm}
SOURCE.     LPC_S3-1_A5.DLIS                           :DLIS File Name
FILE-ID.     PERFO_Perfo_WPGRT_038LTP                  :File Identification Number
#--------------------------------------------------
~WELL INFORMATION
#MNEM.UNIT      DATA             DESCRIPTION
#---- ------ --------------   -----------------------------
STRT .S         1883.0       :START TIME      
STOP .S         2380.0       :STOP TIME      
STEP .S            1.0       :STEP     
NULL .          -999.25      :NULL VALUE
COMP .        SHELL INTERNATIONAL E P                  :COMPANY
WELL .        WPP TEST 2                               :WELL
FLD  .        WILDCAT                                  :FIELD
LOC  .                                                 :LOCATION
CNTY .        HARRIS                                   :COUNTY
STAT .        TEXAS                                    :STATE
CTRY .                                                 :COUNTRY
API  .                                                 :API NUMBER
UWI  .                                                 :UNIQUE WELL ID
DATE .                                                 :LOG DATE
SRVC .        Schlumberger                             :SERVICE COMPANY
LATI .DEG                                              :LATITUDE
LONG .DEG                                              :LONGITUDE
GDAT .                                                 :GeoDetic Datum
#-----------------------------------------------------------------------------
~PARAMETER INFORMATION
#MNEM.UNIT    VALUE                      DESCRIPTION
#---- -----   --------------------       ------------------------
U-PHASE_B_COMP_PER_YT.                 0 :Phase B Comparator Period Yt
U-PHASE_A_COMP_PER_XT.                 0 :Phase A Comparator Period Xt
U-MAX_EXC_CUR_LIMIT.MA       240.00000   :Requested CM Current Limit
U-REQ_EXC_FQ.HZ              50          :Requested CM Frequency
U-TILT_Y_OFFSET.           0.19916       :WPTET Tilt Y Offset
U-TILT_Y_GAIN.           1.01796         :WPTET Tilt Y Gain
U-TILT_X_OFFSET.          -1.77103       :WPTET Tilt X Offset
U-TILT_X_GAIN.           1.00000         :WPTET Tilt X Gain
U-TILT_OFFSET_TOL.           0.00100     :WPTET Tilt Offset Calibration Tolerance
U-NO_TILT_CAL_ROTATIONS.                 3 :Number of Rotations for Tilt Calibration
HAZI .DEG        0.00000                 :Hole Azimuth
U-STD_TOL_TILT.           0.01000        :Tilt Standard Deviation Tolerance
U-GUN_POS_TOL.DEG        5.00000         :Gun Position Tolerance
ROT_ANGLE_THRESHOLD.DEG        5.00000   :Rotation Stop Angle Tolerance
STOP_ROT_ANGLE.DEG        0.00000        :Rotation Stop Angle
WITN .                                   :Witness's Name
ENGI .                                   :Engineer's Name
COUN .        HARRIS                     :County or Rig Name
FN   .        WILDCAT                    :Field Name
WN   .        WPP TEST 2                 :Well Name
CN   .        SHELL INTERNATIONAL E P    :Company Name
CLAB .        County                     :County/Rig Label
SLAB .        State                      :State/Province Label
RUN  .          1                        :RUN NUMBER
PDAT .        GROUND LEVEL               :Permanent Datum
EPD  .                                   :Elevation of Permanent Datum above Mean Sea Level
LMF  .                                   :Logging Measured From (Name of Logging Elevation Reference)
APD  .                                   :Elevation of Depth Reference (LMF) above Permanent Datum
#-----------------------------------------------------------------------------
~CURVE INFORMATION
#MNEM.UNIT   API CODE                                  DESCRIPTION
#---- -----  --------                                  -----------------------
TIME .S                                                :TIME {F10.1}
FREQ_EMF_SL.HZ                                         :Electromagnetic Field Frequency {F13.4}
PH_SH_WPPCM_SL.DEG                                     :WPPCM Phase Shift {F13.4}
FREQ_EXC_REQ_SL.HZ                                     :Requested Exciter Frequency {F13.4}
RB_SL.DEG                                              :Relative Bearing {F13.4}
SDEV_SL.DEG                                            :Sonde Deviation {F13.4}
TILX_SL.DEG                                            :X-axis Tilt {F13.4}
TILY_SL.DEG                                            :Y-axis Tilt {F13.4}
ROTA_SL.DEG                                            :Motor Rotation Angle {F13.4}
MSPE_SL.RPM                                            :Motor Speed {F13.4}
#-----------------------------------------------------------------------------
# 
#     TIME    FREQ_EMF_SL  PH_SH_WPPCM_ FREQ_EXC_REQ    RB_SL       SDEV_SL      TILX_SL      TILY_SL      ROTA_SL      MSPE_SL
#                          SL           _SL
~A  
# ...
    2261.0    1552.6760       0.0000      50.8611     169.5980       3.7298       0.6730       3.6684      75.4304       1.0226
    2262.0    1557.9858       0.0000      50.8611     173.6358       3.7925       0.4198       3.7689      81.5331       1.0226
    2263.0    1556.9454       0.0000      50.8611    -177.5288       3.9583      -0.1705       3.9546      87.6374       1.0226
    2264.0    1545.8487       0.0000      50.8611    -170.0128       3.9043      -0.6770       3.8444      93.7366       1.0226
    2265.0    1540.9140       0.0000      50.8611    -163.3674       4.0423      -1.1563       3.8728      99.8542       1.0226
    2266.0    1528.5327       0.0000      50.8611    -158.0771       4.1827      -1.5607       3.8791     105.9559       1.0226
    2267.0    1518.1294       0.0000      50.8611    -152.2363       4.2145      -1.9623       3.7280     112.0577       1.0226
    2268.0    1506.6085       0.0000      50.8611    -144.8598       4.3951      -2.5281       3.5929     118.1600       1.0226
    2269.0    1495.5262       0.0000      50.8611    -140.7865       4.4119      -2.7874       3.4168     124.2749       1.0226
    2270.0    1486.0439       0.0000      50.8611    -133.7645       4.5379      -3.2756       3.1369     130.7817       1.0226
    2271.0    1470.5046       0.0000      50.8611    -129.5258       4.7101      -3.6309       2.9955     136.8949       1.0210
    2272.0    1449.7422       0.0000      50.8611    -123.6052       4.8365      -4.0265       2.6746     142.9864       1.0226
    2273.0    1428.2335       0.0000      50.8611    -116.4712       4.8271      -4.3199       2.1493     149.0760       1.0226
    2274.0    1416.7226       0.0000      50.8611    -112.5564       4.8462      -4.4744       1.8569     155.1779       1.0226
    2275.0    1396.7913       0.0000      50.8611    -107.8477       4.9805      -4.7399       1.5235     161.2784       1.0137
    2276.0    1376.2318       0.0000      50.8611    -100.5452       5.0827      -4.9966       0.9289     167.3855       1.0226
    2277.0    1361.4442       0.0000      50.8611     -97.4758       5.0683      -5.0245       0.6586     173.4851       1.0137
    2278.0    1329.9281       0.0000      50.8611     -90.7820       5.1639      -5.1634       0.0703     179.5766       1.0226
    2279.0    1316.3382       0.0000      50.8611     -85.7168       5.2525      -5.2376      -0.3920     185.6785       1.0226
    2280.0    1278.6262       0.0000      50.8611     -80.9718       5.3319      -5.2655      -0.8355     191.7681       1.0226
    2281.0    1226.4433       0.0000      50.8611     -75.0286       5.3457      -5.1634      -1.3795     197.8581       1.0226
    2282.0    1194.2532       0.0000      50.8611     -70.8115       5.4782      -5.1729      -1.7981     204.3702       1.0226
    2283.0    1154.5566       0.0000      50.8611     -66.2789       5.5423      -5.0715      -2.2222     210.4807       1.0226
    2284.0    1129.7797       0.0000      50.8611     -60.7257       5.3938      -4.7032      -2.6346     216.5826       1.0226
    2285.0    1093.9196       0.0000      50.8611     -56.3046       5.4811      -4.5582      -3.0372     222.6845       1.0226
    2286.0    1062.3674       0.0000      50.8611     -51.8399       5.5193      -4.3363      -3.4017     228.7864       1.0226
    2287.0    1047.4014       0.0000      50.8611     -46.4117       5.4268      -3.9278      -3.7386     234.8661       1.0226
    2288.0    1037.6591       0.0000      50.8611     -40.4550       5.5538      -3.6003      -4.2230     240.9685       1.0226
    2289.0    1040.3607       0.0000      50.8611     -36.9529       5.3823      -3.2327      -4.2985     247.0699       1.0226
    2290.0    1031.6698       0.0000      50.8611     -31.6517       5.3887      -2.8249      -4.5847     253.1718       1.0226
    2291.0    1028.7790       0.0000      50.8611     -27.0310       5.3812      -2.4416      -4.7919     259.2737       1.0226
    2292.0    1030.6608       0.0000      50.8611     -21.6887       5.2498      -1.9378      -4.8772     265.3632       1.0226
    2293.0    1037.5254       0.0000      50.8611     -15.5461       5.2198      -1.3973      -5.0283     271.4527       1.0226
    2294.0    1041.0699       0.0000      50.8611     -13.0241       5.1591      -1.1597      -5.0248     277.9731       1.0226
    2295.0    1049.0759       0.0000      50.8611      -2.1520       5.0544      -0.1889      -5.0505     284.0880       1.0226
    2296.0    1067.8395       0.0000      50.8611      -1.0626       5.0172      -0.0936      -5.0158     290.2028       1.0226
    2297.0    1094.0274       0.0000      50.8611       5.7100       4.8765       0.4844      -4.8522     296.3178       1.0226
    2298.0    1116.2090       0.0000      50.8611       9.5508       4.7680       0.7901      -4.7012     302.4248       1.0226
    2299.0    1156.6040       0.0000      50.8611      14.0593       4.6603       1.1298      -4.5189     308.5240       1.0226
    2300.0    1203.5032       0.0000      50.8611      22.2007       4.5384       1.7139      -4.2008     314.6139       1.0226
    2301.0    1243.6187       0.0000      50.8611      27.1589       4.3337       1.9767      -3.8550     320.7152       1.0226
    2302.0    1281.0941       0.0000      50.8611      33.7424       4.2629       2.3661      -3.5438     326.8175       1.0226
    2303.0    1309.3575       0.0000      50.8611      38.9175       4.1284       2.5915      -3.2105     332.9188       1.0226
    2304.0    1335.3679       0.0000      50.8611      44.4902       4.1592       2.9128      -2.9652     339.0092       1.0317
    2305.0    1351.1605       0.0000      50.8611      53.1485       4.0124       3.2096      -2.4052     345.1114       1.0226
    2306.0    1365.6963       0.0000      50.8611      59.1770       3.7384       3.2096      -1.9145     351.6163       1.0210
    2307.0    1389.5751       0.0000      50.8611      66.0441       3.7257       3.4043      -1.5119     357.7209       1.0317
    2308.0    1409.4997       0.0000      50.8611      73.3018       3.6995       3.5432      -1.0621       3.8130       1.0226
    2309.0    1430.9022       0.0000      50.8611      77.7363       3.5384       3.4568      -0.7510       9.9122       1.0226
    2310.0    1447.2142       0.0000      50.8611      88.1644       3.4064       3.4043      -0.1092      16.0017       1.0226
    2311.0    1467.4355       0.0000      50.8611      94.2367       3.4200       3.4105       0.2525      22.1061       1.0226
    2312.0    1483.8643       0.0000      50.8611     103.4010       3.4366       3.3424       0.7965      28.1976       1.0317
    2313.0    1496.4971       0.0000      50.8611     110.5870       3.4294       3.2096       1.2054      34.2986       1.0226
    2314.0    1508.8519       0.0000      50.8611     121.3374       3.3064       2.8236       1.7182      40.3889       1.0137
    2315.0    1521.9155       0.0000      50.8611     130.3849       3.3183       2.5268       2.1493      46.4764       1.0210
    2316.0    1528.5327       0.0000      50.8611     135.1624       3.4621       2.4403       2.4542      52.5678       1.0226
    2317.0    1532.8851       0.0000      50.8611     142.7525       3.5027       2.1190       2.7876      58.6572       0.8578
    2318.0    1539.0813       0.0000      50.8611     144.4654       3.4189       1.9863       2.7813      59.6920       0.0005
    2319.0    1548.2144       0.0000      50.8611     146.3174       3.4605       1.9182       2.8791      59.6920       0.0005
    2320.0    1548.2144       0.0000      50.8611     144.1092       3.4416       2.0169       2.7876      59.6920       0.0005
    2321.0    1548.7335       0.0000      50.8611     144.5030       3.5604       2.0666       2.8978      59.6920       0.0005
    2322.0    1544.8128       0.0000      50.8611     145.8048       3.4473       1.9366       2.8506      59.6920       0.0005
    2323.0    1541.9408       0.0000      50.8611     146.9836       3.3672       1.8344       2.8222      59.6920       0.0005
