~VERSION INFORMATION
VERS.           2.0   :CWLS Log ASCII Standard - VERSION 2.0
WRAP.           NO    :One Line per depth step
PROD.  Schlumberger   :LAS Producer
PROG.  DLIS to ASCII 19C2-270                          :LAS Program name and version
CREA.        2017/09/16 17:42                          :LAS Creation date {YYYY/MM/DD hh:mm}
DLIS_CREA.  2017-Sep-15 15:01                          :DLIS Creation date and time {YYYY-MMM-DD hh:mm}
SOURCE.     LPC_S2-1_2AV.DLIS                          :DLIS File Name
FILE-ID.     PERFO_Perfo_WPGRT_032LTP                  :File Identification Number
#--------------------------------------------------
~WELL INFORMATION
#MNEM.UNIT      DATA             DESCRIPTION
#---- ------ --------------   -----------------------------
STRT .S        15223.0       :START TIME      
STOP .S        15655.0       :STOP TIME      
STEP .S            1.0       :STEP     
NULL .          -999.25      :NULL VALUE
COMP .        SHELL INTERNATIONAL E P                  :COMPANY
WELL .                                                 :WELL
FLD  .        WPP TEST 2                               :FIELD
LOC  .                                                 :LOCATION
CNTY .        HARRIS                                   :COUNTY
STAT .        TEXAS                                    :STATE
CTRY .                                                 :COUNTRY
API  .                                                 :API NUMBER
UWI  .                                                 :UNIQUE WELL ID
DATE .                                                 :LOG DATE
SRVC .        Schlumberger                             :SERVICE COMPANY
LATI .DEG                                              :LATITUDE
LONG .DEG                                              :LONGITUDE
GDAT .                                                 :GeoDetic Datum
#-----------------------------------------------------------------------------
~PARAMETER INFORMATION
#MNEM.UNIT    VALUE                      DESCRIPTION
#---- -----   --------------------       ------------------------
U-PHASE_B_COMP_PER_YT.                 0 :Phase B Comparator Period Yt
U-PHASE_A_COMP_PER_XT.                 0 :Phase A Comparator Period Xt
U-MAX_EXC_CUR_LIMIT.MA       240.00000   :Requested CM Current Limit
U-REQ_EXC_FQ.HZ              50          :Requested CM Frequency
U-TILT_Y_OFFSET.           0.19916       :WPTET Tilt Y Offset
U-TILT_Y_GAIN.           1.01796         :WPTET Tilt Y Gain
U-TILT_X_OFFSET.          -1.77103       :WPTET Tilt X Offset
U-TILT_X_GAIN.           1.00000         :WPTET Tilt X Gain
U-TILT_OFFSET_TOL.           0.00100     :WPTET Tilt Offset Calibration Tolerance
U-NO_TILT_CAL_ROTATIONS.                 3 :Number of Rotations for Tilt Calibration
HAZI .DEG        0.00000                 :Hole Azimuth
U-STD_TOL_TILT.           0.01000        :Tilt Standard Deviation Tolerance
U-GUN_POS_TOL.DEG        5.00000         :Gun Position Tolerance
ROT_ANGLE_THRESHOLD.DEG        5.00000   :Rotation Stop Angle Tolerance
STOP_ROT_ANGLE.DEG       80.00000        :Rotation Stop Angle
WITN .                                   :Witness's Name
ENGI .                                   :Engineer's Name
COUN .        HARRIS                     :County or Rig Name
FN   .        WPP TEST 2                 :Field Name
WN   .                                   :Well Name
CN   .        SHELL INTERNATIONAL E P    :Company Name
CLAB .        County                     :County/Rig Label
SLAB .        State                      :State/Province Label
RUN  .          1                        :RUN NUMBER
PDAT .        GROUND LEVEL               :Permanent Datum
EPD  .                                   :Elevation of Permanent Datum above Mean Sea Level
LMF  .                                   :Logging Measured From (Name of Logging Elevation Reference)
APD  .                                   :Elevation of Depth Reference (LMF) above Permanent Datum
#-----------------------------------------------------------------------------
~CURVE INFORMATION
#MNEM.UNIT   API CODE                                  DESCRIPTION
#---- -----  --------                                  -----------------------
TIME .S                                                :TIME {F10.1}
FREQ_EMF_SL.HZ                                         :Electromagnetic Field Frequency {F13.4}
PH_SH_WPPCM_SL.DEG                                     :WPPCM Phase Shift {F13.4}
FREQ_EXC_REQ_SL.HZ                                     :Requested Exciter Frequency {F13.4}
RB_SL.DEG                                              :Relative Bearing {F13.4}
SDEV_SL.DEG                                            :Sonde Deviation {F13.4}
TILX_SL.DEG                                            :X-axis Tilt {F13.4}
TILY_SL.DEG                                            :Y-axis Tilt {F13.4}
ROTA_SL.DEG                                            :Motor Rotation Angle {F13.4}
MSPE_SL.RPM                                            :Motor Speed {F13.4}
#-----------------------------------------------------------------------------
# 
#     TIME    FREQ_EMF_SL  PH_SH_WPPCM_ FREQ_EXC_REQ    RB_SL       SDEV_SL      TILX_SL      TILY_SL      ROTA_SL      MSPE_SL
#                          SL           _SL
~A  
# ...
   15475.0    1409.5917       0.0000      50.8611     -55.5786       0.9886      -0.8145      -0.5595      66.9463       1.0226
   15476.0    1420.6915       0.0000      50.8611     -47.8130       0.9708      -0.7193      -0.6519      73.0462       1.0226
   15477.0    1425.1510       0.0000      50.8611     -56.6911       0.8906      -0.7446      -0.4884      79.5805       1.0334
   15478.0    1429.1158       0.0000      50.8611     -53.9432       0.8679      -0.7014      -0.5111      85.7128       1.0226
   15479.0    1443.7886       0.0000      50.8611     -48.6370       0.9486      -0.7118      -0.6262      91.8126       1.0226
   15480.0    1443.7886       0.0000      50.8611     -56.6262       0.8133      -0.6791      -0.4475      97.9265       1.0246
   15481.0    1451.0821       0.0000      50.8611     -60.6102       1.1213      -0.9737      -0.5338     104.0353       1.0226
   15482.0    1448.4217       0.0000      50.8611     -48.3091       0.8712      -0.6464      -0.5808     110.1566       1.0314
   15483.0    1456.8652       0.0000      50.8611     -56.7490       0.9652      -0.8070      -0.5293     116.2614       1.0226
   15484.0    1458.7655       0.0000      50.8611     -53.7973       1.0526      -0.8502      -0.6186     122.3612       1.0226
   15485.0    1457.9943       0.0000      50.8611     -53.2996       0.7744      -0.6211      -0.4626     128.4758       1.0314
   15486.0    1469.2756       0.0000      50.8611     -59.9397       0.9240      -0.7996      -0.4626     134.5820       1.0226
   15487.0    1460.6785       0.0000      50.8611     -57.9079       0.8206      -0.6940      -0.4369     140.6936       1.0314
   15488.0    1456.3041       0.0000      50.8611     -66.5092       0.8031      -0.7341      -0.3218     146.7835       1.0226
   15489.0    1454.9773       0.0000      50.8611     -60.6349       0.9465      -0.8249      -0.4626     153.3106       1.0226
   15490.0    1445.6623       0.0000      50.8611     -58.8492       0.8666      -0.7416      -0.4475     159.4000       1.0226
   15491.0    1445.1172       0.0000      50.8611     -66.7297       0.8791      -0.8070      -0.3475     165.1039       1.0226
   15492.0    1440.8298       0.0000      50.8611     -54.7078       1.0302      -0.8398      -0.5959     171.1875       1.0140
   15493.0    1429.6543       0.0000      50.8611     -58.5880       0.7834      -0.6687      -0.4066     177.2898       1.0246
   15494.0    1431.4880       0.0000      50.8611     -68.7415       0.9170      -0.8546      -0.3324     183.3898       1.0226
   15495.0    1422.4004       0.0000      50.8611     -68.0374       0.9881      -0.9164      -0.3695     189.4898       1.0226
   15496.0    1410.1172       0.0000      50.8611     -63.0528       0.9872      -0.8799      -0.4475     195.5936       1.0226
   15497.0    1397.1540       0.0000      50.8611     -68.0140       1.0448      -0.9677      -0.3915     201.6974       1.0226
   15498.0    1395.6023       0.0000      50.8611     -68.1793       1.0265      -0.9528      -0.3808     207.7849       1.0226
   15499.0    1383.6013       0.0000      50.8611     -67.9737       1.1064      -1.0257      -0.4142     213.8724       1.0226
   15500.0    1373.7882       0.0000      50.8611     -62.0597       0.9900      -0.8725      -0.4657     219.9762       1.0226
   15501.0    1367.9475       0.0000      50.8611     -60.6396       1.0268      -0.8948      -0.5035     226.4869       1.0226
   15502.0    1352.1635       0.0000      50.8611     -66.5842       1.1259      -1.0332      -0.4475     232.5744       1.0226
   15503.0    1340.7097       0.0000      50.8611     -67.2468       1.0436      -0.9603      -0.4035     238.6681       1.0140
   15504.0    1327.1148       0.0000      50.8611     -59.8420       1.1517      -0.9930      -0.5808     244.7574       1.0226
   15505.0    1325.5444       0.0000      50.8611     -64.2450       1.2363      -1.1135      -0.5368     250.8573       1.0226
   15506.0    1310.7184       0.0000      50.8611     -62.9219       1.2351      -1.0986      -0.5595     256.9573       1.0140
   15507.0    1288.5032       0.0000      50.8611     -60.1041       0.9880      -0.8565      -0.4922     263.0617       1.0226
   15508.0    1277.9799       0.0000      50.8611     -69.4933       1.4490      -1.3575      -0.5035     269.1784       1.0226
   15509.0    1250.1276       0.0000      50.8611     -62.4111       1.1217      -0.9930      -0.5186     275.2658       1.0226
   15510.0    1235.5722       0.0000      50.8611     -62.7842       1.0020      -0.8918      -0.4551     281.3656       1.0226
   15511.0    1218.0475       0.0000      50.8611     -59.7409       1.1759      -1.0153      -0.5928     287.4744       1.0206
   15512.0    1216.0906       0.0000      50.8611     -63.0125       1.1323      -1.0079      -0.5141     293.5746       1.0226
   15513.0    1199.1170       0.0000      50.8611     -55.1335       1.2049      -0.9826      -0.6883     299.9955       1.0140
   15514.0    1187.1979       0.0000      50.8611     -47.3305       0.9640      -0.7088      -0.6519     306.1848       1.0226
   15515.0    1185.7083       0.0000      50.8611     -56.4108       1.0883      -0.9052      -0.6004     312.2884       1.0226
   15516.0    1184.6041       0.0000      50.8611     -57.1310       1.0967      -0.9201      -0.5959     318.3892       1.0226
   15517.0    1192.6415       0.0000      50.8611     -54.8398       1.1758      -0.9603      -0.6777     324.5011       1.0140
   15518.0    1189.3490       0.0000      50.8611     -50.5109       1.1934      -0.9201      -0.7595     330.6053       1.0226
   15519.0    1190.8438       0.0000      50.8611     -53.6198       1.1786      -0.9491      -0.6985     336.7220       1.0226
   15520.0    1211.1305       0.0000      50.8611     -59.5673       1.2117      -1.0450      -0.6110     342.8336       1.0294
   15521.0    1222.6121       0.0000      50.8611     -58.6555       1.1313      -0.9603      -0.5898     348.9623       1.0226
   15522.0    1241.4610       0.0000      50.8611     -58.2570       1.0222      -0.8695      -0.5368     355.0559       1.0206
   15523.0    1270.6261       0.0000      50.8611     -48.6023       1.1234      -0.8398      -0.7443       1.1703       1.0226
   15524.0    1289.2649       0.0000      50.8611     -48.6442       1.1723      -0.8799      -0.7746       7.2713       1.0140
   15525.0    1294.4492       0.0000      50.8611     -47.5686       1.1480      -0.8472      -0.7746      13.6806       1.0226
   15526.0    1320.2925       0.0000      50.8611     -49.6001       1.1557      -0.8799      -0.7488      19.8469       1.0226
   15527.0    1327.7722       0.0000      50.8611     -53.5373       1.0536      -0.8472      -0.6262      25.9468       1.0226
   15528.0    1342.5195       0.0000      50.8611     -49.2569       1.0220      -0.7743      -0.6671      32.0243       1.0140
   15529.0    1350.2539       0.0000      50.8611     -46.3238       1.0962      -0.7922      -0.7564      38.1265       1.0226
   15530.0    1361.1882       0.0000      50.8611     -46.5666       1.0308      -0.7490      -0.7079      44.2433       1.0226
   15531.0    1372.7448       0.0000      50.8611     -49.7947       0.9961      -0.7602      -0.6421      50.3351       1.0272
   15532.0    1384.1044       0.0000      50.8611     -51.4205       0.9746      -0.7594      -0.6080      56.4447       1.0226
   15533.0    1391.1083       0.0000      50.8611     -52.2743       0.9802      -0.7743      -0.6004      62.5665       1.0226
   15534.0    1409.0682       0.0000      50.8611     -48.4906       0.9460      -0.7088      -0.6262      68.6782       1.0226
   15535.0    1416.5376       0.0000      50.8611     -46.3565       0.9456      -0.6791      -0.6550      74.7692       1.0140
   15536.0    1419.3971       0.0000      50.8611     -54.6605       1.2391      -1.0139      -0.7110      80.8657       1.0226
   15537.0    1427.2918       0.0000      50.8611     -45.1717       1.0151      -0.7193      -0.7155      86.9825       1.0226
