~VERSION INFORMATION
VERS.           2.0   :CWLS Log ASCII Standard - VERSION 2.0
WRAP.           NO    :One Line per depth step
PROD.  Schlumberger   :LAS Producer
PROG.  DLIS to ASCII 19C2-270                          :LAS Program name and version
CREA.        2017/09/16 17:42                          :LAS Creation date {YYYY/MM/DD hh:mm}
DLIS_CREA.  2017-Sep-15 16:10                          :DLIS Creation date and time {YYYY-MMM-DD hh:mm}
SOURCE.     LPC_S3-1_B5.DLIS                           :DLIS File Name
FILE-ID.     PERFO_Perfo_WPGRT_039LTP                  :File Identification Number
#--------------------------------------------------
~WELL INFORMATION
#MNEM.UNIT      DATA             DESCRIPTION
#---- ------ --------------   -----------------------------
STRT .S         2439.0       :START TIME      
STOP .S         2874.0       :STOP TIME      
STEP .S            1.0       :STEP     
NULL .          -999.25      :NULL VALUE
COMP .        SHELL INTERNATIONAL E P                  :COMPANY
WELL .        WPP TEST 2                               :WELL
FLD  .        WILDCAT                                  :FIELD
LOC  .                                                 :LOCATION
CNTY .        HARRIS                                   :COUNTY
STAT .        TEXAS                                    :STATE
CTRY .                                                 :COUNTRY
API  .                                                 :API NUMBER
UWI  .                                                 :UNIQUE WELL ID
DATE .                                                 :LOG DATE
SRVC .        Schlumberger                             :SERVICE COMPANY
LATI .DEG                                              :LATITUDE
LONG .DEG                                              :LONGITUDE
GDAT .                                                 :GeoDetic Datum
#-----------------------------------------------------------------------------
~PARAMETER INFORMATION
#MNEM.UNIT    VALUE                      DESCRIPTION
#---- -----   --------------------       ------------------------
U-PHASE_B_COMP_PER_YT.                 0 :Phase B Comparator Period Yt
U-PHASE_A_COMP_PER_XT.                 0 :Phase A Comparator Period Xt
U-MAX_EXC_CUR_LIMIT.MA       240.00000   :Requested CM Current Limit
U-REQ_EXC_FQ.HZ              50          :Requested CM Frequency
U-TILT_Y_OFFSET.           0.19916       :WPTET Tilt Y Offset
U-TILT_Y_GAIN.           1.01796         :WPTET Tilt Y Gain
U-TILT_X_OFFSET.          -1.77103       :WPTET Tilt X Offset
U-TILT_X_GAIN.           1.00000         :WPTET Tilt X Gain
U-TILT_OFFSET_TOL.           0.00100     :WPTET Tilt Offset Calibration Tolerance
U-NO_TILT_CAL_ROTATIONS.                 3 :Number of Rotations for Tilt Calibration
HAZI .DEG        0.00000                 :Hole Azimuth
U-STD_TOL_TILT.           0.01000        :Tilt Standard Deviation Tolerance
U-GUN_POS_TOL.DEG        5.00000         :Gun Position Tolerance
ROT_ANGLE_THRESHOLD.DEG        5.00000   :Rotation Stop Angle Tolerance
STOP_ROT_ANGLE.DEG        0.00000        :Rotation Stop Angle
WITN .                                   :Witness's Name
ENGI .                                   :Engineer's Name
COUN .        HARRIS                     :County or Rig Name
FN   .        WILDCAT                    :Field Name
WN   .        WPP TEST 2                 :Well Name
CN   .        SHELL INTERNATIONAL E P    :Company Name
CLAB .        County                     :County/Rig Label
SLAB .        State                      :State/Province Label
RUN  .          1                        :RUN NUMBER
PDAT .        GROUND LEVEL               :Permanent Datum
EPD  .                                   :Elevation of Permanent Datum above Mean Sea Level
LMF  .                                   :Logging Measured From (Name of Logging Elevation Reference)
APD  .                                   :Elevation of Depth Reference (LMF) above Permanent Datum
#-----------------------------------------------------------------------------
~CURVE INFORMATION
#MNEM.UNIT   API CODE                                  DESCRIPTION
#---- -----  --------                                  -----------------------
TIME .S                                                :TIME {F10.1}
FREQ_EMF_SL.HZ                                         :Electromagnetic Field Frequency {F13.4}
PH_SH_WPPCM_SL.DEG                                     :WPPCM Phase Shift {F13.4}
FREQ_EXC_REQ_SL.HZ                                     :Requested Exciter Frequency {F13.4}
RB_SL.DEG                                              :Relative Bearing {F13.4}
SDEV_SL.DEG                                            :Sonde Deviation {F13.4}
TILX_SL.DEG                                            :X-axis Tilt {F13.4}
TILY_SL.DEG                                            :Y-axis Tilt {F13.4}
ROTA_SL.DEG                                            :Motor Rotation Angle {F13.4}
MSPE_SL.RPM                                            :Motor Speed {F13.4}
#-----------------------------------------------------------------------------
# 
#     TIME    FREQ_EMF_SL  PH_SH_WPPCM_ FREQ_EXC_REQ    RB_SL       SDEV_SL      TILX_SL      TILY_SL      ROTA_SL      MSPE_SL
#                          SL           _SL
~A  
# ...
    2565.0    1297.6560       0.0000      50.8611     -91.7281       5.3433      -5.3408       0.1608     187.2655       1.0226
    2566.0    1258.3972       0.0000      50.8611     -85.5061       5.2453      -5.2291      -0.4103     193.7630       1.0223
    2567.0    1192.1199       0.0000      50.8611     -80.9613       5.4908      -5.4224      -0.8614     199.8529       1.0124
    2568.0    1149.0740       0.0000      50.8611     -76.5128       5.4540      -5.3032      -1.2703     205.9544       1.0226
    2569.0    1100.6234       0.0000      50.8611     -70.8907       5.4875      -5.1839      -1.7941     212.0563       1.0226
    2570.0    1054.6618       0.0000      50.8611     -66.0425       5.4543      -4.9831      -2.2120     218.1463       1.0124
    2571.0    1020.7339       0.0000      50.8611     -60.8208       5.5288      -4.8249      -2.6924     224.2738       1.0226
    2572.0    1002.8535       0.0000      50.8611     -56.3506       5.6077      -4.6655      -3.1038     230.3757       1.0226
    2573.0     982.1905       0.0000      50.8611     -49.4269       5.4137      -4.1095      -3.5178     236.4776       1.0226
    2574.0     974.0695       0.0000      50.8611     -45.4704       5.3723      -3.8271      -3.7644     242.5795       1.0226
    2575.0     965.7071       0.0000      50.8611     -39.5088       5.5138      -3.5045      -4.2512     248.6695       1.0124
    2576.0     960.3901       0.0000      50.8611     -37.9705       5.5565      -3.4153      -4.3777     254.7902       1.0226
    2577.0     955.4551       0.0000      50.8611     -30.7414       5.5240      -2.8204      -4.7457     260.8740       1.0223
    2578.0     960.4715       0.0000      50.8611     -28.0964       5.4728      -2.5744      -4.8262     267.3711       1.0226
    2579.0     959.2429       0.0000      50.8611     -22.3262       5.3096      -2.0145      -4.9106     273.4607       1.0226
    2580.0     961.8262       0.0000      50.8611     -16.8506       5.3025      -1.5350      -5.0741     279.5661       1.0226
    2581.0     969.7858       0.0000      50.8611     -11.5313       5.2624      -1.0505      -5.1559     285.6797       1.0223
    2582.0     984.5549       0.0000      50.8611      -6.2650       5.2733      -0.5748      -5.2415     291.7815       1.0226
    2583.0     997.2523       0.0000      50.8611      -1.8885       4.9554      -0.1631      -4.9527     297.9103       1.0226
    2584.0    1011.6906       0.0000      50.8611       4.0470       5.0395       0.3553      -5.0268     304.0133       1.0327
    2585.0    1035.2937       0.0000      50.8611      10.0868       4.9867       0.8724      -4.9093     310.1287       1.0229
    2586.0    1074.7086       0.0000      50.8611      15.5388       4.6344       1.2402      -4.4646     316.2567       1.0226
    2587.0    1128.4426       0.0000      50.8611      20.1650       4.7488       1.6356      -4.4570     322.3717       1.0226
    2588.0    1187.5240       0.0000      50.8611      26.7206       4.5403       2.0398      -4.0545     328.4735       1.0226
    2589.0    1257.6167       0.0000      50.8611      33.7678       4.3887       2.4377      -3.6469     334.5510       1.0327
    2590.0    1306.4734       0.0000      50.8611      39.0053       4.2703       2.6862      -3.3172     341.1000       1.0330
    2591.0    1328.6930       0.0000      50.8611      44.7696       4.0478       2.8494      -2.8726     347.1903       1.0226
    2592.0    1352.1635       0.0000      50.8611      48.8906       3.9880       3.0038      -2.6208     353.2925       1.0226
    2593.0    1378.5922       0.0000      50.8611      57.4220       3.8157       3.2147      -2.0535     359.4133       1.0226
    2594.0    1411.6334       0.0000      50.8611      65.9150       3.7377       3.4117      -1.5245       5.4968       1.0226
    2595.0    1437.4286       0.0000      50.8611      72.4760       3.7032       3.5310      -1.1144      11.5864       1.0223
    2596.0    1455.5578       0.0000      50.8611      78.6594       3.7589       3.6854      -0.7387      17.7014       1.0226
    2597.0    1480.0692       0.0000      50.8611      89.0868       3.4527       3.4519      -0.0551      23.8289       1.0330
    2598.0    1505.5204       0.0000      50.8611      95.1903       3.5455       3.5310       0.3205      29.9311       1.0226
    2599.0    1518.5263       0.0000      50.8611     101.9184       3.5281       3.4519       0.7281      36.0211       1.0124
    2600.0    1548.5212       0.0000      50.8611     109.3858       3.3230       3.1343       1.1025      42.0978       1.0226
    2601.0    1569.1492       0.0000      50.8611     119.4077       3.3217       2.8933       1.6302      48.1997       1.0124
    2602.0    1586.7457       0.0000      50.8611     125.6429       3.5008       2.8444       2.0391      54.6848       1.0223
    2603.0    1598.1251       0.0000      50.8611     134.5104       3.4950       2.4917       2.4493      60.7750       1.0226
    2604.0    1605.4230       0.0000      50.8611     141.6862       3.4351       2.1289       2.6946      66.8899       1.0330
    2605.0    1619.7561       0.0000      50.8611     149.8926       3.4448       1.7272       2.9795      71.4171       0.0005
    2606.0    1623.6120       0.0000      50.8611     150.8429       3.4592       1.6846       3.0204      71.4171       0.0005
    2607.0    1623.6120       0.0000      50.8611     148.9336       3.5775       1.8452       3.0639      71.4171       0.0005
    2608.0    1623.7284       0.0000      50.8611     148.9855       3.6636       1.8867       3.1393      71.4171       0.0005
    2609.0    1623.6120       0.0000      50.8611     148.7261       3.6288       1.8829       3.1009      71.4171       0.0005
    2610.0    1623.4962       0.0000      50.8611     148.4230       3.5926       1.8804       3.0600      71.4171       0.0005
    2611.0    1616.6126       0.0000      50.8611     148.6029       3.5436       1.8452       3.0243      71.4171       0.0005
    2612.0    1623.8453       0.0000      50.8611     148.0307       3.5626       1.8854       3.0217      71.4171       0.0005
    2613.0    1623.6120       0.0000      50.8611     147.1529       3.4057       1.8465       2.8607      71.4171       0.0005
    2614.0    1616.3793       0.0000      50.8611     148.6718       3.3959       1.7649       2.9003      71.4171       0.0005
    2615.0    1616.6126       0.0000      50.8611     149.2817       3.6092       1.8427       3.1022      71.4171       0.0005
    2616.0    1620.1036       0.0000      50.8611     148.1541       3.6466       1.9231       3.0971      71.4171       0.0005
    2617.0    1623.7284       0.0000      50.8611     149.7909       3.5844       1.8026       3.0971      71.4171       0.0005
    2618.0    1612.9044       0.0000      50.8611     145.4716       3.8176       2.1628       3.1444      71.4171       0.0005
    2619.0    1616.6126       0.0000      50.8611     148.2936       3.8757       2.0360       3.2964      71.4171       0.0005
    2620.0    1623.7284       0.0000      50.8611     151.4291       3.5271       1.6858       3.0971      71.4171       0.0005
    2621.0    1619.9873       0.0000      50.8611     150.6563       3.6034       1.7649       3.1405      71.4171       0.0005
    2622.0    1620.1036       0.0000      50.8611     148.4015       3.5904       1.8804       3.0575      71.4171       0.0005
    2623.0    1623.7284       0.0000      50.8611     150.7742       3.5545       1.7348       3.1009      71.4171       0.0005
    2624.0    1623.9628       0.0000      50.8611     147.5367       3.5821       1.9218       3.0217      71.4171       0.0005
    2625.0    1620.1036       0.0000      50.8611     150.0530       3.5321       1.7624       3.0600      71.4171       0.0005
    2626.0    1620.1036       0.0000      50.8611     147.2546       3.4963       1.8904       2.9399      71.4171       0.0005
    2627.0    1620.1036       0.0000      50.8611     153.3545       3.6876       1.6519       3.2951      71.4171       0.0005
