~VERSION INFORMATION
VERS.           2.0   :CWLS Log ASCII Standard - VERSION 2.0
WRAP.           NO    :One Line per depth step
PROD.  Schlumberger   :LAS Producer
PROG.  DLIS to ASCII 19C2-270                          :LAS Program name and version
CREA.        2017/09/16 17:42                          :LAS Creation date {YYYY/MM/DD hh:mm}
DLIS_CREA.  2017-Sep-15 16:10                          :DLIS Creation date and time {YYYY-MMM-DD hh:mm}
SOURCE.     LPC_S3-1_B5.DLIS                           :DLIS File Name
FILE-ID.     PERFO_Perfo_WPGRT_039LTP                  :File Identification Number
#--------------------------------------------------
~WELL INFORMATION
#MNEM.UNIT      DATA             DESCRIPTION
#---- ------ --------------   -----------------------------
STRT .S         2439.0       :START TIME      
STOP .S         2874.0       :STOP TIME      
STEP .S            1.0       :STEP     
NULL .          -999.25      :NULL VALUE
COMP .        SHELL INTERNATIONAL E P                  :COMPANY
WELL .        WPP TEST 2                               :WELL
FLD  .        WILDCAT                                  :FIELD
LOC  .                                                 :LOCATION
CNTY .        HARRIS                                   :COUNTY
STAT .        TEXAS                                    :STATE
CTRY .                                                 :COUNTRY
API  .                                                 :API NUMBER
UWI  .                                                 :UNIQUE WELL ID
DATE .                                                 :LOG DATE
SRVC .        Schlumberger                             :SERVICE COMPANY
LATI .DEG                                              :LATITUDE
LONG .DEG                                              :LONGITUDE
GDAT .                                                 :GeoDetic Datum
#-----------------------------------------------------------------------------
~PARAMETER INFORMATION
#MNEM.UNIT    VALUE                      DESCRIPTION
#---- -----   --------------------       ------------------------
U-PHASE_B_COMP_PER_YT.                 0 :Phase B Comparator Period Yt
U-PHASE_A_COMP_PER_XT.                 0 :Phase A Comparator Period Xt
U-MAX_EXC_CUR_LIMIT.MA       240.00000   :Requested CM Current Limit
U-REQ_EXC_FQ.HZ              50          :Requested CM Frequency
U-TILT_Y_OFFSET.           0.19916       :WPTET Tilt Y Offset
U-TILT_Y_GAIN.           1.01796         :WPTET Tilt Y Gain
U-TILT_X_OFFSET.          -1.77103       :WPTET Tilt X Offset
U-TILT_X_GAIN.           1.00000         :WPTET Tilt X Gain
U-TILT_OFFSET_TOL.           0.00100     :WPTET Tilt Offset Calibration Tolerance
U-NO_TILT_CAL_ROTATIONS.                 3 :Number of Rotations for Tilt Calibration
HAZI .DEG        0.00000                 :Hole Azimuth
U-STD_TOL_TILT.           0.01000        :Tilt Standard Deviation Tolerance
U-GUN_POS_TOL.DEG        5.00000         :Gun Position Tolerance
ROT_ANGLE_THRESHOLD.DEG        5.00000   :Rotation Stop Angle Tolerance
STOP_ROT_ANGLE.DEG        0.00000        :Rotation Stop Angle
WITN .                                   :Witness's Name
ENGI .                                   :Engineer's Name
COUN .        HARRIS                     :County or Rig Name
FN   .        WILDCAT                    :Field Name
WN   .        WPP TEST 2                 :Well Name
CN   .        SHELL INTERNATIONAL E P    :Company Name
CLAB .        County                     :County/Rig Label
SLAB .        State                      :State/Province Label
RUN  .          1                        :RUN NUMBER
PDAT .        GROUND LEVEL               :Permanent Datum
EPD  .                                   :Elevation of Permanent Datum above Mean Sea Level
LMF  .                                   :Logging Measured From (Name of Logging Elevation Reference)
APD  .                                   :Elevation of Depth Reference (LMF) above Permanent Datum
#-----------------------------------------------------------------------------
~CURVE INFORMATION
#MNEM.UNIT   API CODE                                  DESCRIPTION
#---- -----  --------                                  -----------------------
TIME .S                                                :TIME {F10.1}
FREQ_EMF_SL.HZ                                         :Electromagnetic Field Frequency {F13.4}
PH_SH_WPPCM_SL.DEG                                     :WPPCM Phase Shift {F13.4}
FREQ_EXC_REQ_SL.HZ                                     :Requested Exciter Frequency {F13.4}
RB_SL.DEG                                              :Relative Bearing {F13.4}
SDEV_SL.DEG                                            :Sonde Deviation {F13.4}
TILX_SL.DEG                                            :X-axis Tilt {F13.4}
TILY_SL.DEG                                            :Y-axis Tilt {F13.4}
ROTA_SL.DEG                                            :Motor Rotation Angle {F13.4}
MSPE_SL.RPM                                            :Motor Speed {F13.4}
#-----------------------------------------------------------------------------
# 
#     TIME    FREQ_EMF_SL  PH_SH_WPPCM_ FREQ_EXC_REQ    RB_SL       SDEV_SL      TILX_SL      TILY_SL      ROTA_SL      MSPE_SL
#                          SL           _SL
~A  
# ...
    2691.0    1389.3191       0.0000      50.8611      58.7880       3.8020       3.2511      -1.9692       5.1896       1.0229
    2692.0    1422.8843       0.0000      50.8611      67.5631       3.7758       3.4896      -1.4402      11.3050       1.0433
    2693.0    1440.9223       0.0000      50.8611      72.9624       3.6486       3.4883      -1.0684      17.3950       1.0226
    2694.0    1464.7486       0.0000      50.8611      82.0252       3.6049       3.5699      -0.4998      23.5104       1.0330
    2695.0    1486.2293       0.0000      50.8611      87.9291       3.6514       3.6490      -0.1318      29.6009       1.0226
    2696.0    1505.6210       0.0000      50.8611      94.6803       3.4609       3.4494       0.2822      35.7031       1.0229
    2697.0    1531.8628       0.0000      50.8611     104.9914       3.4438       3.3264       0.8904      41.7810       1.0223
    2698.0    1555.3720       0.0000      50.8611     111.5803       3.5343       3.2862       1.2993      47.9078       1.0334
    2699.0    1572.7676       0.0000      50.8611     120.9991       3.4700       2.9737       1.7861      54.4162       1.0226
    2700.0    1583.7266       0.0000      50.8611     127.8278       3.4511       2.7251       2.1158      60.5472       1.0229
    2701.0    1598.0114       0.0000      50.8611     134.9648       3.4055       2.4088       2.4058      66.6461       1.0226
    2702.0    1619.6413       0.0000      50.8611     144.6331       3.4039       1.9695       2.7751      72.7515       1.0226
    2703.0    1620.1036       0.0000      50.8611     152.1049       3.6914       1.7260       3.2619      78.8533       1.0124
    2704.0    1620.1036       0.0000      50.8611     158.8154       3.6742       1.3268       3.4255      84.9152       1.0226
    2705.0    1623.8453       0.0000      50.8611     166.5296       3.7748       0.8787       3.6708      91.0209       1.0226
    2706.0    1623.7284       0.0000      50.8611     173.7216       3.6983       0.4043       3.6759      97.1227       1.0226
    2707.0    1616.3793       0.0000      50.8611     178.8185       3.8403       0.0792       3.8395     103.2252       1.0226
    2708.0    1605.6542       0.0000      50.8611    -174.0734       3.9411      -0.4066       3.9200     109.3147       1.0226
    2709.0    1601.7658       0.0000      50.8611    -166.2950       3.9127      -0.9263       3.8011     115.4165       1.0226
    2710.0    1594.0510       0.0000      50.8611    -160.9161       4.1916      -1.3694       3.9609     121.5314       1.0226
    2711.0    1565.9799       0.0000      50.8611    -153.5146       4.3348      -1.9317       3.8791     128.0515       1.0226
    2712.0    1552.4757       0.0000      50.8611    -148.3815       4.2262      -2.2141       3.5980     134.1410       1.0226
    2713.0    1532.0723       0.0000      50.8611    -142.0885       4.4520      -2.7338       3.5111     140.2429       1.0226
    2714.0    1512.0968       0.0000      50.8611    -137.5298       4.5925      -3.0990       3.3859     146.3478       1.0226
    2715.0    1483.5825       0.0000      50.8611    -130.1492       4.6280      -3.5358       2.9821     152.4497       1.0226
    2716.0    1471.0693       0.0000      50.8611    -126.7794       4.7708      -3.8195       2.8543     158.5516       1.0226
    2717.0    1449.7422       0.0000      50.8611    -118.4068       4.9788      -4.3781       2.3662     164.6534       1.0226
    2718.0    1423.5108       0.0000      50.8611    -112.3356       4.9540      -4.5814       1.8807     170.7685       1.0226
    2719.0    1400.4738       0.0000      50.8611    -108.1409       5.1190      -4.8639       1.5919     176.8704       1.0226
    2720.0    1373.5440       0.0000      50.8611    -103.9229       5.0930      -4.9429       1.2239     182.9723       1.0226
    2721.0    1347.1447       0.0000      50.8611     -97.2723       5.1845      -5.1425       0.6553     189.0623       1.0223
    2722.0    1309.8980       0.0000      50.8611     -91.3483       5.2671      -5.2655       0.1238     195.1638       1.0124
    2723.0    1258.1098       0.0000      50.8611     -87.7133       5.2321      -5.2279      -0.2084     201.6584       1.0226
    2724.0    1202.3780       0.0000      50.8611     -82.4697       5.3520      -5.3057      -0.7004     207.7633       1.0226
    2725.0    1156.8158       0.0000      50.8611     -77.3841       5.4374      -5.3057      -1.1859     213.8651       1.0124
    2726.0    1111.0027       0.0000      50.8611     -71.2391       5.3511      -5.0659      -1.7187     219.9548       1.0226
    2727.0    1064.0337       0.0000      50.8611     -66.8043       5.5128      -5.0659      -2.1685     226.0443       1.0226
    2728.0    1025.1987       0.0000      50.8611     -63.3528       5.4885      -4.9040      -2.4586     232.1470       1.0226
    2729.0     996.0606       0.0000      50.8611     -55.3030       5.5326      -4.5463      -3.1460     238.2500       1.0124
    2730.0     990.4922       0.0000      50.8611     -52.8985       5.5003      -4.3844      -3.3147     244.3396       1.0223
    2731.0     979.0711       0.0000      50.8611     -47.2182       5.4868      -4.0241      -3.7235     250.4412       1.0226
    2732.0     964.4649       0.0000      50.8611     -41.8383       5.5522      -3.7003      -4.1337     256.5431       1.0226
    2733.0     955.6196       0.0000      50.8611     -37.9373       5.5054      -3.3815      -4.3394     262.6449       1.0226
    2734.0     958.0178       0.0000      50.8611     -33.7589       5.3743      -2.9836      -4.4659     268.7467       1.0226
    2735.0     961.7037       0.0000      50.8611     -27.7602       5.3662      -2.4965      -4.7470     275.2573       1.0226
    2736.0     954.0366       0.0000      50.8611     -23.5204       5.3596      -2.1363      -4.9131     281.3468       1.0223
    2737.0     956.8374       0.0000      50.8611     -16.4080       5.2902      -1.4924      -5.0741     287.4494       1.0226
    2738.0     969.8694       0.0000      50.8611     -13.0446       5.1670      -1.1648      -5.0332     293.5672       1.0229
    2739.0     981.8053       0.0000      50.8611     -10.0762       5.0785      -0.8874      -5.0000     299.6793       1.0226
    2740.0     992.9400       0.0000      50.8611      -3.2098       5.1628      -0.2886      -5.1546     305.7942       1.0226
    2741.0    1000.4469       0.0000      50.8611       4.1312       4.8876       0.3515      -4.8748     311.9092       1.0226
    2742.0    1025.0103       0.0000      50.8611       9.5123       4.8522       0.8009      -4.7853     317.9987       1.0226
    2743.0    1076.2536       0.0000      50.8611      13.9156       4.6461       1.1160      -4.5093     323.6833       1.0226
    2744.0    1124.3920       0.0000      50.8611      18.8418       4.5870       1.4800      -4.3407     329.7871       1.0226
    2745.0    1169.8039       0.0000      50.8611      25.9486       4.6417       2.0297      -4.1720     335.9017       1.0226
    2746.0    1248.4106       0.0000      50.8611      32.3065       4.2707       2.2808      -3.6085     342.0035       1.0124
    2747.0    1294.5936       0.0000      50.8611      38.0735       4.1649       2.5670      -3.2776     348.5124       1.0127
    2748.0    1326.5728       0.0000      50.8611      41.6056       4.0586       2.6938      -3.0335     354.6177       1.0223
    2749.0    1354.5255       0.0000      50.8611      50.5124       4.0008       3.0866      -2.5429      11.9703       1.0223
    2750.0    1381.2161       0.0000      50.8611      58.5924       3.9455       3.3665      -2.0548       6.8352       1.0226
    2751.0    1408.8051       0.0000      50.8611      62.6395       3.7530       3.3327      -1.7239      12.9370       1.0330
    2752.0    1423.5108       0.0000      50.8611      69.7795       3.8033       3.5686      -1.3137      19.0519       1.0226
    2753.0    1458.6711       0.0000      50.8611      76.8368       3.5892       3.4946      -0.8167      25.1664       1.0330
