~VERSION INFORMATION
VERS.           2.0   :CWLS Log ASCII Standard - VERSION 2.0
WRAP.           NO    :One Line per depth step
PROD.  Schlumberger   :LAS Producer
PROG.  DLIS to ASCII 19C2-270                          :LAS Program name and version
CREA.        2017/09/16 17:42                          :LAS Creation date {YYYY/MM/DD hh:mm}
DLIS_CREA.  2017-Sep-15 12:22                          :DLIS Creation date and time {YYYY-MMM-DD hh:mm}
SOURCE.     LPC_S1-1_B5.DLIS                           :DLIS File Name
FILE-ID.     PERFO_Perfo_WPGRT_020LTP                  :File Identification Number
#--------------------------------------------------
~WELL INFORMATION
#MNEM.UNIT      DATA             DESCRIPTION
#---- ------ --------------   -----------------------------
STRT .S         5686.0       :START TIME      
STOP .S         6834.0       :STOP TIME      
STEP .S            1.0       :STEP     
NULL .          -999.25      :NULL VALUE
COMP .        SHELL INTERNATIONAL E P                  :COMPANY
WELL .        WPP TEST 2                               :WELL
FLD  .        WILDCAT                                  :FIELD
LOC  .                                                 :LOCATION
CNTY .        HARRIS                                   :COUNTY
STAT .        TEXAS                                    :STATE
CTRY .                                                 :COUNTRY
API  .                                                 :API NUMBER
UWI  .                                                 :UNIQUE WELL ID
DATE .                                                 :LOG DATE
SRVC .        Schlumberger                             :SERVICE COMPANY
LATI .DEG                                              :LATITUDE
LONG .DEG                                              :LONGITUDE
GDAT .                                                 :GeoDetic Datum
#-----------------------------------------------------------------------------
~PARAMETER INFORMATION
#MNEM.UNIT    VALUE                      DESCRIPTION
#---- -----   --------------------       ------------------------
U-PHASE_B_COMP_PER_YT.                 0 :Phase B Comparator Period Yt
U-PHASE_A_COMP_PER_XT.                 0 :Phase A Comparator Period Xt
U-MAX_EXC_CUR_LIMIT.MA       240.00000   :Requested CM Current Limit
U-REQ_EXC_FQ.HZ              50          :Requested CM Frequency
U-TILT_Y_OFFSET.           0.19916       :WPTET Tilt Y Offset
U-TILT_Y_GAIN.           1.01796         :WPTET Tilt Y Gain
U-TILT_X_OFFSET.          -1.77103       :WPTET Tilt X Offset
U-TILT_X_GAIN.           1.00000         :WPTET Tilt X Gain
U-TILT_OFFSET_TOL.           0.00100     :WPTET Tilt Offset Calibration Tolerance
U-NO_TILT_CAL_ROTATIONS.                 3 :Number of Rotations for Tilt Calibration
HAZI .DEG        0.00000                 :Hole Azimuth
U-STD_TOL_TILT.           0.01000        :Tilt Standard Deviation Tolerance
U-GUN_POS_TOL.DEG        5.00000         :Gun Position Tolerance
ROT_ANGLE_THRESHOLD.DEG        5.00000   :Rotation Stop Angle Tolerance
STOP_ROT_ANGLE.DEG       80.00000        :Rotation Stop Angle
WITN .                                   :Witness's Name
ENGI .                                   :Engineer's Name
COUN .        HARRIS                     :County or Rig Name
FN   .        WILDCAT                    :Field Name
WN   .        WPP TEST 2                 :Well Name
CN   .        SHELL INTERNATIONAL E P    :Company Name
CLAB .        County                     :County/Rig Label
SLAB .        State                      :State/Province Label
RUN  .          1                        :RUN NUMBER
PDAT .        GROUND LEVEL               :Permanent Datum
EPD  .                                   :Elevation of Permanent Datum above Mean Sea Level
LMF  .                                   :Logging Measured From (Name of Logging Elevation Reference)
APD  .                                   :Elevation of Depth Reference (LMF) above Permanent Datum
#-----------------------------------------------------------------------------
~CURVE INFORMATION
#MNEM.UNIT   API CODE                                  DESCRIPTION
#---- -----  --------                                  -----------------------
TIME .S                                                :TIME {F10.1}
FREQ_EMF_SL.HZ                                         :Electromagnetic Field Frequency {F13.4}
PH_SH_WPPCM_SL.DEG                                     :WPPCM Phase Shift {F13.4}
FREQ_EXC_REQ_SL.HZ                                     :Requested Exciter Frequency {F13.4}
RB_SL.DEG                                              :Relative Bearing {F13.4}
SDEV_SL.DEG                                            :Sonde Deviation {F13.4}
TILX_SL.DEG                                            :X-axis Tilt {F13.4}
TILY_SL.DEG                                            :Y-axis Tilt {F13.4}
ROTA_SL.DEG                                            :Motor Rotation Angle {F13.4}
MSPE_SL.RPM                                            :Motor Speed {F13.4}
#-----------------------------------------------------------------------------
# 
#     TIME    FREQ_EMF_SL  PH_SH_WPPCM_ FREQ_EXC_REQ    RB_SL       SDEV_SL      TILX_SL      TILY_SL      ROTA_SL      MSPE_SL
#                          SL           _SL
~A  
# ...
    5749.0    1434.6786       0.0000      50.8611    -140.6943       4.1357      -2.6182       3.1991     249.0607       1.0226
    5750.0    1417.5908       0.0000      50.8611    -137.0157       4.6348      -3.1583       3.3884     255.1626       1.0226
    5751.0    1402.0597       0.0000      50.8611    -129.5800       4.6514      -3.5836       2.9610     261.2645       1.0226
    5752.0    1384.3569       0.0000      50.8611    -123.5841       4.6651      -3.8850       2.5782     267.3539       1.0226
    5753.0    1373.5396       0.0000      50.8611    -119.9614       4.8317      -4.1847       2.4109     273.4557       1.0130
    5754.0    1358.1156       0.0000      50.8611    -113.5656       5.0325      -4.6117       2.0096     279.5452       1.0226
    5755.0    1347.2219       0.0000      50.8611    -106.6752       4.8989      -4.6920       1.4038     285.6358       1.0226
    5756.0    1327.3495       0.0000      50.8611    -101.9722       4.9801      -4.8713       1.0320     291.7495       1.0226
    5757.0    1312.2548       0.0000      50.8611     -97.4107       5.0670      -5.0245       0.6527     298.2188       1.0226
    5758.0    1295.3323       0.0000      50.8611     -92.9117       5.1850      -5.1778       0.2627     304.3583       1.0226
    5759.0    1283.7281       0.0000      50.8611     -85.5531       5.0187      -5.0029      -0.3877     310.4490       1.0216
    5760.0    1271.4738       0.0000      50.8611     -82.0115       5.2880      -5.2365      -0.7337     316.5533       1.0226
    5761.0    1240.6895       0.0000      50.8611     -76.9985       5.3182      -5.1815      -1.1948     322.6438       1.0130
    5762.0    1213.0633       0.0000      50.8611     -72.3217       5.2516      -5.0029      -1.5923     328.7340       1.0121
    5763.0    1173.3870       0.0000      50.8611     -66.0608       5.4273      -4.9587      -2.1998     334.8234       1.0154
    5764.0    1133.4404       0.0000      50.8611     -60.8845       5.3484      -4.6705      -2.5994     340.9373       1.0226
    5765.0    1118.8415       0.0000      50.8611     -56.9691       5.2117      -4.3677      -2.8379     347.0391       1.0226
    5766.0    1097.2364       0.0000      50.8611     -53.0159       5.3832      -4.2978      -3.2354     353.1409       1.0226
    5767.0    1078.5658       0.0000      50.8611     -45.7179       5.3146      -3.8017      -3.7072     359.2427       1.0226
    5768.0    1062.5696       0.0000      50.8611     -42.4846       5.3788      -3.6298      -3.9639       5.3445       1.0226
    5769.0    1062.8700       0.0000      50.8611     -38.9032       5.1734      -3.2460      -4.0237      11.4463       1.0226
    5770.0    1057.3308       0.0000      50.8611     -32.6166       5.1674      -2.7826      -4.3508      17.9534       1.0226
    5771.0    1056.7460       0.0000      50.8611     -29.5362       5.3527      -2.6361      -4.6552      24.0580       1.0226
    5772.0    1069.6064       0.0000      50.8611     -18.6424       5.2434      -1.6728      -4.9671      30.1475       1.0226
    5773.0    1085.5363       0.0000      50.8611     -17.1433       5.2106      -1.5337      -4.9785      36.2474       1.0226
    5774.0    1103.3283       0.0000      50.8611     -12.7848       4.9727      -1.0993      -4.8490      42.3520       1.0226
    5775.0    1130.9143       0.0000      50.8611      -7.3210       4.8777      -0.6211      -4.8376      48.4538       1.0226
    5776.0    1150.7773       0.0000      50.8611      -2.0371       4.8370      -0.1718      -4.8338      54.5557       1.0226
    5777.0    1203.2235       0.0000      50.8611       4.2163       4.7203       0.3467      -4.7074      60.6575       1.0226
    5778.0    1241.2641       0.0000      50.8611      10.3455       4.6607       0.8361      -4.5847      66.7470       1.0226
    5779.0    1261.9251       0.0000      50.8611      12.8322       4.6908       1.0406      -4.5734      72.8488       1.0226
    5780.0    1280.3077       0.0000      50.8611      21.3127       4.3639       1.5844      -4.0645      78.9509       1.0226
    5781.0    1297.0576       0.0000      50.8611      24.6039       4.3362       1.8038      -3.9419      85.0524       1.0226
    5782.0    1314.0255       0.0000      50.8611      31.6198       4.2719       2.2382      -3.6367      91.5622       1.0324
    5783.0    1335.8064       0.0000      50.8611      38.7318       4.1635       2.6034      -3.2468      97.6642       1.0324
    5784.0    1346.7446       0.0000      50.8611      40.8325       4.0565       2.6510      -3.0681     103.7667       1.0226
    5785.0    1370.1217       0.0000      50.8611      50.2142       3.7978       2.9173      -2.4290     109.8697       1.0226
    5786.0    1389.0690       0.0000      50.8611      56.9432       3.7737       3.1620      -2.0572     115.9599       1.0226
    5787.0    1402.9269       0.0000      50.8611      63.1712       3.7366       3.3339      -1.6855     122.0867       1.0236
    5788.0    1417.8557       0.0000      50.8611      72.6103       3.4902       3.3301      -1.0426     128.1897       1.0226
    5789.0    1437.6120       0.0000      50.8611      78.5982       3.6023       3.5310      -0.7117     134.2925       1.0226
    5790.0    1451.6362       0.0000      50.8611      86.4111       3.4135       3.4068      -0.2135     140.3944       1.0226
    5791.0    1459.3277       0.0000      50.8611      93.2644       3.3067       3.3011       0.1878     146.4963       1.0226
    5792.0    1476.8669       0.0000      50.8611     102.3386       3.3680       3.2900       0.7194     152.5982       1.0226
    5793.0    1486.2320       0.0000      50.8611     110.9413       3.1364       2.9285       1.1207     158.7001       1.0324
    5794.0    1504.7320       0.0000      50.8611     117.9676       3.1925       2.8191       1.4962     165.2361       1.0226
    5795.0    1503.0003       0.0000      50.8611     125.9615       3.3346       2.6986       1.9573     171.3377       1.0226
    5796.0    1512.3982       0.0000      50.8611     134.6528       3.3838       2.4063       2.3776     177.4399       1.0226
    5797.0    1521.6115       0.0000      50.8611     140.2779       3.3382       2.1326       2.5669     183.5418       1.0226
    5798.0    1518.3258       0.0000      50.8611     149.5442       3.2720       1.6580       2.8198     189.6444       1.0226
    5799.0    1511.7967       0.0000      50.8611     155.3382       3.4673       1.4460       3.1507     195.7463       1.0226
    5800.0    1515.0542       0.0000      50.8611     164.2111       3.6796       1.0005       3.5406     201.8613       1.0226
    5801.0    1505.6210       0.0000      50.8611     171.6011       3.6582       0.5333       3.6186     207.9632       1.0226
    5802.0    1490.5530       0.0000      50.8611     177.5457       3.7561       0.1607       3.7526     214.0527       1.0226
    5803.0    1483.9675       0.0000      50.8611    -174.3476       3.8835      -0.3831       3.8639     220.1546       1.0130
    5804.0    1483.3861       0.0000      50.8611    -169.3014       3.9177      -0.7267       3.8495     226.2442       1.0226
    5805.0    1468.4712       0.0000      50.8611    -162.5314       3.8954      -1.1685       3.7155     232.3461       1.0226
    5806.0    1456.5870       0.0000      50.8611    -156.3017       4.0094      -1.6104       3.6709     238.8560       1.0226
    5807.0    1447.0352       0.0000      50.8611    -150.8887       4.2962      -2.0886       3.7526     244.9607       1.0226
    5808.0    1438.1560       0.0000      50.8611    -144.9852       4.3430      -2.4903       3.5558     251.0570       1.0226
    5809.0    1420.9876       0.0000      50.8611    -138.5057       4.4167      -2.9247       3.3066     257.1493       1.0226
    5810.0    1417.5908       0.0000      50.8611    -131.9235       4.4626      -3.3189       2.9795     263.2520       1.0226
    5811.0    1398.3790       0.0000      50.8611    -126.2473       4.6151      -3.7206       2.7266     269.3538       1.0226
