~VERSION INFORMATION
VERS.           2.0   :CWLS Log ASCII Standard - VERSION 2.0
WRAP.           NO    :One Line per depth step
PROD.  Schlumberger   :LAS Producer
PROG.  DLIS to ASCII 19C2-270                          :LAS Program name and version
CREA.        2017/09/16 17:42                          :LAS Creation date {YYYY/MM/DD hh:mm}
DLIS_CREA.  2017-Sep-15 15:20                          :DLIS Creation date and time {YYYY-MMM-DD hh:mm}
SOURCE.     LPC_S2-1_2B5.DLIS                          :DLIS File Name
FILE-ID.     PERFO_Perfo_WPGRT_034LTP                  :File Identification Number
#--------------------------------------------------
~WELL INFORMATION
#MNEM.UNIT      DATA             DESCRIPTION
#---- ------ --------------   -----------------------------
STRT .S        16366.0       :START TIME      
STOP .S        16828.0       :STOP TIME      
STEP .S            1.0       :STEP     
NULL .          -999.25      :NULL VALUE
COMP .        SHELL INTERNATIONAL E P                  :COMPANY
WELL .        WPP TEST 2                               :WELL
FLD  .        WILDCAT                                  :FIELD
LOC  .                                                 :LOCATION
CNTY .        HARRIS                                   :COUNTY
STAT .        TEXAS                                    :STATE
CTRY .                                                 :COUNTRY
API  .                                                 :API NUMBER
UWI  .                                                 :UNIQUE WELL ID
DATE .                                                 :LOG DATE
SRVC .        Schlumberger                             :SERVICE COMPANY
LATI .DEG                                              :LATITUDE
LONG .DEG                                              :LONGITUDE
GDAT .                                                 :GeoDetic Datum
#-----------------------------------------------------------------------------
~PARAMETER INFORMATION
#MNEM.UNIT    VALUE                      DESCRIPTION
#---- -----   --------------------       ------------------------
U-PHASE_B_COMP_PER_YT.                 0 :Phase B Comparator Period Yt
U-PHASE_A_COMP_PER_XT.                 0 :Phase A Comparator Period Xt
U-MAX_EXC_CUR_LIMIT.MA       240.00000   :Requested CM Current Limit
U-REQ_EXC_FQ.HZ              50          :Requested CM Frequency
U-TILT_Y_OFFSET.           0.19916       :WPTET Tilt Y Offset
U-TILT_Y_GAIN.           1.01796         :WPTET Tilt Y Gain
U-TILT_X_OFFSET.          -1.77103       :WPTET Tilt X Offset
U-TILT_X_GAIN.           1.00000         :WPTET Tilt X Gain
U-TILT_OFFSET_TOL.           0.00100     :WPTET Tilt Offset Calibration Tolerance
U-NO_TILT_CAL_ROTATIONS.                 3 :Number of Rotations for Tilt Calibration
HAZI .DEG        0.00000                 :Hole Azimuth
U-STD_TOL_TILT.           0.01000        :Tilt Standard Deviation Tolerance
U-GUN_POS_TOL.DEG        5.00000         :Gun Position Tolerance
ROT_ANGLE_THRESHOLD.DEG        5.00000   :Rotation Stop Angle Tolerance
STOP_ROT_ANGLE.DEG       80.00000        :Rotation Stop Angle
WITN .                                   :Witness's Name
ENGI .                                   :Engineer's Name
COUN .        HARRIS                     :County or Rig Name
FN   .        WILDCAT                    :Field Name
WN   .        WPP TEST 2                 :Well Name
CN   .        SHELL INTERNATIONAL E P    :Company Name
CLAB .        County                     :County/Rig Label
SLAB .        State                      :State/Province Label
RUN  .          1                        :RUN NUMBER
PDAT .        GROUND LEVEL               :Permanent Datum
EPD  .                                   :Elevation of Permanent Datum above Mean Sea Level
LMF  .                                   :Logging Measured From (Name of Logging Elevation Reference)
APD  .                                   :Elevation of Depth Reference (LMF) above Permanent Datum
#-----------------------------------------------------------------------------
~CURVE INFORMATION
#MNEM.UNIT   API CODE                                  DESCRIPTION
#---- -----  --------                                  -----------------------
TIME .S                                                :TIME {F10.1}
FREQ_EMF_SL.HZ                                         :Electromagnetic Field Frequency {F13.4}
PH_SH_WPPCM_SL.DEG                                     :WPPCM Phase Shift {F13.4}
FREQ_EXC_REQ_SL.HZ                                     :Requested Exciter Frequency {F13.4}
RB_SL.DEG                                              :Relative Bearing {F13.4}
SDEV_SL.DEG                                            :Sonde Deviation {F13.4}
TILX_SL.DEG                                            :X-axis Tilt {F13.4}
TILY_SL.DEG                                            :Y-axis Tilt {F13.4}
ROTA_SL.DEG                                            :Motor Rotation Angle {F13.4}
MSPE_SL.RPM                                            :Motor Speed {F13.4}
#-----------------------------------------------------------------------------
# 
#     TIME    FREQ_EMF_SL  PH_SH_WPPCM_ FREQ_EXC_REQ    RB_SL       SDEV_SL      TILX_SL      TILY_SL      ROTA_SL      MSPE_SL
#                          SL           _SL
~A  
   16366.0    1446.7593       0.0000      50.8611    -159.0629       4.2852      -1.5300       4.0017     187.5856       1.0226
   16367.0    1455.7454       0.0000      50.8611    -154.2348       4.5181      -1.9622       4.0680     192.5241       1.0226
   16368.0    1453.0743       0.0000      50.8611    -147.8655       4.3837      -2.3293       3.7098     199.0659       1.0321
   16369.0    1451.5994       0.0000      50.8611    -141.7586       4.6762      -2.8941       3.6689     205.1838       1.0161
   16370.0    1446.0509       0.0000      50.8611    -136.8611       4.7162      -3.2226       3.4391     211.2445       1.0267
   16371.0    1434.2521       0.0000      50.8611    -130.0703       4.9013      -3.7488       3.1529     217.3906       1.0293
   16372.0    1432.7324       0.0000      50.8611    -125.0461       4.8636      -3.9802       2.7906     223.4984       1.0243
   16373.0    1432.7324       0.0000      50.8611    -119.5742       4.9543      -4.3071       2.4423     229.5845       1.0226
   16374.0    1419.3664       0.0000      50.8611    -113.9246       5.1191      -4.6783       2.0737     235.7002       1.0226
   16375.0    1407.9973       0.0000      50.8611    -109.7021       5.1304      -4.8293       1.7275     241.8028       1.0226
   16376.0    1398.9210       0.0000      50.8611    -102.9014       5.1806      -5.0494       1.1551     247.9040       1.0226
   16377.0    1390.2397       0.0000      50.8611     -97.1738       5.2879      -5.2462       0.6587     254.0135       1.0161
   16378.0    1385.1418       0.0000      50.8611     -91.8802       5.4297      -5.4262       0.1779     260.0958       1.0226
   16379.0    1371.6313       0.0000      50.8611     -87.9367       5.4105      -5.4069      -0.1942     266.1935       1.0121
   16380.0    1356.7604       0.0000      50.8611     -83.5409       5.4910      -5.4551      -0.6145     272.6817       1.0226
   16381.0    1346.3684       0.0000      50.8611     -76.4942       5.4830      -5.3306      -1.2785     278.7851       1.0121
   16382.0    1342.1265       0.0000      50.8611     -71.6840       5.5582      -5.2752      -1.7438     284.8752       1.0226
   16383.0    1319.7825       0.0000      50.8611     -67.5069       5.5314      -5.1089      -2.1118     290.9762       1.0226
   16384.0    1300.8474       0.0000      50.8611     -62.0849       5.6081      -4.9538      -2.6221     297.0706       1.0201
   16385.0    1275.5374       0.0000      50.8611     -56.9988       5.5813      -4.6783      -3.0367     303.1764       1.0186
   16386.0    1256.6727       0.0000      50.8611     -52.0991       5.6358      -4.4441      -3.4583     309.2843       1.0226
   16387.0    1233.8638       0.0000      50.8611     -47.6646       5.7077      -4.2140      -3.8349     315.3983       1.0186
   16388.0    1199.8721       0.0000      50.8611     -41.6115       5.3643      -3.5592      -4.0082     321.4745       1.0267
   16389.0    1190.4449       0.0000      50.8611     -38.5926       5.5053      -3.4315      -4.2985     327.5785       1.0293
   16390.0    1178.7240       0.0000      50.8611     -31.8068       5.5484      -2.9206      -4.7131     333.6684       1.0226
   16391.0    1163.2018       0.0000      50.8611     -27.4145       5.4779      -2.5189      -4.8611     339.7498       1.0253
   16392.0    1151.7693       0.0000      50.8611     -22.8840       5.3877      -2.0924      -4.9625     345.9930       1.0293
   16393.0    1145.6054       0.0000      50.8611     -17.5066       5.4258      -1.6337      -5.1711     352.3463       1.0226
   16394.0    1144.6584       0.0000      50.8611     -13.1158       5.2811      -1.1974      -5.1416     358.4235       1.0161
   16395.0    1143.1246       0.0000      50.8611      -7.8629       5.1656      -0.7058      -5.1163       4.5245       1.0226
   16396.0    1140.5592       0.0000      50.8611      -2.1326       5.0888      -0.1893      -5.0852      10.6270       1.0226
   16397.0    1149.3506       0.0000      50.8611       3.0095       5.0006       0.2622      -4.9936      16.7171       1.0161
   16398.0    1153.4787       0.0000      50.8611      10.1428       4.8715       0.8571      -4.7951      22.8220       1.0226
   16399.0    1164.8479       0.0000      50.8611      13.7247       4.8360       1.1459      -4.6976      28.9070       1.0226
   16400.0    1178.5147       0.0000      50.8611      20.9585       4.6853       1.6737      -4.3746      35.0096       1.0267
   16401.0    1191.2559       0.0000      50.8611      26.1472       4.4195       1.9452      -3.9657      41.1205       1.0161
   16402.0    1203.9811       0.0000      50.8611      31.8499       4.4292       2.3356      -3.7613      47.2272       1.0226
   16403.0    1238.7257       0.0000      50.8611      37.6685       4.3205       2.6377      -3.4186      53.3329       1.0186
   16404.0    1260.0807       0.0000      50.8611      43.9181       4.1881       2.9036      -3.0155      59.5901       1.0226
   16405.0    1287.7748       0.0000      50.8611      50.1479       4.0455       3.1044      -2.5910      65.9423       1.0226
   16406.0    1311.5826       0.0000      50.8611      57.4473       3.9815       3.3550      -2.1413      72.0564       1.0226
   16407.0    1327.0115       0.0000      50.8611      63.3648       3.9235       3.5061      -1.7577      78.1464       1.0226
   16408.0    1341.8416       0.0000      50.8611      70.3373       3.7397       3.5213      -1.2573      84.2490       1.0226
   16409.0    1354.7688       0.0000      50.8611      77.9065       3.7095       3.6266      -0.7764      90.3453       1.0186
   16410.0    1364.0394       0.0000      50.8611      87.7775       3.4818       3.4772      -0.1394      96.4177       1.0226
   16411.0    1375.3375       0.0000      50.8611      93.9829       3.5400       3.5310       0.2458     102.5164       1.0226
   16412.0    1385.7970       0.0000      50.8611     103.0454       3.4816       3.3896       0.7830     108.6189       1.0226
   16413.0    1390.6207       0.0000      50.8611     108.8298       3.5028       3.3149       1.1298     114.7075       1.0226
   16414.0    1403.8474       0.0000      50.8611     117.2654       3.5000       3.1084       1.6008     120.8086       1.0226
   16415.0    1411.6477       0.0000      50.8611     123.9126       3.4907       2.8939       1.9459     126.9149       1.0226
   16416.0    1416.5069       0.0000      50.8611     132.2610       3.5574       2.6320       2.3916     133.0195       1.0334
   16417.0    1427.3186       0.0000      50.8611     144.7139       3.7289       2.1517       3.0401     139.5360       1.0226
   16418.0    1436.0641       0.0000      50.8611     147.7034       3.5125       1.8649       2.9730     145.6517       1.0226
   16419.0    1435.3718       0.0000      50.8611     156.1444       3.7054       1.4977       3.3884     151.7420       1.0226
   16420.0    1439.7102       0.0000      50.8611     162.0127       3.7943       1.1708       3.6084     157.8359       1.0293
   16421.0    1446.7593       0.0000      50.8611     169.8655       3.8634       0.6791       3.8030     163.9451       1.0226
   16422.0    1451.1657       0.0000      50.8611     176.8467       3.9708       0.2182       3.9647     170.0386       1.0161
   16423.0    1455.3366       0.0000      50.8611    -175.9987       4.0177      -0.2792       4.0075     176.1389       1.0226
   16424.0    1454.3235       0.0000      50.8611    -169.3795       4.1648      -0.7669       4.0933     182.2278       1.0226
   16425.0    1455.0282       0.0000      50.8611    -163.5681       4.2056      -1.1894       4.0328     188.3328       1.0226
   16426.0    1453.8806       0.0000      50.8611    -155.9636       4.2760      -1.7405       3.9044     194.4354       1.0267
   16427.0    1451.5994       0.0000      50.8611    -150.5320       4.4109      -2.1687       3.8382     200.5425       1.0293
   16428.0    1446.7593       0.0000      50.8611    -144.9266       4.4729      -2.5687       3.6591     206.6545       1.0293
