~VERSION INFORMATION
VERS.           2.0   :CWLS Log ASCII Standard - VERSION 2.0
WRAP.           NO    :One Line per depth step
PROD.  Schlumberger   :LAS Producer
PROG.  DLIS to ASCII 19C2-270                          :LAS Program name and version
CREA.        2017/09/16 17:42                          :LAS Creation date {YYYY/MM/DD hh:mm}
DLIS_CREA.  2017-Sep-15 11:44                          :DLIS Creation date and time {YYYY-MMM-DD hh:mm}
SOURCE.     LPC_S1-1_AV_4TH-LOG.DLIS                   :DLIS File Name
FILE-ID.     PERFO_Perfo_WPGRT_017LTP                  :File Identification Number
#--------------------------------------------------
~WELL INFORMATION
#MNEM.UNIT      DATA             DESCRIPTION
#---- ------ --------------   -----------------------------
STRT .S         3425.0       :START TIME      
STOP .S         3810.0       :STOP TIME      
STEP .S            1.0       :STEP     
NULL .          -999.25      :NULL VALUE
COMP .        SHELL INTERNATIONAL E P                  :COMPANY
WELL .        WPP TEST 2                               :WELL
FLD  .        WILDCAT                                  :FIELD
LOC  .                                                 :LOCATION
CNTY .        HARRIS                                   :COUNTY
STAT .        TEXAS                                    :STATE
CTRY .                                                 :COUNTRY
API  .                                                 :API NUMBER
UWI  .                                                 :UNIQUE WELL ID
DATE .                                                 :LOG DATE
SRVC .        Schlumberger                             :SERVICE COMPANY
LATI .DEG                                              :LATITUDE
LONG .DEG                                              :LONGITUDE
GDAT .                                                 :GeoDetic Datum
#-----------------------------------------------------------------------------
~PARAMETER INFORMATION
#MNEM.UNIT    VALUE                      DESCRIPTION
#---- -----   --------------------       ------------------------
U-PHASE_B_COMP_PER_YT.                 0 :Phase B Comparator Period Yt
U-PHASE_A_COMP_PER_XT.                 0 :Phase A Comparator Period Xt
U-MAX_EXC_CUR_LIMIT.MA       240.00000   :Requested CM Current Limit
U-REQ_EXC_FQ.HZ              50          :Requested CM Frequency
U-TILT_Y_OFFSET.           0.19916       :WPTET Tilt Y Offset
U-TILT_Y_GAIN.           1.01796         :WPTET Tilt Y Gain
U-TILT_X_OFFSET.          -1.77103       :WPTET Tilt X Offset
U-TILT_X_GAIN.           1.00000         :WPTET Tilt X Gain
U-TILT_OFFSET_TOL.           0.00100     :WPTET Tilt Offset Calibration Tolerance
U-NO_TILT_CAL_ROTATIONS.                 3 :Number of Rotations for Tilt Calibration
HAZI .DEG        0.00000                 :Hole Azimuth
U-STD_TOL_TILT.           0.01000        :Tilt Standard Deviation Tolerance
U-GUN_POS_TOL.DEG        5.00000         :Gun Position Tolerance
ROT_ANGLE_THRESHOLD.DEG        5.00000   :Rotation Stop Angle Tolerance
STOP_ROT_ANGLE.DEG       80.00000        :Rotation Stop Angle
WITN .                                   :Witness's Name
ENGI .                                   :Engineer's Name
COUN .        HARRIS                     :County or Rig Name
FN   .        WILDCAT                    :Field Name
WN   .        WPP TEST 2                 :Well Name
CN   .        SHELL INTERNATIONAL E P    :Company Name
CLAB .        County                     :County/Rig Label
SLAB .        State                      :State/Province Label
RUN  .          1                        :RUN NUMBER
PDAT .        GROUND LEVEL               :Permanent Datum
EPD  .                                   :Elevation of Permanent Datum above Mean Sea Level
LMF  .                                   :Logging Measured From (Name of Logging Elevation Reference)
APD  .                                   :Elevation of Depth Reference (LMF) above Permanent Datum
#-----------------------------------------------------------------------------
~CURVE INFORMATION
#MNEM.UNIT   API CODE                                  DESCRIPTION
#---- -----  --------                                  -----------------------
TIME .S                                                :TIME {F10.1}
FREQ_EMF_SL.HZ                                         :Electromagnetic Field Frequency {F13.4}
PH_SH_WPPCM_SL.DEG                                     :WPPCM Phase Shift {F13.4}
FREQ_EXC_REQ_SL.HZ                                     :Requested Exciter Frequency {F13.4}
RB_SL.DEG                                              :Relative Bearing {F13.4}
SDEV_SL.DEG                                            :Sonde Deviation {F13.4}
TILX_SL.DEG                                            :X-axis Tilt {F13.4}
TILY_SL.DEG                                            :Y-axis Tilt {F13.4}
ROTA_SL.DEG                                            :Motor Rotation Angle {F13.4}
MSPE_SL.RPM                                            :Motor Speed {F13.4}
#-----------------------------------------------------------------------------
# 
#     TIME    FREQ_EMF_SL  PH_SH_WPPCM_ FREQ_EXC_REQ    RB_SL       SDEV_SL      TILX_SL      TILY_SL      ROTA_SL      MSPE_SL
#                          SL           _SL
~A  
    3425.0    1630.2948       0.0000      50.8611     -62.3123       1.0287      -0.9105      -0.4786     105.3522       1.0226
    3426.0    1626.5235       0.0000      50.8611     -66.5507       0.9675      -0.8874      -0.3850     111.8497       1.0226
    3427.0    1620.1036       0.0000      50.8611     -65.3934       1.0645      -0.9677      -0.4433     117.9392       1.0151
    3428.0    1611.6111       0.0000      50.8611     -68.9793       1.0261      -0.9561      -0.3677     124.0410       1.0226
    3429.0    1594.9001       0.0000      50.8611     -64.0906       1.1078      -0.9963      -0.4842     130.1466       1.0257
    3430.0    1577.5320       0.0000      50.8611     -64.0040       1.0774      -0.9677      -0.4724     136.2586       1.0151
    3431.0    1554.5990       0.0000      50.8611     -66.6149       1.1167      -1.0249      -0.4433     142.3503       1.0226
    3432.0    1527.5794       0.0000      50.8611     -64.3871       1.1320      -1.0194      -0.4903     148.4641       1.0226
    3433.0    1501.4828       0.0000      50.8611     -59.1559       1.1477      -0.9792      -0.5890     154.5660       1.0226
    3434.0    1480.7039       0.0000      50.8611     -57.6444       1.1125      -0.9391      -0.5951     160.6679       1.0257
    3435.0    1448.0305       0.0000      50.8611     -61.6114       1.0676      -0.9391      -0.5077     166.7829       1.0226
    3436.0    1427.0504       0.0000      50.8611     -59.3508       0.9807      -0.8417      -0.5021     172.8857       1.0226
    3437.0    1393.5039       0.0000      50.8611     -56.4683       1.1550      -0.9622      -0.6360     178.9867       1.0226
    3438.0    1372.5550       0.0000      50.8611     -61.2618       1.1756      -1.0305      -0.5603     185.4983       1.0257
    3439.0    1348.4611       0.0000      50.8611     -56.6789       1.1133      -0.9275      -0.6125     191.6000       1.0226
    3440.0    1310.0598       0.0000      50.8611     -56.5421       1.2002      -1.0018      -0.6595     197.7019       1.0226
    3441.0    1236.0263       0.0000      50.8611     -62.7111       1.3335      -1.1796      -0.6181     203.8038       1.0257
    3442.0    1176.9732       0.0000      50.8611     -55.3338       1.1285      -0.9275      -0.6421     209.9064       1.0226
    3443.0    1097.4094       0.0000      50.8611     -56.5640       1.1355      -0.9446      -0.6247     216.0083       1.0226
    3444.0    1032.0538       0.0000      50.8611     -54.1148       1.1668      -0.9446      -0.6830     222.1123       1.0226
    3445.0    1005.4966       0.0000      50.8611     -52.1338       1.0950      -0.8643      -0.6712     228.2085       1.0151
    3446.0     976.9495       0.0000      50.8611     -54.4872       1.3287      -1.0822      -0.7704     234.3151       1.0182
    3447.0     957.0073       0.0000      50.8611     -51.5330       1.0974      -0.8587      -0.6830     240.4176       1.0226
    3448.0     942.5268       0.0000      50.8611     -50.2099       1.1399      -0.8758      -0.7295     246.5072       1.0226
    3449.0     930.7604       0.0000      50.8611     -51.0032       1.0017      -0.7784      -0.6304     252.6091       1.0226
    3450.0     919.4635       0.0000      50.8611     -49.7755       1.1856      -0.9044      -0.7648     259.1190       1.0226
    3451.0     913.4908       0.0000      50.8611     -50.9486       1.1127      -0.8643      -0.7004     265.2122       1.0303
    3452.0     910.4707       0.0000      50.8611     -44.7377       1.0515      -0.7382      -0.7469     271.3233       1.0226
    3453.0     909.7700       0.0000      50.8611     -52.5284       1.1038      -0.8758      -0.6712     277.4288       1.0257
    3454.0     912.6469       0.0000      50.8611     -50.5892       0.9928      -0.7669      -0.6304     283.5400       1.0226
    3455.0     917.4100       0.0000      50.8611     -46.1487       0.9599      -0.6920      -0.6651     289.6558       1.0226
    3456.0     926.0330       0.0000      50.8611     -46.4984       1.0177      -0.7382      -0.7004     295.7605       1.0303
    3457.0     935.1986       0.0000      50.8611     -48.9957       0.9254      -0.6981      -0.6068     301.8716       1.0226
    3458.0     946.8988       0.0000      50.8611     -49.0190       1.0079      -0.7613      -0.6595     307.9734       1.0226
    3459.0     961.6897       0.0000      50.8611     -47.3738       0.9782      -0.7207      -0.6595     314.0581       1.0381
    3460.0     980.8401       0.0000      50.8611     -45.7287       0.8865      -0.6348      -0.6186     320.1816       1.0226
    3461.0    1005.5209       0.0000      50.8611     -48.6431       0.9000      -0.6750      -0.5951     326.2689       1.0226
    3462.0    1023.0781       0.0000      50.8611     -51.3816       0.9084      -0.7096      -0.5660     332.7919       1.0303
    3463.0    1054.8645       0.0000      50.8611     -48.9957       0.9254      -0.6981      -0.6068     338.8975       1.0257
    3464.0    1130.7945       0.0000      50.8611     -54.5995       0.7737      -0.6293      -0.4494     345.0087       1.0226
    3465.0    1229.5743       0.0000      50.8611     -57.7423       0.7495      -0.6353      -0.3968     351.1105       1.0226
    3466.0    1277.1247       0.0000      50.8611     -59.8625       0.8805      -0.7608      -0.4377     357.2253       1.0303
    3467.0    1306.2895       0.0000      50.8611     -56.0162       0.7937      -0.6579      -0.4433       3.3271       1.0226
    3468.0    1340.0206       0.0000      50.8611     -59.9796       0.8859      -0.7669      -0.4433       9.4420       1.0226
    3469.0    1375.6180       0.0000      50.8611     -56.9224       0.8875      -0.7438      -0.4842      15.5438       1.0226
    3470.0    1401.4512       0.0000      50.8611     -61.5512       0.8544      -0.7498      -0.4085      21.6587       1.0226
    3471.0    1427.8873       0.0000      50.8611     -55.8512       0.9135      -0.7553      -0.5133      27.7605       1.0226
    3472.0    1454.4707       0.0000      50.8611     -60.9741       0.9250      -0.8070      -0.4494      33.8623       1.0226
    3473.0    1486.1025       0.0000      50.8611     -58.6241       0.8178      -0.6981      -0.4259      39.9642       1.0226
    3474.0    1509.7848       0.0000      50.8611     -59.3824       0.8376      -0.7212      -0.4259      46.4872       1.0226
    3475.0    1537.1432       0.0000      50.8611     -63.9059       0.8866      -0.7955      -0.3907      52.6021       1.0226
    3476.0    1559.0355       0.0000      50.8611     -62.5578       0.9925      -0.8813      -0.4551      58.7040       1.0226
    3477.0    1580.0563       0.0000      50.8611     -64.1530       1.0284      -0.9270      -0.4433      64.8058       1.0226
    3478.0    1599.0579       0.0000      50.8611     -64.8779       0.9487      -0.8587      -0.4024      70.9076       1.0226
    3479.0    1607.4253       0.0000      50.8611     -63.2225       0.9867      -0.8813      -0.4433      77.0225       1.0226
    3480.0    1628.6898       0.0000      50.8611     -64.6824       0.9688      -0.8758      -0.4142      83.1383       1.0226
    3481.0    1634.0837       0.0000      50.8611     -64.6703       0.8738      -0.7900      -0.3733      89.2392       1.0226
    3482.0    1641.7144       0.0000      50.8611     -64.1117       1.0584      -0.9506      -0.4607      95.3542       1.0226
    3483.0    1640.6186       0.0000      50.8611     -64.2126       1.0319      -0.9275      -0.4494     101.4524       1.0151
    3484.0    1642.8153       0.0000      50.8611     -69.9668       1.0225      -0.9561      -0.3503     107.5455       1.0226
    3485.0    1636.2703       0.0000      50.8611     -64.0530       0.9742      -0.8758      -0.4259     113.6473       1.0226
    3486.0    1623.8453       0.0000      50.8611     -63.9355       1.0384      -0.9330      -0.4551     120.1439       1.0226
    3487.0    1616.9061       0.0000      50.8611     -65.6848       1.0367      -0.9446      -0.4259     126.2457       1.0226
