~VERSION INFORMATION
VERS.           2.0   :CWLS Log ASCII Standard - VERSION 2.0
WRAP.           NO    :One Line per depth step
PROD.  Schlumberger   :LAS Producer
PROG.  DLIS to ASCII 19C2-270                          :LAS Program name and version
CREA.        2017/09/16 17:42                          :LAS Creation date {YYYY/MM/DD hh:mm}
DLIS_CREA.  2017-Sep-15 17:53                          :DLIS Creation date and time {YYYY-MMM-DD hh:mm}
SOURCE.     LPC_S4-1_BV.DLIS                           :DLIS File Name
FILE-ID.     PERFO_Perfo_WPGRT_051LTP                  :File Identification Number
#--------------------------------------------------
~WELL INFORMATION
#MNEM.UNIT      DATA             DESCRIPTION
#---- ------ --------------   -----------------------------
STRT .S         3166.0       :START TIME      
STOP .S         3598.0       :STOP TIME      
STEP .S            1.0       :STEP     
NULL .          -999.25      :NULL VALUE
COMP .        SHELL INTERNATIONAL E P                  :COMPANY
WELL .        WPP TEST 2                               :WELL
FLD  .        WILDCAT                                  :FIELD
LOC  .        NA                                       :LOCATION
CNTY .        HARRIS                                   :COUNTY
STAT .        TEXAS                                    :STATE
CTRY .                                                 :COUNTRY
API  .        NA                                       :API NUMBER
UWI  .                                                 :UNIQUE WELL ID
DATE .        15-Sep-2017                              :LOG DATE {DD-MMM-YYYY}
SRVC .        Schlumberger                             :SERVICE COMPANY
LATI .DEG                                              :LATITUDE
LONG .DEG                                              :LONGITUDE
GDAT .                                                 :GeoDetic Datum
SECT .        NA                                       :Section
RANG .        NA                                       :Range
TOWN .        NA                                       :Township
#-----------------------------------------------------------------------------
~PARAMETER INFORMATION
#MNEM.UNIT    VALUE                      DESCRIPTION
#---- -----   --------------------       ------------------------
U-PHASE_B_COMP_PER_YT.                 0 :Phase B Comparator Period Yt
U-PHASE_A_COMP_PER_XT.                 0 :Phase A Comparator Period Xt
U-MAX_EXC_CUR_LIMIT.MA       240.00000   :Requested CM Current Limit
U-REQ_EXC_FQ.HZ              50          :Requested CM Frequency
U-TILT_Y_OFFSET.           0.19916       :WPTET Tilt Y Offset
U-TILT_Y_GAIN.           1.01796         :WPTET Tilt Y Gain
U-TILT_X_OFFSET.          -1.77103       :WPTET Tilt X Offset
U-TILT_X_GAIN.           1.00000         :WPTET Tilt X Gain
U-TILT_OFFSET_TOL.           0.00100     :WPTET Tilt Offset Calibration Tolerance
U-NO_TILT_CAL_ROTATIONS.                 3 :Number of Rotations for Tilt Calibration
HAZI .DEG        0.00000                 :Hole Azimuth
U-STD_TOL_TILT.           0.01000        :Tilt Standard Deviation Tolerance
U-GUN_POS_TOL.DEG        5.00000         :Gun Position Tolerance
ROT_ANGLE_THRESHOLD.DEG        5.00000   :Rotation Stop Angle Tolerance
STOP_ROT_ANGLE.DEG        0.00000        :Rotation Stop Angle
WITN .        MR. DHRUA ARORA            :Witness's Name
ENGI .        MORRIS MOORE               :Engineer's Name
COUN .        HARRIS                     :County or Rig Name
FN   .        WILDCAT                    :Field Name
WN   .        WPP TEST 2                 :Well Name
CN   .        SHELL INTERNATIONAL E P    :Company Name
CLAB .        County                     :County/Rig Label
SLAB .        State                      :State/Province Label
RUN  .          1                        :RUN NUMBER
PDAT .        GROUND LEVEL               :Permanent Datum
EPD  .                                   :Elevation of Permanent Datum above Mean Sea Level
LMF  .          NA                       :Logging Measured From (Name of Logging Elevation Reference)
APD  .                                   :Elevation of Depth Reference (LMF) above Permanent Datum
#-----------------------------------------------------------------------------
~CURVE INFORMATION
#MNEM.UNIT   API CODE                                  DESCRIPTION
#---- -----  --------                                  -----------------------
TIME .S                                                :TIME {F10.1}
FREQ_EMF_SL.HZ                                         :Electromagnetic Field Frequency {F13.4}
PH_SH_WPPCM_SL.DEG                                     :WPPCM Phase Shift {F13.4}
FREQ_EXC_REQ_SL.HZ                                     :Requested Exciter Frequency {F13.4}
RB_SL.DEG                                              :Relative Bearing {F13.4}
SDEV_SL.DEG                                            :Sonde Deviation {F13.4}
TILX_SL.DEG                                            :X-axis Tilt {F13.4}
TILY_SL.DEG                                            :Y-axis Tilt {F13.4}
ROTA_SL.DEG                                            :Motor Rotation Angle {F13.4}
MSPE_SL.RPM                                            :Motor Speed {F13.4}
#-----------------------------------------------------------------------------
# 
#     TIME    FREQ_EMF_SL  PH_SH_WPPCM_ FREQ_EXC_REQ    RB_SL       SDEV_SL      TILX_SL      TILY_SL      ROTA_SL      MSPE_SL
#                          SL           _SL
~A  
# ...
    3481.0    1187.4160       0.0000      50.8611     -30.4650       0.6940      -0.3544      -0.5957     112.5757       1.0226
    3482.0    1259.7289       0.0000      50.8611     -36.1751       0.6290      -0.3711      -0.5079     118.6775       1.0226
    3483.0    1311.4430       0.0000      50.8611     -41.7831       0.6552      -0.4367      -0.4885     124.7793       1.0226
    3484.0    1358.4827       0.0000      50.8611     -41.5317       0.4906      -0.3250      -0.3673     130.8688       1.0226
    3485.0    1395.8506       0.0000      50.8611     -41.8387       0.5478      -0.3652      -0.4082     136.9820       1.0242
    3486.0    1438.6927       0.0000      50.8611     -54.4540       0.4420      -0.3593      -0.2566     143.0867       1.0226
    3487.0    1478.9045       0.0000      50.8611     -70.1892       0.4408      -0.4112      -0.1519     149.1993       1.0242
    3488.0    1527.5650       0.0000      50.8611     -66.1181       0.6190      -0.5660      -0.2506     155.3019       1.0242
    3489.0    1565.4709       0.0000      50.8611     -72.8031       0.5507      -0.5259      -0.1629     161.8141       1.0242
    3490.0    1611.5951       0.0000      50.8611     -84.2298       0.5228      -0.5200      -0.0522     167.9173       1.0226
    3491.0    1654.4117       0.0000      50.8611     -73.0248       0.6307      -0.6003      -0.1858     174.0188       1.0226
    3492.0    1689.6115       0.0000      50.8611     -80.3892       0.6910      -0.6807      -0.1160     180.1215       1.0226
    3493.0    1725.1209       0.0000      50.8611     -78.1099       0.7390      -0.7208      -0.1519     186.2241       1.0242
    3494.0    1748.4324       0.0000      50.8611     -72.6114       0.8581      -0.8188      -0.2566     192.3137       1.0226
    3495.0    1773.1322       0.0000      50.8611     -83.9763       0.8159      -0.8114      -0.0856     198.4296       1.0226
    3496.0    1787.7973       0.0000      50.8611     -78.9427       0.9259      -0.9050      -0.1738     204.5446       1.0226
    3497.0    1789.1222       0.0000      50.8611     -78.9683       0.9142      -0.8932      -0.1738     210.6465       1.0226
    3498.0    1798.2737       0.0000      50.8611     -81.0611       1.0029      -0.9902      -0.1569     216.7484       1.0226
    3499.0    1795.0314       0.0000      50.8611     -58.4595       0.7060      -0.5973      -0.3075     222.8503       1.0226
    3500.0    1804.8286       0.0000      50.8611     -86.7296       1.1537      -1.1509      -0.0641     228.9424       1.0211
    3501.0    1793.0187       0.0000      50.8611     -79.9917       1.0999      -1.0823      -0.1918     235.4039       1.0226
    3502.0    1766.6456       0.0000      50.8611     -82.7863       1.1091      -1.0999      -0.1399     241.5655       1.0226
    3503.0    1749.7050       0.0000      50.8611     -81.2460       1.1477      -1.1342      -0.1748     247.6805       1.0242
    3504.0    1730.5935       0.0000      50.8611     -76.4401       1.2434      -1.2087      -0.2915     253.7824       1.0136
    3505.0    1706.0098       0.0000      50.8611     -80.6437       1.3703      -1.3517      -0.2217     259.8720       1.0226
    3506.0    1672.4737       0.0000      50.8611     -75.7349       1.2712      -1.2312      -0.3144     265.9869       1.0226
    3507.0    1634.6705       0.0000      50.8611     -72.6223       1.3692      -1.3066      -0.4082     272.0887       1.0226
    3508.0    1598.5437       0.0000      50.8611     -74.0756       1.3823      -1.3292      -0.3793     278.2036       1.0226
    3509.0    1560.0511       0.0000      50.8611     -71.0555       1.3519      -1.2773      -0.4381     284.3059       1.0226
    3510.0    1526.6780       0.0000      50.8611     -69.3442       1.3902      -1.3008      -0.4900     290.4077       1.0226
    3511.0    1489.6716       0.0000      50.8611     -68.0060       1.4335      -1.3292      -0.5368     296.5091       1.0226
    3512.0    1453.6192       0.0000      50.8611     -65.5586       1.5795      -1.4379      -0.6535     302.5743       1.0211
    3513.0    1407.4914       0.0000      50.8611     -61.2543       1.5164      -1.3292      -0.7293     308.6888       1.0226
    3514.0    1367.6450       0.0000      50.8611     -62.6458       1.4840      -1.3174      -0.6824     315.1987       1.0226
    3515.0    1332.0457       0.0000      50.8611     -61.0821       1.4730      -1.2890      -0.7123     321.2881       1.0226
    3516.0    1282.1124       0.0000      50.8611     -58.3083       1.5553      -1.3233      -0.8171     327.3907       1.0226
    3517.0    1209.1246       0.0000      50.8611     -57.6192       1.4720      -1.2430      -0.7881     333.4951       1.0226
    3518.0    1127.1333       0.0000      50.8611     -53.6982       1.4298      -1.1519      -0.8470     339.5943       1.0226
    3519.0    1050.0974       0.0000      50.8611     -53.8679       1.3663      -1.1031      -0.8061     345.6961       1.0226
    3520.0    1014.6582       0.0000      50.8611     -50.0484       1.4275      -1.0941      -0.9168     351.7861       1.0211
    3521.0     971.3636       0.0000      50.8611     -39.6432       1.3134      -0.8374      -0.9976     357.8879       1.0226
    3522.0     945.8076       0.0000      50.8611     -46.7051       1.4562      -1.0598      -0.9986       3.9897       1.0226
    3523.0     924.4835       0.0000      50.8611     -43.4939       1.4561      -1.0020      -1.0564      10.0791       1.0226
    3524.0     900.3246       0.0000      50.8611     -45.1829       1.4917      -1.0588      -1.0504      16.1809       1.0226
    3525.0     891.3251       0.0000      50.8611     -40.9991       1.3616      -0.8932      -1.0275      22.2828       1.0226
    3526.0     883.6482       0.0000      50.8611     -40.0803       1.2978      -0.8354      -0.9926      28.7921       1.0136
    3527.0     872.2055       0.0000      50.8611     -43.6861       1.3328      -0.9207      -0.9577      34.8816       1.0226
    3528.0     866.7022       0.0000      50.8611     -38.5461       1.3253      -0.8286      -1.0275      40.9966       1.0226
    3529.0     864.6970       0.0000      50.8611     -35.0484       1.2552      -0.7208      -1.0275      47.0984       1.0136
    3530.0     865.7618       0.0000      50.8611     -35.4216       1.1753      -0.6807      -0.9577      53.1878       1.0226
    3531.0     867.3700       0.0000      50.8611     -29.1815       1.0887      -0.5322      -0.9489      59.2897       1.0226
    3532.0     875.7623       0.0000      50.8611     -35.1274       1.0637      -0.6121      -0.8699      65.3796       1.0226
    3533.0     886.6466       0.0000      50.8611     -25.8284       1.0375      -0.4514      -0.9337      71.4967       1.0226
    3534.0     896.3431       0.0000      50.8611     -28.5369       1.1024      -0.5259      -0.9687      77.5963       1.0226
    3535.0     915.5273       0.0000      50.8611     -29.0346       0.9419      -0.4573      -0.8230      83.7112       1.0226
    3536.0     937.3174       0.0000      50.8611     -32.9610       0.9335      -0.5082      -0.7822      89.8130       1.0226
    3537.0     960.9117       0.0000      50.8611     -30.1998       0.8174      -0.4112      -0.7064      95.9174       1.0226
    3538.0     990.0954       0.0000      50.8611     -28.7656       0.7591      -0.3652      -0.6655     102.4241       1.0226
    3539.0    1030.7543       0.0000      50.8611     -31.7068       0.7823      -0.4112      -0.6655     108.5259       1.0226
    3540.0    1126.7776       0.0000      50.8611     -40.3640       0.6610      -0.4279      -0.5019     114.6277       1.0226
    3541.0    1228.5978       0.0000      50.8611     -38.5008       0.5965      -0.3711      -0.4670     120.7295       1.0226
    3542.0    1294.8595       0.0000      50.8611     -25.7819       0.5904      -0.2564      -0.5308     126.8561       1.0318
    3543.0    1335.9991       0.0000      50.8611     -44.0411       0.6901      -0.4798      -0.4959     132.9472       1.0211
