~VERSION INFORMATION
VERS.           2.0   :CWLS Log ASCII Standard - VERSION 2.0
WRAP.           NO    :One Line per depth step
PROD.  Schlumberger   :LAS Producer
PROG.  DLIS to ASCII 19C2-270                          :LAS Program name and version
CREA.        2017/09/16 17:42                          :LAS Creation date {YYYY/MM/DD hh:mm}
DLIS_CREA.  2017-Sep-15 12:43                          :DLIS Creation date and time {YYYY-MMM-DD hh:mm}
SOURCE.     LPC_S1-1_BV.DLIS                           :DLIS File Name
FILE-ID.     PERFO_Perfo_WPGRT_021LTP                  :File Identification Number
#--------------------------------------------------
~WELL INFORMATION
#MNEM.UNIT      DATA             DESCRIPTION
#---- ------ --------------   -----------------------------
STRT .S         6992.0       :START TIME      
STOP .S         7825.0       :STOP TIME      
STEP .S            1.0       :STEP     
NULL .          -999.25      :NULL VALUE
COMP .        SHELL INTERNATIONAL E P                  :COMPANY
WELL .        WPP TEST 2                               :WELL
FLD  .        WILDCAT                                  :FIELD
LOC  .                                                 :LOCATION
CNTY .        HARRIS                                   :COUNTY
STAT .        TEXAS                                    :STATE
CTRY .                                                 :COUNTRY
API  .                                                 :API NUMBER
UWI  .                                                 :UNIQUE WELL ID
DATE .                                                 :LOG DATE
SRVC .        Schlumberger                             :SERVICE COMPANY
LATI .DEG                                              :LATITUDE
LONG .DEG                                              :LONGITUDE
GDAT .                                                 :GeoDetic Datum
#-----------------------------------------------------------------------------
~PARAMETER INFORMATION
#MNEM.UNIT    VALUE                      DESCRIPTION
#---- -----   --------------------       ------------------------
U-PHASE_B_COMP_PER_YT.                 0 :Phase B Comparator Period Yt
U-PHASE_A_COMP_PER_XT.                 0 :Phase A Comparator Period Xt
U-MAX_EXC_CUR_LIMIT.MA       240.00000   :Requested CM Current Limit
U-REQ_EXC_FQ.HZ              50          :Requested CM Frequency
U-TILT_Y_OFFSET.           0.19916       :WPTET Tilt Y Offset
U-TILT_Y_GAIN.           1.01796         :WPTET Tilt Y Gain
U-TILT_X_OFFSET.          -1.77103       :WPTET Tilt X Offset
U-TILT_X_GAIN.           1.00000         :WPTET Tilt X Gain
U-TILT_OFFSET_TOL.           0.00100     :WPTET Tilt Offset Calibration Tolerance
U-NO_TILT_CAL_ROTATIONS.                 3 :Number of Rotations for Tilt Calibration
HAZI .DEG        0.00000                 :Hole Azimuth
U-STD_TOL_TILT.           0.01000        :Tilt Standard Deviation Tolerance
U-GUN_POS_TOL.DEG        5.00000         :Gun Position Tolerance
ROT_ANGLE_THRESHOLD.DEG        5.00000   :Rotation Stop Angle Tolerance
STOP_ROT_ANGLE.DEG       80.00000        :Rotation Stop Angle
WITN .                                   :Witness's Name
ENGI .                                   :Engineer's Name
COUN .        HARRIS                     :County or Rig Name
FN   .        WILDCAT                    :Field Name
WN   .        WPP TEST 2                 :Well Name
CN   .        SHELL INTERNATIONAL E P    :Company Name
CLAB .        County                     :County/Rig Label
SLAB .        State                      :State/Province Label
RUN  .          1                        :RUN NUMBER
PDAT .        GROUND LEVEL               :Permanent Datum
EPD  .                                   :Elevation of Permanent Datum above Mean Sea Level
LMF  .                                   :Logging Measured From (Name of Logging Elevation Reference)
APD  .                                   :Elevation of Depth Reference (LMF) above Permanent Datum
#-----------------------------------------------------------------------------
~CURVE INFORMATION
#MNEM.UNIT   API CODE                                  DESCRIPTION
#---- -----  --------                                  -----------------------
TIME .S                                                :TIME {F10.1}
FREQ_EMF_SL.HZ                                         :Electromagnetic Field Frequency {F13.4}
PH_SH_WPPCM_SL.DEG                                     :WPPCM Phase Shift {F13.4}
FREQ_EXC_REQ_SL.HZ                                     :Requested Exciter Frequency {F13.4}
RB_SL.DEG                                              :Relative Bearing {F13.4}
SDEV_SL.DEG                                            :Sonde Deviation {F13.4}
TILX_SL.DEG                                            :X-axis Tilt {F13.4}
TILY_SL.DEG                                            :Y-axis Tilt {F13.4}
ROTA_SL.DEG                                            :Motor Rotation Angle {F13.4}
MSPE_SL.RPM                                            :Motor Speed {F13.4}
#-----------------------------------------------------------------------------
# 
#     TIME    FREQ_EMF_SL  PH_SH_WPPCM_ FREQ_EXC_REQ    RB_SL       SDEV_SL      TILX_SL      TILY_SL      ROTA_SL      MSPE_SL
#                          SL           _SL
~A  
# ...
    7685.0    1205.9844       0.0000      50.8611     -47.6017       1.1556      -0.8532      -0.7785     172.2953       1.0223
    7686.0    1250.5854       0.0000      50.8611     -54.4705       1.1352      -0.9239      -0.6595     178.3969       1.0226
    7687.0    1275.8816       0.0000      50.8611     -55.2069       1.0821      -0.8886      -0.6174     184.4988       1.0226
    7688.0    1287.7042       0.0000      50.8611     -55.0596       1.0930      -0.8959      -0.6261     190.6008       1.0226
    7689.0    1309.2845       0.0000      50.8611     -51.3157       1.1899      -0.9287      -0.7437     196.7157       1.0226
    7690.0    1336.3620       0.0000      50.8611     -48.6055       1.1829      -0.8874      -0.7822     202.8206       1.0226
    7691.0    1344.2537       0.0000      50.8611     -51.7057       1.1322      -0.8886      -0.7016     208.9083       1.0223
    7692.0    1360.0888       0.0000      50.8611     -48.4545       1.3039      -0.9761      -0.8639     214.9855       1.0223
    7693.0    1381.5485       0.0000      50.8611     -50.2395       1.1008      -0.8460      -0.7041     221.0870       1.0226
    7694.0    1405.9984       0.0000      50.8611     -47.7256       1.0336      -0.7644      -0.6955     227.5847       1.0226
    7695.0    1428.7701       0.0000      50.8611     -47.6245       1.0429      -0.7705      -0.7028     233.6869       1.0124
    7696.0    1437.7954       0.0000      50.8611     -42.8045       1.0104      -0.6865      -0.7413     239.7883       1.0226
    7697.0    1452.6478       0.0000      50.8611     -48.0962       0.8721      -0.6488      -0.5826     245.9035       1.0226
    7698.0    1473.9641       0.0000      50.8611     -49.6686       0.9579      -0.7303      -0.6198     252.0179       1.0330
    7699.0    1483.2924       0.0000      50.8611     -50.8934       1.0417      -0.8082      -0.6570     258.1203       1.0226
    7700.0    1492.8344       0.0000      50.8611     -45.8939       0.9134      -0.6549      -0.6359     264.2097       1.0226
    7701.0    1508.8519       0.0000      50.8611     -46.8440       0.6742      -0.4917      -0.4612     270.3247       1.0226
    7702.0    1524.9211       0.0000      50.8611     -49.5934       0.9544      -0.7267      -0.6186     276.4265       1.0226
    7703.0    1531.9631       0.0000      50.8611     -53.6258       0.7098      -0.5708      -0.4215     282.5160       1.0330
    7704.0    1531.7629       0.0000      50.8611     -46.3191       0.8383      -0.6062      -0.5789     288.6094       1.0223
    7705.0    1538.5668       0.0000      50.8611     -46.2747       0.9486      -0.6853      -0.6558     294.7115       1.0229
    7706.0    1538.4660       0.0000      50.8611     -51.5291       0.9267      -0.7255      -0.5765     300.8014       1.0330
    7707.0    1528.4332       0.0000      50.8611     -48.9831       0.7564      -0.5708      -0.4959     307.3212       1.0226
    7708.0    1525.4163       0.0000      50.8611     -50.6374       0.7857      -0.6074      -0.4984     313.4239       1.0330
    7709.0    1528.2356       0.0000      50.8611     -52.5166       0.8191      -0.6500      -0.4984     319.5265       1.0226
    7710.0    1515.2578       0.0000      50.8611     -60.3195       0.8364      -0.7267      -0.4142     325.6314       1.0226
    7711.0    1505.8152       0.0000      50.8611     -60.2038       0.8361      -0.7255      -0.4154     331.7179       1.0330
    7712.0    1499.3931       0.0000      50.8611     -54.9808       0.9334      -0.7644      -0.5356     337.8358       1.0226
    7713.0    1486.5221       0.0000      50.8611     -54.2443       0.8489      -0.6889      -0.4959     343.9223       1.0226
    7714.0    1465.0276       0.0000      50.8611     -69.5854       0.7346      -0.6877      -0.2567     350.0118       1.0226
    7715.0    1453.1009       0.0000      50.8611     -55.0565       0.7929      -0.6500      -0.4538     356.1166       1.0226
    7716.0    1449.6527       0.0000      50.8611     -60.5746       0.9238      -0.8046      -0.4538       2.2192       1.0327
    7717.0    1437.7954       0.0000      50.8611     -70.5526       0.8955      -0.8436      -0.2976       8.3088       1.0226
    7718.0    1420.4546       0.0000      50.8611     -65.2190       0.8876      -0.8058      -0.3720      14.3859       1.0226
    7719.0    1398.1144       0.0000      50.8611     -62.8899       0.8164      -0.7267      -0.3720      20.8926       1.0226
    7720.0    1389.5751       0.0000      50.8611     -65.6975       1.0111      -0.9215      -0.4154      26.9944       1.0226
    7721.0    1370.5340       0.0000      50.8611     -68.1436       0.9994      -0.9275      -0.3720      33.0839       1.0226
    7722.0    1352.3201       0.0000      50.8611     -60.0614       1.0651      -0.9227      -0.5319      39.1858       1.0226
    7723.0    1339.6721       0.0000      50.8611     -68.2321       1.0002      -0.9287      -0.3708      45.2906       1.0226
    7724.0    1324.0779       0.0000      50.8611     -78.3801       1.0640      -1.0420      -0.2134      51.3932       1.0226
    7725.0    1304.4266       0.0000      50.8611     -66.7094       1.0510      -0.9653      -0.4154      57.4798       1.0226
    7726.0    1283.2158       0.0000      50.8611     -59.9640       1.0700      -0.9263      -0.5356      63.5948       1.0229
    7727.0    1269.3167       0.0000      50.8611     -68.1253       1.0021      -0.9299      -0.3733      69.7126       1.0226
    7728.0    1231.5222       0.0000      50.8611     -55.3520       0.9423      -0.7753      -0.5344      75.8114       1.0124
    7729.0    1187.8927       0.0000      50.8611     -59.9185       0.9861      -0.8532      -0.4935      81.8791       1.0226
    7730.0    1154.8434       0.0000      50.8611     -70.1246       0.9851      -0.9263      -0.3348      87.9809       1.0226
    7731.0    1121.6275       0.0000      50.8611     -62.9942       1.0000      -0.8910      -0.4538      94.5008       1.0226
    7732.0    1107.3884       0.0000      50.8611     -63.9213       1.0353      -0.9299      -0.4551     100.6033       1.0229
    7733.0    1090.2181       0.0000      50.8611     -64.8747       1.0689      -0.9677      -0.4538     106.7065       1.0127
    7734.0    1065.4869       0.0000      50.8611     -63.7086       1.1201      -1.0042      -0.4959     112.8079       1.0226
    7735.0    1057.2357       0.0000      50.8611     -64.6210       1.1600      -1.0480      -0.4972     118.9227       1.0229
    7736.0    1046.5523       0.0000      50.8611     -62.7531       1.0886      -0.9677      -0.4984     125.0245       1.0226
    7737.0    1050.9619       0.0000      50.8611     -61.8068       1.1394      -1.0042      -0.5381     131.1264       1.0226
    7738.0    1053.9251       0.0000      50.8611     -63.7146       1.2096      -1.0846      -0.5356     137.2283       1.0226
    7739.0    1065.0055       0.0000      50.8611     -62.7006       1.0892      -0.9677      -0.4996     143.3462       1.0226
    7740.0    1071.7392       0.0000      50.8611     -57.4861       1.1462      -0.9665      -0.6161     149.4481       1.0330
    7741.0    1091.9623       0.0000      50.8611     -59.0588       1.1284      -0.9677      -0.5802     155.5631       1.0226
    7742.0    1122.9889       0.0000      50.8611     -61.8279       1.2276      -1.0822      -0.5789     161.6777       1.0229
    7743.0    1152.3271       0.0000      50.8611     -62.6940       1.1783      -1.0468      -0.5405     168.1982       1.0229
    7744.0    1189.4214       0.0000      50.8611     -59.2157       1.2144      -1.0432      -0.6211     174.3132       1.0226
    7745.0    1233.4232       0.0000      50.8611     -53.9036       1.0544      -0.8520      -0.6211     180.4409       1.0229
    7746.0    1260.0807       0.0000      50.8611     -55.7418       1.1694      -0.9665      -0.6583     186.5433       1.0226
    7747.0    1289.9257       0.0000      50.8611     -54.5713       1.1398      -0.9287      -0.6607     192.6452       1.0226
