~VERSION INFORMATION
VERS.           2.0   :CWLS Log ASCII Standard - VERSION 2.0
WRAP.           NO    :One Line per depth step
PROD.  Schlumberger   :LAS Producer
PROG.  DLIS to ASCII 19C2-270                          :LAS Program name and version
CREA.        2017/09/16 17:42                          :LAS Creation date {YYYY/MM/DD hh:mm}
DLIS_CREA.  2017-Sep-15 12:43                          :DLIS Creation date and time {YYYY-MMM-DD hh:mm}
SOURCE.     LPC_S1-1_BV.DLIS                           :DLIS File Name
FILE-ID.     PERFO_Perfo_WPGRT_021LTP                  :File Identification Number
#--------------------------------------------------
~WELL INFORMATION
#MNEM.UNIT      DATA             DESCRIPTION
#---- ------ --------------   -----------------------------
STRT .S         6992.0       :START TIME      
STOP .S         7825.0       :STOP TIME      
STEP .S            1.0       :STEP     
NULL .          -999.25      :NULL VALUE
COMP .        SHELL INTERNATIONAL E P                  :COMPANY
WELL .        WPP TEST 2                               :WELL
FLD  .        WILDCAT                                  :FIELD
LOC  .                                                 :LOCATION
CNTY .        HARRIS                                   :COUNTY
STAT .        TEXAS                                    :STATE
CTRY .                                                 :COUNTRY
API  .                                                 :API NUMBER
UWI  .                                                 :UNIQUE WELL ID
DATE .                                                 :LOG DATE
SRVC .        Schlumberger                             :SERVICE COMPANY
LATI .DEG                                              :LATITUDE
LONG .DEG                                              :LONGITUDE
GDAT .                                                 :GeoDetic Datum
#-----------------------------------------------------------------------------
~PARAMETER INFORMATION
#MNEM.UNIT    VALUE                      DESCRIPTION
#---- -----   --------------------       ------------------------
U-PHASE_B_COMP_PER_YT.                 0 :Phase B Comparator Period Yt
U-PHASE_A_COMP_PER_XT.                 0 :Phase A Comparator Period Xt
U-MAX_EXC_CUR_LIMIT.MA       240.00000   :Requested CM Current Limit
U-REQ_EXC_FQ.HZ              50          :Requested CM Frequency
U-TILT_Y_OFFSET.           0.19916       :WPTET Tilt Y Offset
U-TILT_Y_GAIN.           1.01796         :WPTET Tilt Y Gain
U-TILT_X_OFFSET.          -1.77103       :WPTET Tilt X Offset
U-TILT_X_GAIN.           1.00000         :WPTET Tilt X Gain
U-TILT_OFFSET_TOL.           0.00100     :WPTET Tilt Offset Calibration Tolerance
U-NO_TILT_CAL_ROTATIONS.                 3 :Number of Rotations for Tilt Calibration
HAZI .DEG        0.00000                 :Hole Azimuth
U-STD_TOL_TILT.           0.01000        :Tilt Standard Deviation Tolerance
U-GUN_POS_TOL.DEG        5.00000         :Gun Position Tolerance
ROT_ANGLE_THRESHOLD.DEG        5.00000   :Rotation Stop Angle Tolerance
STOP_ROT_ANGLE.DEG       80.00000        :Rotation Stop Angle
WITN .                                   :Witness's Name
ENGI .                                   :Engineer's Name
COUN .        HARRIS                     :County or Rig Name
FN   .        WILDCAT                    :Field Name
WN   .        WPP TEST 2                 :Well Name
CN   .        SHELL INTERNATIONAL E P    :Company Name
CLAB .        County                     :County/Rig Label
SLAB .        State                      :State/Province Label
RUN  .          1                        :RUN NUMBER
PDAT .        GROUND LEVEL               :Permanent Datum
EPD  .                                   :Elevation of Permanent Datum above Mean Sea Level
LMF  .                                   :Logging Measured From (Name of Logging Elevation Reference)
APD  .                                   :Elevation of Depth Reference (LMF) above Permanent Datum
#-----------------------------------------------------------------------------
~CURVE INFORMATION
#MNEM.UNIT   API CODE                                  DESCRIPTION
#---- -----  --------                                  -----------------------
TIME .S                                                :TIME {F10.1}
FREQ_EMF_SL.HZ                                         :Electromagnetic Field Frequency {F13.4}
PH_SH_WPPCM_SL.DEG                                     :WPPCM Phase Shift {F13.4}
FREQ_EXC_REQ_SL.HZ                                     :Requested Exciter Frequency {F13.4}
RB_SL.DEG                                              :Relative Bearing {F13.4}
SDEV_SL.DEG                                            :Sonde Deviation {F13.4}
TILX_SL.DEG                                            :X-axis Tilt {F13.4}
TILY_SL.DEG                                            :Y-axis Tilt {F13.4}
ROTA_SL.DEG                                            :Motor Rotation Angle {F13.4}
MSPE_SL.RPM                                            :Motor Speed {F13.4}
#-----------------------------------------------------------------------------
# 
#     TIME    FREQ_EMF_SL  PH_SH_WPPCM_ FREQ_EXC_REQ    RB_SL       SDEV_SL      TILX_SL      TILY_SL      ROTA_SL      MSPE_SL
#                          SL           _SL
~A  
    6992.0       0.0000       0.0000      50.8611     -61.0396       0.8474      -0.7414      -0.4105     270.3923       1.0217
    6993.0       0.0000       0.0000      50.8611     -60.3195       0.8364      -0.7267      -0.4142     276.8744       1.0226
    6994.0       0.0000       0.0000      50.8611     -59.6038       0.9780      -0.8436      -0.4947     282.9897       1.0229
    6995.0       0.0000       0.0000      50.8611     -61.6618       0.8672      -0.7632      -0.4117     289.0672       1.0226
    6996.0       0.0000       0.0000      50.8611     -59.7142       0.9784      -0.8448      -0.4935     295.1567       1.0226
    6997.0       0.0000       0.0000      50.8611     -57.4373       0.9159      -0.7717      -0.4923     301.2589       1.0330
    6998.0       0.0000       0.0000      50.8611     -49.9231       0.9535      -0.7291      -0.6137     307.3526       1.0226
    6999.0       0.0000       0.0000      50.8611     -64.9604       0.8882      -0.8046      -0.3757     313.4551       1.0226
    7000.0       0.0000       0.0000      50.8611     -95.8087       1.6093      -1.5670       0.2032     319.5416       1.0226
    7001.0       0.0000       0.0000      50.8611     -56.7228       1.0540      -0.8813      -0.5777     325.6494       1.0124
    7002.0       0.0000       0.0000      50.8611     -67.4338       0.6619      -0.6110      -0.2543     331.7621       1.0226
    7003.0       0.0000       0.0000      50.8611     -68.3296       0.9079      -0.8436      -0.3348     337.8639       1.0226
    7004.0       0.0000       0.0000      50.8611     -60.5546       0.9281      -0.8082      -0.4563     343.9665       1.0226
    7005.0       0.0000       0.0000      50.8611     -67.3653       0.8734      -0.8058      -0.3361     350.4864       1.0226
    7006.0       0.0000       0.0000      50.8611     -74.6630       0.9647      -0.9299      -0.2555     356.6144       1.0229
    7007.0       0.0000       0.0000      50.8611     -73.0806       1.0103      -0.9665      -0.2940       2.6933       1.0124
    7008.0       0.0000       0.0000      50.8611     -69.4089       0.9453      -0.8849      -0.3324       8.7944       1.0226
    7009.0       0.0000       0.0000      50.8611     -65.6502       1.0983      -1.0006      -0.4526      14.8838       1.0226
    7010.0       0.0000       0.0000      50.8611     -67.4887       1.0912      -1.0079      -0.4178      20.9986       1.0229
    7011.0       0.0000       0.0000      50.8611     -70.0172       0.7438      -0.6992      -0.2537      27.1034       1.0226
    7012.0       0.0000       0.0000      50.8611     -68.0774       0.9998      -0.9275      -0.3733      33.2052       1.0124
    7013.0       0.0000       0.0000      50.8611     -55.9819       0.8893      -0.7375      -0.4959      39.2958       1.0124
    7014.0       0.0000       0.0000      50.8611     -69.7439       1.2002      -1.1259      -0.4154      45.3981       1.0226
    7015.0       0.0000       0.0000      50.8611     -64.5419       1.0768      -0.9713      -0.4636      51.4880       1.0121
    7016.0       0.0000       0.0000      50.8611     -67.0328       1.2679      -1.1673      -0.4947      57.5801       1.0226
    7017.0       0.0000       0.0000      50.8611     -63.8947       1.1277      -1.0127      -0.4959      64.0595       1.0226
    7018.0       0.0000       0.0000      50.8611     -58.7658       1.0421      -0.8910      -0.5405      70.1867       1.0226
    7019.0       0.0000       0.0000      50.8611     -59.4476       1.2170      -1.0480      -0.6186      76.2885       1.0226
    7020.0       0.0000       0.0000      50.8611     -62.8280       1.1808      -1.0504      -0.5393      82.3941       1.0226
    7021.0       0.0000       0.0000      50.8611     -60.9339       1.1100      -0.9701      -0.5393      88.4942       1.0124
    7022.0       0.0000       0.0000      50.8611     -63.7141       1.1228      -1.0067      -0.4972      94.6116       1.0226
    7023.0       0.0000       0.0000      50.8611     -52.6568       1.0175      -0.8088      -0.6171     100.7043       1.0124
    7024.0       0.0000       0.0000      50.8611     -57.7397       1.2380      -1.0468      -0.6607     106.8158       1.0226
    7025.0       0.0000       0.0000      50.8611     -59.8290       1.0730      -0.9275      -0.5393     112.9176       1.0226
    7026.0       0.0000       0.0000      50.8611     -52.0694       1.0788      -0.8508      -0.6632     119.0326       1.0226
    7027.0       0.0000       0.0000      50.8611     -48.9735       1.1278      -0.8508      -0.7400     125.1343       1.0226
    7028.0       0.0000       0.0000      50.8611     -60.0890       1.1657      -1.0103      -0.5814     131.2242       1.0223
    7029.0       0.0000       0.0000      50.8611     -56.1506       1.1171      -0.9275      -0.6223     137.7197       1.0124
    7030.0       0.0000       0.0000      50.8611     -47.3894       1.1498      -0.8460      -0.7785     143.8334       1.0226
    7031.0       0.0000       0.0000      50.8611     -52.8070       1.1646      -0.9275      -0.7041     149.9514       1.0226
    7032.0       0.0000       0.0000      50.8611     -51.3786       1.1857      -0.9263      -0.7400     156.0383       1.0124
    7033.0       0.0000       0.0000      50.8611     -47.6887       1.0387      -0.7681      -0.6992     162.1304       1.0226
    7034.0       0.0000       0.0000      50.8611     -45.8065       1.1222      -0.8046      -0.7822     168.2432       1.0223
    7035.0       0.0000       0.0000      50.8611     -48.7485       0.9989      -0.7510      -0.6583     174.3743       1.0152
    7036.0       0.0000       0.0000      50.8611     -44.6579       0.9835      -0.6913      -0.6992     180.4748       1.0226
    7037.0       0.0000       0.0000      50.8611     -41.6179       1.0996      -0.7303      -0.8218     186.5797       1.0226
    7038.0       0.0000       0.0000      50.8611     -52.1393       1.0746      -0.8484      -0.6595     192.6817       1.0226
    7039.0       0.0000       0.0000      50.8611     -42.8443       0.8985      -0.6110      -0.6583     198.7835       1.0226
    7040.0       0.0000       0.0000      50.8611     -47.9742       0.9817      -0.7291      -0.6570     204.8985       1.0226
    7041.0       0.0000       0.0000      50.8611     -50.6447       1.0920      -0.8436      -0.6930     211.4189       1.0229
    7042.0       0.0000       0.0000      50.8611     -44.6323       0.8680      -0.6098      -0.6174     217.5217       1.0220
    7043.0       0.0000       0.0000      50.8611     -44.5740       0.9817      -0.6889      -0.6992     223.6249       1.0223
    7044.0       0.0000       0.0000      50.8611     -49.8189       0.9531      -0.7279      -0.6149     229.7403       1.0226
    7045.0       0.0000       0.0000      50.8611     -46.7712       0.7848      -0.5721      -0.5368     235.8435       1.0124
    7046.0       0.0000       0.0000      50.8611     -43.8329       0.8104      -0.5600      -0.5838     241.9491       1.0226
    7047.0       0.0000       0.0000      50.8611     -54.3395       1.1291      -0.9179      -0.6570     248.0768       1.0226
    7048.0       0.0000       0.0000      50.8611     -61.2926       0.7844      -0.6877      -0.3770     254.1787       1.0226
    7049.0       0.0000       0.0000      50.8611     -54.0765       0.8494      -0.6877      -0.4984     260.2682       1.0124
    7050.0       0.0000       0.0000      50.8611     -51.5059       0.9223      -0.7219      -0.5740     266.3578       1.0226
    7051.0       0.0000       0.0000      50.8611     -57.2987       0.7667      -0.6452      -0.4142     272.4723       1.0229
    7052.0       0.0000       0.0000      50.8611     -65.8984       1.2166      -1.1115      -0.4935     278.5622       1.0226
    7053.0       0.0000       0.0000      50.8611     -60.5631       0.9308      -0.8106      -0.4575     284.6771       1.0226
    7054.0       0.0000       0.0000      50.8611     -50.1125       0.8994      -0.6901      -0.5765     291.1716       1.0226
