~VERSION INFORMATION
VERS.           2.0   :CWLS Log ASCII Standard - VERSION 2.0
WRAP.           NO    :One Line per depth step
PROD.  Schlumberger   :LAS Producer
PROG.  DLIS to ASCII 19C2-270                          :LAS Program name and version
CREA.        2017/09/16 17:42                          :LAS Creation date {YYYY/MM/DD hh:mm}
DLIS_CREA.  2017-Sep-15 18:49                          :DLIS Creation date and time {YYYY-MMM-DD hh:mm}
SOURCE.     LPC_S5-1_AV.DLIS                           :DLIS File Name
FILE-ID.     PERFO_Perfo_WPGRT_057LTP                  :File Identification Number
#--------------------------------------------------
~WELL INFORMATION
#MNEM.UNIT      DATA             DESCRIPTION
#---- ------ --------------   -----------------------------
STRT .S         6545.0       :START TIME      
STOP .S         7010.0       :STOP TIME      
STEP .S            1.0       :STEP     
NULL .          -999.25      :NULL VALUE
COMP .        SHELL INTERNATIONAL E P                  :COMPANY
WELL .        WPP TEST 2                               :WELL
FLD  .        WILDCAT                                  :FIELD
LOC  .        NA                                       :LOCATION
CNTY .        HARRIS                                   :COUNTY
STAT .        TEXAS                                    :STATE
CTRY .                                                 :COUNTRY
API  .        NA                                       :API NUMBER
UWI  .                                                 :UNIQUE WELL ID
DATE .        15-Sep-2017                              :LOG DATE {DD-MMM-YYYY}
SRVC .        Schlumberger                             :SERVICE COMPANY
LATI .DEG                                              :LATITUDE
LONG .DEG                                              :LONGITUDE
GDAT .                                                 :GeoDetic Datum
SECT .        NA                                       :Section
RANG .        NA                                       :Range
TOWN .        NA                                       :Township
#-----------------------------------------------------------------------------
~PARAMETER INFORMATION
#MNEM.UNIT    VALUE                      DESCRIPTION
#---- -----   --------------------       ------------------------
U-PHASE_B_COMP_PER_YT.                 0 :Phase B Comparator Period Yt
U-PHASE_A_COMP_PER_XT.                 0 :Phase A Comparator Period Xt
U-MAX_EXC_CUR_LIMIT.MA       240.00000   :Requested CM Current Limit
U-REQ_EXC_FQ.HZ              50          :Requested CM Frequency
U-TILT_Y_OFFSET.           0.19916       :WPTET Tilt Y Offset
U-TILT_Y_GAIN.           1.01796         :WPTET Tilt Y Gain
U-TILT_X_OFFSET.          -1.77103       :WPTET Tilt X Offset
U-TILT_X_GAIN.           1.00000         :WPTET Tilt X Gain
U-TILT_OFFSET_TOL.           0.00100     :WPTET Tilt Offset Calibration Tolerance
U-NO_TILT_CAL_ROTATIONS.                 3 :Number of Rotations for Tilt Calibration
HAZI .DEG        0.00000                 :Hole Azimuth
U-STD_TOL_TILT.           0.01000        :Tilt Standard Deviation Tolerance
U-GUN_POS_TOL.DEG        5.00000         :Gun Position Tolerance
ROT_ANGLE_THRESHOLD.DEG        5.00000   :Rotation Stop Angle Tolerance
STOP_ROT_ANGLE.DEG        0.00000        :Rotation Stop Angle
WITN .        MR. DHRUA ARORA            :Witness's Name
ENGI .        MORRIS MOORE               :Engineer's Name
COUN .        HARRIS                     :County or Rig Name
FN   .        WILDCAT                    :Field Name
WN   .        WPP TEST 2                 :Well Name
CN   .        SHELL INTERNATIONAL E P    :Company Name
CLAB .        County                     :County/Rig Label
SLAB .        State                      :State/Province Label
RUN  .          1                        :RUN NUMBER
PDAT .        GROUND LEVEL               :Permanent Datum
EPD  .                                   :Elevation of Permanent Datum above Mean Sea Level
LMF  .          NA                       :Logging Measured From (Name of Logging Elevation Reference)
APD  .                                   :Elevation of Depth Reference (LMF) above Permanent Datum
#-----------------------------------------------------------------------------
~CURVE INFORMATION
#MNEM.UNIT   API CODE                                  DESCRIPTION
#---- -----  --------                                  -----------------------
TIME .S                                                :TIME {F10.1}
FREQ_EMF_SL.HZ                                         :Electromagnetic Field Frequency {F13.4}
PH_SH_WPPCM_SL.DEG                                     :WPPCM Phase Shift {F13.4}
FREQ_EXC_REQ_SL.HZ                                     :Requested Exciter Frequency {F13.4}
RB_SL.DEG                                              :Relative Bearing {F13.4}
SDEV_SL.DEG                                            :Sonde Deviation {F13.4}
TILX_SL.DEG                                            :X-axis Tilt {F13.4}
TILY_SL.DEG                                            :Y-axis Tilt {F13.4}
ROTA_SL.DEG                                            :Motor Rotation Angle {F13.4}
MSPE_SL.RPM                                            :Motor Speed {F13.4}
#-----------------------------------------------------------------------------
# 
#     TIME    FREQ_EMF_SL  PH_SH_WPPCM_ FREQ_EXC_REQ    RB_SL       SDEV_SL      TILX_SL      TILY_SL      ROTA_SL      MSPE_SL
#                          SL           _SL
~A  
    6545.0    1468.6404       0.0000      50.8611     -60.6581       1.0650      -0.9275      -0.5221     340.0820       1.0239
    6546.0    1476.4117       0.0000      50.8611     -64.8142       1.0694      -0.9677      -0.4551     346.5630       1.0030
    6547.0    1468.2704       0.0000      50.8611     -57.7669       1.1609      -0.9822      -0.6186     352.6703       1.0252
    6548.0    1459.1294       0.0000      50.8611     -65.7575       1.1831      -1.0786      -0.4861     358.7985       1.0405
    6549.0    1456.1078       0.0000      50.8611     -62.0181       1.1768      -1.0384      -0.5515       4.8392       1.0239
    6550.0    1452.3782       0.0000      50.8611     -55.0945       1.3122      -1.0737      -0.7527      10.9467       1.0334
    6551.0    1444.5030       0.0000      50.8611     -59.8453       1.1601      -1.0030      -0.5826      17.0732       1.0121
    6552.0    1438.7750       0.0000      50.8611     -61.0272       1.0718      -0.9372      -0.5197      23.1280       1.0369
    6553.0    1426.2170       0.0000      50.8611     -53.9890       1.1149      -0.9018      -0.6546      29.2557       1.0213
    6554.0    1412.5808       0.0000      50.8611     -58.3738       1.2340      -1.0480      -0.6480      35.3227       1.0213
    6555.0    1408.0577       0.0000      50.8611     -67.4449       1.1311      -1.0432      -0.4338      41.4509       1.0226
    6556.0    1399.6490       0.0000      50.8611     -65.4345       1.1433      -1.0384      -0.4747      47.5527       1.0226
    6557.0    1386.5068       0.0000      50.8611     -48.2325       1.1077      -0.8263      -0.7364      53.6670       1.0121
    6558.0    1366.2512       0.0000      50.8611     -56.1098       1.2391      -1.0287      -0.6906      59.8077       1.0226
    6559.0    1358.3330       0.0000      50.8611     -70.0596       1.5990      -1.5011      -0.5483      66.2694       1.0321
    6560.0    1355.8269       0.0000      50.8611     -58.1275       1.1035      -0.9372      -0.5826      72.3753       1.0159
    6561.0    1348.6409       0.0000      50.8611     -49.3231       1.1775      -0.8922      -0.7674      78.4893       1.0226
    6562.0    1329.1588       0.0000      50.8611     -49.8916       1.2065      -0.9227      -0.7772      84.5911       1.0226
    6563.0    1314.5477       0.0000      50.8611     -43.1673       1.0309      -0.7058      -0.7511      90.7124       1.0321
    6564.0    1307.6214       0.0000      50.8611     -49.7696       1.0862      -0.8287      -0.7012      96.7966       1.0213
    6565.0    1292.5093       0.0000      50.8611     -53.1829       1.1297      -0.9034      -0.6742     102.8991       1.0213
    6566.0    1268.9043       0.0000      50.8611     -45.0187       1.0853      -0.7669      -0.7674     108.9886       1.0226
    6567.0    1250.3150       0.0000      50.8611     -47.1520       0.9313      -0.6817      -0.6333     115.1035       1.0226
    6568.0    1255.9598       0.0000      50.8611     -48.0574       1.0023      -0.7460      -0.6693     121.2061       1.0226
    6569.0    1233.5526       0.0000      50.8611     -50.4360       0.8508      -0.6560      -0.5417     127.3049       1.0121
    6570.0    1220.4493       0.0000      50.8611     -50.9259       0.9816      -0.7620      -0.6186     133.3850       1.0226
    6571.0    1214.1270       0.0000      50.8611     -50.4237       0.9130      -0.6962      -0.5859     139.8949       1.0226
    6572.0    1235.4604       0.0000      50.8611     -45.9935       1.0528      -0.7572      -0.7315     145.9968       1.0226
    6573.0    1227.0942       0.0000      50.8611     -49.2504       1.0654      -0.8070      -0.6955     152.1014       1.0226
    6574.0    1236.5065       0.0000      50.8611     -52.9051       0.8991      -0.7171      -0.5417     158.2137       1.0226
    6575.0    1244.4691       0.0000      50.8611     -48.6616       0.8675      -0.6512      -0.5728     164.3156       1.0226
    6576.0    1261.1038       0.0000      50.8611     -49.6601       0.9519      -0.7255      -0.6161     170.4334       1.0321
    6577.0    1274.8929       0.0000      50.8611     -50.5128       0.9813      -0.7572      -0.6235     176.5332       1.0226
    6578.0    1294.0358       0.0000      50.8611     -48.2096       0.8669      -0.6464      -0.5777     182.6483       1.0226
    6579.0    1305.0820       0.0000      50.8611     -48.4587       0.9178      -0.6865      -0.6088     188.7632       1.0226
    6580.0    1307.8032       0.0000      50.8611     -50.3397       0.8334      -0.6415      -0.5319     194.8637       1.0133
    6581.0    1317.3075       0.0000      50.8611     -57.5982       0.9450      -0.7974      -0.5058     200.9547       1.0226
    6582.0    1325.7548       0.0000      50.8611     -49.0252       0.8752      -0.6608      -0.5728     207.0696       1.0226
    6583.0    1343.4872       0.0000      50.8611     -50.9144       0.8319      -0.6415      -0.5254     213.5927       1.0226
    6584.0    1342.7687       0.0000      50.8611     -55.9585       0.8771      -0.7267      -0.4910     219.6946       1.0226
    6585.0    1347.9171       0.0000      50.8611     -57.6311       0.8974      -0.7572      -0.4812     225.8099       1.0226
    6586.0    1367.6288       0.0000      50.8611     -55.4168       0.9374      -0.7717      -0.5319     231.9115       1.0213
    6587.0    1375.3348       0.0000      50.8611     -50.4952       0.9494      -0.7315      -0.6039     238.0010       1.0226
    6588.0    1384.6785       0.0000      50.8611     -62.2315       0.8646      -0.7644      -0.4031     244.1159       1.0226
    6589.0    1392.6583       0.0000      50.8611     -65.8981       0.9460      -0.8633      -0.3831     250.2178       1.0226
    6590.0    1409.0682       0.0000      50.8611     -59.7521       0.9473      -0.8167      -0.4763     256.3201       1.0226
    6591.0    1406.9277       0.0000      50.8611     -64.5276       0.7868      -0.7106      -0.3373     262.4252       1.0146
    6592.0    1415.0807       0.0000      50.8611     -61.6077       0.8608      -0.7572      -0.4093     268.5250       1.0226
    6593.0    1427.6170       0.0000      50.8611     -70.1645       0.9016      -0.8472      -0.3062     274.6295       1.0226
    6594.0    1440.1241       0.0000      50.8611     -65.0032       0.8439      -0.7620      -0.3569     280.7444       1.0226
    6595.0    1443.0800       0.0000      50.8611     -70.2883       0.9059      -0.8520      -0.3062     287.2542       1.0226
    6596.0    1444.1451       0.0000      50.8611     -69.5445       1.0234      -0.9581      -0.3586     293.3665       1.0226
    6597.0    1453.0986       0.0000      50.8611     -64.8012       0.7849      -0.7106      -0.3324     299.4683       1.0226
    6598.0    1464.1144       0.0000      50.8611     -69.5099       0.9781      -0.9163      -0.3422     305.5578       1.0133
    6599.0    1464.8438       0.0000      50.8611     -65.1338       0.9108      -0.8263      -0.3831     311.6596       1.0226
    6600.0    1462.8993       0.0000      50.8611     -74.4191       0.9683      -0.9323      -0.2604     317.7618       1.0226
    6601.0    1476.7817       0.0000      50.8611     -70.0241       1.1206      -1.0528      -0.3831     323.8617       1.0146
    6602.0    1477.1533       0.0000      50.8611     -67.2335       1.1374      -1.0480      -0.4403     329.9535       1.0226
    6603.0    1465.9493       0.0000      50.8611     -64.4711       1.0336      -0.9323      -0.4452     336.0431       1.0226
    6604.0    1477.1533       0.0000      50.8611     -58.9887       1.0521      -0.9018      -0.5417     342.1448       1.0226
    6605.0    1473.6866       0.0000      50.8611     -65.5625       1.1231      -1.0223      -0.4649     348.2651       1.0226
    6606.0    1467.9019       0.0000      50.8611     -60.2051       1.1772      -1.0175      -0.5843     354.3492       1.0239
    6607.0    1467.9019       0.0000      50.8611     -60.9967       1.2169      -1.0641      -0.5875       0.8721       1.0226
