~VERSION INFORMATION
VERS.           2.0   :CWLS Log ASCII Standard - VERSION 2.0
WRAP.           NO    :One Line per depth step
PROD.  Schlumberger   :LAS Producer
PROG.  DLIS to ASCII 19C2-270                          :LAS Program name and version
CREA.        2017/09/16 17:42                          :LAS Creation date {YYYY/MM/DD hh:mm}
DLIS_CREA.  2017-Sep-15 18:10                          :DLIS Creation date and time {YYYY-MMM-DD hh:mm}
SOURCE.     LPC_S4-1_2A5.DLIS                          :DLIS File Name
FILE-ID.     PERFO_Perfo_WPGRT_053LTP                  :File Identification Number
#--------------------------------------------------
~WELL INFORMATION
#MNEM.UNIT      DATA             DESCRIPTION
#---- ------ --------------   -----------------------------
STRT .S         4226.0       :START TIME      
STOP .S         4689.0       :STOP TIME      
STEP .S            1.0       :STEP     
NULL .          -999.25      :NULL VALUE
COMP .        SHELL INTERNATIONAL E P                  :COMPANY
WELL .        WPP TEST 2                               :WELL
FLD  .        WILDCAT                                  :FIELD
LOC  .        NA                                       :LOCATION
CNTY .        HARRIS                                   :COUNTY
STAT .        TEXAS                                    :STATE
CTRY .                                                 :COUNTRY
API  .        NA                                       :API NUMBER
UWI  .                                                 :UNIQUE WELL ID
DATE .        15-Sep-2017                              :LOG DATE {DD-MMM-YYYY}
SRVC .        Schlumberger                             :SERVICE COMPANY
LATI .DEG                                              :LATITUDE
LONG .DEG                                              :LONGITUDE
GDAT .                                                 :GeoDetic Datum
SECT .        NA                                       :Section
RANG .        NA                                       :Range
TOWN .        NA                                       :Township
#-----------------------------------------------------------------------------
~PARAMETER INFORMATION
#MNEM.UNIT    VALUE                      DESCRIPTION
#---- -----   --------------------       ------------------------
U-PHASE_B_COMP_PER_YT.                 0 :Phase B Comparator Period Yt
U-PHASE_A_COMP_PER_XT.                 0 :Phase A Comparator Period Xt
U-MAX_EXC_CUR_LIMIT.MA       240.00000   :Requested CM Current Limit
U-REQ_EXC_FQ.HZ              50          :Requested CM Frequency
U-TILT_Y_OFFSET.           0.19916       :WPTET Tilt Y Offset
U-TILT_Y_GAIN.           1.01796         :WPTET Tilt Y Gain
U-TILT_X_OFFSET.          -1.77103       :WPTET Tilt X Offset
U-TILT_X_GAIN.           1.00000         :WPTET Tilt X Gain
U-TILT_OFFSET_TOL.           0.00100     :WPTET Tilt Offset Calibration Tolerance
U-NO_TILT_CAL_ROTATIONS.                 3 :Number of Rotations for Tilt Calibration
HAZI .DEG        0.00000                 :Hole Azimuth
U-STD_TOL_TILT.           0.01000        :Tilt Standard Deviation Tolerance
U-GUN_POS_TOL.DEG        5.00000         :Gun Position Tolerance
ROT_ANGLE_THRESHOLD.DEG        5.00000   :Rotation Stop Angle Tolerance
STOP_ROT_ANGLE.DEG        0.00000        :Rotation Stop Angle
WITN .        MR. DHRUA ARORA            :Witness's Name
ENGI .        MORRIS MOORE               :Engineer's Name
COUN .        HARRIS                     :County or Rig Name
FN   .        WILDCAT                    :Field Name
WN   .        WPP TEST 2                 :Well Name
CN   .        SHELL INTERNATIONAL E P    :Company Name
CLAB .        County                     :County/Rig Label
SLAB .        State                      :State/Province Label
RUN  .          1                        :RUN NUMBER
PDAT .        GROUND LEVEL               :Permanent Datum
EPD  .                                   :Elevation of Permanent Datum above Mean Sea Level
LMF  .          NA                       :Logging Measured From (Name of Logging Elevation Reference)
APD  .                                   :Elevation of Depth Reference (LMF) above Permanent Datum
#-----------------------------------------------------------------------------
~CURVE INFORMATION
#MNEM.UNIT   API CODE                                  DESCRIPTION
#---- -----  --------                                  -----------------------
TIME .S                                                :TIME {F10.1}
FREQ_EMF_SL.HZ                                         :Electromagnetic Field Frequency {F13.4}
PH_SH_WPPCM_SL.DEG                                     :WPPCM Phase Shift {F13.4}
FREQ_EXC_REQ_SL.HZ                                     :Requested Exciter Frequency {F13.4}
RB_SL.DEG                                              :Relative Bearing {F13.4}
SDEV_SL.DEG                                            :Sonde Deviation {F13.4}
TILX_SL.DEG                                            :X-axis Tilt {F13.4}
TILY_SL.DEG                                            :Y-axis Tilt {F13.4}
ROTA_SL.DEG                                            :Motor Rotation Angle {F13.4}
MSPE_SL.RPM                                            :Motor Speed {F13.4}
#-----------------------------------------------------------------------------
# 
#     TIME    FREQ_EMF_SL  PH_SH_WPPCM_ FREQ_EXC_REQ    RB_SL       SDEV_SL      TILX_SL      TILY_SL      ROTA_SL      MSPE_SL
#                          SL           _SL
~A  
# ...
    4289.0    1491.5416       0.0000      50.8611    -159.0993       4.7976      -1.7098       4.4803     266.4914       1.0226
    4290.0    1484.3112       0.0000      50.8611    -151.5643       5.0641      -2.4091       4.4515     272.5932       1.0226
    4291.0    1476.2398       0.0000      50.8611    -146.6596       5.0022      -2.7469       4.1774     279.1000       1.0226
    4292.0    1466.9997       0.0000      50.8611    -141.4929       4.9964      -3.1084       3.9079     285.2027       1.0226
    4293.0    1454.8581       0.0000      50.8611    -135.5448       5.1826      -3.6259       3.6961     291.3175       1.0226
    4294.0    1455.4106       0.0000      50.8611    -129.6361       5.4264      -4.1764       3.4581     297.4310       1.0195
    4295.0    1439.9606       0.0000      50.8611    -123.7859       5.3717      -4.4622       2.9842     303.5241       1.0226
    4296.0    1434.0868       0.0000      50.8611    -118.1920       5.3705      -4.7315       2.5345     309.6259       1.0195
    4297.0    1422.5030       0.0000      50.8611    -113.1217       5.5368      -5.0907       2.1713     315.7285       1.0226
    4298.0    1404.5973       0.0000      50.8611    -106.4121       5.6946      -5.4617       1.6061     321.8434       1.0195
    4299.0    1392.3268       0.0000      50.8611    -100.7772       5.7821      -5.6790       1.0793     327.9338       1.0226
    4300.0    1365.2913       0.0000      50.8611     -95.7211       5.7409      -5.7120       0.5719     334.0223       1.0152
    4301.0    1351.3978       0.0000      50.8611     -91.4572       5.7613      -5.7594       0.1462     340.1250       1.0226
    4302.0    1328.4190       0.0000      50.8611     -85.2029       5.9409      -5.9200      -0.4959     346.2232       1.0183
    4303.0    1306.9238       0.0000      50.8611     -79.8691       5.9573      -5.8634      -1.0469     352.7344       1.0226
    4304.0    1265.5499       0.0000      50.8611     -75.9278       5.8970      -5.7192      -1.4317     358.8383       1.0226
    4305.0    1241.6239       0.0000      50.8611     -70.3273       5.9421      -5.5941      -1.9967       4.9380       1.0226
    4306.0    1236.8816       0.0000      50.8611     -65.1161       6.1613      -5.5869      -2.5886      11.0420       1.0226
    4307.0    1212.0509       0.0000      50.8611     -58.7307       6.1306      -5.2372      -3.1778      17.1447       1.0302
    4308.0    1191.1424       0.0000      50.8611     -54.4282       6.1319      -4.9844      -3.5625      23.2315       1.0152
    4309.0    1184.7672       0.0000      50.8611     -50.4131       5.9678      -4.5944      -3.7985      29.3377       1.0226
    4310.0    1174.0629       0.0000      50.8611     -44.7862       6.0722      -4.2732      -4.3059      35.4396       1.0226
    4311.0    1151.3339       0.0000      50.8611     -40.3629       6.0875      -3.9374      -4.6330      41.5414       1.0226
    4312.0    1142.5335       0.0000      50.8611     -34.1098       5.8458      -3.2737      -4.8374      47.6301       1.0258
    4313.0    1139.2643       0.0000      50.8611     -30.9212       5.9229      -3.0373      -5.0780      53.7424       1.0152
    4314.0    1135.3642       0.0000      50.8611     -25.5441       5.9526      -2.5625      -5.3690      59.8232       1.0152
    4315.0    1137.7427       0.0000      50.8611     -19.9243       5.8120      -1.9765      -5.4628      66.0444       1.0226
    4316.0    1133.3255       0.0000      50.8611     -13.0019       5.7628      -1.2936      -5.6143      72.4347       1.0152
    4317.0    1130.4260       0.0000      50.8611      -9.0129       5.6316      -0.8801      -5.5613      78.5328       1.0195
    4318.0    1137.2005       0.0000      50.8611      -5.3328       5.6677      -0.5259      -5.6431      84.6268       1.0226
    4319.0    1143.0847       0.0000      50.8611      -0.0200       5.5916      -0.0011      -5.5902      90.7264       1.0226
    4320.0    1155.8954       0.0000      50.8611       7.5090       5.4835       0.7147      -5.4360      96.8267       1.0195
    4321.0    1166.9026       0.0000      50.8611      13.6147       5.2898       1.2431      -5.1404     102.9199       1.0226
    4322.0    1180.3248       0.0000      50.8611      18.0081       5.2693       1.6267      -5.0104     109.0093       1.0183
    4323.0    1201.0842       0.0000      50.8611      23.7161       5.2114       2.0922      -4.7698     115.1242       1.0258
    4324.0    1234.4437       0.0000      50.8611      29.2027       5.0115       2.4419      -4.3729     121.2316       1.0226
    4325.0    1252.4303       0.0000      50.8611      36.7369       4.8048       2.8718      -3.8488     127.3434       1.0226
    4326.0    1280.7101       0.0000      50.8611      42.8622       4.8701       3.3111      -3.5672     133.4453       1.0226
    4327.0    1324.1526       0.0000      50.8611      47.0406       4.7636       3.4836      -3.2448     139.6506       1.0152
    4328.0    1351.3978       0.0000      50.8611      53.5880       4.5452       3.6561      -2.6965     146.0294       1.0258
    4329.0    1372.1965       0.0000      50.8611      62.8770       4.3209       3.8451      -1.9679     152.1474       1.0302
    4330.0    1381.8916       0.0000      50.8611      69.2009       4.3634       4.0788      -1.5470     158.2493       1.0258
    4331.0    1395.6061       0.0000      50.8611      73.9964       4.2936       4.1262      -1.1837     164.3644       1.0226
    4332.0    1417.0956       0.0000      50.8611      83.0289       4.0927       4.0624      -0.4959     170.4802       1.0258
    4333.0    1431.8115       0.0000      50.8611      91.4689       4.0849       4.0835       0.1053     176.5952       1.0226
    4334.0    1445.8829       0.0000      50.8611      97.3371       4.0870       4.0531       0.5216     182.6856       1.0302
    4335.0    1450.6259       0.0000      50.8611     104.6620       4.0700       3.9373       1.0290     188.7790       1.0302
    4336.0    1461.7983       0.0000      50.8611     111.5170       3.9687       3.6916       1.4546     194.8922       1.0226
    4337.0    1470.0669       0.0000      50.8611     120.2376       3.8555       3.3301       1.9406     200.9920       1.0226
    4338.0    1477.1533       0.0000      50.8611     130.2150       4.0468       3.0891       2.6115     207.0855       1.0302
    4339.0    1490.6046       0.0000      50.8611     137.5519       4.1514       2.8007       3.0613     213.1929       1.0183
    4340.0    1496.0106       0.0000      50.8611     143.4740       3.9880       2.3708       3.2034     219.7063       1.0226
    4341.0    1500.1454       0.0000      50.8611     151.8050       4.0528       1.9125       3.5714     225.8231       1.0226
    4342.0    1506.5741       0.0000      50.8611     158.2158       4.3364       1.6076       4.0259     231.9232       1.0226
    4343.0    1507.8988       0.0000      50.8611     165.3335       4.4035       1.1137       4.2591     238.0260       1.0226
    4344.0    1511.1396       0.0000      50.8611     171.1586       4.2692       0.6554       4.2182     244.1279       1.0195
    4345.0    1512.0968       0.0000      50.8611     177.8831       4.3851       0.1616       4.3818     250.2214       1.0258
    4346.0    1506.9497       0.0000      50.8611    -174.4743       4.5791      -0.4409       4.5574     256.3202       1.0226
    4347.0    1508.2924       0.0000      50.8611    -167.9234       4.7207      -0.9868       4.6151     262.4259       1.0258
    4348.0    1498.8457       0.0000      50.8611    -160.6177       4.7857      -1.5867       4.5139     268.5254       1.0226
    4349.0    1483.3861       0.0000      50.8611    -156.1641       4.8464      -1.9554       4.4321     274.6149       1.0226
    4350.0    1484.6757       0.0000      50.8611    -149.2060       5.1135      -2.6145       4.3912     280.7167       1.0226
    4351.0    1480.6339       0.0000      50.8611    -142.9801       5.2721      -3.1696       4.2082     286.8193       1.0226
