~VERSION INFORMATION
VERS.           2.0   :CWLS Log ASCII Standard - VERSION 2.0
WRAP.           NO    :One Line per depth step
PROD.  Schlumberger   :LAS Producer
PROG.  DLIS to ASCII 19C2-270                          :LAS Program name and version
CREA.        2018/08/03 10:59                          :LAS Creation date {YYYY/MM/DD hh:mm}
DLIS_CREA.  2018-Aug-03 08:48                          :DLIS Creation date and time {YYYY-MMM-DD hh:mm}
SOURCE.     PERFO_Perfo_061PTP.DLIS                    :DLIS File Name
FILE-ID.     PERFO_Perfo_061PTP                        :File Identification Number
#--------------------------------------------------
~WELL INFORMATION
#MNEM.UNIT      DATA             DESCRIPTION
#---- ------ --------------   -----------------------------
STRT .S            0.0       :START TIME      
STOP .S          993.0       :STOP TIME      
STEP .S            1.0       :STEP     
NULL .          -999.25      :NULL VALUE
COMP .        SHELL INTERNATIONAL EP                   :COMPANY
WELL .        WPP TEST 4                               :WELL
FLD  .        WILDCAT                                  :FIELD
LOC  .        NA                                       :LOCATION
CNTY .        HARRIS                                   :COUNTY
STAT .        TEXAS                                    :STATE
CTRY .                                                 :COUNTRY
API  .        NA                                       :API NUMBER
UWI  .                                                 :UNIQUE WELL ID
DATE .        02-Aug-2018                              :LOG DATE {DD-MMM-YYYY}
SRVC .        Schlumberger                             :SERVICE COMPANY
LATI .DEG                                              :LATITUDE
LONG .DEG                                              :LONGITUDE
GDAT .                                                 :GeoDetic Datum
SECT .        NA                                       :Section
RANG .        NA                                       :Range
TOWN .        NA                                       :Township
#-----------------------------------------------------------------------------
~PARAMETER INFORMATION
#MNEM.UNIT    VALUE                      DESCRIPTION
#---- -----   --------------------       ------------------------
U-PHASE_B_COMP_PER_YT.                 0 :Phase B Comparator Period Yt
U-PHASE_A_COMP_PER_XT.                 0 :Phase A Comparator Period Xt
U-MAX_EXC_CUR_LIMIT.MA       265.00000   :Requested CM Current Limit
U-REQ_EXC_FQ.HZ              50          :Requested CM Frequency
U-TILT_Y_OFFSET.          -2.06578       :WPTET Tilt Y Offset
U-TILT_Y_GAIN.           1.02173         :WPTET Tilt Y Gain
U-TILT_X_OFFSET.           2.30841       :WPTET Tilt X Offset
U-TILT_X_GAIN.           1.00000         :WPTET Tilt X Gain
U-TILT_OFFSET_TOL.           0.00100     :WPTET Tilt Offset Calibration Tolerance
U-MOT_CUR_LIMIT_REQ.MA        70.00000   :Requested Motor Current Limit
U-MOT_SPD_REQ_WPMS.RPM        1.00000    :Requested Motor Speed
U-STD_TOL_TILT.           0.01000        :Tilt Standard Deviation Tolerance
CWEI .LB/F      29.00000                 :Casing Weight
CSIZ .IN         7.00000                 :Current Casing Size
LCC  .               440                 :Logging Company Code
LUN  .              2134                 :Logging Unit Number
HIDE .                                   :Header Identifier
HID1 .                                   :Header Identifier Line 1
R1   .                                   :Remark Line 1
WITN .        MR. KELLY McCOY            :Witness's Name
ENGI .        MORRIS MOORE               :Engineer's Name
LUL  .        IOWA COLONY                :Logging Unit Location
DATE .        02-Aug-2018                :Date as Month-Day-Year
STAT .        TEXAS                      :State or Province
COUN .        HARRIS                     :County or Rig Name
FN   .        WILDCAT                    :Field Name
WN   .        WPP TEST 4                 :Well Name
CN   .        SHELL INTERNATIONAL EP     :Company Name
CLAB .        County                     :County/Rig Label
SLAB .        State                      :State/Province Label
RUN  .          1                        :RUN NUMBER
PDAT .        GROUND LEVEL               :Permanent Datum
EPD  .                                   :Elevation of Permanent Datum above Mean Sea Level
LMF  .          NA                       :Logging Measured From (Name of Logging Elevation Reference)
APD  .                                   :Elevation of Depth Reference (LMF) above Permanent Datum
#-----------------------------------------------------------------------------
~CURVE INFORMATION
#MNEM.UNIT   API CODE                                  DESCRIPTION
#---- -----  --------                                  -----------------------
TIME .S                                                :TIME {F10.1}
FREQ_EMF_SL.HZ                                         :Electromagnetic Field Frequency {F13.4}
PH_SH_WPPCM_SL.DEG                                     :WPPCM Phase Shift {F13.4}
RB_SL.DEG                                              :Relative Bearing {F13.4}
SDEV_SL.DEG                                            :Sonde Deviation {F13.4}
RTIX_SL.DEG                                            :Raw X-axis Tilt {F13.4}
RTIY_SL.DEG                                            :Raw Y-axis Tilt {F13.4}
TILX_SL.DEG                                            :X-axis Tilt {F13.4}
TILY_SL.DEG                                            :Y-axis Tilt {F13.4}
ROTA_SL.DEG                                            :Motor Rotation Angle {F13.4}
TOD7 .S                                                :Time of Day {I11}
TOJ  .S                                                :Time of Job {F13.4}
#-----------------------------------------------------------------------------
# 
#     TIME    FREQ_EMF_SL  PH_SH_WPPCM_    RB_SL       SDEV_SL      RTIX_SL      RTIY_SL      TILX_SL      TILY_SL      ROTA_SL        TOD7            TOJ
#                          SL
~A  
# ...
     848.0    1218.5875       0.0000      20.4671    -999.2500      19.3603     -94.2712      21.6687     -98.3852     174.4117 1533229688 9999999.9999
     849.0    1224.9564       0.0000      25.6353    -999.2500      26.3092     -89.5315      28.6176     -93.5425     180.5166 1533229689 9999999.9999
     850.0    1237.8961       0.0000      29.9902    -999.2500      32.8965     -83.4663      35.2049     -87.3456     186.6216 1533229690 9999999.9999
     851.0    1244.4691       0.0000      34.0274    -999.2500      39.3633     -76.2363      41.6717     -79.9585     192.7204 1533229691 9999999.9999
     852.0    1255.5803       0.0000      38.3394    -999.2500      46.0310     -67.3193      48.3394     -70.8478     198.8254 1533229692 9999999.9999
     853.0    1264.6134       0.0000      47.4728    -999.2500      58.7237     -50.2083      61.0321     -53.3650     204.9304 1533229693 9999999.9999
     854.0    1287.7748       0.0000      52.9301    -999.2500      74.9108     -44.4243      77.2192     -47.4553     211.4096 1533229694 9999999.9999
     855.0    1297.2786       0.0000      56.7447    -999.2500      82.9442     -37.9173      85.2526     -40.8069     217.5217 1533229695 9999999.9999
     856.0    1314.2523       0.0000      60.8016    -999.2500      89.6520     -31.2095      91.9604     -33.9534     223.6266 1533229696 9999999.9999
     857.0    1331.6761       0.0000      65.5229    -999.2500      94.8335     -24.2607      97.1419     -26.8536     229.7324 1533229697 9999999.9999
     858.0    1354.7688       0.0000      71.0804    -999.2500      97.9263     -17.2717     100.2347     -19.7127     235.8312 1533229698 9999999.9999
     859.0    1375.9785       0.0000      77.9378      84.0092      99.3723      -9.8007     101.6807     -12.0794     241.9178 1533229699 9999999.9999
     860.0    1395.0892       0.0000      87.3004      77.9715     100.0150      -0.5623     102.3234      -2.6403     248.0289 1533229700 9999999.9999
     861.0    1420.4546       0.0000      96.2106      79.2419     100.0953       7.9932     102.4037       6.1011     254.1408 1533229701 9999999.9999
     862.0    1446.7593       0.0000     103.7572      90.8170      98.8502      15.6248     101.1586      13.8985     260.2272 1533229702 9999999.9999
     863.0    1474.0566       0.0000     110.2767    -999.2500      95.1147      23.0557      97.4231      21.4908     266.3319 1533229703 9999999.9999
     864.0    1496.0106       0.0000     116.1076    -999.2500      89.4512      30.7275      91.7596      29.3293     272.4366 1533229704 9999999.9999
     865.0    1521.9155       0.0000     120.9814    -999.2500      83.0245      37.9977      85.3329      36.7575     278.5352 1533229705 9999999.9999
     866.0    1541.9408       0.0000     125.4749    -999.2500      75.2723      45.1875      77.5807      44.1035     285.0388 1533229706 9999999.9999
     867.0    1569.4755       0.0000     130.2155    -999.2500      65.2708      52.3372      67.5792      51.4085     291.1435 1533229707 9999999.9999
     868.0    1583.6149       0.0000     138.7219    -999.2500      52.0962      68.4440      54.4046      67.8653     297.2483 1533229708 9999999.9999
     869.0    1608.9817       0.0000     142.8855    -999.2500      45.3883      78.1643      47.6967      77.7969     303.3469 1533229709 9999999.9999
     870.0    1620.1036       0.0000     146.7090    -999.2500      38.6002      85.9567      40.9086      85.7585     309.4455 1533229710 9999999.9999
     871.0    1631.3805       0.0000     150.9828    -999.2500      31.3300      93.0260      33.6384      92.9814     315.5379 1533229711 9999999.9999
     872.0    1642.8153       0.0000     156.4712    -999.2500      23.1360      99.2518      25.4444      99.3425     321.6427 1533229712 9999999.9999
     873.0    1650.5282       0.0000     162.7717    -999.2500      15.2633     103.0275      17.5717     103.2002     327.7351 1533229713 9999999.9999
     874.0    1650.5282       0.0000     170.1929      78.8050       7.3103     104.6342       9.6187     104.8418     333.8337 1533229714 9999999.9999
     875.0    1654.4117       0.0000     178.7740      74.9195      -1.1247     104.9153       1.1837     105.1291     339.9385 1533229715 9999999.9999
     876.0    1650.5282       0.0000    -172.9231      76.8271      -9.1982     104.7145      -6.8898     104.9239     346.0371 1533229716 9999999.9999
     877.0    1650.5282       0.0000    -165.3939      89.5452     -17.0708     101.9430     -14.7624     102.0922     352.1234 1533229717 9999999.9999
     878.0    1631.3805       0.0000    -158.5199    -999.2500     -25.3050      96.8418     -22.9966      96.8802     358.6461 1533229718 9999999.9999
     879.0    1631.3805       0.0000    -152.8655    -999.2500     -33.1375      90.4152     -30.8291      90.3139       4.7643 1533229719 9999999.9999
     880.0    1616.3793       0.0000    -147.8154    -999.2500     -40.9298      82.9040     -38.6214      82.6395      10.8630 1533229720 9999999.9999
     881.0    1601.6515       0.0000    -143.3211    -999.2500     -48.1197      74.7502     -45.8113      74.3085      16.9618 1533229721 9999999.9999
     882.0    1587.1896       0.0000    -138.3533    -999.2500     -55.3497      64.6282     -53.0413      63.9666      23.0666 1533229722 9999999.9999
     883.0    1565.9799       0.0000    -130.2625    -999.2500     -70.3720      52.6987     -68.0636      51.7779      29.1715 1533229723 9999999.9999
     884.0    1548.7335       0.0000    -125.6538    -999.2500     -79.8915      45.5490     -77.5831      44.4729      35.2703 1533229724 9999999.9999
     885.0    1515.3556       0.0000    -121.2705    -999.2500     -87.6437      38.4797     -85.3353      37.2499      41.3751 1533229725 9999999.9999
     886.0    1492.8344       0.0000    -116.3117    -999.2500     -94.2712      31.0087     -91.9628      29.6166      47.4800 1533229726 9999999.9999
     887.0    1470.9729       0.0000    -110.4528    -999.2500     -99.8945      23.2565     -97.5861      21.6960      53.5787 1533229727 9999999.9999
     888.0    1446.7593       0.0000    -103.5710    -999.2500    -103.5898      15.4240    -101.2814      13.6933      59.6775 1533229728 9999999.9999
     889.0    1423.3300       0.0000     -95.5877      79.0412    -104.5940       7.3907    -102.2856       5.4855      65.7823 1533229729 9999999.9999
     890.0    1400.6475       0.0000     -86.9669      78.1721    -104.5137      -0.8837    -102.2053      -2.9686      72.3052 1533229730 9999999.9999
     891.0    1378.6765       0.0000     -78.6426      86.9156    -104.0718      -9.0777    -101.7634     -11.3407      78.4039 1533229731 9999999.9999
     892.0    1354.7688       0.0000     -71.4375    -999.2500    -101.7823     -16.9102     -99.4739     -19.3434      84.5026 1533229732 9999999.9999
     893.0    1341.8416       0.0000     -65.3717    -999.2500     -97.1230     -24.5820     -94.8146     -27.1819      90.6075 1533229733 9999999.9999
     894.0    1319.1838       0.0000     -60.2972    -999.2500     -91.1783     -32.0128     -88.8699     -34.7742      96.7123 1533229734 9999999.9999
     895.0    1302.0834       0.0000     -55.9096    -999.2500     -84.2697     -39.1625     -81.9613     -42.0792     102.8111 1533229735 9999999.9999
     896.0    1283.0748       0.0000     -51.5880    -999.2500     -75.3928     -46.2720     -73.0844     -49.3431     108.9035 1533229736 9999999.9999
     897.0    1271.4738       0.0000     -47.0291    -999.2500     -65.2708     -52.8593     -62.9624     -56.0736     115.0083 1533229737 9999999.9999
     898.0    1253.3423       0.0000     -37.9869    -999.2500     -51.0518     -70.6933     -48.7434     -74.2951     121.1070 1533229738 9999999.9999
     899.0    1240.0793       0.0000     -33.9842    -999.2500     -44.3440     -79.5702     -42.0356     -83.3648     127.1935 1533229739 9999999.9999
     900.0    1233.5526       0.0000     -29.7470    -999.2500     -37.1542     -87.1617     -34.8458     -91.1212     133.2984 1533229740 9999999.9999
