~VERSION INFORMATION
VERS.           2.0   :CWLS Log ASCII Standard - VERSION 2.0
WRAP.           NO    :One Line per depth step
PROD.  Schlumberger   :LAS Producer
PROG.  DLIS to ASCII 19C2-270                          :LAS Program name and version
CREA.        2018/08/03 10:59                          :LAS Creation date {YYYY/MM/DD hh:mm}
DLIS_CREA.  2018-Aug-03 08:56                          :DLIS Creation date and time {YYYY-MMM-DD hh:mm}
SOURCE.     PERFO_Perfo_063PTP.DLIS                    :DLIS File Name
FILE-ID.     PERFO_Perfo_063PTP                        :File Identification Number
#--------------------------------------------------
~WELL INFORMATION
#MNEM.UNIT      DATA             DESCRIPTION
#---- ------ --------------   -----------------------------
STRT .S            0.0       :START TIME      
STOP .S          897.0       :STOP TIME      
STEP .S            1.0       :STEP     
NULL .          -999.25      :NULL VALUE
COMP .        SHELL INTERNATIONAL EP                   :COMPANY
WELL .        WPP TEST 4                               :WELL
FLD  .        WILDCAT                                  :FIELD
LOC  .        NA                                       :LOCATION
CNTY .        HARRIS                                   :COUNTY
STAT .        TEXAS                                    :STATE
CTRY .                                                 :COUNTRY
API  .        NA                                       :API NUMBER
UWI  .                                                 :UNIQUE WELL ID
DATE .        02-Aug-2018                              :LOG DATE {DD-MMM-YYYY}
SRVC .        Schlumberger                             :SERVICE COMPANY
LATI .DEG                                              :LATITUDE
LONG .DEG                                              :LONGITUDE
GDAT .                                                 :GeoDetic Datum
SECT .        NA                                       :Section
RANG .        NA                                       :Range
TOWN .        NA                                       :Township
#-----------------------------------------------------------------------------
~PARAMETER INFORMATION
#MNEM.UNIT    VALUE                      DESCRIPTION
#---- -----   --------------------       ------------------------
U-PHASE_B_COMP_PER_YT.                 0 :Phase B Comparator Period Yt
U-PHASE_A_COMP_PER_XT.                 0 :Phase A Comparator Period Xt
U-MAX_EXC_CUR_LIMIT.MA       265.00000   :Requested CM Current Limit
U-REQ_EXC_FQ.HZ              50          :Requested CM Frequency
U-TILT_Y_OFFSET.          -2.06578       :WPTET Tilt Y Offset
U-TILT_Y_GAIN.           1.02173         :WPTET Tilt Y Gain
U-TILT_X_OFFSET.           2.30841       :WPTET Tilt X Offset
U-TILT_X_GAIN.           1.00000         :WPTET Tilt X Gain
U-TILT_OFFSET_TOL.           0.00100     :WPTET Tilt Offset Calibration Tolerance
U-MOT_CUR_LIMIT_REQ.MA        70.00000   :Requested Motor Current Limit
U-MOT_SPD_REQ_WPMS.RPM        1.00000    :Requested Motor Speed
U-STD_TOL_TILT.           0.01000        :Tilt Standard Deviation Tolerance
CWEI .LB/F      29.00000                 :Casing Weight
CSIZ .IN         7.00000                 :Current Casing Size
LCC  .               440                 :Logging Company Code
LUN  .              2134                 :Logging Unit Number
HIDE .                                   :Header Identifier
HID1 .                                   :Header Identifier Line 1
R1   .                                   :Remark Line 1
WITN .        MR. KELLY McCOY            :Witness's Name
ENGI .        MORRIS MOORE               :Engineer's Name
LUL  .        IOWA COLONY                :Logging Unit Location
DATE .        02-Aug-2018                :Date as Month-Day-Year
STAT .        TEXAS                      :State or Province
COUN .        HARRIS                     :County or Rig Name
FN   .        WILDCAT                    :Field Name
WN   .        WPP TEST 4                 :Well Name
CN   .        SHELL INTERNATIONAL EP     :Company Name
CLAB .        County                     :County/Rig Label
SLAB .        State                      :State/Province Label
RUN  .          1                        :RUN NUMBER
PDAT .        GROUND LEVEL               :Permanent Datum
EPD  .                                   :Elevation of Permanent Datum above Mean Sea Level
LMF  .          NA                       :Logging Measured From (Name of Logging Elevation Reference)
APD  .                                   :Elevation of Depth Reference (LMF) above Permanent Datum
#-----------------------------------------------------------------------------
~CURVE INFORMATION
#MNEM.UNIT   API CODE                                  DESCRIPTION
#---- -----  --------                                  -----------------------
TIME .S                                                :TIME {F10.1}
FREQ_EMF_SL.HZ                                         :Electromagnetic Field Frequency {F13.4}
PH_SH_WPPCM_SL.DEG                                     :WPPCM Phase Shift {F13.4}
RB_SL.DEG                                              :Relative Bearing {F13.4}
SDEV_SL.DEG                                            :Sonde Deviation {F13.4}
RTIX_SL.DEG                                            :Raw X-axis Tilt {F13.4}
RTIY_SL.DEG                                            :Raw Y-axis Tilt {F13.4}
TILX_SL.DEG                                            :X-axis Tilt {F13.4}
TILY_SL.DEG                                            :Y-axis Tilt {F13.4}
ROTA_SL.DEG                                            :Motor Rotation Angle {F13.4}
TOD7 .S                                                :Time of Day {I11}
TOJ  .S                                                :Time of Job {F13.4}
#-----------------------------------------------------------------------------
# 
#     TIME    FREQ_EMF_SL  PH_SH_WPPCM_    RB_SL       SDEV_SL      RTIX_SL      RTIY_SL      TILX_SL      TILY_SL      ROTA_SL        TOD7            TOJ
#                          SL
~A  
# ...
     689.0    1771.0958       0.0000     149.6167    -999.2500      33.5793      91.1783      35.8877      91.0936      84.1040 1533231644 9999999.9999
     690.0    1736.1111       0.0000     154.4489    -999.2500      25.9878      97.4042      28.2962      97.4547      90.2150 1533231645 9999999.9999
     691.0    1714.9390       0.0000     160.3855    -999.2500      18.0750     102.0635      20.3834     102.2153      96.3137 1533231646 9999999.9999
     692.0    1678.1025       0.0000     167.2306      82.9571      10.3630     104.3530      12.6714     104.5545     102.8429 1533231647 9999999.9999
     693.0    1638.9860       0.0000     175.6619      75.3208       1.8878     105.0760       4.1962     105.2932     108.9355 1533231648 9999999.9999
     694.0    1601.6515       0.0000    -175.9058      75.1672      -6.2660     105.1563      -3.9576     105.3753     115.0404 1533231649 9999999.9999
     695.0    1565.9799       0.0000    -167.9401      83.9156     -14.2993     103.3087     -11.9909     103.4875     121.1391 1533231650 9999999.9999
     696.0       0.0000       0.0000    -160.7464    -999.2500     -22.4933      98.8502     -20.1849      98.9321     127.3073 1533231651 9999999.9999
     697.0       0.0000       0.0000    -154.6677    -999.2500     -30.5267      92.8252     -28.2183      92.7762     133.4388 1533231652 9999999.9999
     698.0       0.0000       0.0000    -149.1385    -999.2500     -38.8412      85.1935     -36.5328      84.9787     139.5437 1533231653 9999999.9999
     699.0       0.0000       0.0000    -144.3852    -999.2500     -46.4728      76.9593     -44.1644      76.5657     145.6558 1533231654 9999999.9999
     700.0       0.0000       0.0000    -139.6857    -999.2500     -53.6225      67.5202     -51.3141      66.9214     151.7424 1533231655 9999999.9999
     701.0       0.0000       0.0000    -131.4052    -999.2500     -68.0423      54.3857     -65.7339      53.5015     157.8491 1533231656 9999999.9999
     702.0       0.0000       0.0000    -127.0370    -999.2500     -77.2405      47.7983     -74.9321      46.7711     163.9549 1533231657 9999999.9999
     703.0       0.0000       0.0000    -122.7005    -999.2500     -85.3542      40.7692     -83.0458      39.5892     170.0414 1533231658 9999999.9999
     704.0       0.0000       0.0000    -118.1615    -999.2500     -92.3432      33.6998     -90.0348      32.3663     176.5513 1533231659 9999999.9999
     705.0       0.0000       0.0000    -112.5614    -999.2500     -98.3280      25.9075     -96.0196      24.4046     182.6569 1533231660 9999999.9999
     706.0       0.0000       0.0000    -106.0921    -999.2500    -102.7062      18.1553    -100.3978      16.4840     188.7435 1533231661 9999999.9999
     707.0       0.0000       0.0000     -98.6649      81.2570    -104.5940      10.4032    -102.2856       8.5634     194.8555 1533231662 9999999.9999
     708.0       0.0000       0.0000     -90.0700      77.3531    -104.9555       2.0887    -102.6471       0.0683     200.9868 1533231663 9999999.9999
     709.0       0.0000       0.0000     -81.4335      81.3302    -104.4735      -6.2660    -102.1651      -8.4679     207.0918 1533231664 9999999.9999
     710.0       0.0000       0.0000     -73.3357      84.3936    -102.6258     -14.7412    -100.3174     -17.1272     213.1906 1533231665 9999999.9999
     711.0       0.0000       0.0000     -66.9554    -999.2500     -98.7297     -22.4532     -96.4212     -25.0068     219.2895 1533231666 9999999.9999
     712.0       0.0000       0.0000     -61.6042    -999.2500     -92.9858     -30.0045     -90.6774     -32.7222     225.3820 1533231667 9999999.9999
     713.0       0.0000       0.0000     -56.7805    -999.2500     -85.9165     -37.7165     -83.6081     -40.6018     231.5000 1533231668 9999999.9999
     714.0       0.0000       0.0000     -53.0132    -999.2500     -78.8070     -44.0628     -76.4986     -47.0860     237.5988 1533231669 9999999.9999
     715.0       0.0000       0.0000     -48.7205    -999.2500     -69.2875     -50.7305     -66.9791     -53.8985     243.7170 1533231670 9999999.9999
     716.0       0.0000       0.0000     -39.3955    -999.2500     -52.9397     -66.7570     -50.6313     -70.2732     250.2147 1533231671 9999999.9999
     717.0       0.0000       0.0000     -35.4771    -999.2500     -46.9548     -76.6782     -44.6464     -80.4099     256.3135 1533231672 9999999.9999
     718.0       0.0000       0.0000     -31.0035    -999.2500     -39.2428     -85.3943     -36.9344     -89.3155     262.4121 1533231673 9999999.9999
     719.0       0.0000       0.0000     -26.8530    -999.2500     -32.5752     -91.3792     -30.2668     -95.4304     268.5168 1533231674 9999999.9999
     720.0       0.0000       0.0000     -21.6526    -999.2500     -25.3050     -96.0787     -22.9966    -100.2320     274.6216 1533231675 9999999.9999
     721.0       0.0000       0.0000     -15.7622    -999.2500     -18.2758     -98.7297     -15.9674    -102.9406     280.7202 1533231676 9999999.9999
     722.0       0.0000       0.0000      -8.2087      78.9169     -10.3630     -99.5330      -8.0546    -103.7614     286.8065 1533231677 9999999.9999
     723.0       0.0000       0.0000       0.7222      76.3394      -1.6067     -99.4527       0.7017    -103.6793     292.9313 1533231678 9999999.9999
     724.0       0.0000       0.0000       9.0217      80.4554       6.5873     -98.8903       8.8957    -103.1047     299.0176 1533231679 9999999.9999
     725.0       0.0000       0.0000      16.2091      99.7714      14.2592     -97.0427      16.5676    -101.2169     305.1039 1533231680 9999999.9999
     726.0       0.0000       0.0000      21.9556    -999.2500      21.2482     -93.4277      23.5566     -97.5234     311.2087 1533231681 9999999.9999
     727.0       0.0000       0.0000      27.0881    -999.2500      28.4380     -87.7240      30.7464     -91.6958     317.3267 1533231682 9999999.9999
     728.0       0.0000       0.0000      31.3574    -999.2500      35.1057     -81.7392      37.4141     -85.5809     323.8055 1533231683 9999999.9999
     729.0       0.0000       0.0000      35.2745    -999.2500      41.4118     -74.0272      43.7202     -77.7013     329.9041 1533231684 9999999.9999
     730.0       0.0000       0.0000      39.8298    -999.2500      47.8385     -63.5437      50.1469     -66.9901     336.0150 1533231685 9999999.9999
     731.0       0.0000       0.0000      49.9457    -999.2500      67.8415     -49.1238      70.1499     -52.2569     342.1266 1533231686 9999999.9999
     732.0       0.0000       0.0000      53.9379    -999.2500      77.4413     -42.7775      79.7497     -45.7727     348.2130 1533231687 9999999.9999
     733.0       0.0000       0.0000      57.8849    -999.2500      85.2738     -35.9893      87.5822     -38.8371     354.3183 1533231688 9999999.9999
     734.0       0.0000       0.0000      62.1169    -999.2500      91.6202     -29.1610      93.9286     -31.8604       0.4361 1533231689 9999999.9999
     735.0       0.0000       0.0000      67.2636    -999.2500      96.3598     -21.9310      98.6682     -24.4733       6.5349 1533231690 9999999.9999
     736.0       0.0000       0.0000      73.2639    -999.2500      98.6895     -14.7813     100.9979     -17.1683      12.6336 1533231691 9999999.9999
     737.0       0.0000       0.0000      80.8718      82.1741      99.6937      -6.8283     102.0021      -9.0425      18.7385 1533231692 9999999.9999
     738.0       0.0000       0.0000      89.9018      77.5565     100.1355       1.9280     102.4439      -0.0959      24.8434 1533231693 9999999.9999
     739.0       0.0000       0.0000      98.5101      80.7771     100.2158      10.2425     102.5242       8.3993      30.9554 1533231694 9999999.9999
     740.0       0.0000       0.0000     105.6549      95.9977      98.2477      17.6733     100.5561      15.9915      37.4601 1533231695 9999999.9999
     741.0       0.0000       0.0000     112.0867    -999.2500      93.9498      25.3050      96.2582      23.7890      43.5527 1533231696 9999999.9999
