~VERSION INFORMATION
VERS.           2.0   :CWLS Log ASCII Standard - VERSION 2.0
WRAP.           NO    :One Line per depth step
PROD.  Schlumberger   :LAS Producer
PROG.  DLIS to ASCII 19C2-270                          :LAS Program name and version
CREA.        2018/08/03 10:59                          :LAS Creation date {YYYY/MM/DD hh:mm}
DLIS_CREA.  2018-Aug-03 08:56                          :DLIS Creation date and time {YYYY-MMM-DD hh:mm}
SOURCE.     PERFO_Perfo_063PTP.DLIS                    :DLIS File Name
FILE-ID.     PERFO_Perfo_063PTP                        :File Identification Number
#--------------------------------------------------
~WELL INFORMATION
#MNEM.UNIT      DATA             DESCRIPTION
#---- ------ --------------   -----------------------------
STRT .S            0.0       :START TIME      
STOP .S          897.0       :STOP TIME      
STEP .S            1.0       :STEP     
NULL .          -999.25      :NULL VALUE
COMP .        SHELL INTERNATIONAL EP                   :COMPANY
WELL .        WPP TEST 4                               :WELL
FLD  .        WILDCAT                                  :FIELD
LOC  .        NA                                       :LOCATION
CNTY .        HARRIS                                   :COUNTY
STAT .        TEXAS                                    :STATE
CTRY .                                                 :COUNTRY
API  .        NA                                       :API NUMBER
UWI  .                                                 :UNIQUE WELL ID
DATE .        02-Aug-2018                              :LOG DATE {DD-MMM-YYYY}
SRVC .        Schlumberger                             :SERVICE COMPANY
LATI .DEG                                              :LATITUDE
LONG .DEG                                              :LONGITUDE
GDAT .                                                 :GeoDetic Datum
SECT .        NA                                       :Section
RANG .        NA                                       :Range
TOWN .        NA                                       :Township
#-----------------------------------------------------------------------------
~PARAMETER INFORMATION
#MNEM.UNIT    VALUE                      DESCRIPTION
#---- -----   --------------------       ------------------------
U-PHASE_B_COMP_PER_YT.                 0 :Phase B Comparator Period Yt
U-PHASE_A_COMP_PER_XT.                 0 :Phase A Comparator Period Xt
U-MAX_EXC_CUR_LIMIT.MA       265.00000   :Requested CM Current Limit
U-REQ_EXC_FQ.HZ              50          :Requested CM Frequency
U-TILT_Y_OFFSET.          -2.06578       :WPTET Tilt Y Offset
U-TILT_Y_GAIN.           1.02173         :WPTET Tilt Y Gain
U-TILT_X_OFFSET.           2.30841       :WPTET Tilt X Offset
U-TILT_X_GAIN.           1.00000         :WPTET Tilt X Gain
U-TILT_OFFSET_TOL.           0.00100     :WPTET Tilt Offset Calibration Tolerance
U-MOT_CUR_LIMIT_REQ.MA        70.00000   :Requested Motor Current Limit
U-MOT_SPD_REQ_WPMS.RPM        1.00000    :Requested Motor Speed
U-STD_TOL_TILT.           0.01000        :Tilt Standard Deviation Tolerance
CWEI .LB/F      29.00000                 :Casing Weight
CSIZ .IN         7.00000                 :Current Casing Size
LCC  .               440                 :Logging Company Code
LUN  .              2134                 :Logging Unit Number
HIDE .                                   :Header Identifier
HID1 .                                   :Header Identifier Line 1
R1   .                                   :Remark Line 1
WITN .        MR. KELLY McCOY            :Witness's Name
ENGI .        MORRIS MOORE               :Engineer's Name
LUL  .        IOWA COLONY                :Logging Unit Location
DATE .        02-Aug-2018                :Date as Month-Day-Year
STAT .        TEXAS                      :State or Province
COUN .        HARRIS                     :County or Rig Name
FN   .        WILDCAT                    :Field Name
WN   .        WPP TEST 4                 :Well Name
CN   .        SHELL INTERNATIONAL EP     :Company Name
CLAB .        County                     :County/Rig Label
SLAB .        State                      :State/Province Label
RUN  .          1                        :RUN NUMBER
PDAT .        GROUND LEVEL               :Permanent Datum
EPD  .                                   :Elevation of Permanent Datum above Mean Sea Level
LMF  .          NA                       :Logging Measured From (Name of Logging Elevation Reference)
APD  .                                   :Elevation of Depth Reference (LMF) above Permanent Datum
#-----------------------------------------------------------------------------
~CURVE INFORMATION
#MNEM.UNIT   API CODE                                  DESCRIPTION
#---- -----  --------                                  -----------------------
TIME .S                                                :TIME {F10.1}
FREQ_EMF_SL.HZ                                         :Electromagnetic Field Frequency {F13.4}
PH_SH_WPPCM_SL.DEG                                     :WPPCM Phase Shift {F13.4}
RB_SL.DEG                                              :Relative Bearing {F13.4}
SDEV_SL.DEG                                            :Sonde Deviation {F13.4}
RTIX_SL.DEG                                            :Raw X-axis Tilt {F13.4}
RTIY_SL.DEG                                            :Raw Y-axis Tilt {F13.4}
TILX_SL.DEG                                            :X-axis Tilt {F13.4}
TILY_SL.DEG                                            :Y-axis Tilt {F13.4}
ROTA_SL.DEG                                            :Motor Rotation Angle {F13.4}
TOD7 .S                                                :Time of Day {I11}
TOJ  .S                                                :Time of Job {F13.4}
#-----------------------------------------------------------------------------
# 
#     TIME    FREQ_EMF_SL  PH_SH_WPPCM_    RB_SL       SDEV_SL      RTIX_SL      RTIY_SL      TILX_SL      TILY_SL      ROTA_SL        TOD7            TOJ
#                          SL
~A  
# ...
     212.0    1083.3976       0.0000     142.4230    -999.2500      46.2318      77.2807      48.5402      76.8940      38.5955 1533231167 9999999.9999
     213.0    1062.1223       0.0000     146.2400    -999.2500      39.4437      85.2337      41.7521      85.0198      44.6881 1533231168 9999999.9999
     214.0    1037.0575       0.0000     150.8314    -999.2500      31.5710      92.9457      33.8794      92.8993      50.7999 1533231169 9999999.9999
     215.0       0.0000       0.0000     155.8804    -999.2500      23.9393      98.8903      26.2477      98.9732      56.9405 1533231170 9999999.9999
     216.0       0.0000       0.0000     162.1761    -999.2500      15.9462     102.8668      18.2546     103.0361      63.0911 1533231171 9999999.9999
     217.0       0.0000       0.0000     169.5582      79.3934       7.9530     104.6342      10.2614     104.8418      69.2029 1533231172 9999999.9999
     218.0       0.0000       0.0000     177.8162      74.8183      -0.2008     105.1162       2.1076     105.3343      75.2892 1533231173 9999999.9999
     219.0       0.0000       0.0000    -173.4869      76.3150      -8.6358     104.9153      -6.3274     105.1291      81.3940 1533231174 9999999.9999
     220.0       0.0000       0.0000    -165.7477      90.6354     -16.6692     102.3045     -14.3608     102.4615      87.8916 1533231175 9999999.9999
     221.0       0.0000       0.0000    -158.9821    -999.2500     -24.7025      97.4042     -22.3941      97.4547      93.9903 1533231176 9999999.9999
     222.0       0.0000       0.0000    -153.1645    -999.2500     -32.6957      91.0578     -30.3873      90.9705     100.0890 1533231177 9999999.9999
     223.0       0.0000       0.0000    -148.1025    -999.2500     -40.4880      83.5467     -38.1796      83.2961     106.1938 1533231178 9999999.9999
     224.0       0.0000       0.0000    -143.7008    -999.2500     -47.5172      75.4732     -45.2088      75.0472     112.2987 1533231179 9999999.9999
     225.0       0.0000       0.0000    -138.8047    -999.2500     -54.7472      65.5520     -52.4388      64.9105     118.4105 1533231180 9999999.9999
     226.0       0.0000       0.0000    -130.5091    -999.2500     -70.0105      53.1405     -67.7021      52.2293     124.5225 1533231181 9999999.9999
     227.0       0.0000       0.0000    -126.0605    -999.2500     -79.2087      46.2318     -76.9003      45.1705     130.6414 1533231182 9999999.9999
     228.0       0.0000       0.0000    -121.3690    -999.2500     -87.5633      38.6403     -85.2549      37.4141     136.7464 1533231183 9999999.9999
     229.0       0.0000       0.0000    -116.8743    -999.2500     -93.7892      31.8120     -91.4808      30.4374     142.8452 1533231184 9999999.9999
     230.0       0.0000       0.0000    -110.8424    -999.2500     -99.5732      23.7385     -97.2648      22.1885     148.9633 1533231185 9999999.9999
     231.0       0.0000       0.0000    -104.2861    -999.2500    -103.3488      16.1872    -101.0404      14.4731     155.0690 1533231186 9999999.9999
     232.0       0.0000       0.0000     -96.6221      79.5333    -104.6743       8.3948    -102.3659       6.5114     161.5860 1533231187 9999999.9999
     233.0       0.0000       0.0000     -87.8863      77.7725    -104.7145       0.0000    -102.4061      -2.0658     167.6726 1533231188 9999999.9999
     234.0       0.0000       0.0000     -79.3488      84.5190    -104.2727      -8.3547    -101.9642     -10.6020     173.7776 1533231189 9999999.9999
     235.0       0.0000       0.0000     -72.0266    -999.2500    -102.0635     -16.2273     -99.7551     -18.6457     179.8702 1533231190 9999999.9999
     236.0       0.0000       0.0000     -65.7807    -999.2500     -97.6452     -24.0197     -95.3368     -26.6073     185.9698 1533231191 9999999.9999
     237.0       0.0000       0.0000     -60.8677    -999.2500     -92.1825     -31.1292     -89.8741     -33.8713     192.0564 1533231192 9999999.9999
     238.0       0.0000       0.0000     -56.0597    -999.2500     -84.6312     -38.9215     -82.3228     -41.8329     198.1675 1533231193 9999999.9999
     239.0       0.0000       0.0000     -52.1906    -999.2500     -76.9593     -45.3883     -74.6509     -48.4403     204.2663 1533231194 9999999.9999
     240.0       0.0000       0.0000     -47.7881    -999.2500     -67.1185     -51.9757     -64.8101     -55.1707     210.3652 1533231195 9999999.9999
     241.0       0.0000       0.0000     -38.7982    -999.2500     -52.3372     -68.8457     -50.0288     -72.4073     216.4832 1533231196 9999999.9999
     242.0       0.0000       0.0000     -34.5281    -999.2500     -45.3080     -78.6463     -42.9996     -82.4209     222.5882 1533231197 9999999.9999
     243.0       0.0000       0.0000     -30.2837    -999.2500     -38.0378     -86.4387     -35.7294     -90.3825     228.6870 1533231198 9999999.9999
     244.0       0.0000       0.0000     -25.8534    -999.2500     -31.0890     -92.4235     -28.7806     -96.4974     235.1908 1533231199 9999999.9999
     245.0       0.0000       0.0000     -20.5394    -999.2500     -23.8992     -96.6812     -21.5908    -100.8475     241.2963 1533231200 9999999.9999
     246.0       0.0000       0.0000     -14.3973      86.9657     -16.7897     -98.8502     -14.4813    -103.0637     247.4013 1533231201 9999999.9999
     247.0       0.0000       0.0000      -6.9145      78.2635      -9.0777     -99.3723      -6.7693    -103.5972     253.5063 1533231202 9999999.9999
     248.0       0.0000       0.0000       2.2886      76.8015      -0.0803     -99.1715       2.2281    -103.3920     259.5988 1533231203 9999999.9999
     249.0       0.0000       0.0000      10.7006      83.1303       8.3145     -98.4887      10.6229    -102.6943     265.7097 1533231204 9999999.9999
     250.0       0.0000       0.0000      17.5614      85.1066      15.8257     -96.2795      18.1341    -100.4372     271.8093 1533231205 9999999.9999
     251.0       0.0000       0.0000      23.2202    -999.2500      22.9352     -92.1825      25.2436     -96.2511     277.9079 1533231206 9999999.9999
     252.0       0.0000       0.0000      27.9946    -999.2500      29.8037     -86.4387      32.1121     -90.3825     284.0126 1533231207 9999999.9999
     253.0       0.0000       0.0000      31.9838    -999.2500      36.1098     -80.4940      38.4182     -84.3087     290.1049 1533231208 9999999.9999
     254.0       0.0000       0.0000      36.0496    -999.2500      42.6570     -72.5008      44.9654     -76.1419     296.2035 1533231209 9999999.9999
     255.0       0.0000       0.0000      40.6292    -999.2500      49.0033     -62.0575      51.3117     -65.4716     302.2905 1533231210 9999999.9999
     256.0       0.0000       0.0000      50.6606    -999.2500      69.9302     -48.2000      72.2386     -51.3130     308.7938 1533231211 9999999.9999
     257.0       0.0000       0.0000      54.7691    -999.2500      79.1283     -41.3315      81.4367     -44.2953     314.8924 1533231212 9999999.9999
     258.0       0.0000       0.0000      58.5787    -999.2500      86.5592     -34.8245      88.8676     -37.6469     320.9910 1533231213 9999999.9999
     259.0       0.0000       0.0000      62.9651    -999.2500      92.8252     -27.8757      95.1336     -30.5471     327.0896 1533231214 9999999.9999
     260.0       0.0000       0.0000      68.3099    -999.2500      96.8820     -20.6055      99.1904     -23.1190     333.2005 1533231215 9999999.9999
     261.0       0.0000       0.0000      73.9163    -999.2500      98.8903     -14.0583     101.1987     -16.4296     339.2991 1533231216 9999999.9999
     262.0       0.0000       0.0000      81.9564      80.5796     100.0552      -5.7438     102.3636      -7.9344     345.4108 1533231217 9999999.9999
     263.0       0.0000       0.0000      91.4150      77.5143     100.2560       3.3740     102.5644       1.3815     351.5155 1533231218 9999999.9999
     264.0       0.0000       0.0000      99.8318      82.8043      99.8543      11.5680     102.1627       9.7536     357.6333 1533231219 9999999.9999
