~VERSION INFORMATION
VERS.           2.0   :CWLS Log ASCII Standard - VERSION 2.0
WRAP.           NO    :One Line per depth step
PROD.  Schlumberger   :LAS Producer
PROG.  DLIS to ASCII 19C2-270                          :LAS Program name and version
CREA.        2018/08/03 10:59                          :LAS Creation date {YYYY/MM/DD hh:mm}
DLIS_CREA.  2018-Aug-03 08:48                          :DLIS Creation date and time {YYYY-MMM-DD hh:mm}
SOURCE.     PERFO_Perfo_061PTP.DLIS                    :DLIS File Name
FILE-ID.     PERFO_Perfo_061PTP                        :File Identification Number
#--------------------------------------------------
~WELL INFORMATION
#MNEM.UNIT      DATA             DESCRIPTION
#---- ------ --------------   -----------------------------
STRT .S            0.0       :START TIME      
STOP .S          993.0       :STOP TIME      
STEP .S            1.0       :STEP     
NULL .          -999.25      :NULL VALUE
COMP .        SHELL INTERNATIONAL EP                   :COMPANY
WELL .        WPP TEST 4                               :WELL
FLD  .        WILDCAT                                  :FIELD
LOC  .        NA                                       :LOCATION
CNTY .        HARRIS                                   :COUNTY
STAT .        TEXAS                                    :STATE
CTRY .                                                 :COUNTRY
API  .        NA                                       :API NUMBER
UWI  .                                                 :UNIQUE WELL ID
DATE .        02-Aug-2018                              :LOG DATE {DD-MMM-YYYY}
SRVC .        Schlumberger                             :SERVICE COMPANY
LATI .DEG                                              :LATITUDE
LONG .DEG                                              :LONGITUDE
GDAT .                                                 :GeoDetic Datum
SECT .        NA                                       :Section
RANG .        NA                                       :Range
TOWN .        NA                                       :Township
#-----------------------------------------------------------------------------
~PARAMETER INFORMATION
#MNEM.UNIT    VALUE                      DESCRIPTION
#---- -----   --------------------       ------------------------
U-PHASE_B_COMP_PER_YT.                 0 :Phase B Comparator Period Yt
U-PHASE_A_COMP_PER_XT.                 0 :Phase A Comparator Period Xt
U-MAX_EXC_CUR_LIMIT.MA       265.00000   :Requested CM Current Limit
U-REQ_EXC_FQ.HZ              50          :Requested CM Frequency
U-TILT_Y_OFFSET.          -2.06578       :WPTET Tilt Y Offset
U-TILT_Y_GAIN.           1.02173         :WPTET Tilt Y Gain
U-TILT_X_OFFSET.           2.30841       :WPTET Tilt X Offset
U-TILT_X_GAIN.           1.00000         :WPTET Tilt X Gain
U-TILT_OFFSET_TOL.           0.00100     :WPTET Tilt Offset Calibration Tolerance
U-MOT_CUR_LIMIT_REQ.MA        70.00000   :Requested Motor Current Limit
U-MOT_SPD_REQ_WPMS.RPM        1.00000    :Requested Motor Speed
U-STD_TOL_TILT.           0.01000        :Tilt Standard Deviation Tolerance
CWEI .LB/F      29.00000                 :Casing Weight
CSIZ .IN         7.00000                 :Current Casing Size
LCC  .               440                 :Logging Company Code
LUN  .              2134                 :Logging Unit Number
HIDE .                                   :Header Identifier
HID1 .                                   :Header Identifier Line 1
R1   .                                   :Remark Line 1
WITN .        MR. KELLY McCOY            :Witness's Name
ENGI .        MORRIS MOORE               :Engineer's Name
LUL  .        IOWA COLONY                :Logging Unit Location
DATE .        02-Aug-2018                :Date as Month-Day-Year
STAT .        TEXAS                      :State or Province
COUN .        HARRIS                     :County or Rig Name
FN   .        WILDCAT                    :Field Name
WN   .        WPP TEST 4                 :Well Name
CN   .        SHELL INTERNATIONAL EP     :Company Name
CLAB .        County                     :County/Rig Label
SLAB .        State                      :State/Province Label
RUN  .          1                        :RUN NUMBER
PDAT .        GROUND LEVEL               :Permanent Datum
EPD  .                                   :Elevation of Permanent Datum above Mean Sea Level
LMF  .          NA                       :Logging Measured From (Name of Logging Elevation Reference)
APD  .                                   :Elevation of Depth Reference (LMF) above Permanent Datum
#-----------------------------------------------------------------------------
~CURVE INFORMATION
#MNEM.UNIT   API CODE                                  DESCRIPTION
#---- -----  --------                                  -----------------------
TIME .S                                                :TIME {F10.1}
FREQ_EMF_SL.HZ                                         :Electromagnetic Field Frequency {F13.4}
PH_SH_WPPCM_SL.DEG                                     :WPPCM Phase Shift {F13.4}
RB_SL.DEG                                              :Relative Bearing {F13.4}
SDEV_SL.DEG                                            :Sonde Deviation {F13.4}
RTIX_SL.DEG                                            :Raw X-axis Tilt {F13.4}
RTIY_SL.DEG                                            :Raw Y-axis Tilt {F13.4}
TILX_SL.DEG                                            :X-axis Tilt {F13.4}
TILY_SL.DEG                                            :Y-axis Tilt {F13.4}
ROTA_SL.DEG                                            :Motor Rotation Angle {F13.4}
TOD7 .S                                                :Time of Day {I11}
TOJ  .S                                                :Time of Job {F13.4}
#-----------------------------------------------------------------------------
# 
#     TIME    FREQ_EMF_SL  PH_SH_WPPCM_    RB_SL       SDEV_SL      RTIX_SL      RTIY_SL      TILX_SL      TILY_SL      ROTA_SL        TOD7            TOJ
#                          SL
~A  
# ...
     371.0    1631.3805       0.0000       8.6934      80.5449       6.2660     -98.6092       8.5744    -102.8174     128.5878 1533229211 9999999.9999
     372.0    1650.5282       0.0000      15.5909      95.0751      13.5763     -97.0427      15.8847    -101.2169     134.6743 1533229212 9999999.9999
     373.0    1666.1730       0.0000      21.3517    -999.2500      20.4850     -93.5883      22.7934     -97.6875     140.7609 1533229213 9999999.9999
     374.0    1694.2772       0.0000      26.4360    -999.2500      27.4740     -88.5273      29.7824     -92.5166     146.8789 1533229214 9999999.9999
     375.0    1710.7665       0.0000      30.6764    -999.2500      33.9810     -82.3015      36.2894     -86.1555     152.9839 1533229215 9999999.9999
     376.0    1714.9390       0.0000      35.0140    -999.2500      40.9700     -74.4288      43.2784     -78.1117     159.0702 1533229216 9999999.9999
     377.0    1727.5798       0.0000      39.3008    -999.2500      47.3163     -65.0700      49.6247     -68.5496     165.1691 1533229217 9999999.9999
     378.0    1727.5798       0.0000      49.4457    -999.2500      66.7168     -49.8870      69.0252     -53.0367     171.2617 1533229218 9999999.9999
     379.0    1731.8351       0.0000      53.8012    -999.2500      76.7585     -42.9382      79.0669     -45.9369     177.3930 1533229219 9999999.9999
     380.0    1727.5798       0.0000      57.6635    -999.2500      84.5508     -36.3508      86.8592     -39.2064     183.5049 1533229220 9999999.9999
     381.0    1723.3456       0.0000      61.8379    -999.2500      90.8570     -29.6028      93.1654     -32.3118     189.5915 1533229221 9999999.9999
     382.0    1714.9390       0.0000      66.6308    -999.2500      95.6770     -22.7745      97.9854     -25.3351     196.1075 1533229222 9999999.9999
     383.0    1694.2772       0.0000      72.5193    -999.2500      98.3280     -15.6248     100.6364     -18.0301     202.1939 1533229223 9999999.9999
     384.0    1682.1173       0.0000      79.9567      83.9263      99.4125      -7.7522     101.7209      -9.9864     208.3058 1533229224 9999999.9999
     385.0    1666.1730       0.0000      88.7679      77.7374     100.0150       0.8435     102.3234      -1.2040     214.4238 1533229225 9999999.9999
     386.0    1631.3805       0.0000      97.4038      80.0204     100.0953       9.1580     102.4037       7.2912     220.5288 1533229226 9999999.9999
     387.0    1616.3793       0.0000     104.7615      92.7280      98.3682      16.7093     100.6766      15.0066     226.6153 1533229227 9999999.9999
     388.0    1587.1896       0.0000     111.6957    -999.2500      93.9498      24.8230      96.2582      23.2966     232.7274 1533229228 9999999.9999
     389.0    1548.7335       0.0000     117.2317    -999.2500      88.2863      32.3342      90.5947      30.9709     238.8324 1533229229 9999999.9999
     390.0    1525.2169       0.0000     122.0023    -999.2500      81.3777      39.6043      83.6861      38.3990     244.9373 1533229230 9999999.9999
     391.0    1489.6716       0.0000     126.6106    -999.2500      73.0230      46.9950      75.3314      45.9503     251.0362 1533229231 9999999.9999
     392.0    1464.8438       0.0000     131.3823    -999.2500      62.4592      53.7430      64.7676      52.8449     257.1411 1533229232 9999999.9999
     393.0    1429.1158       0.0000     139.8016    -999.2500      50.4895      71.0147      52.7979      70.4918     263.2397 1533229233 9999999.9999
     394.0    1400.6475       0.0000     143.6758    -999.2500      44.0227      80.0120      46.3311      79.6847     269.7624 1533229234 9999999.9999
     395.0    1375.9785       0.0000     147.6024    -999.2500      37.0337      87.6437      39.3421      87.4821     275.8610 1533229235 9999999.9999
     396.0    1346.9828       0.0000     152.0403    -999.2500      29.6430      94.4720      31.9514      94.4588     281.9658 1533229236 9999999.9999
     397.0    1326.6509       0.0000     157.4596    -999.2500      21.8105      99.9748      24.1189     100.0812     288.0705 1533229237 9999999.9999
     398.0    1297.2786       0.0000     163.7871    -999.2500      14.0985     103.5497      16.4069     103.7337     294.1691 1533229238 9999999.9999
     399.0    1273.7772       0.0000     171.6322      77.6481       5.8643     104.6743       8.1727     104.8828     300.2677 1533229239 9999999.9999
     400.0    1262.3429       0.0000    -179.3953      74.8006      -2.8920     104.9957      -0.5836     105.2112     306.3724 1533229240 9999999.9999
     401.0    1242.2703       0.0000    -171.2424      78.3810     -10.8852     104.3128      -8.5768     104.5135     312.4772 1533229241 9999999.9999
     402.0    1227.0942       0.0000    -163.7670      94.2686     -18.9185     100.8183     -16.6101     100.9431     318.5768 1533229242 9999999.9999
     403.0    1214.3783       0.0000    -157.1500    -999.2500     -27.1125      95.3958     -24.8041      95.4027     324.6887 1533229243 9999999.9999
     404.0    1199.8721       0.0000    -151.6552    -999.2500     -34.9450      88.8085     -32.6366      88.6723     330.7934 1533229244 9999999.9999
     405.0    1199.8721       0.0000    -146.7119    -999.2500     -42.6972      81.0162     -40.3888      80.7106     336.8981 1533229245 9999999.9999
     406.0    1187.7112       0.0000    -142.2302    -999.2500     -49.7665      72.4607     -47.4581      71.9693     343.3892 1533229246 9999999.9999
     407.0    1179.7399       0.0000    -136.9079    -999.2500     -56.8358      61.2542     -54.5274      60.5193     349.4940 1533229247 9999999.9999
     408.0    1179.7399       0.0000    -129.1261    -999.2500     -72.7820      51.0117     -70.4736      50.0542     355.6118 1533229248 9999999.9999
     409.0    1175.7943       0.0000    -124.9400    -999.2500     -81.2170      44.3842     -78.9086      43.2827       1.7104 1533229249 9999999.9999
     410.0    1181.7228       0.0000    -120.4819    -999.2500     -88.7282      37.2345     -86.4198      35.9777       7.8091 1533229250 9999999.9999
     411.0    1183.7122       0.0000    -115.3702    -999.2500     -95.3958      29.6832     -93.0874      28.2623      13.9140 1533229251 9999999.9999
     412.0    1191.7373       0.0000    -108.8863    -999.2500    -100.9790      21.3687     -98.6706      19.7672      20.0066 1533229252 9999999.9999
     413.0    1199.8721       0.0000    -101.8381      83.9731    -103.9513      13.6165    -101.6429      11.8466      26.1054 1533229253 9999999.9999
     414.0    1208.1185       0.0000     -93.7157      78.3237    -104.5538       5.5832    -102.2454       3.6387      32.2172 1533229254 9999999.9999
     415.0    1216.4792       0.0000     -84.8843      78.9481    -104.4735      -2.8920    -102.1651      -5.0206      38.3352 1533229255 9999999.9999
     416.0    1231.3923       0.0000     -76.8232      93.9362    -103.6702     -10.9655    -101.3618     -13.2695      44.4408 1533229256 9999999.9999
     417.0    1246.6755       0.0000     -70.0258    -999.2500    -100.8183     -18.5972     -98.5099     -21.0670      50.5273 1533229257 9999999.9999
     418.0    1271.4738       0.0000     -64.1588    -999.2500     -95.8778     -26.2690     -93.5694     -28.9055      57.0371 1533229258 9999999.9999
     419.0    1290.1376       0.0000     -59.2518    -999.2500     -89.5717     -33.6597     -87.2633     -36.4568      63.1420 1533229259 9999999.9999
     420.0    1314.2523       0.0000     -54.9883    -999.2500     -82.4220     -40.6888     -80.1136     -43.6387      69.2407 1533229260 9999999.9999
     421.0    1339.2858       0.0000     -50.8814    -999.2500     -73.9870     -47.4368     -71.6786     -50.5333      75.3394 1533229261 9999999.9999
     422.0    1362.6454       0.0000     -46.0879    -999.2500     -63.0617     -53.9037     -60.7533     -57.1406      81.4443 1533229262 9999999.9999
     423.0    1392.3268       0.0000     -37.3092    -999.2500     -49.9272     -72.1393     -47.6188     -75.7725      87.5491 1533229263 9999999.9999
