~VERSION INFORMATION
VERS.           2.0   :CWLS Log ASCII Standard - VERSION 2.0
WRAP.           NO    :One Line per depth step
PROD.  Schlumberger   :LAS Producer
PROG.  DLIS to ASCII 19C2-270                          :LAS Program name and version
CREA.        2018/08/03 10:59                          :LAS Creation date {YYYY/MM/DD hh:mm}
DLIS_CREA.  2018-Aug-03 09:39                          :DLIS Creation date and time {YYYY-MMM-DD hh:mm}
SOURCE.     PERFO_Perfo_081PTP.DLIS                    :DLIS File Name
FILE-ID.     PERFO_Perfo_081PTP                        :File Identification Number
#--------------------------------------------------
~WELL INFORMATION
#MNEM.UNIT      DATA             DESCRIPTION
#---- ------ --------------   -----------------------------
STRT .S            0.0       :START TIME      
STOP .S          383.0       :STOP TIME      
STEP .S            1.0       :STEP     
NULL .          -999.25      :NULL VALUE
COMP .        SHELL INTERNATIONAL EP                   :COMPANY
WELL .        WPP TEST 4                               :WELL
FLD  .        WILDCAT                                  :FIELD
LOC  .        NA                                       :LOCATION
CNTY .        HARRIS                                   :COUNTY
STAT .        TEXAS                                    :STATE
CTRY .                                                 :COUNTRY
API  .        NA                                       :API NUMBER
UWI  .                                                 :UNIQUE WELL ID
DATE .        02-Aug-2018                              :LOG DATE {DD-MMM-YYYY}
SRVC .        Schlumberger                             :SERVICE COMPANY
LATI .DEG                                              :LATITUDE
LONG .DEG                                              :LONGITUDE
GDAT .                                                 :GeoDetic Datum
SECT .        NA                                       :Section
RANG .        NA                                       :Range
TOWN .        NA                                       :Township
#-----------------------------------------------------------------------------
~PARAMETER INFORMATION
#MNEM.UNIT    VALUE                      DESCRIPTION
#---- -----   --------------------       ------------------------
U-PHASE_B_COMP_PER_YT.                 0 :Phase B Comparator Period Yt
U-PHASE_A_COMP_PER_XT.                 0 :Phase A Comparator Period Xt
U-MAX_EXC_CUR_LIMIT.MA       265.00000   :Requested CM Current Limit
U-REQ_EXC_FQ.HZ              50          :Requested CM Frequency
U-TILT_Y_OFFSET.          -2.06578       :WPTET Tilt Y Offset
U-TILT_Y_GAIN.           1.02173         :WPTET Tilt Y Gain
U-TILT_X_OFFSET.           2.30841       :WPTET Tilt X Offset
U-TILT_X_GAIN.           1.00000         :WPTET Tilt X Gain
U-TILT_OFFSET_TOL.           0.00100     :WPTET Tilt Offset Calibration Tolerance
U-MOT_CUR_LIMIT_REQ.MA        70.00000   :Requested Motor Current Limit
U-MOT_SPD_REQ_WPMS.RPM        1.00000    :Requested Motor Speed
U-STD_TOL_TILT.           0.01000        :Tilt Standard Deviation Tolerance
CWEI .LB/F      29.00000                 :Casing Weight
CSIZ .IN         7.00000                 :Current Casing Size
LCC  .               440                 :Logging Company Code
LUN  .              2134                 :Logging Unit Number
HIDE .                                   :Header Identifier
HID1 .                                   :Header Identifier Line 1
R1   .                                   :Remark Line 1
WITN .        MR. KELLY McCOY            :Witness's Name
ENGI .        MORRIS MOORE               :Engineer's Name
LUL  .        IOWA COLONY                :Logging Unit Location
DATE .        02-Aug-2018                :Date as Month-Day-Year
STAT .        TEXAS                      :State or Province
COUN .        HARRIS                     :County or Rig Name
FN   .        WILDCAT                    :Field Name
WN   .        WPP TEST 4                 :Well Name
CN   .        SHELL INTERNATIONAL EP     :Company Name
CLAB .        County                     :County/Rig Label
SLAB .        State                      :State/Province Label
RUN  .          1                        :RUN NUMBER
PDAT .        GROUND LEVEL               :Permanent Datum
EPD  .                                   :Elevation of Permanent Datum above Mean Sea Level
LMF  .          NA                       :Logging Measured From (Name of Logging Elevation Reference)
APD  .                                   :Elevation of Depth Reference (LMF) above Permanent Datum
#-----------------------------------------------------------------------------
~CURVE INFORMATION
#MNEM.UNIT   API CODE                                  DESCRIPTION
#---- -----  --------                                  -----------------------
TIME .S                                                :TIME {F10.1}
FREQ_EMF_SL.HZ                                         :Electromagnetic Field Frequency {F13.4}
PH_SH_WPPCM_SL.DEG                                     :WPPCM Phase Shift {F13.4}
RB_SL.DEG                                              :Relative Bearing {F13.4}
SDEV_SL.DEG                                            :Sonde Deviation {F13.4}
RTIX_SL.DEG                                            :Raw X-axis Tilt {F13.4}
RTIY_SL.DEG                                            :Raw Y-axis Tilt {F13.4}
TILX_SL.DEG                                            :X-axis Tilt {F13.4}
TILY_SL.DEG                                            :Y-axis Tilt {F13.4}
ROTA_SL.DEG                                            :Motor Rotation Angle {F13.4}
TOD7 .S                                                :Time of Day {I11}
TOJ  .S                                                :Time of Job {F13.4}
#-----------------------------------------------------------------------------
# 
#     TIME    FREQ_EMF_SL  PH_SH_WPPCM_    RB_SL       SDEV_SL      RTIX_SL      RTIY_SL      TILX_SL      TILY_SL      ROTA_SL        TOD7            TOJ
#                          SL
~A  
       0.0     562.0504       0.0000    -176.5045      73.7134      -5.6635     106.4015      -3.3551     106.6475     353.0535 1533245025 9999999.9999
       1.0     704.5341       0.0000    -171.3079      76.6732     -10.7647     105.6383      -8.4563     105.8678     357.5137 1533245025 9999999.9999
       2.0     733.1856       0.0000    -163.5639      95.8666     -19.0792     101.8627     -16.7708     102.0101       3.6185 1533245026 9999999.9999
       3.0     714.5579       0.0000    -156.7267    -999.2500     -27.6246      96.1590     -25.3162      96.1825       9.7234 1533245027 9999999.9999
       4.0     692.0522       0.0000    -151.0349    -999.2500     -35.9090      88.9692     -33.6006      88.8364      15.8222 1533245028 9999999.9999
       5.0     677.3844       0.0000    -146.3017    -999.2500     -43.5005      81.2572     -41.1921      80.9569      21.9340 1533245029 9999999.9999
       6.0     669.6429       0.0000    -141.7197    -999.2500     -50.8912      72.3402     -48.5828      71.8461      28.0389 1533245030 9999999.9999
       7.0     663.3254       0.0000    -135.9748    -999.2500     -58.3622      59.8885     -56.0538      59.1239      34.1438 1533245031 9999999.9999
       8.0     660.8318       0.0000    -129.2069    -999.2500     -73.3845      51.4535     -71.0761      50.5057      40.2425 1533245032 9999999.9999
       9.0     663.3254       0.0000    -125.0859    -999.2500     -81.8597      44.7858     -79.5513      43.6931      46.7462 1533245033 9999999.9999
      10.0     672.2037       0.0000    -120.5602    -999.2500     -89.5717      37.3952     -87.2633      36.1419      52.8388 1533245034 9999999.9999
      11.0     690.0148       0.0000    -115.3902    -999.2500     -96.2393      29.6832     -93.9309      28.2623      58.9567 1533245035 9999999.9999
      12.0     713.8325       0.0000    -109.1437    -999.2500    -101.9430      21.6097     -99.6346      20.0134      65.0685 1533245036 9999999.9999
      13.0     738.5767       0.0000    -101.7778      84.5332    -105.2768      13.4960    -102.9684      11.7235      71.1734 1533245037 9999999.9999
      14.0     787.3740       0.0000     -93.5273      76.7624    -105.9998       5.3823    -103.6914       3.4335      77.2913 1533245038 9999999.9999
      15.0     841.5620       0.0000     -84.6359      77.4721    -105.9195      -3.1029    -103.6111      -5.2361      83.3900 1533245039 9999999.9999
      16.0     895.7007       0.0000     -76.0715      89.2164    -104.8752     -11.6885    -102.5667     -14.0082      89.5018 1533245040 9999999.9999
      17.0     954.0366       0.0000     -69.2668    -999.2500    -101.7020     -19.4407     -99.3936     -21.9288      95.6066 1533245041 9999999.9999
      18.0    1026.4598       0.0000     -63.3681    -999.2500     -96.3598     -27.3535     -94.0514     -30.0136     101.7115 1533245042 9999999.9999
      19.0    1098.6328       0.0000     -58.4908    -999.2500     -89.9332     -34.9450     -87.6248     -37.7700     107.8102 1533245043 9999999.9999
      20.0    1248.8899       0.0000     -54.3211    -999.2500     -82.7433     -42.0947     -80.4349     -45.0750     113.9089 1533245044 9999999.9999
      21.0    1397.8628       0.0000     -50.3234    -999.2500     -74.2280     -48.9230     -71.9196     -52.0517     120.0015 1533245045 9999999.9999
      22.0    1545.3296       0.0000     -45.5868    -999.2500     -63.0617     -55.4702     -60.7533     -58.7412     126.5113 1533245046 9999999.9999
      23.0    1682.1173       0.0000     -37.4615    -999.2500     -50.6502     -73.5050     -48.3418     -77.1678     132.6101 1533245047 9999999.9999
      24.0    1826.2988       0.0000     -33.4227    -999.2500     -43.5005     -82.4622     -41.1921     -86.3196     138.7151 1533245048 9999999.9999
      25.0    1942.3344       0.0000     -29.2939    -999.2500     -36.3508     -89.7725     -34.0424     -93.7888     144.8333 1533245049 9999999.9999
      26.0    2074.1150       0.0000     -24.5514    -999.2500     -29.0807     -95.4360     -26.7723     -99.5753     150.9198 1533245050 9999999.9999
      27.0    2190.4207       0.0000     -18.8802    -999.2500     -21.7302     -99.2920     -19.4218    -103.5151     157.0064 1533245051 9999999.9999
      28.0    2282.8735       0.0000     -11.6467      80.0401     -13.7772    -101.0192     -11.4688    -105.2798     163.1179 1533245052 9999999.9999
      29.0    2359.4797       0.0000      -3.1422      74.9134      -5.3422    -101.1397      -3.0338    -105.4029     169.2298 1533245053 9999999.9999
      30.0    2432.9585       0.0000       5.7773      75.8748       3.2937    -100.9790       5.6021    -105.2388     175.3286 1533245054 9999999.9999
      31.0    2493.3511       0.0000      13.4305      85.8401      11.0860     -99.8142      13.3944    -104.0486     181.4274 1533245055 9999999.9999
      32.0    2493.3511       0.0000      19.7481    -999.2500      18.3160     -96.9623      20.6244    -101.1348     187.5324 1533245056 9999999.9999
      33.0    2484.5405       0.0000      25.2692    -999.2500      25.6665     -92.3432      27.9749     -96.4153     193.6251 1533245057 9999999.9999
      34.0    2484.5405       0.0000      29.7164    -999.2500      32.4948     -86.3985      34.8032     -90.3415     200.1166 1533245058 9999999.9999
      35.0    2484.5405       0.0000      33.8375    -999.2500      39.4035     -79.2087      41.7119     -82.9954     206.2348 1533245059 9999999.9999
      36.0    2475.7922       0.0000      37.9398    -999.2500      46.2720     -70.5327      48.5804     -74.1309     212.3398 1533245060 9999999.9999
      37.0    2493.3511       0.0000      42.9570    -999.2500      51.8953     -57.2777      54.2037     -60.5879     218.4261 1533245061 9999999.9999
      38.0    2484.5405       0.0000      51.8678    -999.2500      74.4690     -46.7540      76.7774     -49.8356     224.5250 1533245062 9999999.9999
      39.0    2493.3511       0.0000      55.6059    -999.2500      83.0245     -40.0863      85.3329     -43.0231     230.6299 1533245063 9999999.9999
      40.0    2484.5405       0.0000      59.8435    -999.2500      90.4955     -32.6957      92.8039     -35.4718     236.7349 1533245064 9999999.9999
      41.0    2475.7922       0.0000      64.4670    -999.2500      95.9983     -25.5862      98.3067     -28.2079     242.8337 1533245065 9999999.9999
      42.0    2484.5405       0.0000      69.9948    -999.2500      99.6937     -18.3963     102.0021     -20.8618     248.9326 1533245066 9999999.9999
      43.0    2458.4790       0.0000      76.7946      87.0351     101.2200     -10.8852     103.5284     -13.1875     255.0375 1533245067 9999999.9999
      44.0    2391.5815       0.0000      85.1396      76.8867     101.6618      -2.6108     103.9702      -4.7333     261.1423 1533245068 9999999.9999
      45.0    2335.9634       0.0000      94.2944      76.3139     102.0233       6.1053     104.3317       4.1722     267.2409 1533245069 9999999.9999
      46.0    2232.1428       0.0000     102.4627      85.3548     100.9790      14.1788     103.2874      12.4211     273.7506 1533245070 9999999.9999
      47.0    2143.6738       0.0000     109.5045    -999.2500      97.5648      22.0113      99.8732      20.4238     279.8553 1533245071 9999999.9999
      48.0    2038.0435       0.0000     115.5243    -999.2500      92.1825      29.8438      94.4909      28.4265     285.9539 1533245072 9999999.9999
      49.0    1915.8719       0.0000     120.5004    -999.2500      85.5148      37.3148      87.8232      36.0598     292.0525 1533245073 9999999.9999
      50.0    1784.5813       0.0000     124.9879    -999.2500      77.6823      44.6653      79.9907      43.5700     298.1573 1533245074 9999999.9999
      51.0    1654.4117       0.0000     129.5472    -999.2500      68.1227      52.0158      70.4311      51.0802     304.2620 1533245075 9999999.9999
      52.0    1518.6285       0.0000     137.8524    -999.2500      53.9840      67.3997      56.2924      66.7983     310.3606 1533245076 9999999.9999
