~VERSION INFORMATION
VERS.           2.0   :CWLS Log ASCII Standard - VERSION 2.0
WRAP.           NO    :One Line per depth step
PROD.  Schlumberger   :LAS Producer
PROG.  DLIS to ASCII 19C2-270                          :LAS Program name and version
CREA.        2018/08/03 10:59                          :LAS Creation date {YYYY/MM/DD hh:mm}
DLIS_CREA.  2018-Aug-03 09:38                          :DLIS Creation date and time {YYYY-MMM-DD hh:mm}
SOURCE.     PERFO_Perfo_080PTP.DLIS                    :DLIS File Name
FILE-ID.     PERFO_Perfo_080PTP                        :File Identification Number
#--------------------------------------------------
~WELL INFORMATION
#MNEM.UNIT      DATA             DESCRIPTION
#---- ------ --------------   -----------------------------
STRT .S            0.0       :START TIME      
STOP .S          356.0       :STOP TIME      
STEP .S            1.0       :STEP     
NULL .          -999.25      :NULL VALUE
COMP .        SHELL INTERNATIONAL EP                   :COMPANY
WELL .        WPP TEST 4                               :WELL
FLD  .        WILDCAT                                  :FIELD
LOC  .        NA                                       :LOCATION
CNTY .        HARRIS                                   :COUNTY
STAT .        TEXAS                                    :STATE
CTRY .                                                 :COUNTRY
API  .        NA                                       :API NUMBER
UWI  .                                                 :UNIQUE WELL ID
DATE .        02-Aug-2018                              :LOG DATE {DD-MMM-YYYY}
SRVC .        Schlumberger                             :SERVICE COMPANY
LATI .DEG                                              :LATITUDE
LONG .DEG                                              :LONGITUDE
GDAT .                                                 :GeoDetic Datum
SECT .        NA                                       :Section
RANG .        NA                                       :Range
TOWN .        NA                                       :Township
#-----------------------------------------------------------------------------
~PARAMETER INFORMATION
#MNEM.UNIT    VALUE                      DESCRIPTION
#---- -----   --------------------       ------------------------
U-PHASE_B_COMP_PER_YT.                 0 :Phase B Comparator Period Yt
U-PHASE_A_COMP_PER_XT.                 0 :Phase A Comparator Period Xt
U-MAX_EXC_CUR_LIMIT.MA       265.00000   :Requested CM Current Limit
U-REQ_EXC_FQ.HZ              50          :Requested CM Frequency
U-TILT_Y_OFFSET.          -2.06578       :WPTET Tilt Y Offset
U-TILT_Y_GAIN.           1.02173         :WPTET Tilt Y Gain
U-TILT_X_OFFSET.           2.30841       :WPTET Tilt X Offset
U-TILT_X_GAIN.           1.00000         :WPTET Tilt X Gain
U-TILT_OFFSET_TOL.           0.00100     :WPTET Tilt Offset Calibration Tolerance
U-MOT_CUR_LIMIT_REQ.MA        70.00000   :Requested Motor Current Limit
U-MOT_SPD_REQ_WPMS.RPM        1.00000    :Requested Motor Speed
U-STD_TOL_TILT.           0.01000        :Tilt Standard Deviation Tolerance
CWEI .LB/F      29.00000                 :Casing Weight
CSIZ .IN         7.00000                 :Current Casing Size
LCC  .               440                 :Logging Company Code
LUN  .              2134                 :Logging Unit Number
HIDE .                                   :Header Identifier
HID1 .                                   :Header Identifier Line 1
R1   .                                   :Remark Line 1
WITN .        MR. KELLY McCOY            :Witness's Name
ENGI .        MORRIS MOORE               :Engineer's Name
LUL  .        IOWA COLONY                :Logging Unit Location
DATE .        02-Aug-2018                :Date as Month-Day-Year
STAT .        TEXAS                      :State or Province
COUN .        HARRIS                     :County or Rig Name
FN   .        WILDCAT                    :Field Name
WN   .        WPP TEST 4                 :Well Name
CN   .        SHELL INTERNATIONAL EP     :Company Name
CLAB .        County                     :County/Rig Label
SLAB .        State                      :State/Province Label
RUN  .          1                        :RUN NUMBER
PDAT .        GROUND LEVEL               :Permanent Datum
EPD  .                                   :Elevation of Permanent Datum above Mean Sea Level
LMF  .          NA                       :Logging Measured From (Name of Logging Elevation Reference)
APD  .                                   :Elevation of Depth Reference (LMF) above Permanent Datum
#-----------------------------------------------------------------------------
~CURVE INFORMATION
#MNEM.UNIT   API CODE                                  DESCRIPTION
#---- -----  --------                                  -----------------------
TIME .S                                                :TIME {F10.1}
FREQ_EMF_SL.HZ                                         :Electromagnetic Field Frequency {F13.4}
PH_SH_WPPCM_SL.DEG                                     :WPPCM Phase Shift {F13.4}
RB_SL.DEG                                              :Relative Bearing {F13.4}
SDEV_SL.DEG                                            :Sonde Deviation {F13.4}
RTIX_SL.DEG                                            :Raw X-axis Tilt {F13.4}
RTIY_SL.DEG                                            :Raw Y-axis Tilt {F13.4}
TILX_SL.DEG                                            :X-axis Tilt {F13.4}
TILY_SL.DEG                                            :Y-axis Tilt {F13.4}
ROTA_SL.DEG                                            :Motor Rotation Angle {F13.4}
TOD7 .S                                                :Time of Day {I11}
TOJ  .S                                                :Time of Job {F13.4}
#-----------------------------------------------------------------------------
# 
#     TIME    FREQ_EMF_SL  PH_SH_WPPCM_    RB_SL       SDEV_SL      RTIX_SL      RTIY_SL      TILX_SL      TILY_SL      ROTA_SL        TOD7            TOJ
#                          SL
~A  
# ...
     106.0    1931.6620       0.0000     122.1193    -999.2500      82.9442      39.9257      85.2526      38.7274     267.3366 1533244718 9999999.9999
     107.0    1789.1222       0.0000     126.5199    -999.2500      74.5895      47.1958      76.8979      46.1555     273.4414 1533244719 9999999.9999
     108.0    1631.3805       0.0000     131.2382    -999.2500      64.1863      54.3857      66.4947      53.5015     279.5461 1533244720 9999999.9999
     109.0    1464.8438       0.0000     139.1354    -999.2500      52.0158      70.4122      54.3242      69.8762     285.6447 1533244721 9999999.9999
     110.0    1220.7031       0.0000     143.4063    -999.2500      44.7055      80.4538      47.0139      80.1361     291.7433 1533244722 9999999.9999
     111.0    1054.1604       0.0000     147.2839    -999.2500      37.6362      88.2863      39.9446      88.1388     297.8481 1533244723 9999999.9999
     112.0     930.0595       0.0000     151.7457    -999.2500      30.0447      95.2753      32.3531      95.2796     303.9528 1533244724 9999999.9999
     113.0     826.2339       0.0000     157.1981    -999.2500      22.0515     101.0192      24.3599     101.1482     310.0514 1533244725 9999999.9999
     114.0     730.8992       0.0000     163.7422      85.6329      14.0583     104.7145      16.3667     104.9239     316.1500 1533244726 9999999.9999
     115.0     651.6451       0.0000     171.6925      75.8082       5.7438     106.1605       8.0522     106.4013     322.2547 1533244727 9999999.9999
     116.0     585.9375       0.0000     179.6450      73.3972      -1.9682     106.3613       0.3402     106.6065     328.7644 1533244728 9999999.9999
     117.0     534.2896       0.0000    -171.2693      76.7476     -10.8048     105.5982      -8.4964     105.8267     334.8630 1533244729 9999999.9999
     118.0     499.3785       0.0000    -163.6749      95.8893     -18.9587     101.8225     -16.6503     101.9690     340.9677 1533244730 9999999.9999
     119.0     463.8028       0.0000    -156.9272    -999.2500     -27.3535      96.3598     -25.0451      96.3877     347.0725 1533244731 9999999.9999
     120.0     434.2958       0.0000    -151.4255    -999.2500     -35.3065      89.5315     -32.9981      89.4110     353.1711 1533244732 9999999.9999
     121.0     416.2966       0.0000    -146.5712    -999.2500     -43.0587      81.7392     -40.7503      81.4493     359.2705 1533244733 9999999.9999
     122.0     401.7857       0.0000    -141.7867    -999.2500     -50.8108      72.5410     -48.5024      72.0513       5.3753 1533244734 9999999.9999
     123.0     393.6870       0.0000    -136.3852    -999.2500     -57.7597      60.5713     -55.4513      59.8216      11.4945 1533244735 9999999.9999
     124.0     389.5429       0.0000    -129.2204    -999.2500     -73.3042      51.4535     -70.9958      50.5057      17.5932 1533244736 9999999.9999
     125.0     395.0141       0.0000    -125.0859    -999.2500     -81.8597      44.7858     -79.5513      43.6931      23.6795 1533244737 9999999.9999
     126.0     406.4306       0.0000    -120.6356    -999.2500     -89.4913      37.5157     -87.1829      36.2650      29.7844 1533244738 9999999.9999
     127.0     422.8052       0.0000    -115.5062    -999.2500     -96.1590      29.8438     -93.8506      28.4265      35.8893 1533244739 9999999.9999
     128.0     450.4324       0.0000    -109.2051    -999.2500    -101.7823      21.6900     -99.4739      20.0955      42.3991 1533244740 9999999.9999
     129.0     486.9286       0.0000    -101.9714      85.1911    -105.1965      13.6968    -102.8881      11.9286      48.4978 1533244741 9999999.9999
     130.0     535.9185       0.0000     -93.8632      76.8549    -105.9998       5.7037    -103.6914       3.7618      54.6160 1533244742 9999999.9999
     131.0     609.8222       0.0000     -85.0218      77.3159    -105.9195      -2.7313    -103.6111      -4.8565      60.7147 1533244743 9999999.9999
     132.0     694.7875       0.0000     -76.7155      86.7281    -105.1162     -11.0057    -102.8078     -13.3106      66.8265 1533244744 9999999.9999
     133.0     780.3829       0.0000     -69.7583    -999.2500    -102.0233     -18.8382     -99.7149     -21.3132      72.9313 1533244745 9999999.9999
     134.0     877.8090       0.0000     -63.6584    -999.2500     -96.7012     -26.9317     -94.3928     -29.5827      79.0237 1533244746 9999999.9999
     135.0     975.2081       0.0000     -58.5374    -999.2500     -89.8930     -34.8647     -87.5846     -37.6880      85.1225 1533244747 9999999.9999
     136.0    1090.1163       0.0000     -54.3114    -999.2500     -82.6228     -42.0947     -80.3144     -45.0750      91.2212 1533244748 9999999.9999
     137.0    1302.0834       0.0000     -50.3040    -999.2500     -74.1075     -48.9230     -71.7991     -52.0517      97.3260 1533244749 9999999.9999
     138.0    1508.8519       0.0000     -45.5417    -999.2500     -62.9010     -55.4702     -60.5926     -58.7412     103.4439 1533244750 9999999.9999
     139.0    1682.1173       0.0000     -37.4570    -999.2500     -50.6502     -73.5452     -48.3418     -77.2089     109.5426 1533244751 9999999.9999
     140.0    1850.3290       0.0000     -33.4648    -999.2500     -43.5808     -82.4622     -41.2724     -86.3196     116.0524 1533244752 9999999.9999
     141.0    1997.5142       0.0000     -29.2662    -999.2500     -36.3107     -89.6922     -34.0023     -93.7067     122.1573 1533244753 9999999.9999
     142.0    2124.2446       0.0000     -24.5213    -999.2500     -29.0405     -95.4360     -26.7321     -99.5753     128.2560 1533244754 9999999.9999
     143.0    2239.2517       0.0000     -18.8483    -999.2500     -21.6900     -99.3322     -19.3816    -103.5562     134.3549 1533244755 9999999.9999
     144.0    2320.5444       0.0000     -12.1884      80.8522     -14.3395    -100.9388     -12.0311    -105.1977     140.4598 1533244756 9999999.9999
     145.0    2399.7441       0.0000      -3.7645      75.0110      -5.9447    -101.1798      -3.6363    -105.4440     146.5648 1533244757 9999999.9999
     146.0    2460.6299       0.0000       5.5524      75.7533       3.0727    -101.0091       5.3812    -105.2696     152.6636 1533244758 9999999.9999
     147.0       0.0000       0.0000      13.6184      86.6896      11.2868     -99.7740      13.5952    -104.0076     158.8575 1533244759 9999999.9999
     148.0       0.0000       0.0000      19.9799    -999.2500      18.5972     -96.8820      20.9056    -101.0527     164.9624 1533244760 9999999.9999
     149.0       0.0000       0.0000      25.3479    -999.2500      25.7870     -92.1423      28.0954     -96.2101     171.0551 1533244761 9999999.9999
     150.0       0.0000       0.0000      29.8649    -999.2500      32.7358     -86.1977      35.0442     -90.1363     177.1539 1533244762 9999999.9999
     151.0       0.0000       0.0000      33.9508    -999.2500      39.6043     -79.0480      41.9127     -82.8313     183.2405 1533244763 9999999.9999
     152.0       0.0000       0.0000      38.1170    -999.2500      46.5532     -70.1310      48.8616     -73.7205     189.3585 1533244764 9999999.9999
     153.0       0.0000       0.0000      43.1609    -999.2500      51.2125     -55.7513      53.5209     -59.0284     195.8817 1533244765 9999999.9999
     154.0       0.0000       0.0000      52.0481    -999.2500      74.8707     -46.4327      77.1791     -49.5073     201.9805 1533244766 9999999.9999
     155.0       0.0000       0.0000      55.7382    -999.2500      83.2655     -39.8453      85.5739     -42.7768     208.0730 1533244767 9999999.9999
     156.0       0.0000       0.0000      59.6747    -999.2500      90.2143     -32.9768      92.5227     -35.7591     214.1780 1533244768 9999999.9999
     157.0       0.0000       0.0000      64.3231    -999.2500      95.9180     -25.7870      98.2264     -28.4131     220.2768 1533244769 9999999.9999
     158.0       0.0000       0.0000      70.1249    -999.2500      99.5631     -18.2558     101.8715     -20.7182     226.3756 1533244770 9999999.9999
