~VERSION INFORMATION
VERS.           2.0   :CWLS Log ASCII Standard - VERSION 2.0
WRAP.           NO    :One Line per depth step
PROD.  Schlumberger   :LAS Producer
PROG.  DLIS to ASCII 19C2-270                          :LAS Program name and version
CREA.        2018/08/03 10:59                          :LAS Creation date {YYYY/MM/DD hh:mm}
DLIS_CREA.  2018-Aug-03 08:58                          :DLIS Creation date and time {YYYY-MMM-DD hh:mm}
SOURCE.     PERFO_Perfo_064PTP.DLIS                    :DLIS File Name
FILE-ID.     PERFO_Perfo_064PTP                        :File Identification Number
#--------------------------------------------------
~WELL INFORMATION
#MNEM.UNIT      DATA             DESCRIPTION
#---- ------ --------------   -----------------------------
STRT .S            0.0       :START TIME      
STOP .S          966.0       :STOP TIME      
STEP .S            1.0       :STEP     
NULL .          -999.25      :NULL VALUE
COMP .        SHELL INTERNATIONAL EP                   :COMPANY
WELL .        WPP TEST 4                               :WELL
FLD  .        WILDCAT                                  :FIELD
LOC  .        NA                                       :LOCATION
CNTY .        HARRIS                                   :COUNTY
STAT .        TEXAS                                    :STATE
CTRY .                                                 :COUNTRY
API  .        NA                                       :API NUMBER
UWI  .                                                 :UNIQUE WELL ID
DATE .        02-Aug-2018                              :LOG DATE {DD-MMM-YYYY}
SRVC .        Schlumberger                             :SERVICE COMPANY
LATI .DEG                                              :LATITUDE
LONG .DEG                                              :LONGITUDE
GDAT .                                                 :GeoDetic Datum
SECT .        NA                                       :Section
RANG .        NA                                       :Range
TOWN .        NA                                       :Township
#-----------------------------------------------------------------------------
~PARAMETER INFORMATION
#MNEM.UNIT    VALUE                      DESCRIPTION
#---- -----   --------------------       ------------------------
U-PHASE_B_COMP_PER_YT.                 0 :Phase B Comparator Period Yt
U-PHASE_A_COMP_PER_XT.                 0 :Phase A Comparator Period Xt
U-MAX_EXC_CUR_LIMIT.MA       265.00000   :Requested CM Current Limit
U-REQ_EXC_FQ.HZ              50          :Requested CM Frequency
U-TILT_Y_OFFSET.          -2.06578       :WPTET Tilt Y Offset
U-TILT_Y_GAIN.           1.02173         :WPTET Tilt Y Gain
U-TILT_X_OFFSET.           2.30841       :WPTET Tilt X Offset
U-TILT_X_GAIN.           1.00000         :WPTET Tilt X Gain
U-TILT_OFFSET_TOL.           0.00100     :WPTET Tilt Offset Calibration Tolerance
U-MOT_CUR_LIMIT_REQ.MA        70.00000   :Requested Motor Current Limit
U-MOT_SPD_REQ_WPMS.RPM        1.00000    :Requested Motor Speed
U-STD_TOL_TILT.           0.01000        :Tilt Standard Deviation Tolerance
CWEI .LB/F      29.00000                 :Casing Weight
CSIZ .IN         7.00000                 :Current Casing Size
LCC  .               440                 :Logging Company Code
LUN  .              2134                 :Logging Unit Number
HIDE .                                   :Header Identifier
HID1 .                                   :Header Identifier Line 1
R1   .                                   :Remark Line 1
WITN .        MR. KELLY McCOY            :Witness's Name
ENGI .        MORRIS MOORE               :Engineer's Name
LUL  .        IOWA COLONY                :Logging Unit Location
DATE .        02-Aug-2018                :Date as Month-Day-Year
STAT .        TEXAS                      :State or Province
COUN .        HARRIS                     :County or Rig Name
FN   .        WILDCAT                    :Field Name
WN   .        WPP TEST 4                 :Well Name
CN   .        SHELL INTERNATIONAL EP     :Company Name
CLAB .        County                     :County/Rig Label
SLAB .        State                      :State/Province Label
RUN  .          1                        :RUN NUMBER
PDAT .        GROUND LEVEL               :Permanent Datum
EPD  .                                   :Elevation of Permanent Datum above Mean Sea Level
LMF  .          NA                       :Logging Measured From (Name of Logging Elevation Reference)
APD  .                                   :Elevation of Depth Reference (LMF) above Permanent Datum
#-----------------------------------------------------------------------------
~CURVE INFORMATION
#MNEM.UNIT   API CODE                                  DESCRIPTION
#---- -----  --------                                  -----------------------
TIME .S                                                :TIME {F10.1}
FREQ_EMF_SL.HZ                                         :Electromagnetic Field Frequency {F13.4}
PH_SH_WPPCM_SL.DEG                                     :WPPCM Phase Shift {F13.4}
RB_SL.DEG                                              :Relative Bearing {F13.4}
SDEV_SL.DEG                                            :Sonde Deviation {F13.4}
RTIX_SL.DEG                                            :Raw X-axis Tilt {F13.4}
RTIY_SL.DEG                                            :Raw Y-axis Tilt {F13.4}
TILX_SL.DEG                                            :X-axis Tilt {F13.4}
TILY_SL.DEG                                            :Y-axis Tilt {F13.4}
ROTA_SL.DEG                                            :Motor Rotation Angle {F13.4}
TOD7 .S                                                :Time of Day {I11}
TOJ  .S                                                :Time of Job {F13.4}
#-----------------------------------------------------------------------------
# 
#     TIME    FREQ_EMF_SL  PH_SH_WPPCM_    RB_SL       SDEV_SL      RTIX_SL      RTIY_SL      TILX_SL      TILY_SL      ROTA_SL        TOD7            TOJ
#                          SL
~A  
# ...
     848.0    1461.7983       0.0000     -90.5322      77.5649    -104.7547       2.5305    -102.4463       0.5197     287.5660 1533232851 9999999.9999
     849.0    1403.4431       0.0000     -81.8760      80.6991    -104.6342      -5.8242    -102.3258      -8.0165     293.6707 1533232852 9999999.9999
     850.0    1346.9828       0.0000     -74.1985      98.5000    -103.0677     -13.7772    -100.7593     -16.1423     299.7885 1533232853 9999999.9999
     851.0    1290.1376       0.0000     -67.1931    -999.2500     -99.1313     -22.1318     -96.8229     -24.6785     305.8871 1533232854 9999999.9999
     852.0    1248.8899       0.0000     -61.9491    -999.2500     -93.6285     -29.4823     -91.3201     -32.1887     311.9857 1533232855 9999999.9999
     853.0    1214.3783       0.0000     -57.3145    -999.2500     -86.8805     -36.8328     -84.5721     -39.6989     318.1099 1533232856 9999999.9999
     854.0    1179.7399       0.0000     -53.1508    -999.2500     -79.2087     -43.8620     -76.9003     -46.8808     324.1970 1533232857 9999999.9999
     855.0    1143.2927       0.0000     -49.0357    -999.2500     -70.0908     -50.3288     -67.7824     -53.4881     330.2956 1533232858 9999999.9999
     856.0    1119.6259       0.0000     -40.3364    -999.2500     -54.5463     -65.1102     -52.2379     -68.5906     336.4004 1533232859 9999999.9999
     857.0    1096.9188       0.0000     -35.6378    -999.2500     -47.2360     -76.3568     -44.9276     -80.0816     342.8978 1533232860 9999999.9999
     858.0    1073.4733       0.0000     -31.6188    -999.2500     -40.2872     -84.3500     -37.9788     -88.2485     348.9964 1533232861 9999999.9999
     859.0    1055.7433       0.0000     -27.3272    -999.2500     -33.2982     -90.8168     -30.9898     -94.8558     355.1011 1533232862 9999999.9999
     860.0    1038.5894       0.0000     -22.3352    -999.2500     -26.1887     -95.6770     -23.8803     -99.8216       1.1997 1533232863 9999999.9999
     861.0    1027.9606       0.0000     -16.2589    -999.2500     -18.8382     -98.4887     -16.5298    -102.6943       7.3046 1533232864 9999999.9999
     862.0    1024.9635       0.0000      -9.1631      79.8550     -11.3270     -99.4125      -9.0186    -103.6382      13.4034 1533232865 9999999.9999
     863.0    1021.9840       0.0000       0.1434      76.4446      -2.1690     -99.3322       0.1394    -103.5562      19.5082 1533232866 9999999.9999
     864.0    1024.9635       0.0000       8.7047      80.1109       6.2660     -98.9305       8.5744    -103.1458      25.6131 1533232867 9999999.9999
     865.0    1027.9606       0.0000      15.7498      94.0734      13.7370     -97.2837      16.0454    -101.4631      31.7119 1533232868 9999999.9999
     866.0    1046.3170       0.0000      21.5935    -999.2500      20.7662     -93.9097      23.0746     -98.0158      37.8106 1533232869 9999999.9999
     867.0    1060.5204       0.0000      26.5522    -999.2500      27.6347     -88.7683      29.9431     -92.7628      43.9155 1533232870 9999999.9999
     868.0    1073.4733       0.0000      30.7879    -999.2500      34.1818     -82.5827      36.4902     -86.4427      50.0079 1533232871 9999999.9999
     869.0    1095.2103       0.0000      34.9108    -999.2500      40.8897     -75.0715      43.1981     -78.7684      56.5116 1533232872 9999999.9999
     870.0    1125.0000       0.0000      39.2419    -999.2500      47.4368     -65.6323      49.7452     -69.1241      62.6165 1533232873 9999999.9999
     871.0    1156.4556       0.0000      49.6141    -999.2500      66.8775     -49.5255      69.1859     -52.6673      68.7090 1533232874 9999999.9999
     872.0    1189.7208       0.0000      53.6354    -999.2500      76.7987     -43.2997      79.1071     -46.3062      74.8078 1533232875 9999999.9999
     873.0    1229.2395       0.0000      57.5323    -999.2500      84.7517     -36.5918      87.0601     -39.4526      80.9195 1533232876 9999999.9999
     874.0    1264.6134       0.0000      61.6170    -999.2500      91.0980     -29.9242      93.4064     -32.6401      87.0382 1533232877 9999999.9999
     875.0    1319.1838       0.0000      66.7615    -999.2500      96.1992     -22.5737      98.5076     -25.1299      93.1431 1533232878 9999999.9999
     876.0    1375.9785       0.0000      72.7169    -999.2500      98.6895     -15.3838     100.9979     -17.7839      99.2418 1533232879 9999999.9999
     877.0    1434.9490       0.0000      80.1857      82.9873      99.7338      -7.5112     102.0422      -9.7401     105.3405 1533232880 9999999.9999
     878.0    1499.2004       0.0000      89.1030      77.4671     100.2560       1.1648     102.5644      -0.8756     111.4462 1533232881 9999999.9999
     879.0    1565.9799       0.0000      97.6169      79.8264     100.3765       9.3588     102.6849       7.4964     117.5520 1533232882 9999999.9999
     880.0    1631.3805       0.0000     105.1058      92.6826      98.4887      17.0708     100.7971      15.3760     123.6507 1533232883 9999999.9999
     881.0    1694.2772       0.0000     111.6211    -999.2500      94.5523      24.7025      96.8607      23.1734     130.1544 1533232884 9999999.9999
     882.0    1762.2180       0.0000     117.0961    -999.2500      88.8888      32.1333      91.1972      30.7657     136.2469 1533232885 9999999.9999
     883.0    1821.5673       0.0000     121.8536    -999.2500      82.0605      39.4035      84.3689      38.1938     142.3394 1533232886 9999999.9999
     884.0    1875.0000       0.0000     126.3745    -999.2500      73.7058      46.6737      76.0142      45.6220     148.4391 1533232887 9999999.9999
     885.0    1936.9835       0.0000     131.1002    -999.2500      63.4232      53.5823      65.7316      52.6807     154.5317 1533232888 9999999.9999
     886.0    1975.0703       0.0000     139.4469    -999.2500      51.1723      70.4523      53.4807      69.9173     160.6367 1533232889 9999999.9999
     887.0    2026.2969       0.0000     143.5944    -999.2500      44.2637      80.3333      46.5721      80.0130     166.7355 1533232890 9999999.9999
     888.0    2080.2515       0.0000     147.6980    -999.2500      36.8730      88.0052      39.1814      87.8515     172.8280 1533232891 9999999.9999
     889.0    2170.1389       0.0000     152.0603    -999.2500      29.6028      94.6728      31.9112      94.6640     178.9330 1533232892 9999999.9999
     890.0    2190.4207       0.0000     157.4650    -999.2500      21.7703     100.3765      24.0787     100.4916     185.0318 1533232893 9999999.9999
     891.0    2239.2517       0.0000     163.9595    -999.2500      13.8977     103.7103      16.2061     103.8979     191.1184 1533232894 9999999.9999
     892.0    2268.1450       0.0000     171.7809      77.1562       5.7037     104.9957       8.0121     105.2112     197.2180 1533232895 9999999.9999
     893.0    2260.8521       0.0000    -179.8112      74.5027      -2.4903     105.2768      -0.1819     105.4984     203.7473 1533232896 9999999.9999
     894.0    2253.6057       0.0000    -171.5478      77.6553     -10.5638     104.7145      -8.2554     104.9239     209.8461 1533232897 9999999.9999
     895.0    2197.2656       0.0000    -163.8836      99.4202     -18.7578     101.3405     -16.4494     101.4766     215.9450 1533232898 9999999.9999
     896.0    2156.8252       0.0000    -157.4404    -999.2500     -26.7108      95.9983     -24.4024      96.0183     222.0499 1533232899 9999999.9999
     897.0    2080.2515       0.0000    -151.8168    -999.2500     -34.7040      89.2905     -32.3956      89.1647     228.1559 1533232900 9999999.9999
     898.0    2020.4741       0.0000    -146.9551    -999.2500     -42.3357      81.6588     -40.0273      81.3673     234.2547 1533232901 9999999.9999
     899.0    1969.5378       0.0000    -142.1123    -999.2500     -50.0477      72.5008     -47.7393      72.0103     240.3666 1533232902 9999999.9999
     900.0    1921.1066       0.0000    -136.6705    -999.2500     -57.0768      60.7320     -54.7684      59.9858     246.4716 1533232903 9999999.9999
