~VERSION INFORMATION
VERS.           2.0   :CWLS Log ASCII Standard - VERSION 2.0
WRAP.           NO    :One Line per depth step
PROD.  Schlumberger   :LAS Producer
PROG.  DLIS to ASCII 19C2-270                          :LAS Program name and version
CREA.        2018/08/03 10:59                          :LAS Creation date {YYYY/MM/DD hh:mm}
DLIS_CREA.  2018-Aug-03 09:38                          :DLIS Creation date and time {YYYY-MMM-DD hh:mm}
SOURCE.     PERFO_Perfo_080PTP.DLIS                    :DLIS File Name
FILE-ID.     PERFO_Perfo_080PTP                        :File Identification Number
#--------------------------------------------------
~WELL INFORMATION
#MNEM.UNIT      DATA             DESCRIPTION
#---- ------ --------------   -----------------------------
STRT .S            0.0       :START TIME      
STOP .S          356.0       :STOP TIME      
STEP .S            1.0       :STEP     
NULL .          -999.25      :NULL VALUE
COMP .        SHELL INTERNATIONAL EP                   :COMPANY
WELL .        WPP TEST 4                               :WELL
FLD  .        WILDCAT                                  :FIELD
LOC  .        NA                                       :LOCATION
CNTY .        HARRIS                                   :COUNTY
STAT .        TEXAS                                    :STATE
CTRY .                                                 :COUNTRY
API  .        NA                                       :API NUMBER
UWI  .                                                 :UNIQUE WELL ID
DATE .        02-Aug-2018                              :LOG DATE {DD-MMM-YYYY}
SRVC .        Schlumberger                             :SERVICE COMPANY
LATI .DEG                                              :LATITUDE
LONG .DEG                                              :LONGITUDE
GDAT .                                                 :GeoDetic Datum
SECT .        NA                                       :Section
RANG .        NA                                       :Range
TOWN .        NA                                       :Township
#-----------------------------------------------------------------------------
~PARAMETER INFORMATION
#MNEM.UNIT    VALUE                      DESCRIPTION
#---- -----   --------------------       ------------------------
U-PHASE_B_COMP_PER_YT.                 0 :Phase B Comparator Period Yt
U-PHASE_A_COMP_PER_XT.                 0 :Phase A Comparator Period Xt
U-MAX_EXC_CUR_LIMIT.MA       265.00000   :Requested CM Current Limit
U-REQ_EXC_FQ.HZ              50          :Requested CM Frequency
U-TILT_Y_OFFSET.          -2.06578       :WPTET Tilt Y Offset
U-TILT_Y_GAIN.           1.02173         :WPTET Tilt Y Gain
U-TILT_X_OFFSET.           2.30841       :WPTET Tilt X Offset
U-TILT_X_GAIN.           1.00000         :WPTET Tilt X Gain
U-TILT_OFFSET_TOL.           0.00100     :WPTET Tilt Offset Calibration Tolerance
U-MOT_CUR_LIMIT_REQ.MA        70.00000   :Requested Motor Current Limit
U-MOT_SPD_REQ_WPMS.RPM        1.00000    :Requested Motor Speed
U-STD_TOL_TILT.           0.01000        :Tilt Standard Deviation Tolerance
CWEI .LB/F      29.00000                 :Casing Weight
CSIZ .IN         7.00000                 :Current Casing Size
LCC  .               440                 :Logging Company Code
LUN  .              2134                 :Logging Unit Number
HIDE .                                   :Header Identifier
HID1 .                                   :Header Identifier Line 1
R1   .                                   :Remark Line 1
WITN .        MR. KELLY McCOY            :Witness's Name
ENGI .        MORRIS MOORE               :Engineer's Name
LUL  .        IOWA COLONY                :Logging Unit Location
DATE .        02-Aug-2018                :Date as Month-Day-Year
STAT .        TEXAS                      :State or Province
COUN .        HARRIS                     :County or Rig Name
FN   .        WILDCAT                    :Field Name
WN   .        WPP TEST 4                 :Well Name
CN   .        SHELL INTERNATIONAL EP     :Company Name
CLAB .        County                     :County/Rig Label
SLAB .        State                      :State/Province Label
RUN  .          1                        :RUN NUMBER
PDAT .        GROUND LEVEL               :Permanent Datum
EPD  .                                   :Elevation of Permanent Datum above Mean Sea Level
LMF  .          NA                       :Logging Measured From (Name of Logging Elevation Reference)
APD  .                                   :Elevation of Depth Reference (LMF) above Permanent Datum
#-----------------------------------------------------------------------------
~CURVE INFORMATION
#MNEM.UNIT   API CODE                                  DESCRIPTION
#---- -----  --------                                  -----------------------
TIME .S                                                :TIME {F10.1}
FREQ_EMF_SL.HZ                                         :Electromagnetic Field Frequency {F13.4}
PH_SH_WPPCM_SL.DEG                                     :WPPCM Phase Shift {F13.4}
RB_SL.DEG                                              :Relative Bearing {F13.4}
SDEV_SL.DEG                                            :Sonde Deviation {F13.4}
RTIX_SL.DEG                                            :Raw X-axis Tilt {F13.4}
RTIY_SL.DEG                                            :Raw Y-axis Tilt {F13.4}
TILX_SL.DEG                                            :X-axis Tilt {F13.4}
TILY_SL.DEG                                            :Y-axis Tilt {F13.4}
ROTA_SL.DEG                                            :Motor Rotation Angle {F13.4}
TOD7 .S                                                :Time of Day {I11}
TOJ  .S                                                :Time of Job {F13.4}
#-----------------------------------------------------------------------------
# 
#     TIME    FREQ_EMF_SL  PH_SH_WPPCM_    RB_SL       SDEV_SL      RTIX_SL      RTIY_SL      TILX_SL      TILY_SL      ROTA_SL        TOD7            TOJ
#                          SL
~A  
# ...
      53.0     887.7841       0.0000     153.8010    -999.2500      26.8715      97.6853      29.1799      97.7420     301.9515 1533244665 9999999.9999
      54.0     775.2205       0.0000     159.6590    -999.2500      18.8783     102.7062      21.1867     102.8719     308.0501 1533244666 9999999.9999
      55.0     690.6925       0.0000     166.5414      81.6731      11.0057     105.5580      13.3141     105.7857     314.1487 1533244667 9999999.9999
      56.0     618.9481       0.0000     174.8462      74.2353       2.6510     106.3212       4.9594     106.5654     320.6584 1533244668 9999999.9999
      57.0     562.0504       0.0000    -176.4635      73.7641      -5.7037     106.3613      -3.3953     106.6065     326.7632 1533244669 9999999.9999
      58.0     517.3841       0.0000    -168.3006      80.8703     -13.8575     104.5940     -11.5491     104.8008     332.8618 1533244670 9999999.9999
      59.0     483.9126       0.0000    -160.9942      85.0262     -22.1318      99.9748     -19.8234     100.0812     338.9604 1533244671 9999999.9999
      60.0     451.2998       0.0000    -154.7309    -999.2500     -30.4062      93.8695     -28.0978      93.8432     345.0651 1533244672 9999999.9999
      61.0     424.3362       0.0000    -149.5246    -999.2500     -38.2788      86.6797     -35.9704      86.4972     351.1698 1533244673 9999999.9999
      62.0     408.3188       0.0000    -144.5919    -999.2500     -46.3122      78.1242     -44.0038      77.7558     357.2684 1533244674 9999999.9999
      63.0     398.1455       0.0000    -140.0404    -999.2500     -53.4217      68.8457     -51.1133      68.2757       3.3671 1533244675 9999999.9999
      64.0     389.9750       0.0000    -132.1117    -999.2500     -67.0783      55.7112     -64.7699      54.8558       9.4781 1533244676 9999999.9999
      65.0     392.1500       0.0000    -127.6906    -999.2500     -76.4372      49.0033     -74.1288      48.0023      15.5769 1533244677 9999999.9999
      66.0     398.1455       0.0000    -123.5370    -999.2500     -84.6713      42.2152     -82.3629      41.0666      21.6756 1533244678 9999999.9999
      67.0     408.3188       0.0000    -118.9061    -999.2500     -91.9817      34.8245     -89.6733      33.5154      27.7805 1533244679 9999999.9999
      68.0     432.1604       0.0000    -113.3923    -999.2500     -98.4887      26.9518     -96.1803      25.4716      34.2904 1533244680 9999999.9999
      69.0     462.5822       0.0000    -106.7116    -999.2500    -103.3087      18.7980    -101.0003      17.1406      40.3891 1533244681 9999999.9999
      70.0     502.2321       0.0000     -99.2335      80.1768    -105.7588      10.9253    -103.4504       9.0969      46.4878 1533244682 9999999.9999
      71.0     557.5931       0.0000     -90.6616      76.3243    -105.9998       2.6510    -103.6914       0.6428      52.5927 1533244683 9999999.9999
      72.0     641.5374       0.0000     -81.7963      79.2028    -105.8392      -5.8643    -103.5308      -8.0575      58.6976 1533244684 9999999.9999
      73.0     730.8992       0.0000     -73.9928      91.6485    -104.1522     -13.9378    -101.8438     -16.3064      64.8094 1533244685 9999999.9999
      74.0     824.2966       0.0000     -66.9972    -999.2500     -99.9347     -22.3327     -97.6263     -24.8837      70.9142 1533244686 9999999.9999
      75.0     914.3368       0.0000     -61.5673    -999.2500     -94.1105     -30.0447     -91.8021     -32.7632      77.0076 1533244687 9999999.9999
      76.0    1008.7877       0.0000     -56.9845    -999.2500     -87.5232     -37.4755     -85.2148     -40.3555      83.1063 1533244688 9999999.9999
      77.0    1166.0448       0.0000     -52.8842    -999.2500     -79.7710     -44.5850     -77.4626     -47.6195      89.2050 1533244689 9999999.9999
      78.0    1386.8344       0.0000     -48.7866    -999.2500     -70.6933     -51.3330     -68.3849     -54.5141      95.3099 1533244690 9999999.9999
      79.0    1580.0563       0.0000     -40.5051    -999.2500     -55.5505     -66.1947     -53.2421     -69.6987     101.4278 1533244691 9999999.9999
      80.0    1744.7272       0.0000     -36.0948    -999.2500     -48.3205     -76.9593     -46.0121     -80.6972     107.9069 1533244692 9999999.9999
      81.0    1900.3378       0.0000     -31.9964    -999.2500     -40.9700     -85.2738     -38.6616     -89.1924     114.0057 1533244693 9999999.9999
      82.0    2043.9680       0.0000     -27.7211    -999.2500     -33.8203     -91.8612     -31.5119     -95.9228     120.1105 1533244694 9999999.9999
      83.0    2170.1389       0.0000     -22.6180    -999.2500     -26.4297     -97.0427     -24.1213    -101.2169     126.2154 1533244695 9999999.9999
      84.0    2275.4854       0.0000     -16.7301    -999.2500     -19.2398    -100.0953     -16.9314    -104.3359     132.3147 1533244696 9999999.9999
      85.0    2351.5886       0.0000      -9.5155      77.8314     -11.6082    -101.1397      -9.2998    -105.4029     138.4074 1533244697 9999999.9999
      86.0    2441.4063       0.0000      -0.0637      74.6382      -2.3698    -101.0995      -0.0614    -105.3619     144.5255 1533244698 9999999.9999
      87.0    2484.5405       0.0000       8.6939      77.7382       6.1857    -100.7380       8.4941    -104.9925     150.6243 1533244699 9999999.9999
      88.0    2484.5405       0.0000      15.8826      91.1663      13.7772     -98.9305      16.0856    -103.1458     156.7231 1533244700 9999999.9999
      89.0    2475.7922       0.0000      21.9021    -999.2500      21.0473     -95.4360      23.3557     -99.5753     162.8158 1533244701 9999999.9999
      90.0    2484.5405       0.0000      26.9491    -999.2500      28.1568     -90.2143      30.4652     -94.2402     168.9208 1533244702 9999999.9999
      91.0    2484.5405       0.0000      31.2771    -999.2500      35.0655     -83.9082      37.3739     -87.7970     175.0196 1533244703 9999999.9999
      92.0    2493.3511       0.0000      35.2380    -999.2500      41.7733     -76.2765      44.0817     -79.9995     181.5170 1533244704 9999999.9999
      93.0    2484.5405       0.0000      39.4840    -999.2500      48.5615     -66.7972      50.8699     -70.3143     187.6159 1533244705 9999999.9999
      94.0    2493.3511       0.0000      49.4177    -999.2500      67.9620     -50.5698      70.2704     -53.7344     193.7086 1533244706 9999999.9999
      95.0    2493.3511       0.0000      53.1985    -999.2500      77.6823     -44.4243      79.9907     -47.4553     199.8074 1533244707 9999999.9999
      96.0    2484.5405       0.0000      56.9484    -999.2500      85.5952     -37.6763      87.9036     -40.5607     205.9124 1533244708 9999999.9999
      97.0    2493.3511       0.0000      61.0781    -999.2500      92.2628     -30.6873      94.5712     -33.4199     212.0173 1533244709 9999999.9999
      98.0    2475.7922       0.0000      66.2700    -999.2500      97.5648     -23.0958      99.8732     -25.6634     218.1223 1533244710 9999999.9999
      99.0    2467.1052       0.0000      72.2579    -999.2500     100.2962     -15.7855     102.6046     -18.1943     224.2150 1533244711 9999999.9999
     100.0    2484.5405       0.0000      79.7190      80.9125     101.3807      -7.9128     103.6891     -10.1505     230.3199 1533244712 9999999.9999
     101.0    2441.4063       0.0000      88.3782      75.9606     101.8225       0.4820     104.1309      -1.5733     236.4257 1533244713 9999999.9999
     102.0    2367.4243       0.0000      97.2521      77.7455     101.9028       8.9572     104.2112       7.0860     242.5245 1533244714 9999999.9999
     103.0    2282.8735       0.0000     104.9579      89.3737     100.0150      16.8298     102.3234      15.1297     248.6234 1533244715 9999999.9999
     104.0    2190.4207       0.0000     111.6172    -999.2500      95.9180      24.6222      98.2264      23.0914     255.1394 1533244716 9999999.9999
     105.0    2068.0146       0.0000     117.2238    -999.2500      90.1340      32.2940      92.4424      30.9299     261.2380 1533244717 9999999.9999
