~VERSION INFORMATION
VERS.           2.0   :CWLS Log ASCII Standard - VERSION 2.0
WRAP.           NO    :One Line per depth step
PROD.  Schlumberger   :LAS Producer
PROG.  DLIS to ASCII 19C2-270                          :LAS Program name and version
CREA.        2018/08/03 10:59                          :LAS Creation date {YYYY/MM/DD hh:mm}
DLIS_CREA.  2018-Aug-03 08:56                          :DLIS Creation date and time {YYYY-MMM-DD hh:mm}
SOURCE.     PERFO_Perfo_063PTP.DLIS                    :DLIS File Name
FILE-ID.     PERFO_Perfo_063PTP                        :File Identification Number
#--------------------------------------------------
~WELL INFORMATION
#MNEM.UNIT      DATA             DESCRIPTION
#---- ------ --------------   -----------------------------
STRT .S            0.0       :START TIME      
STOP .S          897.0       :STOP TIME      
STEP .S            1.0       :STEP     
NULL .          -999.25      :NULL VALUE
COMP .        SHELL INTERNATIONAL EP                   :COMPANY
WELL .        WPP TEST 4                               :WELL
FLD  .        WILDCAT                                  :FIELD
LOC  .        NA                                       :LOCATION
CNTY .        HARRIS                                   :COUNTY
STAT .        TEXAS                                    :STATE
CTRY .                                                 :COUNTRY
API  .        NA                                       :API NUMBER
UWI  .                                                 :UNIQUE WELL ID
DATE .        02-Aug-2018                              :LOG DATE {DD-MMM-YYYY}
SRVC .        Schlumberger                             :SERVICE COMPANY
LATI .DEG                                              :LATITUDE
LONG .DEG                                              :LONGITUDE
GDAT .                                                 :GeoDetic Datum
SECT .        NA                                       :Section
RANG .        NA                                       :Range
TOWN .        NA                                       :Township
#-----------------------------------------------------------------------------
~PARAMETER INFORMATION
#MNEM.UNIT    VALUE                      DESCRIPTION
#---- -----   --------------------       ------------------------
U-PHASE_B_COMP_PER_YT.                 0 :Phase B Comparator Period Yt
U-PHASE_A_COMP_PER_XT.                 0 :Phase A Comparator Period Xt
U-MAX_EXC_CUR_LIMIT.MA       265.00000   :Requested CM Current Limit
U-REQ_EXC_FQ.HZ              50          :Requested CM Frequency
U-TILT_Y_OFFSET.          -2.06578       :WPTET Tilt Y Offset
U-TILT_Y_GAIN.           1.02173         :WPTET Tilt Y Gain
U-TILT_X_OFFSET.           2.30841       :WPTET Tilt X Offset
U-TILT_X_GAIN.           1.00000         :WPTET Tilt X Gain
U-TILT_OFFSET_TOL.           0.00100     :WPTET Tilt Offset Calibration Tolerance
U-MOT_CUR_LIMIT_REQ.MA        70.00000   :Requested Motor Current Limit
U-MOT_SPD_REQ_WPMS.RPM        1.00000    :Requested Motor Speed
U-STD_TOL_TILT.           0.01000        :Tilt Standard Deviation Tolerance
CWEI .LB/F      29.00000                 :Casing Weight
CSIZ .IN         7.00000                 :Current Casing Size
LCC  .               440                 :Logging Company Code
LUN  .              2134                 :Logging Unit Number
HIDE .                                   :Header Identifier
HID1 .                                   :Header Identifier Line 1
R1   .                                   :Remark Line 1
WITN .        MR. KELLY McCOY            :Witness's Name
ENGI .        MORRIS MOORE               :Engineer's Name
LUL  .        IOWA COLONY                :Logging Unit Location
DATE .        02-Aug-2018                :Date as Month-Day-Year
STAT .        TEXAS                      :State or Province
COUN .        HARRIS                     :County or Rig Name
FN   .        WILDCAT                    :Field Name
WN   .        WPP TEST 4                 :Well Name
CN   .        SHELL INTERNATIONAL EP     :Company Name
CLAB .        County                     :County/Rig Label
SLAB .        State                      :State/Province Label
RUN  .          1                        :RUN NUMBER
PDAT .        GROUND LEVEL               :Permanent Datum
EPD  .                                   :Elevation of Permanent Datum above Mean Sea Level
LMF  .          NA                       :Logging Measured From (Name of Logging Elevation Reference)
APD  .                                   :Elevation of Depth Reference (LMF) above Permanent Datum
#-----------------------------------------------------------------------------
~CURVE INFORMATION
#MNEM.UNIT   API CODE                                  DESCRIPTION
#---- -----  --------                                  -----------------------
TIME .S                                                :TIME {F10.1}
FREQ_EMF_SL.HZ                                         :Electromagnetic Field Frequency {F13.4}
PH_SH_WPPCM_SL.DEG                                     :WPPCM Phase Shift {F13.4}
RB_SL.DEG                                              :Relative Bearing {F13.4}
SDEV_SL.DEG                                            :Sonde Deviation {F13.4}
RTIX_SL.DEG                                            :Raw X-axis Tilt {F13.4}
RTIY_SL.DEG                                            :Raw Y-axis Tilt {F13.4}
TILX_SL.DEG                                            :X-axis Tilt {F13.4}
TILY_SL.DEG                                            :Y-axis Tilt {F13.4}
ROTA_SL.DEG                                            :Motor Rotation Angle {F13.4}
TOD7 .S                                                :Time of Day {I11}
TOJ  .S                                                :Time of Job {F13.4}
#-----------------------------------------------------------------------------
# 
#     TIME    FREQ_EMF_SL  PH_SH_WPPCM_    RB_SL       SDEV_SL      RTIX_SL      RTIY_SL      TILX_SL      TILY_SL      ROTA_SL        TOD7            TOJ
#                          SL
~A  
# ...
     265.0       0.0000       0.0000     106.9020      86.8201      97.4042      19.0792      99.7126      17.4279       3.7451 1533231220 9999999.9999
     266.0       0.0000       0.0000     113.1672    -999.2500      92.8653      26.7108      95.1737      25.2254       9.8438 1533231221 9999999.9999
     267.0       0.0000       0.0000     118.4048    -999.2500      86.9608      34.0613      89.2692      32.7356      15.9487 1533231222 9999999.9999
     268.0       0.0000       0.0000     123.1186    -999.2500      79.7308      41.4118      82.0392      40.2458      22.4593 1533231223 9999999.9999
     269.0       0.0000       0.0000     127.6600    -999.2500      70.8942      48.6418      73.2026      47.6329      28.5581 1533231224 9999999.9999
     270.0       0.0000       0.0000     133.1713    -999.2500      57.1170      54.7472      59.4254      53.8709      34.6629 1533231225 9999999.9999
     271.0       0.0000       0.0000     140.7272    -999.2500      49.0837      73.3443      51.3921      72.8721      40.7811 1533231226 9999999.9999
     272.0    1397.8628       0.0000     144.5650    -999.2500      42.4562      82.0203      44.7646      81.7366      46.8087 1533231227 9999999.9999
     273.0    1344.4073       0.0000     148.5063    -999.2500      35.4672      89.2102      37.7756      89.0827      52.9082 1533231228 9999999.9999
     274.0    1290.1376       0.0000     153.4790    -999.2500      27.4338      96.1992      29.7422      96.2235      59.0131 1533231229 9999999.9999
     275.0    1242.2703       0.0000     159.2190    -999.2500      19.5210     101.3807      21.8294     101.5176      65.1179 1533231230 9999999.9999
     276.0    1201.9231       0.0000     165.8687      87.4826      11.8090     104.1522      14.1174     104.3493      71.2297 1533231231 9999999.9999
     277.0    1160.2722       0.0000     174.0618      76.0599       3.4543     104.9153       5.7627     105.1291      77.3161 1533231232 9999999.9999
     278.0    1123.2029       0.0000    -177.3558      74.8067      -4.8602     105.1965      -2.5518     105.4163      83.4343 1533231233 9999999.9999
     279.0    1098.6328       0.0000    -169.1983      80.9424     -12.9738     103.8710     -10.6654     104.0620      89.5524 1533231234 9999999.9999
     280.0    1075.1146       0.0000    -161.9373      84.5005     -21.0473      99.8142     -18.7389      99.9171      96.0560 1533231235 9999999.9999
     281.0    1052.5823       0.0000    -155.5547    -999.2500     -29.2815      93.8293     -26.9731      93.8022     102.1609 1533231236 9999999.9999
     282.0    1032.4890       0.0000    -150.3204    -999.2500     -36.9935      87.0412     -34.6851      86.8665     108.2657 1533231237 9999999.9999
     283.0    1023.4716       0.0000    -145.6060    -999.2500     -44.5047      79.2087     -42.1963      78.8639     114.3645 1533231238 9999999.9999
     284.0    1010.2371       0.0000    -141.0234    -999.2500     -51.6945      70.2917     -49.3861      69.7531     120.4693 1533231239 9999999.9999
     285.0    1005.9013       0.0000    -132.5723    -999.2500     -65.5922      55.9923     -63.2838      55.1431     126.5680 1533231240 9999999.9999
     286.0    1000.1779       0.0000    -127.8633    -999.2500     -75.4732      49.0837     -73.1647      48.0843     132.6860 1533231241 9999999.9999
     287.0    1007.3424       0.0000    -123.6654    -999.2500     -83.7073      42.3357     -81.3989      41.1897     138.7849 1533231242 9999999.9999
     288.0    1011.6906       0.0000    -119.0688    -999.2500     -91.0177      35.0655     -88.7093      33.7616     144.8837 1533231243 9999999.9999
     289.0    1020.5007       0.0000    -113.6876    -999.2500     -97.1230      27.3937     -94.8146      25.9231     150.9886 1533231244 9999999.9999
     290.0    1035.5303       0.0000    -107.4451    -999.2500    -102.0233      19.6817     -99.7149      18.0435     157.0936 1533231245 9999999.9999
     291.0    1054.1604       0.0000    -100.0295      83.2236    -104.3932      11.7688    -102.0848       9.9588     163.1924 1533231246 9999999.9999
     292.0    1073.4733       0.0000     -91.6660      77.7046    -104.7145       3.6150    -102.4061       1.6278     169.7024 1533231247 9999999.9999
     293.0    1103.8069       0.0000     -82.9863      80.0846    -104.4333      -4.7397    -102.1249      -6.9084     175.8073 1533231248 9999999.9999
     294.0    1134.0725       0.0000     -75.1621      92.3006    -103.2685     -12.7328    -100.9601     -15.0753     181.9062 1533231249 9999999.9999
     295.0    1164.1143       0.0000     -68.4881    -999.2500     -99.9347     -20.4850     -97.6263     -22.9959     188.0050 1533231250 9999999.9999
     296.0    1203.9811       0.0000     -62.8710    -999.2500     -94.6327     -28.1167     -92.3242     -30.7933     194.1038 1533231251 9999999.9999
     297.0    1240.0793       0.0000     -58.1604    -999.2500     -88.0453     -35.4270     -85.7369     -38.2625     200.2026 1533231252 9999999.9999
     298.0    1294.8895       0.0000     -53.8378    -999.2500     -80.3735     -42.6570     -78.0651     -45.6496     206.3015 1533231253 9999999.9999
     299.0    1341.8416       0.0000     -49.5307    -999.2500     -71.0548     -49.5255     -68.7464     -52.6673     212.4134 1533231254 9999999.9999
     300.0    1403.4431       0.0000     -42.3896    -999.2500     -55.5505     -58.0408     -53.2421     -61.3677     218.1134 1533231255 9999999.9999
     301.0    1449.7422       0.0000     -36.0748    -999.2500     -47.9590     -75.2723     -45.6506     -78.9736     224.2061 1533231256 9999999.9999
     302.0    1512.0968       0.0000     -31.9956    -999.2500     -40.9298     -83.6270     -38.6214     -87.5098     230.3049 1533231257 9999999.9999
     303.0    1565.9799       0.0000     -27.7902    -999.2500     -34.0212     -90.0938     -31.7128     -94.1171     236.3914 1533231258 9999999.9999
     304.0    1623.8453       0.0000     -22.8078    -999.2500     -26.8313     -95.1147     -24.5229     -99.2470     242.5097 1533231259 9999999.9999
     305.0    1678.1025       0.0000     -16.9952    -999.2500     -19.6817     -98.1272     -17.3733    -102.3250     249.0196 1533231260 9999999.9999
     306.0    1736.1111       0.0000      -9.9642      81.8311     -12.1705     -98.6493      -9.8621    -102.8585     255.1315 1533231261 9999999.9999
     307.0    1775.5682       0.0000      -1.4262      76.5177      -3.6953     -99.3322      -1.3869    -103.5562     261.2362 1533231262 9999999.9999
     308.0    1821.5673       0.0000       7.3025      79.0393       4.8602     -98.9305       7.1686    -103.1458     267.3540 1533231263 9999999.9999
     309.0    1860.1190       0.0000      14.5140      94.3404      12.3713     -97.6050      14.6797    -101.7915     273.4281 1533231264 9999999.9999
     310.0    1897.7733       0.0000      20.7472    -999.2500      19.7017     -94.2611      22.0102     -98.3749     279.5267 1533231265 9999999.9999
     311.0    1921.1066       0.0000      25.9714    -999.2500      26.7912     -89.2503      29.0996     -93.2553     285.6314 1533231266 9999999.9999
     312.0    1947.7146       0.0000      30.3408    -999.2500      33.4588     -83.1048      35.7672     -86.9762     291.7239 1533231267 9999999.9999
     313.0    1958.5656       0.0000      34.4180    -999.2500      40.0462     -75.7945      42.3546     -79.5071     297.8225 1533231268 9999999.9999
     314.0    1975.0703       0.0000      38.6382    -999.2500      46.5130     -66.7972      48.8214     -70.3143     303.9211 1533231269 9999999.9999
     315.0    1975.0703       0.0000      48.9626    -999.2500      66.1545     -50.8912      68.4629     -54.0627     310.0258 1533231270 9999999.9999
     316.0    1969.5378       0.0000      53.2113    -999.2500      75.6740     -43.9825      77.9824     -47.0039     316.1183 1533231271 9999999.9999
     317.0    1969.5378       0.0000      57.0359    -999.2500      83.7475     -37.4353      86.0559     -40.3145     322.6219 1533231272 9999999.9999
