~VERSION INFORMATION
VERS.           2.0   :CWLS Log ASCII Standard - VERSION 2.0
WRAP.           NO    :One Line per depth step
PROD.  Schlumberger   :LAS Producer
PROG.  DLIS to ASCII 19C2-270                          :LAS Program name and version
CREA.        2018/08/03 10:59                          :LAS Creation date {YYYY/MM/DD hh:mm}
DLIS_CREA.  2018-Aug-03 09:39                          :DLIS Creation date and time {YYYY-MMM-DD hh:mm}
SOURCE.     PERFO_Perfo_081PTP.DLIS                    :DLIS File Name
FILE-ID.     PERFO_Perfo_081PTP                        :File Identification Number
#--------------------------------------------------
~WELL INFORMATION
#MNEM.UNIT      DATA             DESCRIPTION
#---- ------ --------------   -----------------------------
STRT .S            0.0       :START TIME      
STOP .S          383.0       :STOP TIME      
STEP .S            1.0       :STEP     
NULL .          -999.25      :NULL VALUE
COMP .        SHELL INTERNATIONAL EP                   :COMPANY
WELL .        WPP TEST 4                               :WELL
FLD  .        WILDCAT                                  :FIELD
LOC  .        NA                                       :LOCATION
CNTY .        HARRIS                                   :COUNTY
STAT .        TEXAS                                    :STATE
CTRY .                                                 :COUNTRY
API  .        NA                                       :API NUMBER
UWI  .                                                 :UNIQUE WELL ID
DATE .        02-Aug-2018                              :LOG DATE {DD-MMM-YYYY}
SRVC .        Schlumberger                             :SERVICE COMPANY
LATI .DEG                                              :LATITUDE
LONG .DEG                                              :LONGITUDE
GDAT .                                                 :GeoDetic Datum
SECT .        NA                                       :Section
RANG .        NA                                       :Range
TOWN .        NA                                       :Township
#-----------------------------------------------------------------------------
~PARAMETER INFORMATION
#MNEM.UNIT    VALUE                      DESCRIPTION
#---- -----   --------------------       ------------------------
U-PHASE_B_COMP_PER_YT.                 0 :Phase B Comparator Period Yt
U-PHASE_A_COMP_PER_XT.                 0 :Phase A Comparator Period Xt
U-MAX_EXC_CUR_LIMIT.MA       265.00000   :Requested CM Current Limit
U-REQ_EXC_FQ.HZ              50          :Requested CM Frequency
U-TILT_Y_OFFSET.          -2.06578       :WPTET Tilt Y Offset
U-TILT_Y_GAIN.           1.02173         :WPTET Tilt Y Gain
U-TILT_X_OFFSET.           2.30841       :WPTET Tilt X Offset
U-TILT_X_GAIN.           1.00000         :WPTET Tilt X Gain
U-TILT_OFFSET_TOL.           0.00100     :WPTET Tilt Offset Calibration Tolerance
U-MOT_CUR_LIMIT_REQ.MA        70.00000   :Requested Motor Current Limit
U-MOT_SPD_REQ_WPMS.RPM        1.00000    :Requested Motor Speed
U-STD_TOL_TILT.           0.01000        :Tilt Standard Deviation Tolerance
CWEI .LB/F      29.00000                 :Casing Weight
CSIZ .IN         7.00000                 :Current Casing Size
LCC  .               440                 :Logging Company Code
LUN  .              2134                 :Logging Unit Number
HIDE .                                   :Header Identifier
HID1 .                                   :Header Identifier Line 1
R1   .                                   :Remark Line 1
WITN .        MR. KELLY McCOY            :Witness's Name
ENGI .        MORRIS MOORE               :Engineer's Name
LUL  .        IOWA COLONY                :Logging Unit Location
DATE .        02-Aug-2018                :Date as Month-Day-Year
STAT .        TEXAS                      :State or Province
COUN .        HARRIS                     :County or Rig Name
FN   .        WILDCAT                    :Field Name
WN   .        WPP TEST 4                 :Well Name
CN   .        SHELL INTERNATIONAL EP     :Company Name
CLAB .        County                     :County/Rig Label
SLAB .        State                      :State/Province Label
RUN  .          1                        :RUN NUMBER
PDAT .        GROUND LEVEL               :Permanent Datum
EPD  .                                   :Elevation of Permanent Datum above Mean Sea Level
LMF  .          NA                       :Logging Measured From (Name of Logging Elevation Reference)
APD  .                                   :Elevation of Depth Reference (LMF) above Permanent Datum
#-----------------------------------------------------------------------------
~CURVE INFORMATION
#MNEM.UNIT   API CODE                                  DESCRIPTION
#---- -----  --------                                  -----------------------
TIME .S                                                :TIME {F10.1}
FREQ_EMF_SL.HZ                                         :Electromagnetic Field Frequency {F13.4}
PH_SH_WPPCM_SL.DEG                                     :WPPCM Phase Shift {F13.4}
RB_SL.DEG                                              :Relative Bearing {F13.4}
SDEV_SL.DEG                                            :Sonde Deviation {F13.4}
RTIX_SL.DEG                                            :Raw X-axis Tilt {F13.4}
RTIY_SL.DEG                                            :Raw Y-axis Tilt {F13.4}
TILX_SL.DEG                                            :X-axis Tilt {F13.4}
TILY_SL.DEG                                            :Y-axis Tilt {F13.4}
ROTA_SL.DEG                                            :Motor Rotation Angle {F13.4}
TOD7 .S                                                :Time of Day {I11}
TOJ  .S                                                :Time of Job {F13.4}
#-----------------------------------------------------------------------------
# 
#     TIME    FREQ_EMF_SL  PH_SH_WPPCM_    RB_SL       SDEV_SL      RTIX_SL      RTIY_SL      TILX_SL      TILY_SL      ROTA_SL        TOD7            TOJ
#                          SL
~A  
# ...
     106.0    2176.8577       0.0000     106.8090      96.8562      99.1313      18.8783     101.4397      17.2227     281.8685 1533245130 9999999.9999
     107.0    2061.9502       0.0000     113.3227    -999.2500      94.4720      26.8313      96.7804      25.3485     287.9801 1533245131 9999999.9999
     108.0    1958.5656       0.0000     118.6169    -999.2500      88.2462      34.3827      90.5546      33.0639     294.0787 1533245132 9999999.9999
     109.0    1835.8356       0.0000     123.3423    -999.2500      80.7752      41.9340      83.0836      40.7793     300.1835 1533245133 9999999.9999
     110.0    1710.7665       0.0000     127.7867    -999.2500      71.8983      49.2443      74.2067      48.2485     306.2882 1533245134 9999999.9999
     111.0    1572.9866       0.0000     132.8542    -999.2500      59.6073      55.7915      61.9157      54.9379     312.3999 1533245135 9999999.9999
     112.0    1426.2170       0.0000     140.5550    -999.2500      49.6862      73.7460      51.9946      73.2825     318.4985 1533245136 9999999.9999
     113.0    1237.8961       0.0000     144.3966    -999.2500      42.8980      82.6228      45.2064      82.3522     324.6032 1533245137 9999999.9999
     114.0    1116.0714       0.0000     148.3715    -999.2500      35.7082      90.1340      38.0166      90.0266     330.6955 1533245138 9999999.9999
     115.0    1040.1257       0.0000     153.0003    -999.2500      28.0765      96.8820      30.3849      96.9212     336.7941 1533245139 9999999.9999
     116.0     972.5104       0.0000     158.7361    -999.2500      20.0432     102.1037      22.3516     102.2563     342.8988 1533245140 9999999.9999
     117.0     910.7836       0.0000     165.5656      84.1824      12.0500     105.3170      14.3584     105.5395     349.0036 1533245141 9999999.9999
     118.0     860.6181       0.0000     173.7325      74.6796       3.7355     106.2810       6.0439     106.5244     355.5071 1533245142 9999999.9999
     119.0     813.8021       0.0000    -177.5066      73.5350      -4.6995     106.4015      -2.3911     106.6475       1.6057 1533245143 9999999.9999
     120.0     775.2205       0.0000    -169.4570      78.9154     -12.6525     105.0358     -10.3441     105.2522       7.7106 1533245144 9999999.9999
     121.0     744.0476       0.0000    -161.8559     108.9212     -21.0875     100.6577     -18.7791     100.7789      13.8155 1533245145 9999999.9999
     122.0     717.4745       0.0000    -155.5282    -999.2500     -29.2815      94.7532     -26.9731      94.7461      19.9143 1533245146 9999999.9999
     123.0     696.8533       0.0000    -150.1098    -999.2500     -37.3550      87.6437     -35.0466      87.4821      26.0130 1533245147 9999999.9999
     124.0     681.3227       0.0000    -145.3641    -999.2500     -45.0369      79.5300     -42.7285      79.1922      32.1179 1533245148 9999999.9999
     125.0     673.4914       0.0000    -140.6358    -999.2500     -52.5782      70.1712     -50.2698      69.6300      38.2228 1533245149 9999999.9999
     126.0     672.2037       0.0000    -132.6055    -999.2500     -65.9135      56.3137     -63.6051      55.4714      44.3221 1533245150 9999999.9999
     127.0     672.8469       0.0000    -128.2743    -999.2500     -75.3125      49.9673     -73.0041      48.9872      50.4331 1533245151 9999999.9999
     128.0     670.9208       0.0000    -124.0806    -999.2500     -83.5868      43.0988     -81.2784      41.9695      56.5257 1533245152 9999999.9999
     129.0     686.6455       0.0000    -119.6110    -999.2500     -90.9775      35.9090     -88.6691      34.6234      62.6306 1533245153 9999999.9999
     130.0     705.9488       0.0000    -114.1359    -999.2500     -97.6050      27.9560     -95.2966      26.4976      69.1343 1533245154 9999999.9999
     131.0     727.8727       0.0000    -107.6664    -999.2500    -102.8267      19.8825    -100.5182      18.2487      75.2585 1533245155 9999999.9999
     132.0     753.6174       0.0000    -100.2740      81.6523    -105.5178      11.9697    -103.2094      10.1640      81.3703 1533245156 9999999.9999
     133.0     802.6541       0.0000     -91.8440      76.3499    -106.0802       3.7757    -103.7718       1.7919      87.4690 1533245157 9999999.9999
     134.0     856.4251       0.0000     -83.0689      78.2570    -105.9195      -4.6192    -103.6111      -6.7853      93.5677 1533245158 9999999.9999
     135.0     913.1494       0.0000     -74.9853      89.9836    -104.5137     -12.8533    -102.2053     -15.1984      99.6726 1533245159 9999999.9999
     136.0     972.5104       0.0000     -68.0516    -999.2500    -100.7982     -20.9670     -98.4898     -23.4883     105.7774 1533245160 9999999.9999
     137.0    1041.6666       0.0000     -62.1739    -999.2500     -94.9942     -29.1208     -92.6858     -31.8193     111.8761 1533245161 9999999.9999
     138.0    1130.4260       0.0000     -57.5276    -999.2500     -88.3667     -36.5517     -86.0583     -39.4116     117.9810 1533245162 9999999.9999
     139.0    1271.4738       0.0000     -53.4335    -999.2500     -80.8555     -43.6210     -78.5471     -46.6345     124.0858 1533245163 9999999.9999
     140.0    1437.8834       0.0000     -49.3247    -999.2500     -71.8983     -50.4895     -69.5899     -53.6523     130.1846 1533245164 9999999.9999
     141.0    1580.0563       0.0000     -42.8255    -999.2500     -57.2777     -58.7237     -54.9693     -62.0653     136.2967 1533245165 9999999.9999
     142.0    1731.8351       0.0000     -36.5699    -999.2500     -49.1238     -75.6740     -46.8154     -79.3840     142.4017 1533245166 9999999.9999
     143.0    1855.2111       0.0000     -32.5875    -999.2500     -42.0143     -84.1492     -39.7059     -88.0433     148.9116 1533245167 9999999.9999
     144.0    1969.5378       0.0000     -28.3081    -999.2500     -34.7442     -91.2185     -32.4358     -95.2662     155.0104 1533245168 9999999.9999
     145.0    2092.6340       0.0000     -23.4282    -999.2500     -27.5142     -96.4803     -25.2058    -100.6424     161.1029 1533245169 9999999.9999
     146.0    2190.4207       0.0000     -17.5459    -999.2500     -20.1637     -99.8945     -17.8553    -104.1307     167.2017 1533245170 9999999.9999
     147.0    2282.8735       0.0000     -10.4295      78.6580     -12.5320    -101.0995     -10.2236    -105.3619     173.3067 1533245171 9999999.9999
     148.0    2367.4243       0.0000      -1.8127      74.7015      -4.0568    -101.1397      -1.7484    -105.4029     179.4055 1533245172 9999999.9999
     149.0    2441.4063       0.0000       7.6478      76.9705       5.1413    -100.8183       7.4497    -105.0746     185.5105 1533245173 9999999.9999
     150.0    2475.7922       0.0000      14.9888      91.3401      12.7730     -99.4125      15.0814    -103.6382     191.6155 1533245174 9999999.9999
     151.0    2467.1052       0.0000      21.1611    -999.2500      20.0833     -96.0787      22.3917    -100.2320     197.7020 1533245175 9999999.9999
     152.0    2493.3511       0.0000      26.3360    -999.2500      27.2330     -91.0578      29.5414     -95.1020     203.8008 1533245176 9999999.9999
     153.0    2493.3511       0.0000      30.6498    -999.2500      34.0212     -84.8320      36.3296     -88.7409     209.8812 1533245177 9999999.9999
     154.0    2493.3511       0.0000      34.7272    -999.2500      40.9298     -77.4815      43.2382     -81.2307     215.9993 1533245178 9999999.9999
     155.0    2484.5405       0.0000      38.9569    -999.2500      47.8385     -68.1628      50.1469     -71.7096     222.5161 1533245179 9999999.9999
     156.0    2493.3511       0.0000      48.2725    -999.2500      65.6323     -52.5380      67.9407     -55.7453     228.6211 1533245180 9999999.9999
     157.0       0.0000       0.0000      52.8161    -999.2500      76.7987     -45.1072      79.1071     -48.1530     234.7935 1533245181 9999999.9999
     158.0       0.0000       0.0000      56.5435    -999.2500      84.8722     -38.3993      87.1806     -41.2994     240.8923 1533245182 9999999.9999
