~VERSION INFORMATION
VERS.           2.0   :CWLS Log ASCII Standard - VERSION 2.0
WRAP.           NO    :One Line per depth step
PROD.  Schlumberger   :LAS Producer
PROG.  DLIS to ASCII 19C2-270                          :LAS Program name and version
CREA.        2018/08/03 10:59                          :LAS Creation date {YYYY/MM/DD hh:mm}
DLIS_CREA.  2018-Aug-03 08:53                          :DLIS Creation date and time {YYYY-MMM-DD hh:mm}
SOURCE.     PERFO_Perfo_062PTP.DLIS                    :DLIS File Name
FILE-ID.     PERFO_Perfo_062PTP                        :File Identification Number
#--------------------------------------------------
~WELL INFORMATION
#MNEM.UNIT      DATA             DESCRIPTION
#---- ------ --------------   -----------------------------
STRT .S            0.0       :START TIME      
STOP .S          971.0       :STOP TIME      
STEP .S            1.0       :STEP     
NULL .          -999.25      :NULL VALUE
COMP .        SHELL INTERNATIONAL EP                   :COMPANY
WELL .        WPP TEST 4                               :WELL
FLD  .        WILDCAT                                  :FIELD
LOC  .        NA                                       :LOCATION
CNTY .        HARRIS                                   :COUNTY
STAT .        TEXAS                                    :STATE
CTRY .                                                 :COUNTRY
API  .        NA                                       :API NUMBER
UWI  .                                                 :UNIQUE WELL ID
DATE .        02-Aug-2018                              :LOG DATE {DD-MMM-YYYY}
SRVC .        Schlumberger                             :SERVICE COMPANY
LATI .DEG                                              :LATITUDE
LONG .DEG                                              :LONGITUDE
GDAT .                                                 :GeoDetic Datum
SECT .        NA                                       :Section
RANG .        NA                                       :Range
TOWN .        NA                                       :Township
#-----------------------------------------------------------------------------
~PARAMETER INFORMATION
#MNEM.UNIT    VALUE                      DESCRIPTION
#---- -----   --------------------       ------------------------
U-PHASE_B_COMP_PER_YT.                 0 :Phase B Comparator Period Yt
U-PHASE_A_COMP_PER_XT.                 0 :Phase A Comparator Period Xt
U-MAX_EXC_CUR_LIMIT.MA       265.00000   :Requested CM Current Limit
U-REQ_EXC_FQ.HZ              50          :Requested CM Frequency
U-TILT_Y_OFFSET.          -2.06578       :WPTET Tilt Y Offset
U-TILT_Y_GAIN.           1.02173         :WPTET Tilt Y Gain
U-TILT_X_OFFSET.           2.30841       :WPTET Tilt X Offset
U-TILT_X_GAIN.           1.00000         :WPTET Tilt X Gain
U-TILT_OFFSET_TOL.           0.00100     :WPTET Tilt Offset Calibration Tolerance
U-MOT_CUR_LIMIT_REQ.MA        70.00000   :Requested Motor Current Limit
U-MOT_SPD_REQ_WPMS.RPM        1.00000    :Requested Motor Speed
U-STD_TOL_TILT.           0.01000        :Tilt Standard Deviation Tolerance
CWEI .LB/F      29.00000                 :Casing Weight
CSIZ .IN         7.00000                 :Current Casing Size
LCC  .               440                 :Logging Company Code
LUN  .              2134                 :Logging Unit Number
HIDE .                                   :Header Identifier
HID1 .                                   :Header Identifier Line 1
R1   .                                   :Remark Line 1
WITN .        MR. KELLY McCOY            :Witness's Name
ENGI .        MORRIS MOORE               :Engineer's Name
LUL  .        IOWA COLONY                :Logging Unit Location
DATE .        02-Aug-2018                :Date as Month-Day-Year
STAT .        TEXAS                      :State or Province
COUN .        HARRIS                     :County or Rig Name
FN   .        WILDCAT                    :Field Name
WN   .        WPP TEST 4                 :Well Name
CN   .        SHELL INTERNATIONAL EP     :Company Name
CLAB .        County                     :County/Rig Label
SLAB .        State                      :State/Province Label
RUN  .          1                        :RUN NUMBER
PDAT .        GROUND LEVEL               :Permanent Datum
EPD  .                                   :Elevation of Permanent Datum above Mean Sea Level
LMF  .          NA                       :Logging Measured From (Name of Logging Elevation Reference)
APD  .                                   :Elevation of Depth Reference (LMF) above Permanent Datum
#-----------------------------------------------------------------------------
~CURVE INFORMATION
#MNEM.UNIT   API CODE                                  DESCRIPTION
#---- -----  --------                                  -----------------------
TIME .S                                                :TIME {F10.1}
FREQ_EMF_SL.HZ                                         :Electromagnetic Field Frequency {F13.4}
PH_SH_WPPCM_SL.DEG                                     :WPPCM Phase Shift {F13.4}
RB_SL.DEG                                              :Relative Bearing {F13.4}
SDEV_SL.DEG                                            :Sonde Deviation {F13.4}
RTIX_SL.DEG                                            :Raw X-axis Tilt {F13.4}
RTIY_SL.DEG                                            :Raw Y-axis Tilt {F13.4}
TILX_SL.DEG                                            :X-axis Tilt {F13.4}
TILY_SL.DEG                                            :Y-axis Tilt {F13.4}
ROTA_SL.DEG                                            :Motor Rotation Angle {F13.4}
TOD7 .S                                                :Time of Day {I11}
TOJ  .S                                                :Time of Job {F13.4}
#-----------------------------------------------------------------------------
# 
#     TIME    FREQ_EMF_SL  PH_SH_WPPCM_    RB_SL       SDEV_SL      RTIX_SL      RTIY_SL      TILX_SL      TILY_SL      ROTA_SL        TOD7            TOJ
#                          SL
~A  
# ...
     901.0    1397.8628       0.0000     -77.7776      86.6389    -104.0718      -9.9613    -101.7634     -12.2435     153.1160 1533230817 9999999.9999
     902.0    1365.2913       0.0000     -70.8943    -999.2500    -101.4208     -17.5528     -99.1124     -20.0000     159.2218 1533230818 9999999.9999
     903.0    1344.4073       0.0000     -64.5582    -999.2500     -96.3197     -25.7067     -94.0113     -28.3310     165.3268 1533230819 9999999.9999
     904.0    1326.6509       0.0000     -59.4837    -999.2500     -90.1742     -33.2982     -87.8658     -36.0874     171.4256 1533230820 9999999.9999
     905.0    1306.9238       0.0000     -55.2425    -999.2500     -83.0647     -40.2872     -80.7563     -43.2283     177.5244 1533230821 9999999.9999
     906.0    1292.5093       0.0000     -51.1457    -999.2500     -74.7100     -47.0753     -72.4016     -50.1639     183.6294 1533230822 9999999.9999
     907.0    1271.4738       0.0000     -46.4803    -999.2500     -64.1060     -53.5823     -61.7976     -56.8123     189.7343 1533230823 9999999.9999
     908.0    1251.1122       0.0000     -37.6090    -999.2500     -50.4493     -71.5770     -48.1409     -75.1979     195.8332 1533230824 9999999.9999
     909.0    1244.4691       0.0000     -33.5791    -999.2500     -43.6612     -80.5743     -41.3528     -84.3908     202.3431 1533230825 9999999.9999
     910.0    1231.3923       0.0000     -29.4290    -999.2500     -36.6320     -87.8043     -34.3236     -91.7779     208.4481 1533230826 9999999.9999
     911.0    1224.9564       0.0000     -24.7356    -999.2500     -29.4823     -93.4678     -27.1739     -97.5644     214.5469 1533230827 9999999.9999
     912.0    1216.4792       0.0000     -19.2588    -999.2500     -22.3327     -97.2837     -20.0243    -101.4631     220.6457 1533230828 9999999.9999
     913.0    1208.1185       0.0000     -12.7714      87.0385     -15.0625     -98.8903     -12.7541    -103.1047     226.7637 1533230829 9999999.9999
     914.0    1210.1979       0.0000      -4.5905      77.4058      -6.7882     -99.1715      -4.4798    -103.3920     232.8687 1533230830 9999999.9999
     915.0    1208.1185       0.0000       4.7900      77.6114       2.3698     -99.0510       4.6782    -103.2689     238.9683 1533230831 9999999.9999
     916.0    1206.0464       0.0000      12.5002      86.7589      10.2023     -98.0870      12.5107    -102.2839     245.0672 1533230832 9999999.9999
     917.0    1214.3783       0.0000      18.8116    -999.2500      17.3118     -95.5565      19.6202     -99.6984     251.1721 1533230833 9999999.9999
     918.0    1218.5875       0.0000      24.1583    -999.2500      24.2205     -91.2185      26.5289     -95.2662     257.2646 1533230834 9999999.9999
     919.0    1229.2395       0.0000      28.7024    -999.2500      30.8882     -85.5148      33.1966     -89.4386     263.3763 1533230835 9999999.9999
     920.0    1235.7206       0.0000      32.8093    -999.2500      37.4353     -78.8472      39.7437     -82.6261     269.4626 1533230836 9999999.9999
     921.0    1240.0793       0.0000      37.0012    -999.2500      44.0628     -70.2515      46.3712     -73.8436     275.9661 1533230837 9999999.9999
     922.0    1266.8918       0.0000      41.9664    -999.2500      50.0477     -58.3622      52.3561     -61.6960     282.0647 1533230838 9999999.9999
     923.0    1278.4092       0.0000      51.7640    -999.2500      72.1393     -46.3122      74.4477     -49.3842     288.1633 1533230839 9999999.9999
     924.0    1294.8895       0.0000      55.5566    -999.2500      80.6948     -39.9658      83.0032     -42.9000     294.2813 1533230840 9999999.9999
     925.0    1314.2523       0.0000      59.4764    -999.2500      87.8445     -33.3383      90.1529     -36.1285     300.3861 1533230841 9999999.9999
     926.0    1331.6761       0.0000      63.9988    -999.2500      93.5080     -26.3895      95.8164     -29.0287     306.4847 1533230842 9999999.9999
     927.0    1362.6454       0.0000      69.6880    -999.2500      97.4443     -18.9185      99.7527     -21.3953     312.5833 1533230843 9999999.9999
     928.0    1381.3850       0.0000      75.8540    -999.2500      99.2518     -11.9697     101.5602     -14.2955     318.6880 1533230844 9999999.9999
     929.0    1409.0682       0.0000      84.6770      79.0481      99.8543      -3.0928     102.1627      -5.2258     324.7928 1533230845 9999999.9999
     930.0    1434.9490       0.0000      93.6784      77.9778     100.2560       5.5430     102.5644       3.5977     330.8924 1533230846 9999999.9999
     931.0    1461.7983       0.0000     101.6496      87.8625      99.5330      13.4157     101.8414      11.6414     336.9918 1533230847 9999999.9999
     932.0    1499.2004       0.0000     108.5760    -999.2500      96.4803      21.0072      98.7887      19.3978     343.0971 1533230848 9999999.9999
     933.0    1521.9155       0.0000     114.3992    -999.2500      91.5800      28.3577      93.8884      26.9080     349.6068 1533230849 9999999.9999
     934.0    1548.7335       0.0000     119.4962    -999.2500      85.3943      35.7082      87.7027      34.4182     355.7054 1533230850 9999999.9999
     935.0    1580.0563       0.0000     124.0896    -999.2500      78.0037      42.9783      80.3121      41.8464       1.8102 1533230851 9999999.9999
     936.0    1605.3082       0.0000     128.7100    -999.2500      68.6047      50.2083      70.9131      49.2334       7.9150 1533230852 9999999.9999
     937.0    1635.1744       0.0000     137.5551    -999.2500      53.7832      65.7930      56.0916      65.1567      13.9893 1533230853 9999999.9999
     938.0    1658.3137       0.0000     141.6061    -999.2500      47.6377      75.4330      49.9461      75.0062      20.0880 1533230854 9999999.9999
     939.0    1686.1511       0.0000     145.6754    -999.2500      40.4478      84.1090      42.7562      83.8707      26.1929 1533230855 9999999.9999
     940.0    1702.4818       0.0000     149.7853    -999.2500      33.2982      91.3390      35.6066      91.2578      32.3115 1533230856 9999999.9999
     941.0    1714.9390       0.0000     154.6151    -999.2500      25.7468      97.5648      28.0552      97.6189      38.4102 1533230857 9999999.9999
     942.0    1719.1321       0.0000     160.6170    -999.2500      17.7938     102.1840      20.1022     102.3384      44.5089 1533230858 9999999.9999
     943.0    1736.1111       0.0000     167.5325      82.1923      10.0417     104.4735      12.3501     104.6776      50.6138 1533230859 9999999.9999
     944.0    1731.8351       0.0000     175.9543      75.4097       1.6067     104.9153       3.9151     105.1291      56.7064 1533230860 9999999.9999
     945.0    1736.1111       0.0000    -175.5365      75.4007      -6.6275     105.0358      -4.3191     105.2522      63.2101 1533230861 9999999.9999
     946.0    1731.8351       0.0000    -167.5608      85.0751     -14.7010     103.1882     -12.3926     103.3644      69.3149 1533230862 9999999.9999
     947.0    1719.1321       0.0000    -160.4253    -999.2500     -22.8950      98.4887     -20.5866      98.5628      75.4198 1533230863 9999999.9999
     948.0    1710.7665       0.0000    -154.4147    -999.2500     -30.8882      92.4637     -28.5798      92.4069      81.5185 1533230864 9999999.9999
     949.0    1698.3695       0.0000    -149.2613    -999.2500     -38.6403      85.2738     -36.3319      85.0608      87.6172 1533230865 9999999.9999
     950.0    1674.1072       0.0000    -144.6034    -999.2500     -46.1113      77.3208     -43.8029      76.9350      93.7227 1533230866 9999999.9999
     951.0    1646.6628       0.0000    -139.5861    -999.2500     -53.7430      67.2792     -51.4346      66.6752      99.8275 1533230867 9999999.9999
     952.0    1623.8453       0.0000    -131.3992    -999.2500     -68.0022      54.3455     -65.6938      53.4605     105.9393 1533230868 9999999.9999
     953.0    1605.3082       0.0000    -126.8093    -999.2500     -77.5618      47.3967     -75.2534      46.3607     112.0380 1533230869 9999999.9999
