~VERSION INFORMATION
VERS.           2.0   :CWLS Log ASCII Standard - VERSION 2.0
WRAP.           NO    :One Line per depth step
PROD.  Schlumberger   :LAS Producer
PROG.  DLIS to ASCII 19C2-270                          :LAS Program name and version
CREA.        2018/08/03 10:59                          :LAS Creation date {YYYY/MM/DD hh:mm}
DLIS_CREA.  2018-Aug-03 09:35                          :DLIS Creation date and time {YYYY-MMM-DD hh:mm}
SOURCE.     PERFO_Perfo_079PTP.DLIS                    :DLIS File Name
FILE-ID.     PERFO_Perfo_079PTP                        :File Identification Number
#--------------------------------------------------
~WELL INFORMATION
#MNEM.UNIT      DATA             DESCRIPTION
#---- ------ --------------   -----------------------------
STRT .S            0.0       :START TIME      
STOP .S          455.0       :STOP TIME      
STEP .S            1.0       :STEP     
NULL .          -999.25      :NULL VALUE
COMP .        SHELL INTERNATIONAL EP                   :COMPANY
WELL .        WPP TEST 4                               :WELL
FLD  .        WILDCAT                                  :FIELD
LOC  .        NA                                       :LOCATION
CNTY .        HARRIS                                   :COUNTY
STAT .        TEXAS                                    :STATE
CTRY .                                                 :COUNTRY
API  .        NA                                       :API NUMBER
UWI  .                                                 :UNIQUE WELL ID
DATE .        02-Aug-2018                              :LOG DATE {DD-MMM-YYYY}
SRVC .        Schlumberger                             :SERVICE COMPANY
LATI .DEG                                              :LATITUDE
LONG .DEG                                              :LONGITUDE
GDAT .                                                 :GeoDetic Datum
SECT .        NA                                       :Section
RANG .        NA                                       :Range
TOWN .        NA                                       :Township
#-----------------------------------------------------------------------------
~PARAMETER INFORMATION
#MNEM.UNIT    VALUE                      DESCRIPTION
#---- -----   --------------------       ------------------------
U-PHASE_B_COMP_PER_YT.                 0 :Phase B Comparator Period Yt
U-PHASE_A_COMP_PER_XT.                 0 :Phase A Comparator Period Xt
U-MAX_EXC_CUR_LIMIT.MA       265.00000   :Requested CM Current Limit
U-REQ_EXC_FQ.HZ              50          :Requested CM Frequency
U-TILT_Y_OFFSET.          -2.06578       :WPTET Tilt Y Offset
U-TILT_Y_GAIN.           1.02173         :WPTET Tilt Y Gain
U-TILT_X_OFFSET.           2.30841       :WPTET Tilt X Offset
U-TILT_X_GAIN.           1.00000         :WPTET Tilt X Gain
U-TILT_OFFSET_TOL.           0.00100     :WPTET Tilt Offset Calibration Tolerance
U-MOT_CUR_LIMIT_REQ.MA        70.00000   :Requested Motor Current Limit
U-MOT_SPD_REQ_WPMS.RPM        1.00000    :Requested Motor Speed
U-STD_TOL_TILT.           0.01000        :Tilt Standard Deviation Tolerance
CWEI .LB/F      29.00000                 :Casing Weight
CSIZ .IN         7.00000                 :Current Casing Size
LCC  .               440                 :Logging Company Code
LUN  .              2134                 :Logging Unit Number
HIDE .                                   :Header Identifier
HID1 .                                   :Header Identifier Line 1
R1   .                                   :Remark Line 1
WITN .        MR. KELLY McCOY            :Witness's Name
ENGI .        MORRIS MOORE               :Engineer's Name
LUL  .        IOWA COLONY                :Logging Unit Location
DATE .        02-Aug-2018                :Date as Month-Day-Year
STAT .        TEXAS                      :State or Province
COUN .        HARRIS                     :County or Rig Name
FN   .        WILDCAT                    :Field Name
WN   .        WPP TEST 4                 :Well Name
CN   .        SHELL INTERNATIONAL EP     :Company Name
CLAB .        County                     :County/Rig Label
SLAB .        State                      :State/Province Label
RUN  .          1                        :RUN NUMBER
PDAT .        GROUND LEVEL               :Permanent Datum
EPD  .                                   :Elevation of Permanent Datum above Mean Sea Level
LMF  .          NA                       :Logging Measured From (Name of Logging Elevation Reference)
APD  .                                   :Elevation of Depth Reference (LMF) above Permanent Datum
#-----------------------------------------------------------------------------
~CURVE INFORMATION
#MNEM.UNIT   API CODE                                  DESCRIPTION
#---- -----  --------                                  -----------------------
TIME .S                                                :TIME {F10.1}
FREQ_EMF_SL.HZ                                         :Electromagnetic Field Frequency {F13.4}
PH_SH_WPPCM_SL.DEG                                     :WPPCM Phase Shift {F13.4}
RB_SL.DEG                                              :Relative Bearing {F13.4}
SDEV_SL.DEG                                            :Sonde Deviation {F13.4}
RTIX_SL.DEG                                            :Raw X-axis Tilt {F13.4}
RTIY_SL.DEG                                            :Raw Y-axis Tilt {F13.4}
TILX_SL.DEG                                            :X-axis Tilt {F13.4}
TILY_SL.DEG                                            :Y-axis Tilt {F13.4}
ROTA_SL.DEG                                            :Motor Rotation Angle {F13.4}
TOD7 .S                                                :Time of Day {I11}
TOJ  .S                                                :Time of Job {F13.4}
#-----------------------------------------------------------------------------
# 
#     TIME    FREQ_EMF_SL  PH_SH_WPPCM_    RB_SL       SDEV_SL      RTIX_SL      RTIY_SL      TILX_SL      TILY_SL      ROTA_SL        TOD7            TOJ
#                          SL
~A  
# ...
     265.0       0.0000       0.0000      69.4293    -999.2500      99.4125     -19.0792     101.7209     -21.5595     196.8821 1533244354 9999999.9999
     266.0       0.0000       0.0000      75.4548      83.7658     101.0192     -12.2910     103.3276     -14.6238     202.9809 1533244355 9999999.9999
     267.0       0.0000       0.0000      83.9733      77.4624     101.5815      -3.7355     103.8899      -5.8824     209.0797 1533244356 9999999.9999
     268.0       0.0000       0.0000      93.6207      76.1655     101.9832       5.4627     104.2916       3.5156     215.1847 1533244357 9999999.9999
     269.0       0.0000       0.0000     100.8071      81.8806     101.1798      12.4918     103.4882      10.6975     221.2897 1533244358 9999999.9999
     270.0       0.0000       0.0000     109.1652    -999.2500      97.7255      21.6097     100.0339      20.0134     227.3885 1533244359 9999999.9999
     271.0       0.0000       0.0000     115.3730    -999.2500      92.0620      29.6430      94.3704      28.2213     233.4873 1533244360 9999999.9999
     272.0       0.0000       0.0000     120.0682    -999.2500      86.1977      36.6320      88.5061      35.3621     239.5923 1533244361 9999999.9999
     273.0       0.0000       0.0000     125.4170    -999.2500      76.6782      45.3482      78.9866      44.2677     245.6860 1533244362 9999999.9999
     274.0       0.0000       0.0000     128.9505    -999.2500      69.2072      51.0117      71.5156      50.0542     251.7979 1533244363 9999999.9999
     275.0       0.0000       0.0000     136.9026    -999.2500      54.7873      64.4675      57.0957      63.8024     257.8966 1533244364 9999999.9999
     276.0       0.0000       0.0000     141.0166    -999.2500      49.0435      75.2322      51.3519      74.8010     264.4124 1533244365 9999999.9999
     277.0       0.0000       0.0000     145.2005    -999.2500      41.4118      84.1893      43.7202      83.9528     270.5110 1533244366 9999999.9999
     278.0       0.0000       0.0000     149.8197    -999.2500      33.2178      92.3833      35.5262      92.3248     276.6096 1533244367 9999999.9999
     279.0       0.0000       0.0000     154.2213    -999.2500      26.2288      98.3682      28.5372      98.4397     282.7144 1533244368 9999999.9999
     280.0       0.0000       0.0000     160.4747    -999.2500      17.8742     103.1882      20.1826     103.3644     288.8191 1533244369 9999999.9999
     281.0       0.0000       0.0000     167.5781      79.9817       9.9212     105.6785      12.2296     105.9088     294.9308 1533244370 9999999.9999
     282.0       0.0000       0.0000     176.5099      73.8803       1.0443     106.2408       3.3527     106.4834     300.6375 1533244371 9999999.9999
     283.0       0.0000       0.0000    -174.9713      74.3253      -7.1497     106.2007      -4.8413     106.4423     306.7361 1533244372 9999999.9999
     284.0       0.0000       0.0000    -167.7780      82.3451     -14.4198     104.1923     -12.1114     104.3904     312.8539 1533244373 9999999.9999
     285.0       0.0000       0.0000    -160.7250    -999.2500     -22.4532      99.8945     -20.1448      99.9991     318.9525 1533244374 9999999.9999
     286.0       0.0000       0.0000    -153.8112    -999.2500     -31.7317      92.7850     -29.4233      92.7352     325.0511 1533244375 9999999.9999
     287.0       0.0000       0.0000    -148.8926    -999.2500     -39.2830      85.5952     -36.9746      85.3891     331.1558 1533244376 9999999.9999
     288.0       0.0000       0.0000    -144.0696    -999.2500     -47.1557      77.0798     -44.8473      76.6888     337.6655 1533244377 9999999.9999
     289.0       0.0000       0.0000    -139.5101    -999.2500     -54.2250      67.8013     -51.9166      67.2087     343.7641 1533244378 9999999.9999
     290.0       0.0000       0.0000    -131.6255    -999.2500     -68.1227      55.0283     -65.8143      54.1582     349.8688 1533244379 9999999.9999
     291.0       0.0000       0.0000    -127.1333    -999.2500     -77.6422      48.1197     -75.3338      47.0994     355.9736 1533244380 9999999.9999
     292.0       0.0000       0.0000    -123.1757    -999.2500     -85.2337      41.6127     -82.9253      40.4510       2.0722 1533244381 9999999.9999
     293.0       0.0000       0.0000    -118.4565    -999.2500     -92.5440      34.1417     -90.2356      32.8177       8.1585 1533244382 9999999.9999
     294.0       0.0000       0.0000    -112.4126    -999.2500     -99.4125      25.6665     -97.1041      24.1584      14.2634 1533244383 9999999.9999
     295.0       0.0000       0.0000    -105.9582    -999.2500    -103.7103      17.9545    -101.4019      16.2788      20.3683 1533244384 9999999.9999
     296.0       0.0000       0.0000     -97.8032      79.0598    -105.7187       9.5195    -103.4103       7.6606      26.4670 1533244385 9999999.9999
     297.0       0.0000       0.0000     -89.1830      76.2520    -106.0802       1.2452    -103.7718      -0.7936      32.5658 1533244386 9999999.9999
     298.0       0.0000       0.0000     -80.2128      80.7283    -105.7588      -7.4308    -103.4504      -9.6581      38.6707 1533244387 9999999.9999
     299.0       0.0000       0.0000     -72.5899      83.0395    -103.6300     -15.5043    -101.3216     -17.9070      44.7888 1533244388 9999999.9999
     300.0       0.0000       0.0000     -66.4846    -999.2500     -99.4125     -23.0155     -97.1041     -25.5813      51.2802 1533244389 9999999.9999
     301.0       0.0000       0.0000     -61.0979    -999.2500     -93.4678     -30.7677     -91.1594     -33.5019      57.3851 1533244390 9999999.9999
     302.0       0.0000       0.0000     -56.4659    -999.2500     -86.5993     -38.3592     -84.2909     -41.2584      63.4899 1533244391 9999999.9999
     303.0       0.0000       0.0000     -52.6078    -999.2500     -79.2087     -45.0670     -76.9003     -48.1120      69.5887 1533244392 9999999.9999
     304.0       0.0000       0.0000     -48.3097    -999.2500     -69.6088     -52.0560     -67.3004     -55.2528      75.6935 1533244393 9999999.9999
     305.0       0.0000       0.0000     -39.0807    -999.2500     -53.3012     -69.5285     -50.9928     -73.1049      81.8053 1533244394 9999999.9999
     306.0       0.0000       0.0000     -35.3904    -999.2500     -47.0352     -78.3652     -44.7268     -82.1336      87.8979 1533244395 9999999.9999
     307.0       0.0000       0.0000     -31.2607    -999.2500     -39.6847     -86.5592     -37.3763     -90.5056      94.0097 1533244396 9999999.9999
     308.0       0.0000       0.0000     -26.7584    -999.2500     -32.3342     -92.9858     -30.0258     -97.0719     100.1084 1533244397 9999999.9999
     309.0       0.0000       0.0000     -21.5727    -999.2500     -25.0640     -97.7657     -22.7556    -101.9556     106.2132 1533244398 9999999.9999
     310.0       0.0000       0.0000     -15.3170      84.9377     -17.6733    -100.4167     -15.3649    -104.6642     112.3181 1533244399 9999999.9999
     311.0       0.0000       0.0000      -7.8226      76.7376      -9.9212    -101.0995      -7.6128    -105.3619     118.4298 1533244400 9999999.9999
     312.0       0.0000       0.0000       1.1022      74.7179      -1.2452    -101.0593       1.0632    -105.3208     124.9396 1533244401 9999999.9999
     313.0       0.0000       0.0000       9.6075      78.6514       7.1095    -100.5773       9.4179    -104.8284     131.0446 1533244402 9999999.9999
     314.0       0.0000       0.0000      16.7020      91.4258      14.7010     -98.6493      17.0094    -102.8585     137.1434 1533244403 9999999.9999
     315.0       0.0000       0.0000      22.5101    -999.2500      21.8507     -94.9138      24.1591     -99.0418     143.2422 1533244404 9999999.9999
     316.0    1193.7606       0.0000      27.4004    -999.2500      28.8397     -89.7323      31.1481     -93.7477     149.2758 1533244405 9999999.9999
     317.0    1352.1635       0.0000      31.6172    -999.2500      35.6278     -83.1450      37.9362     -87.0173     155.3808 1533244406 9999999.9999
