~VERSION INFORMATION
VERS.           2.0   :CWLS Log ASCII Standard - VERSION 2.0
WRAP.           NO    :One Line per depth step
PROD.  Schlumberger   :LAS Producer
PROG.  DLIS to ASCII 19C2-270                          :LAS Program name and version
CREA.        2018/08/03 10:59                          :LAS Creation date {YYYY/MM/DD hh:mm}
DLIS_CREA.  2018-Aug-03 09:51                          :DLIS Creation date and time {YYYY-MMM-DD hh:mm}
SOURCE.     PERFO_Perfo_089PTP.DLIS                    :DLIS File Name
FILE-ID.     PERFO_Perfo_089PTP                        :File Identification Number
#--------------------------------------------------
~WELL INFORMATION
#MNEM.UNIT      DATA             DESCRIPTION
#---- ------ --------------   -----------------------------
STRT .S            0.0       :START TIME      
STOP .S          261.0       :STOP TIME      
STEP .S            1.0       :STEP     
NULL .          -999.25      :NULL VALUE
COMP .        SHELL INTERNATIONAL EP                   :COMPANY
WELL .        WPP TEST 4                               :WELL
FLD  .        WILDCAT                                  :FIELD
LOC  .        NA                                       :LOCATION
CNTY .        HARRIS                                   :COUNTY
STAT .        TEXAS                                    :STATE
CTRY .                                                 :COUNTRY
API  .        NA                                       :API NUMBER
UWI  .                                                 :UNIQUE WELL ID
DATE .        02-Aug-2018                              :LOG DATE {DD-MMM-YYYY}
SRVC .        Schlumberger                             :SERVICE COMPANY
LATI .DEG                                              :LATITUDE
LONG .DEG                                              :LONGITUDE
GDAT .                                                 :GeoDetic Datum
SECT .        NA                                       :Section
RANG .        NA                                       :Range
TOWN .        NA                                       :Township
#-----------------------------------------------------------------------------
~PARAMETER INFORMATION
#MNEM.UNIT    VALUE                      DESCRIPTION
#---- -----   --------------------       ------------------------
U-PHASE_B_COMP_PER_YT.                 0 :Phase B Comparator Period Yt
U-PHASE_A_COMP_PER_XT.                 0 :Phase A Comparator Period Xt
U-MAX_EXC_CUR_LIMIT.MA       265.00000   :Requested CM Current Limit
U-REQ_EXC_FQ.HZ              50          :Requested CM Frequency
U-TILT_Y_OFFSET.          -2.06578       :WPTET Tilt Y Offset
U-TILT_Y_GAIN.           1.02173         :WPTET Tilt Y Gain
U-TILT_X_OFFSET.           2.30841       :WPTET Tilt X Offset
U-TILT_X_GAIN.           1.00000         :WPTET Tilt X Gain
U-TILT_OFFSET_TOL.           0.00100     :WPTET Tilt Offset Calibration Tolerance
U-MOT_CUR_LIMIT_REQ.MA        70.00000   :Requested Motor Current Limit
U-MOT_SPD_REQ_WPMS.RPM        1.00000    :Requested Motor Speed
U-STD_TOL_TILT.           0.01000        :Tilt Standard Deviation Tolerance
CWEI .LB/F      29.00000                 :Casing Weight
CSIZ .IN         7.00000                 :Current Casing Size
LCC  .               440                 :Logging Company Code
LUN  .              2134                 :Logging Unit Number
HIDE .                                   :Header Identifier
HID1 .                                   :Header Identifier Line 1
R1   .                                   :Remark Line 1
WITN .        MR. KELLY McCOY            :Witness's Name
ENGI .        MORRIS MOORE               :Engineer's Name
LUL  .        IOWA COLONY                :Logging Unit Location
DATE .        02-Aug-2018                :Date as Month-Day-Year
STAT .        TEXAS                      :State or Province
COUN .        HARRIS                     :County or Rig Name
FN   .        WILDCAT                    :Field Name
WN   .        WPP TEST 4                 :Well Name
CN   .        SHELL INTERNATIONAL EP     :Company Name
CLAB .        County                     :County/Rig Label
SLAB .        State                      :State/Province Label
RUN  .          1                        :RUN NUMBER
PDAT .        GROUND LEVEL               :Permanent Datum
EPD  .                                   :Elevation of Permanent Datum above Mean Sea Level
LMF  .          NA                       :Logging Measured From (Name of Logging Elevation Reference)
APD  .                                   :Elevation of Depth Reference (LMF) above Permanent Datum
#-----------------------------------------------------------------------------
~CURVE INFORMATION
#MNEM.UNIT   API CODE                                  DESCRIPTION
#---- -----  --------                                  -----------------------
TIME .S                                                :TIME {F10.1}
FREQ_EMF_SL.HZ                                         :Electromagnetic Field Frequency {F13.4}
PH_SH_WPPCM_SL.DEG                                     :WPPCM Phase Shift {F13.4}
RB_SL.DEG                                              :Relative Bearing {F13.4}
SDEV_SL.DEG                                            :Sonde Deviation {F13.4}
RTIX_SL.DEG                                            :Raw X-axis Tilt {F13.4}
RTIY_SL.DEG                                            :Raw Y-axis Tilt {F13.4}
TILX_SL.DEG                                            :X-axis Tilt {F13.4}
TILY_SL.DEG                                            :Y-axis Tilt {F13.4}
ROTA_SL.DEG                                            :Motor Rotation Angle {F13.4}
TOD7 .S                                                :Time of Day {I11}
TOJ  .S                                                :Time of Job {F13.4}
#-----------------------------------------------------------------------------
# 
#     TIME    FREQ_EMF_SL  PH_SH_WPPCM_    RB_SL       SDEV_SL      RTIX_SL      RTIY_SL      TILX_SL      TILY_SL      ROTA_SL        TOD7            TOJ
#                          SL
~A  
       0.0     797.1938       0.0000    -112.0453    -999.2500     -99.8945      25.1845     -97.5861      23.6659      20.4644 1533250996 9999999.9999
       1.0     804.4908       0.0000    -107.5757    -999.2500    -103.1480      19.7620    -100.8396      18.1256      24.9504 1533250996 9999999.9999
       2.0     837.0536       0.0000    -100.2438      81.2364    -105.7588      11.9295    -103.4504      10.1229      31.0492 1533250997 9999999.9999
       3.0     875.6227       0.0000     -91.0851      76.0688    -106.2810       3.0527    -103.9726       1.0532      37.1602 1533250998 9999999.9999
       4.0     917.9178       0.0000     -82.4453      78.4517    -106.0802      -5.2217    -103.7718      -7.4009      43.2722 1533250999 9999999.9999
       5.0     968.4918       0.0000     -74.5264      92.4595    -104.6342     -13.3353    -102.3258     -15.6909      49.3585 1533251000 9999999.9999
       6.0    1027.9606       0.0000     -67.7895    -999.2500    -100.8183     -21.2883     -98.5099     -23.8167      55.4633 1533251001 9999999.9999
       7.0    1088.4288       0.0000     -62.1434    -999.2500     -95.1548     -29.1610     -92.8464     -31.8604      61.5682 1533251002 9999999.9999
       8.0    1156.4556       0.0000     -57.4623    -999.2500     -88.4470     -36.6722     -86.1386     -39.5347      67.6677 1533251003 9999999.9999
       9.0    1231.3923       0.0000     -53.3673    -999.2500     -80.9358     -43.7817     -78.6274     -46.7987      74.1775 1533251004 9999999.9999
      10.0    1344.4073       0.0000     -49.1910    -999.2500     -71.7377     -50.7707     -69.4293     -53.9396      80.2893 1533251005 9999999.9999
      11.0    1470.9729       0.0000     -42.1121    -999.2500     -56.4743     -60.3705     -54.1659     -63.7480      86.3817 1533251006 9999999.9999
      12.0    1587.1896       0.0000     -36.4043    -999.2500     -48.8828     -76.3167     -46.5744     -80.0406      92.4804 1533251007 9999999.9999
      13.0    1686.1511       0.0000     -32.4036    -999.2500     -41.6930     -84.7115     -39.3846     -88.6178      98.5853 1533251008 9999999.9999
      14.0    1780.0632       0.0000     -28.1151    -999.2500     -34.4630     -91.0177     -32.1546     -95.0610     104.6901 1533251009 9999999.9999
      15.0    1885.0536       0.0000     -22.6992    -999.2500     -26.5100     -97.2837     -24.2016    -101.4631     110.7888 1533251010 9999999.9999
      16.0    1969.5378       0.0000     -16.5317    -999.2500     -18.9988    -100.3765     -16.6904    -104.6232     116.8753 1533251011 9999999.9999
      17.0    2068.0146       0.0000      -9.1712      77.1128     -11.2467    -101.5012      -8.9383    -105.7723     122.9932 1533251012 9999999.9999
      18.0    2143.6738       0.0000      -0.1889      74.3930      -2.4903    -101.3405      -0.1819    -105.6081     129.0981 1533251013 9999999.9999
      19.0    2204.1536       0.0000       8.6619      77.4643       6.1455    -100.9388       8.4539    -105.1977     135.1969 1533251014 9999999.9999
      20.0    2246.4058       0.0000      16.0916      90.5552      13.9780     -99.3322      16.2864    -103.5562     141.2957 1533251015 9999999.9999
      21.0    2282.8735       0.0000      22.2006    -999.2500      21.4088     -95.5967      23.7172     -99.7395     147.8118 1533251016 9999999.9999
      22.0    2328.2285       0.0000      27.2548    -999.2500      28.5987     -90.3348      30.9071     -94.3633     153.9106 1533251017 9999999.9999
      23.0    2351.5886       0.0000      31.5107    -999.2500      35.4672     -83.8278      37.7756     -87.7150     160.0094 1533251018 9999999.9999
      24.0    2367.4243       0.0000      35.5739    -999.2500      42.4562     -76.1962      44.7646     -79.9175     166.1144 1533251019 9999999.9999
      25.0    2391.5815       0.0000      39.8414    -999.2500      49.2443     -66.3152      51.5527     -69.8218     172.2194 1533251020 9999999.9999
      26.0    2391.5815       0.0000      49.2037    -999.2500      68.0825     -51.2125      70.3909     -54.3910     178.3182 1533251021 9999999.9999
      27.0    2375.4224       0.0000      53.5431    -999.2500      78.8070     -43.8620      81.1154     -46.8808     184.4170 1533251022 9999999.9999
      28.0    2367.4243       0.0000      57.1382    -999.2500      86.7198     -37.3550      89.0282     -40.2324     190.5353 1533251023 9999999.9999
      29.0    2328.2285       0.0000      61.4733    -999.2500      93.0662     -30.0447      95.3746     -32.7632     196.6402 1533251024 9999999.9999
      30.0    2297.7942       0.0000      66.4277    -999.2500      98.0468     -22.8548     100.3552     -25.4172     202.7391 1533251025 9999999.9999
      31.0    2268.1450       0.0000      72.5171    -999.2500     100.7782     -15.4642     103.0866     -17.8659     208.8256 1533251026 9999999.9999
      32.0    2225.0791       0.0000      79.9859      80.0934     101.7422      -7.6317     104.0506      -9.8633     214.9306 1533251027 9999999.9999
      33.0    2170.1389       0.0000      88.8843      75.6303     102.1037       0.9640     104.4121      -1.0808     221.4405 1533251028 9999999.9999
      34.0    2111.4866       0.0000      97.6717      77.7627     102.1037       9.3588     104.4121       7.4964     227.5270 1533251029 9999999.9999
      35.0    2032.1531       0.0000     105.3774      91.5581     100.0953      17.2717     102.4037      15.5812     233.6074 1533251030 9999999.9999
      36.0    1953.1250       0.0000     112.0743    -999.2500      95.8778      25.1845      98.1862      23.6659     239.7124 1533251031 9999999.9999
      37.0    1875.0000       0.0000     117.6067    -999.2500      89.8528      32.8563      92.1612      31.5044     245.7990 1533251032 9999999.9999
      38.0    1780.0632       0.0000     122.4293    -999.2500      82.6228      40.4478      84.9312      39.2609     251.9108 1533251033 9999999.9999
      39.0    1670.1307       0.0000     127.1702    -999.2500      73.4648      48.3205      75.7732      47.3046     258.0157 1533251034 9999999.9999
      40.0    1569.4755       0.0000     131.8688    -999.2500      62.8207      55.2693      65.1291      54.4044     264.1205 1533251035 9999999.9999
      41.0    1480.2632       0.0000     139.6454    -999.2500      51.2928      71.8180      53.6012      71.3126     270.2191 1533251036 9999999.9999
      42.0    1326.6509       0.0000     143.5180    -999.2500      44.5448      80.9358      46.8532      80.6286     276.3177 1533251037 9999999.9999
      43.0    1242.2703       0.0000     147.3977    -999.2500      37.4353      88.6077      39.7437      88.4671     282.4224 1533251038 9999999.9999
      44.0    1179.7399       0.0000     151.8619    -999.2500      29.8438      95.6770      32.1522      95.6900     288.5272 1533251039 9999999.9999
      45.0    1125.0000       0.0000     157.2788    -999.2500      21.9310     101.2200      24.2394     101.3534     295.0307 1533251040 9999999.9999
      46.0    1063.7292       0.0000     163.7612      84.9927      14.0182     104.9555      16.3266     105.1701     301.1232 1533251041 9999999.9999
      47.0    1019.0217       0.0000     171.5655      75.7384       5.8643     106.2810       8.1727     106.5244     307.2279 1533251042 9999999.9999
      48.0     967.1596       0.0000    -179.8939      73.1886      -2.4100     106.5622      -0.1016     106.8117     313.3265 1533251043 9999999.9999
      49.0     922.7362       0.0000    -171.4187      76.3094     -10.6442     105.8793      -8.3358     106.1140     319.4251 1533251044 9999999.9999
      50.0     884.4340       0.0000    -163.7236      93.1092     -18.8783     102.2242     -16.5699     102.3794     325.5298 1533251045 9999999.9999
      51.0     856.4251       0.0000    -156.6525    -999.2500     -27.7150      96.2795     -25.4066      96.3056     331.6223 1533251046 9999999.9999
      52.0     825.2641       0.0000    -151.2432    -999.2500     -35.5877      89.3307     -33.2793      89.2058     337.7209 1533251047 9999999.9999
