~VERSION INFORMATION
VERS.           2.0   :CWLS Log ASCII Standard - VERSION 2.0
WRAP.           NO    :One Line per depth step
PROD.  Schlumberger   :LAS Producer
PROG.  DLIS to ASCII 19C2-270                          :LAS Program name and version
CREA.        2018/08/03 10:59                          :LAS Creation date {YYYY/MM/DD hh:mm}
DLIS_CREA.  2018-Aug-03 09:56                          :DLIS Creation date and time {YYYY-MMM-DD hh:mm}
SOURCE.     PERFO_Perfo_093PTP.DLIS                    :DLIS File Name
FILE-ID.     PERFO_Perfo_093PTP                        :File Identification Number
#--------------------------------------------------
~WELL INFORMATION
#MNEM.UNIT      DATA             DESCRIPTION
#---- ------ --------------   -----------------------------
STRT .S            0.0       :START TIME      
STOP .S          101.0       :STOP TIME      
STEP .S            1.0       :STEP     
NULL .          -999.25      :NULL VALUE
COMP .        SHELL INTERNATIONAL EP                   :COMPANY
WELL .        WPP TEST 4                               :WELL
FLD  .        WILDCAT                                  :FIELD
LOC  .        NA                                       :LOCATION
CNTY .        HARRIS                                   :COUNTY
STAT .        TEXAS                                    :STATE
CTRY .                                                 :COUNTRY
API  .        NA                                       :API NUMBER
UWI  .                                                 :UNIQUE WELL ID
DATE .        02-Aug-2018                              :LOG DATE {DD-MMM-YYYY}
SRVC .        Schlumberger                             :SERVICE COMPANY
LATI .DEG                                              :LATITUDE
LONG .DEG                                              :LONGITUDE
GDAT .                                                 :GeoDetic Datum
SECT .        NA                                       :Section
RANG .        NA                                       :Range
TOWN .        NA                                       :Township
#-----------------------------------------------------------------------------
~PARAMETER INFORMATION
#MNEM.UNIT    VALUE                      DESCRIPTION
#---- -----   --------------------       ------------------------
U-PHASE_B_COMP_PER_YT.                 0 :Phase B Comparator Period Yt
U-PHASE_A_COMP_PER_XT.                 0 :Phase A Comparator Period Xt
U-MAX_EXC_CUR_LIMIT.MA       265.00000   :Requested CM Current Limit
U-REQ_EXC_FQ.HZ              50          :Requested CM Frequency
U-TILT_Y_OFFSET.          -2.06578       :WPTET Tilt Y Offset
U-TILT_Y_GAIN.           1.02173         :WPTET Tilt Y Gain
U-TILT_X_OFFSET.           2.30841       :WPTET Tilt X Offset
U-TILT_X_GAIN.           1.00000         :WPTET Tilt X Gain
U-TILT_OFFSET_TOL.           0.00100     :WPTET Tilt Offset Calibration Tolerance
U-MOT_CUR_LIMIT_REQ.MA        70.00000   :Requested Motor Current Limit
U-MOT_SPD_REQ_WPMS.RPM        1.00000    :Requested Motor Speed
U-STD_TOL_TILT.           0.01000        :Tilt Standard Deviation Tolerance
CWEI .LB/F      29.00000                 :Casing Weight
CSIZ .IN         7.00000                 :Current Casing Size
LCC  .               440                 :Logging Company Code
LUN  .              2134                 :Logging Unit Number
HIDE .                                   :Header Identifier
HID1 .                                   :Header Identifier Line 1
R1   .                                   :Remark Line 1
WITN .        MR. KELLY McCOY            :Witness's Name
ENGI .        MORRIS MOORE               :Engineer's Name
LUL  .        IOWA COLONY                :Logging Unit Location
DATE .        02-Aug-20187                :Date as Month-Day-Year
STAT .        TEXAS                      :State or Province
COUN .        HARRIS                     :County or Rig Name
FN   .        WILDCAT                    :Field Name
WN   .        WPP TEST 4                 :Well Name
CN   .        SHELL INTERNATIONAL EP     :Company Name
CLAB .        County                     :County/Rig Label
SLAB .        State                      :State/Province Label
RUN  .          1                        :RUN NUMBER
PDAT .        GROUND LEVEL               :Permanent Datum
EPD  .                                   :Elevation of Permanent Datum above Mean Sea Level
LMF  .          NA                       :Logging Measured From (Name of Logging Elevation Reference)
APD  .                                   :Elevation of Depth Reference (LMF) above Permanent Datum
#-----------------------------------------------------------------------------
~CURVE INFORMATION
#MNEM.UNIT   API CODE                                  DESCRIPTION
#---- -----  --------                                  -----------------------
TIME .S                                                :TIME {F10.1}
FREQ_EMF_SL.HZ                                         :Electromagnetic Field Frequency {F13.4}
PH_SH_WPPCM_SL.DEG                                     :WPPCM Phase Shift {F13.4}
RB_SL.DEG                                              :Relative Bearing {F13.4}
SDEV_SL.DEG                                            :Sonde Deviation {F13.4}
RTIX_SL.DEG                                            :Raw X-axis Tilt {F13.4}
RTIY_SL.DEG                                            :Raw Y-axis Tilt {F13.4}
TILX_SL.DEG                                            :X-axis Tilt {F13.4}
TILY_SL.DEG                                            :Y-axis Tilt {F13.4}
ROTA_SL.DEG                                            :Motor Rotation Angle {F13.4}
TOD7 .S                                                :Time of Day {I11}
TOJ  .S                                                :Time of Job {F13.4}
#-----------------------------------------------------------------------------
# 
#     TIME    FREQ_EMF_SL  PH_SH_WPPCM_    RB_SL       SDEV_SL      RTIX_SL      RTIY_SL      TILX_SL      TILY_SL      ROTA_SL        TOD7            TOJ
#                          SL
~A  
# ...
      53.0     868.0555       0.0000     -48.8313    -999.2500     -70.7737     -51.2527     -68.4653     -54.4320      24.2410 1533252250 9999999.9999
      54.0     880.0062       0.0000     -40.7217    -999.2500     -55.5505     -65.0700     -53.2421     -68.5496      30.3560 1533252251 9999999.9999
      55.0     899.1368       0.0000     -35.9959    -999.2500     -48.1197     -77.0397     -45.8113     -80.7793      36.8759 1533252252 9999999.9999
      56.0     915.5273       0.0000     -31.9507    -999.2500     -40.8897     -85.3542     -38.5813     -89.2745      42.9808 1533252253 9999999.9999
      57.0     952.7439       0.0000     -27.5423    -999.2500     -33.5392     -92.1022     -31.2308     -96.1691      49.0795 1533252254 9999999.9999
      58.0     995.9278       0.0000     -22.4700    -999.2500     -26.2288     -97.2033     -23.9204    -101.3811      55.1813 1533252255 9999999.9999
      59.0    1055.7433       0.0000     -16.2725    -999.2500     -18.7177    -100.3363     -16.4093    -104.5821      61.2832 1533252256 9999999.9999
      60.0    1100.3522       0.0000      -8.6760      77.1242     -10.7647    -101.2200      -8.4563    -105.4850      67.3850 1533252257 9999999.9999
      61.0    1148.8971       0.0000       0.8530      74.5790      -1.4862    -101.1798       0.8222    -105.4440      73.4867 1533252258 9999999.9999
      62.0    1212.2845       0.0000       9.4950      78.3436       6.9890    -100.7380       9.2974    -104.9925      79.5885 1533252259 9999999.9999
      63.0    1278.4092       0.0000      16.6763      99.5254      14.6608     -98.8100      16.9692    -103.0226      85.6810 1533252260 9999999.9999
      64.0    1400.6475       0.0000      22.6366    -999.2500      22.0113     -94.9138      24.3197     -99.0418      91.7959 1533252261 9999999.9999
      65.0    1515.3556       0.0000      27.5866    -999.2500      29.1208     -89.6118      31.4292     -93.6246      97.8977 1533252262 9999999.9999
      66.0    1623.8453       0.0000      31.8975    -999.2500      36.1098     -82.9040      38.4182     -86.7710     103.9994 1533252263 9999999.9999
      67.0    1719.1321       0.0000      35.9277    -999.2500      42.9783     -75.0313      45.2867     -78.7273     110.5070 1533252264 9999999.9999
      68.0    1802.8846       0.0000      40.3380    -999.2500      49.7665     -64.7888      52.0749     -68.2623     116.5842 1533252265 9999999.9999
      69.0    1885.0536       0.0000      49.8414    -999.2500      69.4883     -50.1280      71.7967     -53.2829     122.6992 1533252266 9999999.9999
      70.0    1980.6338       0.0000      53.6997    -999.2500      78.9275     -43.5407      81.2359     -46.5525     128.7886 1533252267 9999999.9999
      71.0    2049.9270       0.0000      57.5176    -999.2500      86.7198     -36.6722      89.0282     -39.5347     134.8905 1533252268 9999999.9999
      72.0    2111.4866       0.0000      61.7677    -999.2500      93.1063     -29.6028      95.4147     -32.3118     140.9955 1533252269 9999999.9999
      73.0    2170.1389       0.0000      67.1494    -999.2500      98.2477     -21.9310     100.5561     -24.4733     147.0974 1533252270 9999999.9999
      74.0    2218.0601       0.0000      73.3252    -999.2500     100.7782     -14.5805     103.0866     -16.9631     153.1745 1533252271 9999999.9999
      75.0    2239.2517       0.0000      81.0902      79.3535     101.5413      -6.5472     103.8497      -8.7552     159.2764 1533252272 9999999.9999
      76.0    2275.4854       0.0000      90.0281      75.7888     101.9028       2.0485     104.2112       0.0272     165.3783 1533252273 9999999.9999
      77.0    2297.7942       0.0000      98.7296      78.8446     101.8225      10.4032     104.1309       8.5634     171.4679 1533252274 9999999.9999
      78.0    2312.9111       0.0000     106.2442      92.1900      99.5732      18.2357     101.8816      16.5661     177.5698 1533252275 9999999.9999
      79.0    2312.9111       0.0000     112.7391    -999.2500      94.9138      26.0682      97.2222      24.5688     184.0906 1533252276 9999999.9999
      80.0    2297.7942       0.0000     118.1929    -999.2500      88.8085      33.7400      91.1169      32.4073     190.1925 1533252277 9999999.9999
      81.0    2290.3093       0.0000     122.9557    -999.2500      81.4178      41.2913      83.7262      40.1227     196.2975 1533252278 9999999.9999
      82.0    2275.4854       0.0000     127.4269    -999.2500      72.5812      48.6418      74.8896      47.6329     202.4093 1533252279 9999999.9999
      83.0    2239.2517       0.0000     132.2221    -999.2500      61.6960      55.5103      64.0044      54.6506     208.5143 1533252280 9999999.9999
      84.0    2197.2656       0.0000     139.8965    -999.2500      50.8108      72.2598      53.1192      71.7641     214.6162 1533252281 9999999.9999
      85.0    2163.4614       0.0000     144.0023    -999.2500      43.6210      81.7793      45.9294      81.4904     220.7181 1533252282 9999999.9999
      86.0    2098.8806       0.0000     147.9827    -999.2500      36.3910      89.3708      38.6994      89.2468     226.8200 1533252283 9999999.9999
      87.0    2049.9270       0.0000     152.5348    -999.2500      28.7995      96.2795      31.1079      96.3056     232.9219 1533252284 9999999.9999
      88.0    1969.5378       0.0000     158.1169    -999.2500      20.8465     101.6217      23.1549     101.7638     239.0238 1533252285 9999999.9999
      89.0    1900.3378       0.0000     164.7170      89.4341      12.9738     105.0760      15.2822     105.2932     245.1134 1533252286 9999999.9999
      90.0    1816.8605       0.0000     172.5522      75.4844       4.9003     106.0400       7.2087     106.2782     251.2153 1533252287 9999999.9999
      91.0    1736.1111       0.0000    -178.8461      73.3914      -3.4142     106.4015      -1.1058     106.6475     257.7221 1533252288 9999999.9999
      92.0    1654.4117       0.0000    -170.5529      77.4500     -11.5278     105.4375      -9.2194     105.6626     263.8239 1533252289 9999999.9999
      93.0    1576.5134       0.0000    -162.8736      93.5298     -19.8825     101.3807     -17.5741     101.5176     269.9288 1533252290 9999999.9999
      94.0    1502.4038       0.0000    -156.4935    -999.2500     -27.9560      95.6368     -25.6476      95.6490     275.6226 1533252291 9999999.9999
      95.0    1400.6475       0.0000    -151.0081    -999.2500     -35.9492      88.8487     -33.6408      88.7133     281.7244 1533252292 9999999.9999
      96.0    1311.8003       0.0000    -146.3199    -999.2500     -43.4603      81.2170     -41.1519      80.9158     287.8139 1533252293 9999999.9999
      97.0    1244.4691       0.0000    -141.5875    -999.2500     -51.0920      72.0590     -48.7836      71.5589     293.9033 1533252294 9999999.9999
      98.0    1185.7083       0.0000    -135.8131    -999.2500     -58.8843      59.9287     -56.5759      59.1650     300.0051 1533252295 9999999.9999
      99.0    1143.2927       0.0000    -129.1003    -999.2500     -73.4247      51.2125     -71.1162      50.2594     306.1200 1533252296 9999999.9999
     100.0    1100.3522       0.0000    -124.9131    -999.2500     -81.9802      44.4645     -79.6718      43.3648     312.2249 1533252297 9999999.9999
     101.0    1055.7433       0.0000    -120.5356    -999.2500     -89.5717      37.3550     -87.2633      36.1008     318.3236 1533252298 9999999.9999
