~VERSION INFORMATION
VERS.           2.0   :CWLS Log ASCII Standard - VERSION 2.0
WRAP.           NO    :One Line per depth step
PROD.  Schlumberger   :LAS Producer
PROG.  DLIS to ASCII 19C2-270                          :LAS Program name and version
CREA.        2018/08/03 10:59                          :LAS Creation date {YYYY/MM/DD hh:mm}
DLIS_CREA.  2018-Aug-03 08:48                          :DLIS Creation date and time {YYYY-MMM-DD hh:mm}
SOURCE.     PERFO_Perfo_061PTP.DLIS                    :DLIS File Name
FILE-ID.     PERFO_Perfo_061PTP                        :File Identification Number
#--------------------------------------------------
~WELL INFORMATION
#MNEM.UNIT      DATA             DESCRIPTION
#---- ------ --------------   -----------------------------
STRT .S            0.0       :START TIME      
STOP .S          993.0       :STOP TIME      
STEP .S            1.0       :STEP     
NULL .          -999.25      :NULL VALUE
COMP .        SHELL INTERNATIONAL EP                   :COMPANY
WELL .        WPP TEST 4                               :WELL
FLD  .        WILDCAT                                  :FIELD
LOC  .        NA                                       :LOCATION
CNTY .        HARRIS                                   :COUNTY
STAT .        TEXAS                                    :STATE
CTRY .                                                 :COUNTRY
API  .        NA                                       :API NUMBER
UWI  .                                                 :UNIQUE WELL ID
DATE .        02-Aug-2018                              :LOG DATE {DD-MMM-YYYY}
SRVC .        Schlumberger                             :SERVICE COMPANY
LATI .DEG                                              :LATITUDE
LONG .DEG                                              :LONGITUDE
GDAT .                                                 :GeoDetic Datum
SECT .        NA                                       :Section
RANG .        NA                                       :Range
TOWN .        NA                                       :Township
#-----------------------------------------------------------------------------
~PARAMETER INFORMATION
#MNEM.UNIT    VALUE                      DESCRIPTION
#---- -----   --------------------       ------------------------
U-PHASE_B_COMP_PER_YT.                 0 :Phase B Comparator Period Yt
U-PHASE_A_COMP_PER_XT.                 0 :Phase A Comparator Period Xt
U-MAX_EXC_CUR_LIMIT.MA       265.00000   :Requested CM Current Limit
U-REQ_EXC_FQ.HZ              50          :Requested CM Frequency
U-TILT_Y_OFFSET.          -2.06578       :WPTET Tilt Y Offset
U-TILT_Y_GAIN.           1.02173         :WPTET Tilt Y Gain
U-TILT_X_OFFSET.           2.30841       :WPTET Tilt X Offset
U-TILT_X_GAIN.           1.00000         :WPTET Tilt X Gain
U-TILT_OFFSET_TOL.           0.00100     :WPTET Tilt Offset Calibration Tolerance
U-MOT_CUR_LIMIT_REQ.MA        70.00000   :Requested Motor Current Limit
U-MOT_SPD_REQ_WPMS.RPM        1.00000    :Requested Motor Speed
U-STD_TOL_TILT.           0.01000        :Tilt Standard Deviation Tolerance
CWEI .LB/F      29.00000                 :Casing Weight
CSIZ .IN         7.00000                 :Current Casing Size
LCC  .               440                 :Logging Company Code
LUN  .              2134                 :Logging Unit Number
HIDE .                                   :Header Identifier
HID1 .                                   :Header Identifier Line 1
R1   .                                   :Remark Line 1
WITN .        MR. KELLY McCOY            :Witness's Name
ENGI .        MORRIS MOORE               :Engineer's Name
LUL  .        IOWA COLONY                :Logging Unit Location
DATE .        02-Aug-2018                :Date as Month-Day-Year
STAT .        TEXAS                      :State or Province
COUN .        HARRIS                     :County or Rig Name
FN   .        WILDCAT                    :Field Name
WN   .        WPP TEST 4                 :Well Name
CN   .        SHELL INTERNATIONAL EP     :Company Name
CLAB .        County                     :County/Rig Label
SLAB .        State                      :State/Province Label
RUN  .          1                        :RUN NUMBER
PDAT .        GROUND LEVEL               :Permanent Datum
EPD  .                                   :Elevation of Permanent Datum above Mean Sea Level
LMF  .          NA                       :Logging Measured From (Name of Logging Elevation Reference)
APD  .                                   :Elevation of Depth Reference (LMF) above Permanent Datum
#-----------------------------------------------------------------------------
~CURVE INFORMATION
#MNEM.UNIT   API CODE                                  DESCRIPTION
#---- -----  --------                                  -----------------------
TIME .S                                                :TIME {F10.1}
FREQ_EMF_SL.HZ                                         :Electromagnetic Field Frequency {F13.4}
PH_SH_WPPCM_SL.DEG                                     :WPPCM Phase Shift {F13.4}
RB_SL.DEG                                              :Relative Bearing {F13.4}
SDEV_SL.DEG                                            :Sonde Deviation {F13.4}
RTIX_SL.DEG                                            :Raw X-axis Tilt {F13.4}
RTIY_SL.DEG                                            :Raw Y-axis Tilt {F13.4}
TILX_SL.DEG                                            :X-axis Tilt {F13.4}
TILY_SL.DEG                                            :Y-axis Tilt {F13.4}
ROTA_SL.DEG                                            :Motor Rotation Angle {F13.4}
TOD7 .S                                                :Time of Day {I11}
TOJ  .S                                                :Time of Job {F13.4}
#-----------------------------------------------------------------------------
# 
#     TIME    FREQ_EMF_SL  PH_SH_WPPCM_    RB_SL       SDEV_SL      RTIX_SL      RTIY_SL      TILX_SL      TILY_SL      ROTA_SL        TOD7            TOJ
#                          SL
~A  
# ...
     265.0       0.0000       0.0000      78.1422      84.8376      99.1715      -9.5998     101.4799     -11.8742     198.1247 1533229105 9999999.9999
     266.0       0.0000       0.0000      86.4243      78.3672      99.8543      -1.4058     102.1627      -3.5022     204.2235 1533229106 9999999.9999
     267.0       0.0000       0.0000      96.2116      79.1960     100.1355       7.9932     102.4439       6.1011     210.3285 1533229107 9999999.9999
     268.0       0.0000       0.0000     103.6002      88.1004      98.7698      15.4642     101.0782      13.7344     216.4334 1533229108 9999999.9999
     269.0       0.0000       0.0000     110.6160    -999.2500      95.1548      23.4573      97.4632      21.9012     222.5323 1533229109 9999999.9999
     270.0       0.0000       0.0000     115.6815    -999.2500      90.1340      30.1250      92.4424      28.7138     228.6311 1533229110 9999999.9999
     271.0       0.0000       0.0000     121.0299    -999.2500      83.0245      38.0780      85.3329      36.8395     234.7361 1533229111 9999999.9999
     272.0       0.0000       0.0000     125.5088    -999.2500      74.9510      45.1875      77.2594      44.1035     240.8410 1533229112 9999999.9999
     273.0       0.0000       0.0000     129.8595    -999.2500      65.9938      51.8150      68.3022      50.8750     247.3589 1533229113 9999999.9999
     274.0       0.0000       0.0000     138.4768    -999.2500      52.4577      67.8817      54.7661      67.2908     253.4454 1533229114 9999999.9999
     275.0       0.0000       0.0000     142.7938    -999.2500      45.5490      77.9635      47.8574      77.5917     259.5772 1533229115 9999999.9999
     276.0       0.0000       0.0000     146.8238    -999.2500      38.3993      86.1977      40.7077      86.0047     265.6950 1533229116 9999999.9999
     277.0       0.0000       0.0000     151.0103    -999.2500      31.2898      92.9457      33.5982      92.8993     271.7936 1533229117 9999999.9999
     278.0       0.0000       0.0000     156.0374    -999.2500      23.7385      98.8100      26.0469      98.8911     277.8983 1533229118 9999999.9999
     279.0       0.0000       0.0000     162.7662    -999.2500      15.2633     103.1078      17.5717     103.2823     284.0031 1533229119 9999999.9999
     280.0       0.0000       0.0000     170.1549      78.8934       7.3505     104.5940       9.6589     104.8008     290.1149 1533229120 9999999.9999
     281.0       0.0000       0.0000     178.5249      74.9826      -0.8837     104.8752       1.4247     105.0880     296.2135 1533229121 9999999.9999
     282.0       0.0000       0.0000    -172.9677      76.9436      -9.1580     104.5940      -6.8496     104.8008     302.3183 1533229122 9999999.9999
     283.0       0.0000       0.0000    -165.3939      89.3427     -17.0708     101.9430     -14.7624     102.0922     308.4230 1533229123 9999999.9999
     284.0       0.0000       0.0000    -158.5232    -999.2500     -25.3050      96.7615     -22.9966      96.7981     314.5216 1533229124 9999999.9999
     285.0       0.0000       0.0000    -152.8383    -999.2500     -33.1777      90.3750     -30.8693      90.2728     321.0259 1533229125 9999999.9999
     286.0       0.0000       0.0000    -147.7427    -999.2500     -41.0503      82.8237     -38.7419      82.5574     327.1368 1533229126 9999999.9999
     287.0    1420.4546       0.0000    -143.2671    -999.2500     -48.2000      74.6297     -45.8916      74.1854     333.1527 1533229127 9999999.9999
     288.0    1220.7031       0.0000    -138.3635    -999.2500     -55.2693      64.5478     -52.9609      63.8845     339.2513 1533229128 9999999.9999
     289.0    1185.7083       0.0000    -130.2306    -999.2500     -70.3720      52.6183     -68.0636      51.6958     345.3561 1533229129 9999999.9999
     290.0    1177.7638       0.0000    -125.9827    -999.2500     -79.2087      46.0712     -76.9003      45.0064     351.4608 1533229130 9999999.9999
     291.0    1175.7943       0.0000    -121.2480    -999.2500     -87.6035      38.4395     -85.2951      37.2089     357.5594 1533229131 9999999.9999
     292.0    1181.7228       0.0000    -116.3965    -999.2500     -94.1908      31.1292     -91.8824      29.7397       3.6581 1533229132 9999999.9999
     293.0    1185.7083       0.0000    -110.4476    -999.2500     -99.7740      23.2565     -97.4656      21.6960       9.7691 1533229133 9999999.9999
     294.0    1193.7606       0.0000    -103.6003    -999.2500    -103.3890      15.4642    -101.0806      13.7344      15.8679 1533229134 9999999.9999
     295.0    1203.9811       0.0000     -95.7929      79.2387    -104.5137       7.5915    -102.2053       5.6907      21.9666 1533229135 9999999.9999
     296.0    1216.4792       0.0000     -87.2174      78.0702    -104.5538      -0.6427    -102.2454      -2.7224      28.0654 1533229136 9999999.9999
     297.0    1231.3923       0.0000     -78.6426      86.9156    -104.0718      -9.0777    -101.7634     -11.3407      34.5813 1533229137 9999999.9999
     298.0    1246.6755       0.0000     -71.6122    -999.2500    -101.8225     -16.7093     -99.5141     -19.1382      40.6931 1533229138 9999999.9999
     299.0    1266.8918       0.0000     -65.5525    -999.2500     -97.1632     -24.3410     -94.8548     -26.9356      46.7919 1533229139 9999999.9999
     300.0    1287.7748       0.0000     -60.3233    -999.2500     -91.2587     -31.9727     -88.9502     -34.7331      52.8967 1533229140 9999999.9999
     301.0    1309.3575       0.0000     -56.0020    -999.2500     -84.3902     -39.0018     -82.0817     -41.9150      59.0016 1533229141 9999999.9999
     302.0    1334.2030       0.0000     -51.9399    -999.2500     -76.2765     -45.7498     -73.9681     -48.8096      65.1003 1533229142 9999999.9999
     303.0    1365.2913       0.0000     -47.1416    -999.2500     -65.5520     -52.7388     -63.2436     -55.9505      71.1991 1533229143 9999999.9999
     304.0    1392.3268       0.0000     -38.0663    -999.2500     -51.1322     -70.3720     -48.8238     -73.9668      77.3039 1533229144 9999999.9999
     305.0    1423.3300       0.0000     -34.0093    -999.2500     -44.3842     -79.4898     -42.0758     -83.2827      83.4088 1533229145 9999999.9999
     306.0    1452.7377       0.0000     -29.8691    -999.2500     -37.3550     -86.9207     -35.0466     -90.8750      89.4952 1533229146 9999999.9999
     307.0    1480.2632       0.0000     -25.2054    -999.2500     -30.1652     -92.8252     -27.8568     -96.9078      95.5939 1533229147 9999999.9999
     308.0    1515.3556       0.0000     -19.8728    -999.2500     -23.0958     -96.7615     -20.7874    -100.9296     101.6996 1533229148 9999999.9999
     309.0    1552.1523       0.0000     -13.4843      84.9150     -15.8257     -98.6895     -13.5173    -102.8995     108.2094 1533229149 9999999.9999
     310.0    1576.5134       0.0000      -5.6106      77.8204      -7.7923     -99.1715      -5.4839    -103.3920     114.3081 1533229150 9999999.9999
     311.0    1612.6721       0.0000       3.1917      77.1563       0.8033     -99.0108       3.1117    -103.2278     120.4007 1533229151 9999999.9999
     312.0    1635.1744       0.0000      11.1174      84.4569       8.7563     -98.2075      11.0647    -102.4071     126.5055 1533229152 9999999.9999
     313.0    1662.2340       0.0000      17.6873    -999.2500      15.9863     -95.9983      18.2947    -100.1499     132.6043 1533229153 9999999.9999
     314.0    1682.1173       0.0000      23.2384    -999.2500      22.9753     -91.8612      25.2837     -95.9228     138.7032 1533229154 9999999.9999
     315.0    1698.3695       0.0000      28.2318    -999.2500      30.1652     -86.0772      32.4736     -90.0132     144.8081 1533229155 9999999.9999
     316.0    1714.9390       0.0000      32.3323    -999.2500      36.6320     -79.4095      38.9404     -83.2006     150.8885 1533229156 9999999.9999
     317.0    1727.5798       0.0000      36.4482    -999.2500      43.1792     -71.2958      45.4876     -74.9107     156.9751 1533229157 9999999.9999
