~VERSION INFORMATION
VERS.           2.0   :CWLS Log ASCII Standard - VERSION 2.0
WRAP.           NO    :One Line per depth step
PROD.  Schlumberger   :LAS Producer
PROG.  DLIS to ASCII 19C2-270                          :LAS Program name and version
CREA.        2018/08/03 10:59                          :LAS Creation date {YYYY/MM/DD hh:mm}
DLIS_CREA.  2018-Aug-03 08:58                          :DLIS Creation date and time {YYYY-MMM-DD hh:mm}
SOURCE.     PERFO_Perfo_064PTP.DLIS                    :DLIS File Name
FILE-ID.     PERFO_Perfo_064PTP                        :File Identification Number
#--------------------------------------------------
~WELL INFORMATION
#MNEM.UNIT      DATA             DESCRIPTION
#---- ------ --------------   -----------------------------
STRT .S            0.0       :START TIME      
STOP .S          966.0       :STOP TIME      
STEP .S            1.0       :STEP     
NULL .          -999.25      :NULL VALUE
COMP .        SHELL INTERNATIONAL EP                   :COMPANY
WELL .        WPP TEST 4                               :WELL
FLD  .        WILDCAT                                  :FIELD
LOC  .        NA                                       :LOCATION
CNTY .        HARRIS                                   :COUNTY
STAT .        TEXAS                                    :STATE
CTRY .                                                 :COUNTRY
API  .        NA                                       :API NUMBER
UWI  .                                                 :UNIQUE WELL ID
DATE .        02-Aug-2018                              :LOG DATE {DD-MMM-YYYY}
SRVC .        Schlumberger                             :SERVICE COMPANY
LATI .DEG                                              :LATITUDE
LONG .DEG                                              :LONGITUDE
GDAT .                                                 :GeoDetic Datum
SECT .        NA                                       :Section
RANG .        NA                                       :Range
TOWN .        NA                                       :Township
#-----------------------------------------------------------------------------
~PARAMETER INFORMATION
#MNEM.UNIT    VALUE                      DESCRIPTION
#---- -----   --------------------       ------------------------
U-PHASE_B_COMP_PER_YT.                 0 :Phase B Comparator Period Yt
U-PHASE_A_COMP_PER_XT.                 0 :Phase A Comparator Period Xt
U-MAX_EXC_CUR_LIMIT.MA       265.00000   :Requested CM Current Limit
U-REQ_EXC_FQ.HZ              50          :Requested CM Frequency
U-TILT_Y_OFFSET.          -2.06578       :WPTET Tilt Y Offset
U-TILT_Y_GAIN.           1.02173         :WPTET Tilt Y Gain
U-TILT_X_OFFSET.           2.30841       :WPTET Tilt X Offset
U-TILT_X_GAIN.           1.00000         :WPTET Tilt X Gain
U-TILT_OFFSET_TOL.           0.00100     :WPTET Tilt Offset Calibration Tolerance
U-MOT_CUR_LIMIT_REQ.MA        70.00000   :Requested Motor Current Limit
U-MOT_SPD_REQ_WPMS.RPM        1.00000    :Requested Motor Speed
U-STD_TOL_TILT.           0.01000        :Tilt Standard Deviation Tolerance
CWEI .LB/F      29.00000                 :Casing Weight
CSIZ .IN         7.00000                 :Current Casing Size
LCC  .               440                 :Logging Company Code
LUN  .              2134                 :Logging Unit Number
HIDE .                                   :Header Identifier
HID1 .                                   :Header Identifier Line 1
R1   .                                   :Remark Line 1
WITN .        MR. KELLY McCOY            :Witness's Name
ENGI .        MORRIS MOORE               :Engineer's Name
LUL  .        IOWA COLONY                :Logging Unit Location
DATE .        02-Aug-2018                :Date as Month-Day-Year
STAT .        TEXAS                      :State or Province
COUN .        HARRIS                     :County or Rig Name
FN   .        WILDCAT                    :Field Name
WN   .        WPP TEST 4                 :Well Name
CN   .        SHELL INTERNATIONAL EP     :Company Name
CLAB .        County                     :County/Rig Label
SLAB .        State                      :State/Province Label
RUN  .          1                        :RUN NUMBER
PDAT .        GROUND LEVEL               :Permanent Datum
EPD  .                                   :Elevation of Permanent Datum above Mean Sea Level
LMF  .          NA                       :Logging Measured From (Name of Logging Elevation Reference)
APD  .                                   :Elevation of Depth Reference (LMF) above Permanent Datum
#-----------------------------------------------------------------------------
~CURVE INFORMATION
#MNEM.UNIT   API CODE                                  DESCRIPTION
#---- -----  --------                                  -----------------------
TIME .S                                                :TIME {F10.1}
FREQ_EMF_SL.HZ                                         :Electromagnetic Field Frequency {F13.4}
PH_SH_WPPCM_SL.DEG                                     :WPPCM Phase Shift {F13.4}
RB_SL.DEG                                              :Relative Bearing {F13.4}
SDEV_SL.DEG                                            :Sonde Deviation {F13.4}
RTIX_SL.DEG                                            :Raw X-axis Tilt {F13.4}
RTIY_SL.DEG                                            :Raw Y-axis Tilt {F13.4}
TILX_SL.DEG                                            :X-axis Tilt {F13.4}
TILY_SL.DEG                                            :Y-axis Tilt {F13.4}
ROTA_SL.DEG                                            :Motor Rotation Angle {F13.4}
TOD7 .S                                                :Time of Day {I11}
TOJ  .S                                                :Time of Job {F13.4}
#-----------------------------------------------------------------------------
# 
#     TIME    FREQ_EMF_SL  PH_SH_WPPCM_    RB_SL       SDEV_SL      RTIX_SL      RTIY_SL      TILX_SL      TILY_SL      ROTA_SL        TOD7            TOJ
#                          SL
~A  
# ...
     371.0     991.7137       0.0000    -103.9178    -999.2500    -103.6300      15.7855    -101.3216      14.0627     241.1945 1533232374 9999999.9999
     372.0    1019.0217       0.0000     -95.9205      79.1241    -104.6743       7.7120    -102.3659       5.8138     247.3056 1533232375 9999999.9999
     373.0    1044.7623       0.0000     -87.3825      77.7868    -104.7948      -0.4820    -102.4864      -2.5583     253.8226 1533232376 9999999.9999
     374.0    1085.0695       0.0000     -78.8704      85.4727    -104.3128      -8.8367    -102.0044     -11.0944     259.9275 1533232377 9999999.9999
     375.0    1117.8457       0.0000     -71.7104    -999.2500    -101.9832     -16.5888     -99.6748     -19.0150     266.0261 1533232378 9999999.9999
     376.0    1162.1901       0.0000     -65.6888    -999.2500     -97.6452     -24.1402     -95.3368     -26.7304     272.1308 1533232379 9999999.9999
     377.0    1212.2845       0.0000     -60.4531    -999.2500     -91.5800     -31.7718     -89.2716     -34.5279     278.2294 1533232380 9999999.9999
     378.0    1266.8918       0.0000     -56.1072    -999.2500     -84.7115     -38.8412     -82.4031     -41.7509     284.3280 1533232381 9999999.9999
     379.0    1339.2858       0.0000     -51.7327    -999.2500     -76.0355     -46.1515     -73.7271     -49.2200     290.4327 1533232382 9999999.9999
     380.0    1406.2500       0.0000     -47.2753    -999.2500     -66.0340     -52.6987     -63.7256     -55.9094     296.5375 1533232383 9999999.9999
     381.0    1489.6716       0.0000     -38.3268    -999.2500     -51.6543     -70.0908     -49.3459     -73.6795     302.6361 1533232384 9999999.9999
     382.0    1569.4755       0.0000     -34.1918    -999.2500     -44.7457     -79.5300     -42.4373     -83.3237     308.7224 1533232385 9999999.9999
     383.0    1658.3137       0.0000     -30.0180    -999.2500     -37.5960     -87.0412     -35.2876     -90.9981     314.8271 1533232386 9999999.9999
     384.0    1736.1111       0.0000     -25.4467    -999.2500     -30.4865     -92.9858     -28.1781     -97.0719     320.9319 1533232387 9999999.9999
     385.0    1816.8605       0.0000     -20.0234    -999.2500     -23.2565     -97.0025     -20.9481    -101.1759     327.4354 1533232388 9999999.9999
     386.0    1895.2157       0.0000     -13.6888      84.5776     -16.0265     -98.9707     -13.7181    -103.1868     333.5402 1533232389 9999999.9999
     387.0    1986.2288       0.0000      -5.7793      77.6257      -7.9530     -99.4125      -5.6446    -103.6382     339.6449 1533232390 9999999.9999
     388.0    2130.6819       0.0000       3.1544      76.8515       0.7632     -99.2920       3.0716    -103.5151     345.7443 1533232391 9999999.9999
     389.0    2297.7942       0.0000      11.2868      84.0623       8.9170     -98.5288      11.2254    -102.7354     351.8429 1533232392 9999999.9999
     390.0    2441.4063       0.0000      17.8430    -999.2500      16.1470     -96.2795      18.4554    -100.4372     357.9476 1533232393 9999999.9999
     391.0    2493.3511       0.0000      23.6949    -999.2500      23.5778     -91.7808      25.8862     -95.8408       4.0525 1533232394 9999999.9999
     392.0    2484.5405       0.0000      28.3634    -999.2500      30.3660     -86.3583      32.6744     -90.3004      10.1512 1533232395 9999999.9999
     393.0    2493.3511       0.0000      32.4313    -999.2500      36.8328     -79.6505      39.1412     -83.4469      16.2377 1533232396 9999999.9999
     394.0    2493.3511       0.0000      36.6305    -999.2500      43.5808     -71.3360      45.8892     -74.9517      22.3487 1533232397 9999999.9999
     395.0    2493.3511       0.0000      41.3980    -999.2500      49.7263     -60.0492      52.0347     -63.4196      28.4352 1533232398 9999999.9999
     396.0    2493.3511       0.0000      51.4208    -999.2500      71.4967     -46.9147      73.8051     -49.9998      34.5401 1533232399 9999999.9999
     397.0    2493.3511       0.0000      55.1610    -999.2500      80.2128     -40.6888      82.5212     -43.6387      41.0438 1533232400 9999999.9999
     398.0    2484.5405       0.0000      59.0372    -999.2500      87.2822     -34.0613      89.5906     -36.8672      47.1241 1533232401 9999999.9999
     399.0    2484.5405       0.0000      63.4340    -999.2500      93.1867     -27.1928      95.4951     -29.8494      53.2238 1533232402 9999999.9999
     400.0    2493.3511       0.0000      68.6256    -999.2500      97.1632     -20.2038      99.4716     -22.7086      59.3101 1533232403 9999999.9999
     401.0    2383.4746       0.0000      75.1028    -999.2500      99.0912     -12.7730     101.3996     -15.1163      65.4280 1533232404 9999999.9999
     402.0    2246.4058       0.0000      83.0232      79.8653      99.9748      -4.6995     102.2832      -6.8674      71.5204 1533232405 9999999.9999
     403.0    2086.4243       0.0000      92.5913      77.5784     100.3765       4.4987     102.6849       2.5306      77.6191 1533232406 9999999.9999
     404.0    1980.6338       0.0000     100.8296      84.5196      99.8142      12.5722     102.1226      10.7795      83.7185 1533232407 9999999.9999
     405.0    1895.2157       0.0000     107.7943    -999.2500      97.2033      20.0833      99.5117      18.4539      89.8233 1533232408 9999999.9999
     406.0    1821.5673       0.0000     113.8389    -999.2500      92.3833      27.5945      94.6917      26.1283      95.9282 1533232409 9999999.9999
     407.0    1744.7272       0.0000     119.0704    -999.2500      86.2378      35.0655      88.5462      33.7616     102.0269 1533232410 9999999.9999
     408.0    1674.1072       0.0000     123.6639    -999.2500      78.8070      42.2955      81.1154      41.1487     108.1317 1533232411 9999999.9999
     409.0    1594.3877       0.0000     128.1933    -999.2500      69.8498      49.4853      72.1582      48.4947     114.6546 1533232412 9999999.9999
     410.0    1518.6285       0.0000     135.8831    -999.2500      54.8275      60.7722      57.1359      60.0268     120.7533 1533232413 9999999.9999
     411.0    1432.0265       0.0000     141.2032    -999.2500      48.3607      74.6297      50.6691      74.1854     126.8651 1533232414 9999999.9999
     412.0       0.0000       0.0000     145.1255    -999.2500      41.4520      83.1852      43.7604      82.9268     133.0522 1533232415 9999999.9999
     413.0       0.0000       0.0000     149.0702    -999.2500      34.5032      90.4152      36.8116      90.3139     139.1571 1533232416 9999999.9999
     414.0       0.0000       0.0000     153.8448    -999.2500      26.8715      96.8418      29.1799      96.8802     145.2560 1533232417 9999999.9999
     415.0       0.0000       0.0000     159.9827    -999.2500      18.5570     101.9832      20.8654     102.1332     151.3623 1533232418 9999999.9999
     416.0       0.0000       0.0000     166.9184      83.3767      10.6843     104.4333      12.9927     104.6366     157.4673 1533232419 9999999.9999
     417.0       0.0000       0.0000     175.2915      75.4764       2.2493     105.0358       4.5577     105.2522     163.5792 1533232420 9999999.9999
     418.0       0.0000       0.0000    -176.1110      75.0283      -6.0652     105.2367      -3.7568     105.4574     169.6657 1533232421 9999999.9999
     419.0       0.0000       0.0000    -168.3116      82.5822     -13.8977     103.6300     -11.5893     103.8158     175.7707 1533232422 9999999.9999
     420.0       0.0000       0.0000    -161.0030    -999.2500     -22.1720      99.1715     -19.8636      99.2604     181.8509 1533232423 9999999.9999
     421.0       0.0000       0.0000    -154.8919    -999.2500     -30.2053      93.2268     -27.8969      93.1866     188.3557 1533232424 9999999.9999
     422.0       0.0000       0.0000    -149.6536    -999.2500     -38.0378      86.1173     -35.7294      85.9226     194.4545 1533232425 9999999.9999
     423.0       0.0000       0.0000    -144.8837    -999.2500     -45.6695      77.8832     -43.3611      77.5096     200.5595 1533232426 9999999.9999
