~VERSION INFORMATION
VERS.           2.0   :CWLS Log ASCII Standard - VERSION 2.0
WRAP.           NO    :One Line per depth step
PROD.  Schlumberger   :LAS Producer
PROG.  DLIS to ASCII 19C2-270                          :LAS Program name and version
CREA.        2018/08/03 10:59                          :LAS Creation date {YYYY/MM/DD hh:mm}
DLIS_CREA.  2018-Aug-03 08:53                          :DLIS Creation date and time {YYYY-MMM-DD hh:mm}
SOURCE.     PERFO_Perfo_062PTP.DLIS                    :DLIS File Name
FILE-ID.     PERFO_Perfo_062PTP                        :File Identification Number
#--------------------------------------------------
~WELL INFORMATION
#MNEM.UNIT      DATA             DESCRIPTION
#---- ------ --------------   -----------------------------
STRT .S            0.0       :START TIME      
STOP .S          971.0       :STOP TIME      
STEP .S            1.0       :STEP     
NULL .          -999.25      :NULL VALUE
COMP .        SHELL INTERNATIONAL EP                   :COMPANY
WELL .        WPP TEST 4                               :WELL
FLD  .        WILDCAT                                  :FIELD
LOC  .        NA                                       :LOCATION
CNTY .        HARRIS                                   :COUNTY
STAT .        TEXAS                                    :STATE
CTRY .                                                 :COUNTRY
API  .        NA                                       :API NUMBER
UWI  .                                                 :UNIQUE WELL ID
DATE .        02-Aug-2018                              :LOG DATE {DD-MMM-YYYY}
SRVC .        Schlumberger                             :SERVICE COMPANY
LATI .DEG                                              :LATITUDE
LONG .DEG                                              :LONGITUDE
GDAT .                                                 :GeoDetic Datum
SECT .        NA                                       :Section
RANG .        NA                                       :Range
TOWN .        NA                                       :Township
#-----------------------------------------------------------------------------
~PARAMETER INFORMATION
#MNEM.UNIT    VALUE                      DESCRIPTION
#---- -----   --------------------       ------------------------
U-PHASE_B_COMP_PER_YT.                 0 :Phase B Comparator Period Yt
U-PHASE_A_COMP_PER_XT.                 0 :Phase A Comparator Period Xt
U-MAX_EXC_CUR_LIMIT.MA       265.00000   :Requested CM Current Limit
U-REQ_EXC_FQ.HZ              50          :Requested CM Frequency
U-TILT_Y_OFFSET.          -2.06578       :WPTET Tilt Y Offset
U-TILT_Y_GAIN.           1.02173         :WPTET Tilt Y Gain
U-TILT_X_OFFSET.           2.30841       :WPTET Tilt X Offset
U-TILT_X_GAIN.           1.00000         :WPTET Tilt X Gain
U-TILT_OFFSET_TOL.           0.00100     :WPTET Tilt Offset Calibration Tolerance
U-MOT_CUR_LIMIT_REQ.MA        70.00000   :Requested Motor Current Limit
U-MOT_SPD_REQ_WPMS.RPM        1.00000    :Requested Motor Speed
U-STD_TOL_TILT.           0.01000        :Tilt Standard Deviation Tolerance
CWEI .LB/F      29.00000                 :Casing Weight
CSIZ .IN         7.00000                 :Current Casing Size
LCC  .               440                 :Logging Company Code
LUN  .              2134                 :Logging Unit Number
HIDE .                                   :Header Identifier
HID1 .                                   :Header Identifier Line 1
R1   .                                   :Remark Line 1
WITN .        MR. KELLY McCOY            :Witness's Name
ENGI .        MORRIS MOORE               :Engineer's Name
LUL  .        IOWA COLONY                :Logging Unit Location
DATE .        02-Aug-2018                :Date as Month-Day-Year
STAT .        TEXAS                      :State or Province
COUN .        HARRIS                     :County or Rig Name
FN   .        WILDCAT                    :Field Name
WN   .        WPP TEST 4                 :Well Name
CN   .        SHELL INTERNATIONAL EP     :Company Name
CLAB .        County                     :County/Rig Label
SLAB .        State                      :State/Province Label
RUN  .          1                        :RUN NUMBER
PDAT .        GROUND LEVEL               :Permanent Datum
EPD  .                                   :Elevation of Permanent Datum above Mean Sea Level
LMF  .          NA                       :Logging Measured From (Name of Logging Elevation Reference)
APD  .                                   :Elevation of Depth Reference (LMF) above Permanent Datum
#-----------------------------------------------------------------------------
~CURVE INFORMATION
#MNEM.UNIT   API CODE                                  DESCRIPTION
#---- -----  --------                                  -----------------------
TIME .S                                                :TIME {F10.1}
FREQ_EMF_SL.HZ                                         :Electromagnetic Field Frequency {F13.4}
PH_SH_WPPCM_SL.DEG                                     :WPPCM Phase Shift {F13.4}
RB_SL.DEG                                              :Relative Bearing {F13.4}
SDEV_SL.DEG                                            :Sonde Deviation {F13.4}
RTIX_SL.DEG                                            :Raw X-axis Tilt {F13.4}
RTIY_SL.DEG                                            :Raw Y-axis Tilt {F13.4}
TILX_SL.DEG                                            :X-axis Tilt {F13.4}
TILY_SL.DEG                                            :Y-axis Tilt {F13.4}
ROTA_SL.DEG                                            :Motor Rotation Angle {F13.4}
TOD7 .S                                                :Time of Day {I11}
TOJ  .S                                                :Time of Job {F13.4}
#-----------------------------------------------------------------------------
# 
#     TIME    FREQ_EMF_SL  PH_SH_WPPCM_    RB_SL       SDEV_SL      RTIX_SL      RTIY_SL      TILX_SL      TILY_SL      ROTA_SL        TOD7            TOJ
#                          SL
~A  
       0.0    1201.9231       0.0000    -141.0160    -999.2500     -51.6945      70.2515     -49.3861      69.7121      26.9130 1533229917 9999999.9999
       1.0    1206.0464       0.0000    -137.6584    -999.2500     -56.1128      63.0215     -53.8044      62.3250      31.7969 1533229917 9999999.9999
       2.0    1216.4792       0.0000    -129.7479    -999.2500     -71.5368      51.9757     -69.2284      51.0392      37.9018 1533229918 9999999.9999
       3.0    1224.9564       0.0000    -125.4495    -999.2500     -80.3333      45.2277     -78.0249      44.1446      44.0005 1533229919 9999999.9999
       4.0    1244.4691       0.0000    -121.0428    -999.2500     -87.9650      38.1182     -85.6566      36.8806      50.0993 1533229920 9999999.9999
       5.0    1257.8265       0.0000    -116.0295    -999.2500     -94.6728      30.6070     -92.3644      29.2062      56.2041 1533229921 9999999.9999
       6.0    1276.0889       0.0000    -110.0939    -999.2500    -100.2158      22.8147     -97.9074      21.2446      62.3090 1533229922 9999999.9999
       7.0    1302.0834       0.0000    -102.9415 -753879.8765    -103.7505      14.7612    -101.4421      13.0162      68.4085 1533229923 9999999.9999
       8.0    1321.6636       0.0000     -94.6746      78.6258    -104.5940       6.5070    -102.2856       4.5826      74.5078 1533229924 9999999.9999
       9.0    1346.9828       0.0000     -86.0887      78.3446    -104.5940      -1.7272    -102.2856      -3.8305      80.6002 1533229925 9999999.9999
      10.0    1375.9785       0.0000     -77.7046      87.6988    -103.9513     -10.0417    -101.6429     -12.3256      86.7184 1533229926 9999999.9999
      11.0    1409.0682       0.0000     -70.7650    -999.2500    -101.2200     -17.7135     -98.9116     -20.1641      92.8171 1533229927 9999999.9999
      12.0    1437.8834       0.0000     -64.7599    -999.2500     -96.5205     -25.4255     -94.2121     -28.0437      98.9158 1533229928 9999999.9999
      13.0    1470.9729       0.0000     -59.6599    -999.2500     -90.3750     -33.0170     -88.0666     -35.8001     105.0337 1533229929 9999999.9999
      14.0    1502.4038       0.0000     -55.4250    -999.2500     -83.3057     -39.9658     -80.9973     -42.9000     111.5566 1533229930 9999999.9999
      15.0    1541.9408       0.0000     -51.3111    -999.2500     -74.9108     -46.7540     -72.6024     -49.8356     117.6553 1533229931 9999999.9999
      16.0    1572.9866       0.0000     -46.7190    -999.2500     -64.5478     -53.2208     -62.2394     -56.4430     123.7795 1533229932 9999999.9999
      17.0    1601.6515       0.0000     -37.7101    -999.2500     -50.6100     -71.3360     -48.3016     -74.9517     129.8783 1533229933 9999999.9999
      18.0    1627.6041       0.0000     -33.6134    -999.2500     -43.7013     -80.2932     -41.3929     -84.1035     135.9771 1533229934 9999999.9999
      19.0    1650.5282       0.0000     -29.3716    -999.2500     -36.5416     -87.7541     -34.2332     -91.7266     142.0760 1533229935 9999999.9999
      20.0    1678.1025       0.0000     -24.5588    -999.2500     -29.2413     -93.5080     -26.9329     -97.6054     148.1809 1533229936 9999999.9999
      21.0    1698.3695       0.0000     -19.0843    -999.2500     -22.1318     -97.2435     -19.8234    -101.4221     154.2859 1533229937 9999999.9999
      22.0    1719.1321       0.0000     -12.4689      85.6738     -14.7412     -98.9707     -12.4328    -103.1868     160.3847 1533229938 9999999.9999
      23.0    1731.8351       0.0000      -4.5905      77.4058      -6.7882     -99.1715      -4.4798    -103.3920     166.4836 1533229939 9999999.9999
      24.0    1740.4083       0.0000       4.3389      77.5355       1.9280     -98.9707       4.2364    -103.1868     172.5885 1533229940 9999999.9999
      25.0    1749.0671       0.0000      12.1187      87.7374       9.8007     -98.1272      12.1091    -102.3250     178.6935 1533229941 9999999.9999
      26.0    1749.0671       0.0000      18.5075    -999.2500      16.9503     -95.6770      19.2587     -99.8216     185.1850 1533229942 9999999.9999
      27.0    1753.4288       0.0000      23.9818    -999.2500      23.9795     -91.3390      26.2879     -95.3893     191.2899 1533229943 9999999.9999
      28.0    1740.4083       0.0000      28.4941    -999.2500      30.5668     -85.7157      32.8752     -89.6438     197.3949 1533229944 9999999.9999
      29.0    1736.1111       0.0000      32.5938    -999.2500      37.0738     -79.1283      39.3822     -82.9134     203.4937 1533229945 9999999.9999
      30.0    1723.3456       0.0000      36.7246    -999.2500      43.6210     -70.7737      45.9294     -74.3772     209.5926 1533229946 9999999.9999
      31.0    1710.7665       0.0000      41.6839    -999.2500      49.8468     -59.1253      52.1552     -62.4757     215.6975 1533229947 9999999.9999
      32.0    1690.2042       0.0000      51.8316    -999.2500      72.2598     -46.1917      74.5682     -49.2611     221.8025 1533229948 9999999.9999
      33.0    1662.2340       0.0000      55.6505    -999.2500      80.8957     -39.8052      83.2041     -42.7358     227.8891 1533229949 9999999.9999
      34.0    1638.9860       0.0000      59.6244    -999.2500      87.8847     -33.0973      90.1931     -35.8822     233.9817 1533229950 9999999.9999
      35.0    1612.6721       0.0000      64.1074    -999.2500      93.7088     -26.2288      96.0172     -28.8645     240.0936 1533229951 9999999.9999
      36.0    1576.5134       0.0000      69.4544    -999.2500      97.3640     -19.1997      99.6724     -21.6826     246.1986 1533229952 9999999.9999
      37.0    1552.1523       0.0000      76.0891    -999.2500      99.1313     -11.7287     101.4397     -14.0493     252.2974 1533229953 9999999.9999
      38.0    1512.0968       0.0000      84.2233      79.3699      99.7740      -3.5347     102.0824      -5.6772     258.8073 1533229954 9999999.9999
      39.0    1483.3861       0.0000      93.2169      77.9727     100.1355       5.1012     102.4439       3.1462     264.9120 1533229955 9999999.9999
      40.0    1458.7655       0.0000     101.3307      86.8266      99.4527      13.0943     101.7611      11.3131     271.0116 1533229956 9999999.9999
      41.0    1426.2170       0.0000     108.1613    -999.2500      96.6812      20.5252      98.9896      18.9053     277.0857 1533229957 9999999.9999
      42.0    1400.6475       0.0000     114.2236    -999.2500      91.8612      28.1167      94.1696      26.6618     283.1904 1533229958 9999999.9999
      43.0    1373.2910       0.0000     119.2861    -999.2500      85.6353      35.3868      87.9437      34.0899     289.2951 1533229959 9999999.9999
      44.0    1339.2858       0.0000     124.2249    -999.2500      77.6422      43.1792      79.9506      42.0516     295.3937 1533229960 9999999.9999
      45.0    1321.6636       0.0000     128.8026    -999.2500      68.3637      50.3288      70.6721      49.3566     301.4923 1533229961 9999999.9999
      46.0    1294.8895       0.0000     137.5520    -999.2500      53.6225      65.5520      55.9309      64.9105     307.6101 1533229962 9999999.9999
      47.0    1278.4092       0.0000     141.7866    -999.2500      47.2762      75.6740      49.5846      75.2524     313.7149 1533229963 9999999.9999
      48.0    1255.5803       0.0000     145.6266    -999.2500      40.5282      83.9483      42.8366      83.7065     319.8265 1533229964 9999999.9999
      49.0    1235.7206       0.0000     149.8109    -999.2500      33.2580      91.2185      35.5664      91.1346     325.9382 1533229965 9999999.9999
      50.0    1227.0942       0.0000     154.5652    -999.2500      25.8272      97.4042      28.1356      97.4547     332.4540 1533229966 9999999.9999
      51.0    1212.2845       0.0000     160.5854    -999.2500      17.8340     102.1438      20.1424     102.2974     338.5526 1533229967 9999999.9999
      52.0    1199.8721       0.0000     167.4961      82.3306      10.0818     104.4333      12.3902     104.6366     344.6512 1533229968 9999999.9999
