~VERSION INFORMATION
VERS.           2.0   :CWLS Log ASCII Standard - VERSION 2.0
WRAP.           NO    :One Line per depth step
PROD.  Schlumberger   :LAS Producer
PROG.  DLIS to ASCII 19C2-270                          :LAS Program name and version
CREA.        2018/08/03 10:59                          :LAS Creation date {YYYY/MM/DD hh:mm}
DLIS_CREA.  2018-Aug-03 08:58                          :DLIS Creation date and time {YYYY-MMM-DD hh:mm}
SOURCE.     PERFO_Perfo_064PTP.DLIS                    :DLIS File Name
FILE-ID.     PERFO_Perfo_064PTP                        :File Identification Number
#--------------------------------------------------
~WELL INFORMATION
#MNEM.UNIT      DATA             DESCRIPTION
#---- ------ --------------   -----------------------------
STRT .S            0.0       :START TIME      
STOP .S          966.0       :STOP TIME      
STEP .S            1.0       :STEP     
NULL .          -999.25      :NULL VALUE
COMP .        SHELL INTERNATIONAL EP                   :COMPANY
WELL .        WPP TEST 4                               :WELL
FLD  .        WILDCAT                                  :FIELD
LOC  .        NA                                       :LOCATION
CNTY .        HARRIS                                   :COUNTY
STAT .        TEXAS                                    :STATE
CTRY .                                                 :COUNTRY
API  .        NA                                       :API NUMBER
UWI  .                                                 :UNIQUE WELL ID
DATE .        02-Aug-2018                              :LOG DATE {DD-MMM-YYYY}
SRVC .        Schlumberger                             :SERVICE COMPANY
LATI .DEG                                              :LATITUDE
LONG .DEG                                              :LONGITUDE
GDAT .                                                 :GeoDetic Datum
SECT .        NA                                       :Section
RANG .        NA                                       :Range
TOWN .        NA                                       :Township
#-----------------------------------------------------------------------------
~PARAMETER INFORMATION
#MNEM.UNIT    VALUE                      DESCRIPTION
#---- -----   --------------------       ------------------------
U-PHASE_B_COMP_PER_YT.                 0 :Phase B Comparator Period Yt
U-PHASE_A_COMP_PER_XT.                 0 :Phase A Comparator Period Xt
U-MAX_EXC_CUR_LIMIT.MA       265.00000   :Requested CM Current Limit
U-REQ_EXC_FQ.HZ              50          :Requested CM Frequency
U-TILT_Y_OFFSET.          -2.06578       :WPTET Tilt Y Offset
U-TILT_Y_GAIN.           1.02173         :WPTET Tilt Y Gain
U-TILT_X_OFFSET.           2.30841       :WPTET Tilt X Offset
U-TILT_X_GAIN.           1.00000         :WPTET Tilt X Gain
U-TILT_OFFSET_TOL.           0.00100     :WPTET Tilt Offset Calibration Tolerance
U-MOT_CUR_LIMIT_REQ.MA        70.00000   :Requested Motor Current Limit
U-MOT_SPD_REQ_WPMS.RPM        1.00000    :Requested Motor Speed
U-STD_TOL_TILT.           0.01000        :Tilt Standard Deviation Tolerance
CWEI .LB/F      29.00000                 :Casing Weight
CSIZ .IN         7.00000                 :Current Casing Size
LCC  .               440                 :Logging Company Code
LUN  .              2134                 :Logging Unit Number
HIDE .                                   :Header Identifier
HID1 .                                   :Header Identifier Line 1
R1   .                                   :Remark Line 1
WITN .        MR. KELLY McCOY            :Witness's Name
ENGI .        MORRIS MOORE               :Engineer's Name
LUL  .        IOWA COLONY                :Logging Unit Location
DATE .        02-Aug-2018                :Date as Month-Day-Year
STAT .        TEXAS                      :State or Province
COUN .        HARRIS                     :County or Rig Name
FN   .        WILDCAT                    :Field Name
WN   .        WPP TEST 4                 :Well Name
CN   .        SHELL INTERNATIONAL EP     :Company Name
CLAB .        County                     :County/Rig Label
SLAB .        State                      :State/Province Label
RUN  .          1                        :RUN NUMBER
PDAT .        GROUND LEVEL               :Permanent Datum
EPD  .                                   :Elevation of Permanent Datum above Mean Sea Level
LMF  .          NA                       :Logging Measured From (Name of Logging Elevation Reference)
APD  .                                   :Elevation of Depth Reference (LMF) above Permanent Datum
#-----------------------------------------------------------------------------
~CURVE INFORMATION
#MNEM.UNIT   API CODE                                  DESCRIPTION
#---- -----  --------                                  -----------------------
TIME .S                                                :TIME {F10.1}
FREQ_EMF_SL.HZ                                         :Electromagnetic Field Frequency {F13.4}
PH_SH_WPPCM_SL.DEG                                     :WPPCM Phase Shift {F13.4}
RB_SL.DEG                                              :Relative Bearing {F13.4}
SDEV_SL.DEG                                            :Sonde Deviation {F13.4}
RTIX_SL.DEG                                            :Raw X-axis Tilt {F13.4}
RTIY_SL.DEG                                            :Raw Y-axis Tilt {F13.4}
TILX_SL.DEG                                            :X-axis Tilt {F13.4}
TILY_SL.DEG                                            :Y-axis Tilt {F13.4}
ROTA_SL.DEG                                            :Motor Rotation Angle {F13.4}
TOD7 .S                                                :Time of Day {I11}
TOJ  .S                                                :Time of Job {F13.4}
#-----------------------------------------------------------------------------
# 
#     TIME    FREQ_EMF_SL  PH_SH_WPPCM_    RB_SL       SDEV_SL      RTIX_SL      RTIY_SL      TILX_SL      TILY_SL      ROTA_SL        TOD7            TOJ
#                          SL
~A  
# ...
     901.0    1865.0531       0.0000    -129.1891    -999.2500     -72.9025      51.2125     -70.5941      50.2594     252.5906 1533232904 9999999.9999
     902.0    1812.1779       0.0000    -124.9385    -999.2500     -81.4580      44.4243     -79.1496      43.3238     258.6893 1533232905 9999999.9999
     903.0    1749.0671       0.0000    -120.4498    -999.2500     -89.0093      37.1943     -86.7009      35.9367     264.7757 1533232906 9999999.9999
     904.0    1686.1511       0.0000    -115.4345    -999.2500     -95.6368      29.7635     -93.3284      28.3444     270.8935 1533232907 9999999.9999
     905.0    1623.8453       0.0000    -109.2676    -999.2500    -100.9388      21.8105     -98.6304      20.2186     277.4031 1533232908 9999999.9999
     906.0    1559.0355       0.0000    -102.3152      84.3540    -104.1120      14.0985    -101.8036      12.3390     283.5079 1533232909 9999999.9999
     907.0    1496.0106       0.0000     -94.0120      78.1235    -104.8350       5.8643    -102.5266       3.9260     289.6065 1533232910 9999999.9999
     908.0    1429.1158       0.0000     -85.4194      78.4149    -104.7547      -2.3698    -102.4463      -4.4871     295.7122 1533232911 9999999.9999
     909.0    1365.2913       0.0000     -77.1556      89.1262    -104.0317     -10.6040    -101.7233     -12.9002     301.8108 1533232912 9999999.9999
     910.0    1311.8003       0.0000     -70.2462    -999.2500    -101.2200     -18.3160     -98.9116     -20.7797     307.9094 1533232913 9999999.9999
     911.0    1269.1787       0.0000     -63.9823    -999.2500     -95.9582     -26.5100     -93.6497     -29.1518     314.0142 1533232914 9999999.9999
     912.0    1224.9564       0.0000     -59.0364    -999.2500     -89.7323     -34.0212     -87.4239     -36.8261     320.1066 1533232915 9999999.9999
     913.0    1193.7606       0.0000     -54.8707    -999.2500     -82.4622     -40.9298     -80.1538     -43.8849     326.2052 1533232916 9999999.9999
     914.0    1158.3608       0.0000     -50.7334    -999.2500     -73.9870     -47.7983     -71.6786     -50.9026     332.2914 1533232917 9999999.9999
     915.0    1130.4260       0.0000     -45.9096    -999.2500     -62.9412     -54.3455     -60.6328     -57.5921     338.4092 1533232918 9999999.9999
     916.0    1103.8069       0.0000     -37.2710    -999.2500     -50.0075     -72.7418     -47.6991     -76.3881     344.5139 1533232919 9999999.9999
     917.0    1085.0695       0.0000     -33.2252    -999.2500     -43.0587     -81.4178     -40.7503     -85.2526     351.0175 1533232920 9999999.9999
     918.0    1062.1223       0.0000     -29.0333    -999.2500     -35.9893     -88.4470     -33.6809     -92.4345     357.1222 1533232921 9999999.9999
     919.0    1051.0089       0.0000     -24.3488    -999.2500     -28.9200     -94.0703     -26.6116     -98.1800       3.2270 1533232922 9999999.9999
     920.0    1037.0575       0.0000     -18.7672    -999.2500     -21.7302     -97.6853     -19.4218    -101.8735       9.3135 1533232923 9999999.9999
     921.0    1026.4598       0.0000     -12.1710      84.3706     -14.4198     -99.1715     -12.1114    -103.3920      15.4122 1533232924 9999999.9999
     922.0    1023.4716       0.0000      -3.8174      76.8117      -6.0250     -99.4928      -3.7166    -103.7203      21.5302 1533232925 9999999.9999
     923.0    1024.5902       0.0000       5.2340      77.5221       2.8016     -99.2920       5.1100    -103.5151      27.6483 1533232926 9999999.9999
     924.0    1029.4656       0.0000      13.1919      88.2534      10.9253     -98.2075      13.2337    -102.4071      33.7471 1533232927 9999999.9999
     925.0    1035.5303       0.0000      19.4204    -999.2500      18.0348     -95.4360      20.3432     -99.5753      39.8458 1533232928 9999999.9999
     926.0    1054.1604       0.0000      24.6544    -999.2500      24.9033     -90.8972      27.2117     -94.9379      45.9384 1533232929 9999999.9999
     927.0    1068.5791       0.0000      29.1660    -999.2500      31.6112     -85.1533      33.9196     -89.0693      52.0433 1533232930 9999999.9999
     928.0    1091.8090       0.0000      33.2774    -999.2500      38.2387     -78.3250      40.5471     -82.0926      58.1420 1533232931 9999999.9999
     929.0    1110.7820       0.0000      37.4706    -999.2500      44.8662     -69.5285      47.1746     -73.1049      64.2407 1533232932 9999999.9999
     930.0    1143.2927       0.0000      42.5713    -999.2500      50.4092     -56.7153      52.7176     -60.0134      70.7567 1533232933 9999999.9999
     931.0    1175.7943       0.0000      52.1119    -999.2500      73.2238     -45.8302      75.5322     -48.8917      76.8554 1533232934 9999999.9999
     932.0    1214.3783       0.0000      55.9214    -999.2500      81.6990     -39.3633      84.0074     -42.2844      82.9541 1533232935 9999999.9999
     933.0    1253.3423       0.0000      59.8695    -999.2500      88.6880     -32.6957      90.9964     -35.4718      89.0342 1533232936 9999999.9999
     934.0    1294.8895       0.0000      64.4137    -999.2500      94.1105     -25.7870      96.4189     -28.4131      95.1391 1533232937 9999999.9999
     935.0    1346.9828       0.0000      69.7768    -999.2500      97.6853     -18.7980      99.9937     -21.2722     101.2378 1533232938 9999999.9999
     936.0    1411.8976       0.0000      76.9599      86.7415      99.4527     -10.8048     101.7611     -13.1054     107.3253 1533232939 9999999.9999
     937.0    1470.9729       0.0000      85.2953      78.5102     100.0953      -2.4903     102.4037      -4.6102     113.4432 1533232940 9999999.9999
     938.0    1538.5668       0.0000      94.3914      78.0021     100.4568       6.2258     102.7652       4.2953     119.5358 1533232941 9999999.9999
     939.0    1605.3082       0.0000     102.2742      86.6513      99.4527      14.0583     101.7611      12.2980     125.6345 1533232942 9999999.9999
     940.0    1670.1307       0.0000     109.0259    -999.2500      96.3598      21.5293      98.6682      19.9313     131.7210 1533232943 9999999.9999
     941.0    1736.1111       0.0000     114.9675    -999.2500      91.3792      29.1208      93.6876      27.6878     137.8135 1533232944 9999999.9999
     942.0    1798.2737       0.0000     119.9616    -999.2500      84.9927      36.4312      87.3011      35.1569     144.3111 1533232945 9999999.9999
     943.0    1855.2111       0.0000     124.5770    -999.2500      77.2003      43.7817      79.5087      42.6671     150.4232 1533232946 9999999.9999
     944.0    1905.4878       0.0000     129.0941    -999.2500      67.9620      50.8510      70.2704      49.8901     156.5412 1533232947 9999999.9999
     945.0    1958.5656       0.0000     137.6530    -999.2500      53.7430      66.1545      56.0514      65.5261     162.6462 1533232948 9999999.9999
     946.0    1997.5142       0.0000     141.9303    -999.2500      47.1155      76.2765      49.4239      75.8680     168.7450 1533232949 9999999.9999
     947.0    2068.0146       0.0000     145.7096    -999.2500      40.4077      84.3902      42.7161      84.1579     174.8316 1533232950 9999999.9999
     948.0    2137.1582       0.0000     150.2435    -999.2500      32.5350      92.1022      34.8434      92.0375     180.9496 1533232951 9999999.9999
     949.0    2190.4207       0.0000     155.1644    -999.2500      24.9435      98.2878      27.2519      98.3576     187.0546 1533232952 9999999.9999
     950.0    2225.0791       0.0000     161.1680    -999.2500      17.1110     102.7062      19.4194     102.8719     193.1534 1533232953 9999999.9999
     951.0    2260.8521       0.0000     168.4222      80.7823       9.1178     104.5538      11.4262     104.7597     199.2522 1533232954 9999999.9999
     952.0    2246.4058       0.0000     176.6955      75.0177       0.8837     105.1162       3.1921     105.3343     205.3703 1533232955 9999999.9999
     953.0    2246.4058       0.0000    -174.5862      75.5878      -7.5513     105.1563      -5.2429     105.3753     211.4752 1533232956 9999999.9999
