~VERSION INFORMATION
VERS.           2.0   :CWLS Log ASCII Standard - VERSION 2.0
WRAP.           NO    :One Line per depth step
PROD.  Schlumberger   :LAS Producer
PROG.  DLIS to ASCII 19C2-270                          :LAS Program name and version
CREA.        2018/08/03 10:59                          :LAS Creation date {YYYY/MM/DD hh:mm}
DLIS_CREA.  2018-Aug-03 08:48                          :DLIS Creation date and time {YYYY-MMM-DD hh:mm}
SOURCE.     PERFO_Perfo_061PTP.DLIS                    :DLIS File Name
FILE-ID.     PERFO_Perfo_061PTP                        :File Identification Number
#--------------------------------------------------
~WELL INFORMATION
#MNEM.UNIT      DATA             DESCRIPTION
#---- ------ --------------   -----------------------------
STRT .S            0.0       :START TIME      
STOP .S          993.0       :STOP TIME      
STEP .S            1.0       :STEP     
NULL .          -999.25      :NULL VALUE
COMP .        SHELL INTERNATIONAL EP                   :COMPANY
WELL .        WPP TEST 4                               :WELL
FLD  .        WILDCAT                                  :FIELD
LOC  .        NA                                       :LOCATION
CNTY .        HARRIS                                   :COUNTY
STAT .        TEXAS                                    :STATE
CTRY .                                                 :COUNTRY
API  .        NA                                       :API NUMBER
UWI  .                                                 :UNIQUE WELL ID
DATE .        02-Aug-2018                              :LOG DATE {DD-MMM-YYYY}
SRVC .        Schlumberger                             :SERVICE COMPANY
LATI .DEG                                              :LATITUDE
LONG .DEG                                              :LONGITUDE
GDAT .                                                 :GeoDetic Datum
SECT .        NA                                       :Section
RANG .        NA                                       :Range
TOWN .        NA                                       :Township
#-----------------------------------------------------------------------------
~PARAMETER INFORMATION
#MNEM.UNIT    VALUE                      DESCRIPTION
#---- -----   --------------------       ------------------------
U-PHASE_B_COMP_PER_YT.                 0 :Phase B Comparator Period Yt
U-PHASE_A_COMP_PER_XT.                 0 :Phase A Comparator Period Xt
U-MAX_EXC_CUR_LIMIT.MA       265.00000   :Requested CM Current Limit
U-REQ_EXC_FQ.HZ              50          :Requested CM Frequency
U-TILT_Y_OFFSET.          -2.06578       :WPTET Tilt Y Offset
U-TILT_Y_GAIN.           1.02173         :WPTET Tilt Y Gain
U-TILT_X_OFFSET.           2.30841       :WPTET Tilt X Offset
U-TILT_X_GAIN.           1.00000         :WPTET Tilt X Gain
U-TILT_OFFSET_TOL.           0.00100     :WPTET Tilt Offset Calibration Tolerance
U-MOT_CUR_LIMIT_REQ.MA        70.00000   :Requested Motor Current Limit
U-MOT_SPD_REQ_WPMS.RPM        1.00000    :Requested Motor Speed
U-STD_TOL_TILT.           0.01000        :Tilt Standard Deviation Tolerance
CWEI .LB/F      29.00000                 :Casing Weight
CSIZ .IN         7.00000                 :Current Casing Size
LCC  .               440                 :Logging Company Code
LUN  .              2134                 :Logging Unit Number
HIDE .                                   :Header Identifier
HID1 .                                   :Header Identifier Line 1
R1   .                                   :Remark Line 1
WITN .        MR. KELLY McCOY            :Witness's Name
ENGI .        MORRIS MOORE               :Engineer's Name
LUL  .        IOWA COLONY                :Logging Unit Location
DATE .        02-Aug-2018                :Date as Month-Day-Year
STAT .        TEXAS                      :State or Province
COUN .        HARRIS                     :County or Rig Name
FN   .        WILDCAT                    :Field Name
WN   .        WPP TEST 4                 :Well Name
CN   .        SHELL INTERNATIONAL EP     :Company Name
CLAB .        County                     :County/Rig Label
SLAB .        State                      :State/Province Label
RUN  .          1                        :RUN NUMBER
PDAT .        GROUND LEVEL               :Permanent Datum
EPD  .                                   :Elevation of Permanent Datum above Mean Sea Level
LMF  .          NA                       :Logging Measured From (Name of Logging Elevation Reference)
APD  .                                   :Elevation of Depth Reference (LMF) above Permanent Datum
#-----------------------------------------------------------------------------
~CURVE INFORMATION
#MNEM.UNIT   API CODE                                  DESCRIPTION
#---- -----  --------                                  -----------------------
TIME .S                                                :TIME {F10.1}
FREQ_EMF_SL.HZ                                         :Electromagnetic Field Frequency {F13.4}
PH_SH_WPPCM_SL.DEG                                     :WPPCM Phase Shift {F13.4}
RB_SL.DEG                                              :Relative Bearing {F13.4}
SDEV_SL.DEG                                            :Sonde Deviation {F13.4}
RTIX_SL.DEG                                            :Raw X-axis Tilt {F13.4}
RTIY_SL.DEG                                            :Raw Y-axis Tilt {F13.4}
TILX_SL.DEG                                            :X-axis Tilt {F13.4}
TILY_SL.DEG                                            :Y-axis Tilt {F13.4}
ROTA_SL.DEG                                            :Motor Rotation Angle {F13.4}
TOD7 .S                                                :Time of Day {I11}
TOJ  .S                                                :Time of Job {F13.4}
#-----------------------------------------------------------------------------
# 
#     TIME    FREQ_EMF_SL  PH_SH_WPPCM_    RB_SL       SDEV_SL      RTIX_SL      RTIY_SL      TILX_SL      TILY_SL      ROTA_SL        TOD7            TOJ
#                          SL
~A  
# ...
     954.0    1304.4990       0.0000     -57.3543    -999.2500     -86.7600     -36.7525     -84.4516     -39.6168     104.7726 1533229794 9999999.9999
     955.0    1294.8895       0.0000     -53.2810    -999.2500     -79.0480     -43.5407     -76.7396     -46.5525     110.8774 1533229795 9999999.9999
     956.0    1273.7772       0.0000     -48.7567    -999.2500     -69.2473     -50.6100     -66.9389     -53.7754     116.9823 1533229796 9999999.9999
     957.0    1260.0807       0.0000     -39.2806    -999.2500     -52.7790     -67.0382     -50.4706     -70.5605     123.0871 1533229797 9999999.9999
     958.0    1251.1122       0.0000     -35.3064    -999.2500     -46.6335     -76.8790     -44.3251     -80.6151     129.1797 1533229798 9999999.9999
     959.0    1240.0793       0.0000     -31.2429    -999.2500     -39.6445     -84.7918     -37.3361     -88.6999     135.2724 1533229799 9999999.9999
     960.0    1229.2395       0.0000     -26.8438    -999.2500     -32.5752     -91.1382     -30.2668     -95.1841     141.3774 1533229800 9999999.9999
     961.0    1224.9564       0.0000     -21.7944    -999.2500     -25.5058     -95.7573     -23.1974     -99.9036     147.4637 1533229801 9999999.9999
     962.0    1212.2845       0.0000     -15.7770    -999.2500     -18.3160     -98.3682     -16.0076    -102.5712     153.5687 1533229802 9999999.9999
     963.0    1218.5875       0.0000      -8.4748      79.6457     -10.6442     -99.1313      -8.3358    -103.3510     160.0786 1533229803 9999999.9999
     964.0    1214.3783       0.0000       0.1846      76.6503      -2.1288     -99.1313       0.1796    -103.3510     166.1775 1533229804 9999999.9999
     965.0    1212.2845       0.0000       8.6976      80.3811       6.2660     -98.7297       8.5744    -102.9406     172.2763 1533229805 9999999.9999
     966.0    1218.5875       0.0000      15.8055      98.6778      13.8173     -96.9623      16.1257    -101.1348     178.3813 1533229806 9999999.9999
     967.0    1218.5875       0.0000      21.6083    -999.2500      20.8063     -93.5482      23.1147     -97.6465     184.4862 1533229807 9999999.9999
     968.0    1231.9316       0.0000      26.5577    -999.2500      27.6547     -88.2964      29.9632     -92.2806     190.5851 1533229808 9999999.9999
     969.0    1235.7206       0.0000      31.0506    -999.2500      34.5835     -81.7793      36.8919     -85.6219     196.6839 1533229809 9999999.9999
     970.0    1248.8899       0.0000      35.1626    -999.2500      41.2110     -74.1477      43.5194     -77.8245     202.7764 1533229810 9999999.9999
     971.0    1260.0807       0.0000      39.5795    -999.2500      47.7180     -64.5077      50.0264     -67.9750     208.8813 1533229811 9999999.9999
     972.0    1273.7772       0.0000      50.0890    -999.2500      67.7612     -48.7222      70.0696     -51.8465     214.9934 1533229812 9999999.9999
     973.0    1290.1376       0.0000      53.9585    -999.2500      77.2405     -42.6972      79.5489     -45.6906     221.0923 1533229813 9999999.9999
     974.0    1297.2786       0.0000      57.7850    -999.2500      84.8722     -36.1500      87.1806     -39.0012     227.1972 1533229814 9999999.9999
     975.0    1316.7135       0.0000      61.8572    -999.2500      91.1783     -29.5627      93.4867     -32.2708     233.6947 1533229815 9999999.9999
     976.0    1339.2858       0.0000      66.8503    -999.2500      95.7172     -22.4933      98.0256     -25.0478     239.7935 1533229816 9999999.9999
     977.0    1357.3842       0.0000      72.6235    -999.2500      98.4083     -15.5043     100.7167     -17.9070     245.8995 1533229817 9999999.9999
     978.0    1381.3850       0.0000      80.3133      83.1564      99.5330      -7.3907     101.8414      -9.6170     252.0307 1533229818 9999999.9999
     979.0    1403.4431       0.0000      89.1457      77.6655     100.0552       1.2050     102.3636      -0.8346     258.1295 1533229819 9999999.9999
     980.0    1437.8834       0.0000      97.9870      80.4658     100.1054       9.7304     102.4138       7.8760     264.2414 1533229820 9999999.9999
     981.0    1458.7655       0.0000     105.2799      94.4313      98.2075      17.2717     100.5159      15.5812     270.3522 1533229821 9999999.9999
     982.0    1483.3861       0.0000     111.9227    -999.2500      93.9097      25.1042      96.2181      23.5838     276.4508 1533229822 9999999.9999
     983.0    1508.8519       0.0000     117.2047    -999.2500      88.4470      32.2940      90.7554      30.9299     282.5494 1533229823 9999999.9999
     984.0    1528.5327       0.0000     122.0992    -999.2500      81.2973      39.7650      83.6057      38.5632     288.6480 1533229824 9999999.9999
     985.0    1545.3296       0.0000     126.6017    -999.2500      72.9427      46.9548      75.2511      45.9092     294.3478 1533229825 9999999.9999
     986.0    1635.1744       0.0000     131.3201    -999.2500      62.6600      53.7028      64.9684      52.8039     300.4526 1533229826 9999999.9999
     987.0    2502.2244       0.0000     139.8885    -999.2500      50.4092      71.3360      52.7176      70.8202     306.9561 1533229827 9999999.9999
     988.0    1569.4755       0.0000     142.4620    -999.2500      46.1515      77.3208      48.4599      76.9350     310.2140 1533229828 9999999.9999
     989.0    1492.8344       0.0000     142.5319    -999.2500      46.0310      77.4815      48.3394      77.0992     310.2140 1533229829 9999999.9999
     990.0    1437.8834       0.0000     142.4792    -999.2500      46.1113      77.3208      48.4197      76.9350     310.2140 1533229830 9999999.9999
     991.0    1426.2170       0.0000     142.5182    -999.2500      46.0310      77.3610      48.3394      76.9761     310.2140 1533229831 9999999.9999
     992.0    1426.2170       0.0000     142.4964    -999.2500      46.0712      77.3208      48.3796      76.9350     310.2140 1533229832 9999999.9999
     993.0    1429.1158       0.0000     142.4620    -999.2500      46.1515      77.3208      48.4599      76.9350     310.2140 1533229833 9999999.9999
