~VERSION INFORMATION
VERS.           2.0   :CWLS Log ASCII Standard - VERSION 2.0
WRAP.           NO    :One Line per depth step
PROD.  Schlumberger   :LAS Producer
PROG.  DLIS to ASCII 19C2-270                          :LAS Program name and version
CREA.        2018/08/03 10:59                          :LAS Creation date {YYYY/MM/DD hh:mm}
DLIS_CREA.  2018-Aug-03 09:38                          :DLIS Creation date and time {YYYY-MMM-DD hh:mm}
SOURCE.     PERFO_Perfo_080PTP.DLIS                    :DLIS File Name
FILE-ID.     PERFO_Perfo_080PTP                        :File Identification Number
#--------------------------------------------------
~WELL INFORMATION
#MNEM.UNIT      DATA             DESCRIPTION
#---- ------ --------------   -----------------------------
STRT .S            0.0       :START TIME      
STOP .S          356.0       :STOP TIME      
STEP .S            1.0       :STEP     
NULL .          -999.25      :NULL VALUE
COMP .        SHELL INTERNATIONAL EP                   :COMPANY
WELL .        WPP TEST 4                               :WELL
FLD  .        WILDCAT                                  :FIELD
LOC  .        NA                                       :LOCATION
CNTY .        HARRIS                                   :COUNTY
STAT .        TEXAS                                    :STATE
CTRY .                                                 :COUNTRY
API  .        NA                                       :API NUMBER
UWI  .                                                 :UNIQUE WELL ID
DATE .        02-Aug-2018                              :LOG DATE {DD-MMM-YYYY}
SRVC .        Schlumberger                             :SERVICE COMPANY
LATI .DEG                                              :LATITUDE
LONG .DEG                                              :LONGITUDE
GDAT .                                                 :GeoDetic Datum
SECT .        NA                                       :Section
RANG .        NA                                       :Range
TOWN .        NA                                       :Township
#-----------------------------------------------------------------------------
~PARAMETER INFORMATION
#MNEM.UNIT    VALUE                      DESCRIPTION
#---- -----   --------------------       ------------------------
U-PHASE_B_COMP_PER_YT.                 0 :Phase B Comparator Period Yt
U-PHASE_A_COMP_PER_XT.                 0 :Phase A Comparator Period Xt
U-MAX_EXC_CUR_LIMIT.MA       265.00000   :Requested CM Current Limit
U-REQ_EXC_FQ.HZ              50          :Requested CM Frequency
U-TILT_Y_OFFSET.          -2.06578       :WPTET Tilt Y Offset
U-TILT_Y_GAIN.           1.02173         :WPTET Tilt Y Gain
U-TILT_X_OFFSET.           2.30841       :WPTET Tilt X Offset
U-TILT_X_GAIN.           1.00000         :WPTET Tilt X Gain
U-TILT_OFFSET_TOL.           0.00100     :WPTET Tilt Offset Calibration Tolerance
U-MOT_CUR_LIMIT_REQ.MA        70.00000   :Requested Motor Current Limit
U-MOT_SPD_REQ_WPMS.RPM        1.00000    :Requested Motor Speed
U-STD_TOL_TILT.           0.01000        :Tilt Standard Deviation Tolerance
CWEI .LB/F      29.00000                 :Casing Weight
CSIZ .IN         7.00000                 :Current Casing Size
LCC  .               440                 :Logging Company Code
LUN  .              2134                 :Logging Unit Number
HIDE .                                   :Header Identifier
HID1 .                                   :Header Identifier Line 1
R1   .                                   :Remark Line 1
WITN .        MR. KELLY McCOY            :Witness's Name
ENGI .        MORRIS MOORE               :Engineer's Name
LUL  .        IOWA COLONY                :Logging Unit Location
DATE .        02-Aug-2018                :Date as Month-Day-Year
STAT .        TEXAS                      :State or Province
COUN .        HARRIS                     :County or Rig Name
FN   .        WILDCAT                    :Field Name
WN   .        WPP TEST 4                 :Well Name
CN   .        SHELL INTERNATIONAL EP     :Company Name
CLAB .        County                     :County/Rig Label
SLAB .        State                      :State/Province Label
RUN  .          1                        :RUN NUMBER
PDAT .        GROUND LEVEL               :Permanent Datum
EPD  .                                   :Elevation of Permanent Datum above Mean Sea Level
LMF  .          NA                       :Logging Measured From (Name of Logging Elevation Reference)
APD  .                                   :Elevation of Depth Reference (LMF) above Permanent Datum
#-----------------------------------------------------------------------------
~CURVE INFORMATION
#MNEM.UNIT   API CODE                                  DESCRIPTION
#---- -----  --------                                  -----------------------
TIME .S                                                :TIME {F10.1}
FREQ_EMF_SL.HZ                                         :Electromagnetic Field Frequency {F13.4}
PH_SH_WPPCM_SL.DEG                                     :WPPCM Phase Shift {F13.4}
RB_SL.DEG                                              :Relative Bearing {F13.4}
SDEV_SL.DEG                                            :Sonde Deviation {F13.4}
RTIX_SL.DEG                                            :Raw X-axis Tilt {F13.4}
RTIY_SL.DEG                                            :Raw Y-axis Tilt {F13.4}
TILX_SL.DEG                                            :X-axis Tilt {F13.4}
TILY_SL.DEG                                            :Y-axis Tilt {F13.4}
ROTA_SL.DEG                                            :Motor Rotation Angle {F13.4}
TOD7 .S                                                :Time of Day {I11}
TOJ  .S                                                :Time of Job {F13.4}
#-----------------------------------------------------------------------------
# 
#     TIME    FREQ_EMF_SL  PH_SH_WPPCM_    RB_SL       SDEV_SL      RTIX_SL      RTIY_SL      TILX_SL      TILY_SL      ROTA_SL        TOD7            TOJ
#                          SL
~A  
# ...
     159.0       0.0000       0.0000      77.1068      85.8682     101.2200     -10.5638     103.5284     -12.8591     232.4806 1533244771 9999999.9999
     160.0       0.0000       0.0000      85.5981      76.6012     101.7823      -2.1690     104.0907      -4.2819     238.5856 1533244772 9999999.9999
     161.0       0.0000       0.0000      94.6705      76.5206     101.9430       6.4668     104.2514       4.5416     244.6844 1533244773 9999999.9999
     162.0       0.0000       0.0000     102.7041      85.6774     101.0995      14.4198     103.4079      12.6674     250.7965 1533244774 9999999.9999
     163.0       0.0000       0.0000     109.2482    -999.2500      97.3238      21.7302      99.6322      20.1365     256.8953 1533244775 9999999.9999
     164.0       0.0000       0.0000     115.5183    -999.2500      91.9817      29.8438      94.2901      28.4265     262.9939 1533244776 9999999.9999
     165.0       0.0000       0.0000     120.4991    -999.2500      85.5952      37.3148      87.9036      36.0598     269.4974 1533244777 9999999.9999
     166.0       0.0000       0.0000     125.0990    -999.2500      77.5618      44.8662      79.8702      43.7752     275.6029 1533244778 9999999.9999
     167.0       0.0000       0.0000     129.6149    -999.2500      67.9218      52.0962      70.2302      51.1623     281.7209 1533244779 9999999.9999
     168.0       0.0000       0.0000     137.6353    -999.2500      54.2652      66.8373      56.5736      66.2237     287.8195 1533244780 9999999.9999
     169.0       0.0000       0.0000     142.0239    -999.2500      47.2360      77.4815      49.5444      77.0992     293.9182 1533244781 9999999.9999
     170.0       0.0000       0.0000     145.8228    -999.2500      40.2872      85.5952      42.5956      85.3891     300.0229 1533244782 9999999.9999
     171.0       0.0000       0.0000     150.2906    -999.2500      32.4145      93.4277      34.7229      93.3918     306.1276 1533244783 9999999.9999
     172.0       0.0000       0.0000     155.0864    -999.2500      24.9837      99.0912      27.2921      99.1784     312.2262 1533244784 9999999.9999
     173.0       0.0000       0.0000     161.3063    -999.2500      16.8700     103.6702      19.1784     103.8568     318.3248 1533244785 9999999.9999
     174.0       0.0000       0.0000     168.2032      79.2498       9.2785     105.6785      11.5869     105.9088     324.4296 1533244786 9999999.9999
     175.0       0.0000       0.0000     176.4266      73.8981       1.1247     106.2408       3.4331     106.4834     330.5474 1533244787 9999999.9999
     176.0       0.0000       0.0000    -174.3487      74.4466      -7.7522     106.2810      -5.4438     106.5244     336.6460 1533244788 9999999.9999
     177.0       0.0000       0.0000    -166.3189      88.7867     -15.9863     103.5497     -13.6779     103.7337     343.1689 1533244789 9999999.9999
     178.0       0.0000       0.0000    -159.1922    -999.2500     -24.3812      98.4887     -22.0728      98.5628     349.2737 1533244790 9999999.9999
     179.0       0.0000       0.0000    -153.1024    -999.2500     -32.7760      91.7808     -30.4676      91.7092     355.3723 1533244791 9999999.9999
     180.0       0.0000       0.0000    -148.8897    -999.2500     -39.2830      85.5148     -36.9746      85.3071       1.4709 1533244792 9999999.9999
     181.0       0.0000       0.0000    -143.9317    -999.2500     -47.3565      76.7183     -45.0481      76.3194       7.5758 1533244793 9999999.9999
     182.0       0.0000       0.0000    -138.6457    -999.2500     -55.4702      66.0340     -53.1618      65.4030      13.6807 1533244794 9999999.9999
     183.0       0.0000       0.0000    -131.0174    -999.2500     -69.4883      54.1848     -67.1799      53.2963      19.7794 1533244795 9999999.9999
     184.0       0.0000       0.0000    -126.4855    -999.2500     -79.0078      47.0753     -76.6994      46.0324      25.8782 1533244796 9999999.9999
     185.0       0.0000       0.0000    -122.2404    -999.2500     -86.8403      40.0863     -84.5319      38.8915      31.9830 1533244797 9999999.9999
     186.0       0.0000       0.0000    -117.4075    -999.2500     -94.0302      32.5752     -91.7218      31.2172      38.0879 1533244798 9999999.9999
     187.0       0.0000       0.0000    -111.8476    -999.2500     -99.8543      24.9435     -97.5459      23.4197      44.1866 1533244799 9999999.9999
     188.0       0.0000       0.0000    -105.5962    -999.2500    -103.9112      17.5528    -101.6028      15.8684      50.3046 1533244800 9999999.9999
     189.0       0.0000       0.0000     -97.0260      78.3601    -105.8793       8.7563    -103.5709       6.8808      56.8144 1533244801 9999999.9999
     190.0       0.0000       0.0000     -88.4227      76.2767    -106.1203       0.5222    -103.8119      -1.5323      62.9131 1533244802 9999999.9999
     191.0       0.0000       0.0000     -79.9304      81.0363    -105.7588      -7.7120    -103.4504      -9.9453      69.0249 1533244803 9999999.9999
     192.0       0.0000       0.0000     -72.2354      84.2061    -103.5095     -15.9060    -101.2011     -18.3174      75.1298 1533244804 9999999.9999
     193.0       0.0000       0.0000     -65.8601    -999.2500     -98.7698     -23.8590     -96.4614     -26.4432      81.2346 1533244805 9999999.9999
     194.0       0.0000       0.0000     -60.9158    -999.2500     -93.3473     -31.0488     -91.0389     -33.7892      87.3211 1533244806 9999999.9999
     195.0       0.0000       0.0000     -55.8863    -999.2500     -85.6353     -39.3633     -83.3269     -42.2844      93.4198 1533244807 9999999.9999
     196.0       0.0000       0.0000     -51.9791    -999.2500     -77.8832     -46.1515     -75.5748     -49.2200      99.5246 1533244808 9999999.9999
     197.0       0.0000       0.0000     -47.8771    -999.2500     -68.5645     -52.6585     -66.2561     -55.8684     105.6295 1533244809 9999999.9999
     198.0       0.0000       0.0000     -39.3735    -999.2500     -53.7430     -68.7653     -51.4346     -72.3252     111.7282 1533244810 9999999.9999
     199.0       0.0000       0.0000     -35.0355    -999.2500     -46.3925     -79.0882     -44.0841     -82.8723     117.8085 1533244811 9999999.9999
     200.0       0.0000       0.0000     -31.0526    -999.2500     -39.3232     -87.0412     -37.0148     -90.9981     123.9134 1533244812 9999999.9999
     201.0       0.0000       0.0000     -26.4726    -999.2500     -31.8923     -93.4277     -29.5839     -97.5234     130.4179 1533244813 9999999.9999
     202.0       0.0000       0.0000     -21.2859    -999.2500     -24.7025     -97.8862     -22.3941    -102.0787     136.5044 1533244814 9999999.9999
     203.0       0.0000       0.0000     -15.0265      83.4640     -17.3520    -100.5372     -15.0436    -104.7873     142.6155 1533244815 9999999.9999
     204.0       0.0000       0.0000      -7.2613      76.1930      -9.3588    -101.3003      -7.0504    -105.5671     148.7143 1533244816 9999999.9999
     205.0       0.0000       0.0000       1.7679      74.7791      -0.6025    -101.0593       1.7059    -105.3208     154.8132 1533244817 9999999.9999
     206.0       0.0000       0.0000      10.2432      79.2204       7.7522    -100.5773      10.0606    -104.8284     160.9120 1533244818 9999999.9999
     207.0       0.0000       0.0000      17.5012      98.3332      15.6248     -98.2477      17.9332    -102.4481     167.0170 1533244819 9999999.9999
     208.0       0.0000       0.0000      23.2931    -999.2500      22.8950     -94.3515      25.2034     -98.4673     173.1095 1533244820 9999999.9999
     209.0     873.4471       0.0000      28.0773    -999.2500      29.8840     -88.8888      32.1924     -92.8859     179.1120 1533244821 9999999.9999
     210.0    1414.7384       0.0000      32.2118    -999.2500      36.6320     -82.1810      38.9404     -86.0323     185.2170 1533244822 9999999.9999
     211.0    1642.8153       0.0000      36.2523    -999.2500      43.5005     -74.2280      45.8089     -77.9065     191.3220 1533244823 9999999.9999
