~VERSION INFORMATION
VERS.           2.0   :CWLS Log ASCII Standard - VERSION 2.0
WRAP.           NO    :One Line per depth step
PROD.  Schlumberger   :LAS Producer
PROG.  DLIS to ASCII 19C2-270                          :LAS Program name and version
CREA.        2018/08/03 10:59                          :LAS Creation date {YYYY/MM/DD hh:mm}
DLIS_CREA.  2018-Aug-03 08:58                          :DLIS Creation date and time {YYYY-MMM-DD hh:mm}
SOURCE.     PERFO_Perfo_064PTP.DLIS                    :DLIS File Name
FILE-ID.     PERFO_Perfo_064PTP                        :File Identification Number
#--------------------------------------------------
~WELL INFORMATION
#MNEM.UNIT      DATA             DESCRIPTION
#---- ------ --------------   -----------------------------
STRT .S            0.0       :START TIME      
STOP .S          966.0       :STOP TIME      
STEP .S            1.0       :STEP     
NULL .          -999.25      :NULL VALUE
COMP .        SHELL INTERNATIONAL EP                   :COMPANY
WELL .        WPP TEST 4                               :WELL
FLD  .        WILDCAT                                  :FIELD
LOC  .        NA                                       :LOCATION
CNTY .        HARRIS                                   :COUNTY
STAT .        TEXAS                                    :STATE
CTRY .                                                 :COUNTRY
API  .        NA                                       :API NUMBER
UWI  .                                                 :UNIQUE WELL ID
DATE .        02-Aug-2018                              :LOG DATE {DD-MMM-YYYY}
SRVC .        Schlumberger                             :SERVICE COMPANY
LATI .DEG                                              :LATITUDE
LONG .DEG                                              :LONGITUDE
GDAT .                                                 :GeoDetic Datum
SECT .        NA                                       :Section
RANG .        NA                                       :Range
TOWN .        NA                                       :Township
#-----------------------------------------------------------------------------
~PARAMETER INFORMATION
#MNEM.UNIT    VALUE                      DESCRIPTION
#---- -----   --------------------       ------------------------
U-PHASE_B_COMP_PER_YT.                 0 :Phase B Comparator Period Yt
U-PHASE_A_COMP_PER_XT.                 0 :Phase A Comparator Period Xt
U-MAX_EXC_CUR_LIMIT.MA       265.00000   :Requested CM Current Limit
U-REQ_EXC_FQ.HZ              50          :Requested CM Frequency
U-TILT_Y_OFFSET.          -2.06578       :WPTET Tilt Y Offset
U-TILT_Y_GAIN.           1.02173         :WPTET Tilt Y Gain
U-TILT_X_OFFSET.           2.30841       :WPTET Tilt X Offset
U-TILT_X_GAIN.           1.00000         :WPTET Tilt X Gain
U-TILT_OFFSET_TOL.           0.00100     :WPTET Tilt Offset Calibration Tolerance
U-MOT_CUR_LIMIT_REQ.MA        70.00000   :Requested Motor Current Limit
U-MOT_SPD_REQ_WPMS.RPM        1.00000    :Requested Motor Speed
U-STD_TOL_TILT.           0.01000        :Tilt Standard Deviation Tolerance
CWEI .LB/F      29.00000                 :Casing Weight
CSIZ .IN         7.00000                 :Current Casing Size
LCC  .               440                 :Logging Company Code
LUN  .              2134                 :Logging Unit Number
HIDE .                                   :Header Identifier
HID1 .                                   :Header Identifier Line 1
R1   .                                   :Remark Line 1
WITN .        MR. KELLY McCOY            :Witness's Name
ENGI .        MORRIS MOORE               :Engineer's Name
LUL  .        IOWA COLONY                :Logging Unit Location
DATE .        02-Aug-2018                :Date as Month-Day-Year
STAT .        TEXAS                      :State or Province
COUN .        HARRIS                     :County or Rig Name
FN   .        WILDCAT                    :Field Name
WN   .        WPP TEST 4                 :Well Name
CN   .        SHELL INTERNATIONAL EP     :Company Name
CLAB .        County                     :County/Rig Label
SLAB .        State                      :State/Province Label
RUN  .          1                        :RUN NUMBER
PDAT .        GROUND LEVEL               :Permanent Datum
EPD  .                                   :Elevation of Permanent Datum above Mean Sea Level
LMF  .          NA                       :Logging Measured From (Name of Logging Elevation Reference)
APD  .                                   :Elevation of Depth Reference (LMF) above Permanent Datum
#-----------------------------------------------------------------------------
~CURVE INFORMATION
#MNEM.UNIT   API CODE                                  DESCRIPTION
#---- -----  --------                                  -----------------------
TIME .S                                                :TIME {F10.1}
FREQ_EMF_SL.HZ                                         :Electromagnetic Field Frequency {F13.4}
PH_SH_WPPCM_SL.DEG                                     :WPPCM Phase Shift {F13.4}
RB_SL.DEG                                              :Relative Bearing {F13.4}
SDEV_SL.DEG                                            :Sonde Deviation {F13.4}
RTIX_SL.DEG                                            :Raw X-axis Tilt {F13.4}
RTIY_SL.DEG                                            :Raw Y-axis Tilt {F13.4}
TILX_SL.DEG                                            :X-axis Tilt {F13.4}
TILY_SL.DEG                                            :Y-axis Tilt {F13.4}
ROTA_SL.DEG                                            :Motor Rotation Angle {F13.4}
TOD7 .S                                                :Time of Day {I11}
TOJ  .S                                                :Time of Job {F13.4}
#-----------------------------------------------------------------------------
# 
#     TIME    FREQ_EMF_SL  PH_SH_WPPCM_    RB_SL       SDEV_SL      RTIX_SL      RTIY_SL      TILX_SL      TILY_SL      ROTA_SL        TOD7            TOJ
#                          SL
~A  
# ...
     106.0    1464.8438       0.0000      91.7941      77.4000     100.4167       3.7355     102.7251       1.7509      56.2131 1533232109 9999999.9999
     107.0    1392.3268       0.0000     100.0725      83.1471      99.8543      11.8090     102.1627       9.9998      62.7359 1533232110 9999999.9999
     108.0    1321.6636       0.0000     107.1580      87.6556      97.4443      19.3603      99.7527      17.7152      68.8284 1533232111 9999999.9999
     109.0    1260.0807       0.0000     113.4824    -999.2500      92.9055      27.1125      95.2139      25.6358      74.9271 1533232112 9999999.9999
     110.0    1206.0464       0.0000     118.6187    -999.2500      86.8002      34.3827      89.1086      33.0639      81.0319 1533232113 9999999.9999
     111.0    1154.5566       0.0000     123.3057    -999.2500      79.5702      41.7332      81.8786      40.5741      87.1306 1533232114 9999999.9999
     112.0    1119.6259       0.0000     127.8456    -999.2500      70.4925      48.9230      72.8009      47.9202      93.2355 1533232115 9999999.9999
     113.0    1073.4733       0.0000     135.3449    -999.2500      54.5865      58.7638      56.8949      57.9748      99.3218 1533232116 9999999.9999
     114.0    1043.2122       0.0000     141.0873    -999.2500      48.5213      74.2682      50.8297      73.8160     105.4280 1533232117 9999999.9999
     115.0    1017.5471       0.0000     144.9662    -999.2500      41.7332      82.8237      44.0416      82.5574     111.5329 1533232118 9999999.9999
     116.0     991.7137       0.0000     148.9996    -999.2500      34.6237      90.2143      36.9321      90.1087     117.6316 1533232119 9999999.9999
     117.0     973.8573       0.0000     153.7163    -999.2500      27.0723      96.5607      29.3807      96.5929     123.7303 1533232120 9999999.9999
     118.0     954.0366       0.0000     159.4385    -999.2500      19.2398     101.5815      21.5482     101.7228     129.8352 1533232121 9999999.9999
     119.0     945.0605       0.0000     166.2785      85.3540      11.3672     104.2727      13.6756     104.4724     136.3451 1533232122 9999999.9999
     120.0     938.7516       0.0000     174.4264      75.7360       3.0928     105.0760       5.4012     105.2932     142.4439 1533232123 9999999.9999
     121.0     936.2517       0.0000    -176.8564      74.8161      -5.3422     105.2768      -3.0338     105.4984     148.5428 1533232124 9999999.9999
     122.0     937.5000       0.0000    -168.9258      81.3463     -13.2550     103.8308     -10.9466     104.0210     154.6477 1533232125 9999999.9999
     123.0     942.5268       0.0000    -161.6001      85.8461     -21.4490      99.6133     -19.1406      99.7119     160.7657 1533232126 9999999.9999
     124.0     956.6326       0.0000    -155.3237    -999.2500     -29.6028      93.5883     -27.2944      93.5560     166.8646 1533232127 9999999.9999
     125.0     975.2081       0.0000    -149.6792    -999.2500     -37.9977      86.1575     -35.6893      85.9637     172.9634 1533232128 9999999.9999
     126.0     994.5190       0.0000    -145.0295    -999.2500     -45.4285      78.1242     -43.1201      77.7558     179.0745 1533232129 9999999.9999
     127.0    1021.9840       0.0000    -140.4115    -999.2500     -52.6183      69.0867     -50.3099      68.5219     185.1733 1533232130 9999999.9999
     128.0    1049.4403       0.0000    -132.2560    -999.2500     -66.1143      55.4702     -63.8059      54.6096     191.2722 1533232131 9999999.9999
     129.0    1085.0695       0.0000    -127.6445    -999.2500     -75.9953      48.7623     -73.6869      47.7560     197.3771 1533232132 9999999.9999
     130.0    1123.2029       0.0000    -123.3636    -999.2500     -84.3098      41.8537     -82.0014      40.6973     203.4821 1533232133 9999999.9999
     131.0    1171.8750       0.0000    -118.7511    -999.2500     -91.3792      34.5835     -89.0708      33.2691     209.9859 1533232134 9999999.9999
     132.0    1214.3783       0.0000    -113.2999    -999.2500     -97.6853      26.8715     -95.3769      25.3896     216.0909 1533232135 9999999.9999
     133.0    1280.7377       0.0000    -106.8773    -999.2500    -102.2643      19.0390     -99.9559      17.3869     222.2089 1533232136 9999999.9999
     134.0    1336.7396       0.0000     -99.6351      82.3414    -104.5940      11.3672    -102.2856       9.5484     228.3077 1533232137 9999999.9999
     135.0    1417.5908       0.0000     -91.0787      77.5192    -104.8350       3.0527    -102.5266       1.0532     234.4073 1533232138 9999999.9999
     136.0    1502.4038       0.0000     -82.4081      80.3124    -104.5940      -5.3020    -102.2856      -7.4830     240.5131 1533232139 9999999.9999
     137.0    1590.7806       0.0000     -74.1303      92.6417    -102.9472     -13.8575    -100.6388     -16.2244     245.9026 1533232140 9999999.9999
     138.0    1674.1072       0.0000     -67.6661    -999.2500     -99.3322     -21.5293     -97.0238     -24.0629     252.0145 1533232141 9999999.9999
     139.0    1771.0958       0.0000     -62.1643    -999.2500     -93.8293     -29.1610     -91.5209     -31.8604     258.1132 1533232142 9999999.9999
     140.0    1850.3290       0.0000     -57.4859    -999.2500     -87.2018     -36.5517     -84.8934     -39.4116     264.2180 1533232143 9999999.9999
     141.0    1921.1066       0.0000     -53.4998    -999.2500     -79.8513     -43.2595     -77.5429     -46.2652     270.3110 1533232144 9999999.9999
     142.0    2032.1531       0.0000     -49.2596    -999.2500     -70.4523     -49.9272     -68.1439     -53.0777     276.3972 1533232145 9999999.9999
     143.0    2176.8577       0.0000     -40.7275    -999.2500     -54.1045     -62.4592     -51.7961     -65.8820     282.9007 1533232146 9999999.9999
     144.0    2375.4224       0.0000     -35.9438    -999.2500     -47.7582     -75.6740     -45.4498     -79.3840     289.0116 1533232147 9999999.9999
     145.0    2467.1052       0.0000     -31.9480    -999.2500     -40.8495     -83.7475     -38.5411     -87.6329     295.1102 1533232148 9999999.9999
     146.0    7401.3159       0.0000     -27.4848    -999.2500     -33.5392     -90.6562     -31.2308     -94.6917     301.1965 1533232149 9999999.9999
     147.0       0.0000       0.0000     -22.3965    -999.2500     -26.2690     -95.6368     -23.9606     -99.7805     307.3969 1533232150 9999999.9999
     148.0       0.0000       0.0000     -16.4018    -999.2500     -18.9988     -98.4485     -16.6904    -102.6533     313.5147 1533232151 9999999.9999
     149.0       0.0000       0.0000      -8.7246      79.4766     -10.8852     -99.4125      -8.5768    -103.6382     319.6133 1533232152 9999999.9999
     150.0       0.0000       0.0000      -0.1045      76.4442      -2.4100     -99.3322      -0.1016    -103.5562     325.7119 1533232153 9999999.9999
     151.0       0.0000       0.0000       8.6193      80.2559       6.1857     -98.7698       8.4941    -102.9816     331.8044 1533232154 9999999.9999
     152.0       0.0000       0.0000      15.6037      92.2176      13.5763     -97.2837      15.8847    -101.4631     337.9091 1533232155 9999999.9999
     153.0       0.0000       0.0000      21.4564    -999.2500      20.6055     -93.7490      22.9139     -97.8517     344.0077 1533232156 9999999.9999
     154.0       0.0000       0.0000      26.2754    -999.2500      27.2330     -88.9290      29.5414     -92.9270     350.1063 1533232157 9999999.9999
     155.0       0.0000       0.0000      30.5666    -999.2500      33.8203     -82.7835      36.1287     -86.6479     356.6221 1533232158 9999999.9999
     156.0       0.0000       0.0000      34.6975    -999.2500      40.4880     -75.1920      42.7964     -78.8915       2.7085 1533232159 9999999.9999
     157.0       0.0000       0.0000      39.0078    -999.2500      47.0753     -66.0742      49.3837     -69.5756       8.7950 1533232160 9999999.9999
     158.0       0.0000       0.0000      49.5844    -999.2500      66.4758     -49.4050      68.7842     -52.5442      14.8999 1533232161 9999999.9999
