~VERSION INFORMATION
VERS.           2.0   :CWLS Log ASCII Standard - VERSION 2.0
WRAP.           NO    :One Line per depth step
PROD.  Schlumberger   :LAS Producer
PROG.  DLIS to ASCII 19C2-270                          :LAS Program name and version
CREA.        2018/08/03 10:59                          :LAS Creation date {YYYY/MM/DD hh:mm}
DLIS_CREA.  2018-Aug-03 08:58                          :DLIS Creation date and time {YYYY-MMM-DD hh:mm}
SOURCE.     PERFO_Perfo_064PTP.DLIS                    :DLIS File Name
FILE-ID.     PERFO_Perfo_064PTP                        :File Identification Number
#--------------------------------------------------
~WELL INFORMATION
#MNEM.UNIT      DATA             DESCRIPTION
#---- ------ --------------   -----------------------------
STRT .S            0.0       :START TIME      
STOP .S          966.0       :STOP TIME      
STEP .S            1.0       :STEP     
NULL .          -999.25      :NULL VALUE
COMP .        SHELL INTERNATIONAL EP                   :COMPANY
WELL .        WPP TEST 4                               :WELL
FLD  .        WILDCAT                                  :FIELD
LOC  .        NA                                       :LOCATION
CNTY .        HARRIS                                   :COUNTY
STAT .        TEXAS                                    :STATE
CTRY .                                                 :COUNTRY
API  .        NA                                       :API NUMBER
UWI  .                                                 :UNIQUE WELL ID
DATE .        02-Aug-2018                              :LOG DATE {DD-MMM-YYYY}
SRVC .        Schlumberger                             :SERVICE COMPANY
LATI .DEG                                              :LATITUDE
LONG .DEG                                              :LONGITUDE
GDAT .                                                 :GeoDetic Datum
SECT .        NA                                       :Section
RANG .        NA                                       :Range
TOWN .        NA                                       :Township
#-----------------------------------------------------------------------------
~PARAMETER INFORMATION
#MNEM.UNIT    VALUE                      DESCRIPTION
#---- -----   --------------------       ------------------------
U-PHASE_B_COMP_PER_YT.                 0 :Phase B Comparator Period Yt
U-PHASE_A_COMP_PER_XT.                 0 :Phase A Comparator Period Xt
U-MAX_EXC_CUR_LIMIT.MA       265.00000   :Requested CM Current Limit
U-REQ_EXC_FQ.HZ              50          :Requested CM Frequency
U-TILT_Y_OFFSET.          -2.06578       :WPTET Tilt Y Offset
U-TILT_Y_GAIN.           1.02173         :WPTET Tilt Y Gain
U-TILT_X_OFFSET.           2.30841       :WPTET Tilt X Offset
U-TILT_X_GAIN.           1.00000         :WPTET Tilt X Gain
U-TILT_OFFSET_TOL.           0.00100     :WPTET Tilt Offset Calibration Tolerance
U-MOT_CUR_LIMIT_REQ.MA        70.00000   :Requested Motor Current Limit
U-MOT_SPD_REQ_WPMS.RPM        1.00000    :Requested Motor Speed
U-STD_TOL_TILT.           0.01000        :Tilt Standard Deviation Tolerance
CWEI .LB/F      29.00000                 :Casing Weight
CSIZ .IN         7.00000                 :Current Casing Size
LCC  .               440                 :Logging Company Code
LUN  .              2134                 :Logging Unit Number
HIDE .                                   :Header Identifier
HID1 .                                   :Header Identifier Line 1
R1   .                                   :Remark Line 1
WITN .        MR. KELLY McCOY            :Witness's Name
ENGI .        MORRIS MOORE               :Engineer's Name
LUL  .        IOWA COLONY                :Logging Unit Location
DATE .        02-Aug-2018                :Date as Month-Day-Year
STAT .        TEXAS                      :State or Province
COUN .        HARRIS                     :County or Rig Name
FN   .        WILDCAT                    :Field Name
WN   .        WPP TEST 4                 :Well Name
CN   .        SHELL INTERNATIONAL EP     :Company Name
CLAB .        County                     :County/Rig Label
SLAB .        State                      :State/Province Label
RUN  .          1                        :RUN NUMBER
PDAT .        GROUND LEVEL               :Permanent Datum
EPD  .                                   :Elevation of Permanent Datum above Mean Sea Level
LMF  .          NA                       :Logging Measured From (Name of Logging Elevation Reference)
APD  .                                   :Elevation of Depth Reference (LMF) above Permanent Datum
#-----------------------------------------------------------------------------
~CURVE INFORMATION
#MNEM.UNIT   API CODE                                  DESCRIPTION
#---- -----  --------                                  -----------------------
TIME .S                                                :TIME {F10.1}
FREQ_EMF_SL.HZ                                         :Electromagnetic Field Frequency {F13.4}
PH_SH_WPPCM_SL.DEG                                     :WPPCM Phase Shift {F13.4}
RB_SL.DEG                                              :Relative Bearing {F13.4}
SDEV_SL.DEG                                            :Sonde Deviation {F13.4}
RTIX_SL.DEG                                            :Raw X-axis Tilt {F13.4}
RTIY_SL.DEG                                            :Raw Y-axis Tilt {F13.4}
TILX_SL.DEG                                            :X-axis Tilt {F13.4}
TILY_SL.DEG                                            :Y-axis Tilt {F13.4}
ROTA_SL.DEG                                            :Motor Rotation Angle {F13.4}
TOD7 .S                                                :Time of Day {I11}
TOJ  .S                                                :Time of Job {F13.4}
#-----------------------------------------------------------------------------
# 
#     TIME    FREQ_EMF_SL  PH_SH_WPPCM_    RB_SL       SDEV_SL      RTIX_SL      RTIY_SL      TILX_SL      TILY_SL      ROTA_SL        TOD7            TOJ
#                          SL
~A  
# ...
     795.0       0.0000       0.0000     -51.4641    -999.2500     -75.5937     -46.6335     -73.2853     -49.7125     322.2039 1533232798 9999999.9999
     796.0       0.0000       0.0000     -46.9536    -999.2500     -65.3512     -53.1405     -63.0428     -56.3609     328.7205 1533232799 9999999.9999
     797.0       0.0000       0.0000     -38.1624    -999.2500     -51.4133     -70.5327     -49.1049     -74.1309     334.8252 1533232800 9999999.9999
     798.0       0.0000       0.0000     -33.9400    -999.2500     -44.3038     -80.0120     -41.9954     -83.8162     340.9300 1533232801 9999999.9999
     799.0       0.0000       0.0000     -29.9211    -999.2500     -37.4353     -87.2420     -35.1269     -91.2033     347.0040 1533232802 9999999.9999
     800.0       0.0000       0.0000     -25.3381    -999.2500     -30.3258     -93.1465     -28.0174     -97.2361     353.1032 1533232803 9999999.9999
     801.0       0.0000       0.0000     -19.8934    -999.2500     -23.0958     -97.0828     -20.7874    -101.2579     359.2213 1533232804 9999999.9999
     802.0       0.0000       0.0000     -13.2615      83.0853     -15.5746     -98.9606     -13.2662    -103.1765       5.3261 1533232805 9999999.9999
     803.0       0.0000       0.0000      -4.9659      77.1497      -7.1497     -99.5330      -4.8413    -103.7614      11.4257 1533232806 9999999.9999
     804.0       0.0000       0.0000       3.8111      77.0666       1.4058     -99.2518       3.7142    -103.4741      17.5244 1533232807 9999999.9999
     805.0       0.0000       0.0000      11.8657      85.4562       9.5195     -98.4887      11.8279    -102.6943      23.6424 1533232808 9999999.9999
     806.0       0.0000       0.0000      18.2863    -999.2500      16.6692     -96.0787      18.9776    -100.2320      29.7472 1533232809 9999999.9999
     807.0       0.0000       0.0000      23.8166    -999.2500      23.7385     -91.7808      26.0469     -95.8408      35.8460 1533232810 9999999.9999
     808.0     990.3169       0.0000      28.3631    -999.2500      30.3660     -86.2378      32.6744     -90.1773      41.8613 1533232811 9999999.9999
     809.0    1066.9575       0.0000      32.4558    -999.2500      36.8730     -79.6103      39.1814     -83.4058      48.3782 1533232812 9999999.9999
     810.0    1103.8069       0.0000      36.5826    -999.2500      43.5005     -71.4163      45.8089     -75.0338      54.4649 1533232813 9999999.9999
     811.0    1137.7427       0.0000      41.4136    -999.2500      49.7665     -60.0492      52.0749     -63.4196      60.5513 1533232814 9999999.9999
     812.0    1166.0448       0.0000      51.3033    -999.2500      71.3762     -47.1557      73.6846     -50.2460      66.6562 1533232815 9999999.9999
     813.0    1201.9231       0.0000      55.1383    -999.2500      80.1727     -40.7290      82.4811     -43.6797      72.7611 1533232816 9999999.9999
     814.0    1246.6755       0.0000      59.1588    -999.2500      87.6035     -33.8605      89.9119     -36.6620      78.8473 1533232817 9999999.9999
     815.0    1292.5093       0.0000      63.7104    -999.2500      93.4678     -26.7912      95.7762     -29.4390      84.9593 1533232818 9999999.9999
     816.0    1341.8416       0.0000      68.9842    -999.2500      97.3238     -19.7620      99.6322     -22.2572      91.0519 1533232819 9999999.9999
     817.0    1395.0892       0.0000      75.5053    -999.2500      99.3723     -12.3312     101.6807     -14.6649      97.1575 1533232820 9999999.9999
     818.0    1458.7655       0.0000      83.5180      79.5914      99.9347      -4.2175     102.2431      -6.3749     103.2693 1533232821 9999999.9999
     819.0    1521.9155       0.0000      92.4659      77.5123     100.4167       4.3782     102.7251       2.4075     109.3619 1533232822 9999999.9999
     820.0    1587.1896       0.0000     100.6353      83.8998      99.9347      12.3713     102.2431      10.5743     115.4737 1533232823 9999999.9999
     821.0    1654.4117       0.0000     107.7226    -999.2500      97.2033      20.0030      99.5117      18.3718     121.9835 1533232824 9999999.9999
     822.0    1714.9390       0.0000     113.8735    -999.2500      92.5038      27.6347      94.8122      26.1693     128.0830 1533232825 9999999.9999
     823.0    1789.1222       0.0000     118.9643    -999.2500      86.3985      34.9048      88.7069      33.5974     134.1879 1533232826 9999999.9999
     824.0    1840.6414       0.0000     123.6552    -999.2500      78.9275      42.2955      81.2359      41.1487     140.2929 1533232827 9999999.9999
     825.0    1900.3378       0.0000     128.0966    -999.2500      70.1310      49.3648      72.4394      48.3716     146.3801 1533232828 9999999.9999
     826.0    1947.7146       0.0000     135.1888    -999.2500      55.7112      59.4065      58.0196      58.6315     152.4664 1533232829 9999999.9999
     827.0    2003.2051       0.0000     141.4046    -999.2500      47.9992      75.0313      50.3076      74.5958     158.5850 1533232830 9999999.9999
     828.0    2049.9270       0.0000     145.2405    -999.2500      41.2512      83.4663      43.5596      83.2140     164.6906 1533232831 9999999.9999
     829.0    2130.6819       0.0000     149.3307    -999.2500      34.0613      90.7365      36.3697      90.6422     170.8025 1533232832 9999999.9999
     830.0    2183.6179       0.0000     154.1172    -999.2500      26.5100      96.5205      28.8184      96.5518     176.8890 1533232833 9999999.9999
     831.0    2225.0791       0.0000     159.8840    -999.2500      18.6775     101.9430      20.9859     102.0922     183.0073 1533232834 9999999.9999
     832.0    2268.1450       0.0000     166.7244      83.6828      10.8852     104.4735      13.1936     104.6776     189.1122 1533232835 9999999.9999
     833.0    2260.8521       0.0000     175.0031      75.5712       2.5305     105.0358       4.8389     105.2522     195.6160 1533232836 9999999.9999
     834.0    2268.1450       0.0000    -176.4016      74.9996      -5.7840     105.1965      -3.4756     105.4163     201.7210 1533232837 9999999.9999
     835.0    2211.0850       0.0000    -168.3873      82.3872     -13.8173     103.6702     -11.5089     103.8568     207.8259 1533232838 9999999.9999
     836.0    2190.4207       0.0000    -161.1620    -999.2500     -21.9712      99.4125     -19.6628      99.5067     213.9378 1533232839 9999999.9999
     837.0    2124.2446       0.0000    -155.0344    -999.2500     -30.0045      93.3875     -27.6961      93.3508     220.0367 1533232840 9999999.9999
     838.0    2055.9211       0.0000    -149.7586    -999.2500     -37.8772      86.3583     -35.5688      86.1689     226.1293 1533232841 9999999.9999
     839.0    1991.8556       0.0000    -144.7822    -999.2500     -45.8302      77.6823     -43.5218      77.3044     232.2343 1533232842 9999999.9999
     840.0    1947.7146       0.0000    -140.1766    -999.2500     -52.9397      68.5645     -50.6313      67.9884     238.3331 1533232843 9999999.9999
     841.0    1895.2157       0.0000    -131.8937    -999.2500     -67.0783      55.1087     -64.7699      54.2402     244.4320 1533232844 9999999.9999
     842.0    1845.4724       0.0000    -127.4198    -999.2500     -76.4372      48.4008     -74.1288      47.3867     250.5369 1533232845 9999999.9999
     843.0    1784.5813       0.0000    -123.2334    -999.2500     -84.6312      41.6528     -82.3228      40.4921     256.6419 1533232846 9999999.9999
     844.0    1723.3456       0.0000    -118.4835    -999.2500     -91.9013      34.1818     -89.5929      32.8587     262.7405 1533232847 9999999.9999
     845.0    1662.2340       0.0000    -112.9971    -999.2500     -98.0468      26.4698     -95.7384      24.9792     269.2502 1533232848 9999999.9999
     846.0    1605.3082       0.0000    -106.3770    -999.2500    -102.5053      18.4767    -100.1969      16.8123     275.3549 1533232849 9999999.9999
     847.0    1531.8628       0.0000     -99.0296      81.6344    -104.5940      10.7647    -102.2856       8.9328     281.4535 1533232850 9999999.9999
