~VERSION INFORMATION
VERS.           2.0   :CWLS Log ASCII Standard - VERSION 2.0
WRAP.           NO    :One Line per depth step
PROD.  Schlumberger   :LAS Producer
PROG.  DLIS to ASCII 19C2-270                          :LAS Program name and version
CREA.        2018/08/03 10:59                          :LAS Creation date {YYYY/MM/DD hh:mm}
DLIS_CREA.  2018-Aug-03 08:56                          :DLIS Creation date and time {YYYY-MMM-DD hh:mm}
SOURCE.     PERFO_Perfo_063PTP.DLIS                    :DLIS File Name
FILE-ID.     PERFO_Perfo_063PTP                        :File Identification Number
#--------------------------------------------------
~WELL INFORMATION
#MNEM.UNIT      DATA             DESCRIPTION
#---- ------ --------------   -----------------------------
STRT .S            0.0       :START TIME      
STOP .S          897.0       :STOP TIME      
STEP .S            1.0       :STEP     
NULL .          -999.25      :NULL VALUE
COMP .        SHELL INTERNATIONAL EP                   :COMPANY
WELL .        WPP TEST 4                               :WELL
FLD  .        WILDCAT                                  :FIELD
LOC  .        NA                                       :LOCATION
CNTY .        HARRIS                                   :COUNTY
STAT .        TEXAS                                    :STATE
CTRY .                                                 :COUNTRY
API  .        NA                                       :API NUMBER
UWI  .                                                 :UNIQUE WELL ID
DATE .        02-Aug-2018                              :LOG DATE {DD-MMM-YYYY}
SRVC .        Schlumberger                             :SERVICE COMPANY
LATI .DEG                                              :LATITUDE
LONG .DEG                                              :LONGITUDE
GDAT .                                                 :GeoDetic Datum
SECT .        NA                                       :Section
RANG .        NA                                       :Range
TOWN .        NA                                       :Township
#-----------------------------------------------------------------------------
~PARAMETER INFORMATION
#MNEM.UNIT    VALUE                      DESCRIPTION
#---- -----   --------------------       ------------------------
U-PHASE_B_COMP_PER_YT.                 0 :Phase B Comparator Period Yt
U-PHASE_A_COMP_PER_XT.                 0 :Phase A Comparator Period Xt
U-MAX_EXC_CUR_LIMIT.MA       265.00000   :Requested CM Current Limit
U-REQ_EXC_FQ.HZ              50          :Requested CM Frequency
U-TILT_Y_OFFSET.          -2.06578       :WPTET Tilt Y Offset
U-TILT_Y_GAIN.           1.02173         :WPTET Tilt Y Gain
U-TILT_X_OFFSET.           2.30841       :WPTET Tilt X Offset
U-TILT_X_GAIN.           1.00000         :WPTET Tilt X Gain
U-TILT_OFFSET_TOL.           0.00100     :WPTET Tilt Offset Calibration Tolerance
U-MOT_CUR_LIMIT_REQ.MA        70.00000   :Requested Motor Current Limit
U-MOT_SPD_REQ_WPMS.RPM        1.00000    :Requested Motor Speed
U-STD_TOL_TILT.           0.01000        :Tilt Standard Deviation Tolerance
CWEI .LB/F      29.00000                 :Casing Weight
CSIZ .IN         7.00000                 :Current Casing Size
LCC  .               440                 :Logging Company Code
LUN  .              2134                 :Logging Unit Number
HIDE .                                   :Header Identifier
HID1 .                                   :Header Identifier Line 1
R1   .                                   :Remark Line 1
WITN .        MR. KELLY McCOY            :Witness's Name
ENGI .        MORRIS MOORE               :Engineer's Name
LUL  .        IOWA COLONY                :Logging Unit Location
DATE .        02-Aug-2018                :Date as Month-Day-Year
STAT .        TEXAS                      :State or Province
COUN .        HARRIS                     :County or Rig Name
FN   .        WILDCAT                    :Field Name
WN   .        WPP TEST 4                 :Well Name
CN   .        SHELL INTERNATIONAL EP     :Company Name
CLAB .        County                     :County/Rig Label
SLAB .        State                      :State/Province Label
RUN  .          1                        :RUN NUMBER
PDAT .        GROUND LEVEL               :Permanent Datum
EPD  .                                   :Elevation of Permanent Datum above Mean Sea Level
LMF  .          NA                       :Logging Measured From (Name of Logging Elevation Reference)
APD  .                                   :Elevation of Depth Reference (LMF) above Permanent Datum
#-----------------------------------------------------------------------------
~CURVE INFORMATION
#MNEM.UNIT   API CODE                                  DESCRIPTION
#---- -----  --------                                  -----------------------
TIME .S                                                :TIME {F10.1}
FREQ_EMF_SL.HZ                                         :Electromagnetic Field Frequency {F13.4}
PH_SH_WPPCM_SL.DEG                                     :WPPCM Phase Shift {F13.4}
RB_SL.DEG                                              :Relative Bearing {F13.4}
SDEV_SL.DEG                                            :Sonde Deviation {F13.4}
RTIX_SL.DEG                                            :Raw X-axis Tilt {F13.4}
RTIY_SL.DEG                                            :Raw Y-axis Tilt {F13.4}
TILX_SL.DEG                                            :X-axis Tilt {F13.4}
TILY_SL.DEG                                            :Y-axis Tilt {F13.4}
ROTA_SL.DEG                                            :Motor Rotation Angle {F13.4}
TOD7 .S                                                :Time of Day {I11}
TOJ  .S                                                :Time of Job {F13.4}
#-----------------------------------------------------------------------------
# 
#     TIME    FREQ_EMF_SL  PH_SH_WPPCM_    RB_SL       SDEV_SL      RTIX_SL      RTIY_SL      TILX_SL      TILY_SL      ROTA_SL        TOD7            TOJ
#                          SL
~A  
# ...
     477.0       0.0000       0.0000     -50.4766    -999.2500     -73.2238     -48.1197     -70.9154     -51.2310     224.0535 1533231432 9999999.9999
     478.0       0.0000       0.0000     -45.7903    -999.2500     -62.3387     -54.1848     -60.0303     -57.4279     230.1523 1533231433 9999999.9999
     479.0       0.0000       0.0000     -36.9076    -999.2500     -49.3247     -73.2640     -47.0163     -76.9216     236.2511 1533231434 9999999.9999
     480.0       0.0000       0.0000     -32.5136    -999.2500     -41.8135     -82.5425     -39.5051     -86.4017     242.3561 1533231435 9999999.9999
     481.0       0.0000       0.0000     -28.3790    -999.2500     -34.9450     -89.3307     -32.6366     -93.3373     248.4611 1533231436 9999999.9999
     482.0       0.0000       0.0000     -23.4655    -999.2500     -27.7150     -94.6327     -25.4066     -98.7545     254.5732 1533231437 9999999.9999
     483.0       0.0000       0.0000     -17.5158    -999.2500     -20.2842     -97.8862     -17.9758    -102.0787     260.6718 1533231438 9999999.9999
     484.0       0.0000       0.0000     -10.8499      82.1023     -13.0542     -99.1715     -10.7458    -103.3920     266.7776 1533231439 9999999.9999
     485.0       0.0000       0.0000      -2.4158      76.6986      -4.6593     -99.2920      -2.3509    -103.5151     272.8954 1533231440 9999999.9999
     486.0       0.0000       0.0000       5.7274      78.0108       3.2937     -99.0510       5.6021    -103.2689     279.3866 1533231441 9999999.9999
     487.0       0.0000       0.0000      14.1160      86.9662      11.9295     -97.8460      14.2379    -102.0377     285.4789 1533231442 9999999.9999
     488.0       0.0000       0.0000      19.8720    -999.2500      18.5972     -95.0343      20.9056     -99.1649     291.5836 1533231443 9999999.9999
     489.0       0.0000       0.0000      25.1047    -999.2500      25.5460     -90.2545      27.8544     -94.2813     297.6823 1533231444 9999999.9999
     490.0       0.0000       0.0000      29.4749    -999.2500      32.0932     -84.5508      34.4016     -88.4537     303.7809 1533231445 9999999.9999
     491.0       0.0000       0.0000      33.6131    -999.2500      38.7207     -77.2003      41.0291     -80.9435     309.8856 1533231446 9999999.9999
     492.0       0.0000       0.0000      38.0578    -999.2500      45.7097     -68.1628      48.0181     -71.7096     315.9911 1533231447 9999999.9999
     493.0       0.0000       0.0000      46.7952    -999.2500      56.0325     -49.9272      58.3409     -53.0777     322.0897 1533231448 9999999.9999
     494.0       0.0000       0.0000      52.6026    -999.2500      74.3887     -45.0268      76.6971     -48.0709     328.1883 1533231449 9999999.9999
     495.0       0.0000       0.0000      56.7739    -999.2500      83.1450     -37.8772      85.4534     -40.7659     334.2931 1533231450 9999999.9999
     496.0       0.0000       0.0000      60.8263    -999.2500      89.7323     -31.1693      92.0407     -33.9123     340.3978 1533231451 9999999.9999
     497.0       0.0000       0.0000      65.2773    -999.2500      94.8737     -24.5820      97.1821     -27.1819     346.4719 1533231452 9999999.9999
     498.0       0.0000       0.0000      70.7280    -999.2500      97.9665     -17.6733     100.2749     -20.1231     352.9946 1533231453 9999999.9999
     499.0       0.0000       0.0000      77.5007      84.7666      99.5330     -10.2425     101.8414     -12.5308     359.1124 1533231454 9999999.9999
     500.0       0.0000       0.0000      86.4671      78.4383      99.7740      -1.3657     102.0824      -3.4611       5.2242 1533231455 9999999.9999
     501.0       0.0000       0.0000      95.9995      79.3542      99.8945       7.7923     102.2029       5.8959      11.3368 1533231456 9999999.9999
     502.0       0.0000       0.0000     103.0347      87.6837      99.0510      14.8617     101.3594      13.1188      17.4417 1533231457 9999999.9999
     503.0       0.0000       0.0000     109.5892    -999.2500      95.7975      22.2122      98.1059      20.6290      23.5343 1533231458 9999999.9999
     504.0       0.0000       0.0000     115.4546    -999.2500      90.5758      29.8037      92.8842      28.3854      29.6330 1533231459 9999999.9999
     505.0       0.0000       0.0000     120.7432    -999.2500      83.5868      37.6362      85.8952      36.3881      35.7071 1533231460 9999999.9999
     506.0       0.0000       0.0000     125.2448    -999.2500      75.7543      44.8260      78.0627      43.7342      41.8119 1533231461 9999999.9999
     507.0       0.0000       0.0000     129.9178    -999.2500      66.1143      52.0158      68.4227      51.0802      47.9299 1533231462 9999999.9999
     508.0       0.0000       0.0000     138.2908    -999.2500      52.8192      67.6005      55.1276      67.0035      54.0286 1533231463 9999999.9999
     509.0       0.0000       0.0000     142.4975    -999.2500      46.1113      77.4815      48.4197      77.0992      60.1396 1533231464 9999999.9999
     510.0       0.0000       0.0000     146.3539    -999.2500      39.2428      85.4747      41.5512      85.2660      66.6433 1533231465 9999999.9999
     511.0       0.0000       0.0000     150.6328    -999.2500      31.8923      92.7448      34.2007      92.6941      72.7295 1533231466 9999999.9999
     512.0       0.0000       0.0000     155.6827    -999.2500      24.2205      98.6493      26.5289      98.7269      78.8283 1533231467 9999999.9999
     513.0       0.0000       0.0000     161.7927    -999.2500      16.3880     102.7865      18.6964     102.9540      84.9331 1533231468 9999999.9999
     514.0       0.0000       0.0000     169.0454      79.9244       8.4752     104.6342      10.7836     104.8418      91.0380 1533231469 9999999.9999
     515.0       0.0000       0.0000     177.4012      74.9240       0.2008     105.0760       2.5092     105.2932      97.1367 1533231470 9999999.9999
     516.0       0.0000       0.0000    -173.4448      76.2892      -8.6760     104.9555      -6.3676     105.1701     103.2354 1533231471 9999999.9999
     517.0       0.0000       0.0000    -165.7830      91.5547     -16.6290     102.3447     -14.3206     102.5025     109.3533 1533231472 9999999.9999
     518.0       0.0000       0.0000    -158.8932    -999.2500     -24.8230      97.2033     -22.5146      97.2495     115.4582 1533231473 9999999.9999
     519.0    2218.0601       0.0000    -153.1931    -999.2500     -32.6555      90.8972     -30.3471      90.8063     121.4733 1533231474 9999999.9999
     520.0    1443.7886       0.0000    -148.0753    -999.2500     -40.5282      83.4663     -38.2198      83.2140     127.5861 1533231475 9999999.9999
     521.0    1397.8628       0.0000    -143.5418    -999.2500     -47.7983      75.2723     -45.4899      74.8420     133.6785 1533231476 9999999.9999
     522.0    1365.2913       0.0000    -138.6502    -999.2500     -55.0283      65.3512     -52.7199      64.7053     140.2015 1533231477 9999999.9999
     523.0    1326.6509       0.0000    -130.6383    -999.2500     -69.6088      53.2610     -67.3004      52.3524     146.3004 1533231478 9999999.9999
     524.0    1299.6765       0.0000    -126.1878    -999.2500     -78.7668      46.3925     -76.4584      45.3347     152.4053 1533231479 9999999.9999
     525.0    1269.1787       0.0000    -121.9235    -999.2500     -86.6797      39.5240     -84.3713      38.3170     158.5103 1533231480 9999999.9999
     526.0    1237.8961       0.0000    -117.0972    -999.2500     -93.6285      32.1333     -91.3201      30.7657     164.5968 1533231481 9999999.9999
     527.0    1216.4792       0.0000    -111.3296    -999.2500     -99.2920      24.3410     -96.9836      22.8041     170.6957 1533231482 9999999.9999
     528.0    1199.8721       0.0000    -104.0650    -999.2500    -103.5095      15.9462    -101.2011      14.2269     176.7883 1533231483 9999999.9999
     529.0    1175.7943       0.0000     -96.3336      79.3574    -104.6743       8.1137    -102.3659       6.2242     182.8933 1533231484 9999999.9999
