~VERSION INFORMATION
VERS.           2.0   :CWLS Log ASCII Standard - VERSION 2.0
WRAP.           NO    :One Line per depth step
PROD.  Schlumberger   :LAS Producer
PROG.  DLIS to ASCII 19C2-270                          :LAS Program name and version
CREA.        2018/08/03 10:59                          :LAS Creation date {YYYY/MM/DD hh:mm}
DLIS_CREA.  2018-Aug-03 08:58                          :DLIS Creation date and time {YYYY-MMM-DD hh:mm}
SOURCE.     PERFO_Perfo_064PTP.DLIS                    :DLIS File Name
FILE-ID.     PERFO_Perfo_064PTP                        :File Identification Number
#--------------------------------------------------
~WELL INFORMATION
#MNEM.UNIT      DATA             DESCRIPTION
#---- ------ --------------   -----------------------------
STRT .S            0.0       :START TIME      
STOP .S          966.0       :STOP TIME      
STEP .S            1.0       :STEP     
NULL .          -999.25      :NULL VALUE
COMP .        SHELL INTERNATIONAL EP                   :COMPANY
WELL .        WPP TEST 4                               :WELL
FLD  .        WILDCAT                                  :FIELD
LOC  .        NA                                       :LOCATION
CNTY .        HARRIS                                   :COUNTY
STAT .        TEXAS                                    :STATE
CTRY .                                                 :COUNTRY
API  .        NA                                       :API NUMBER
UWI  .                                                 :UNIQUE WELL ID
DATE .        02-Aug-2018                              :LOG DATE {DD-MMM-YYYY}
SRVC .        Schlumberger                             :SERVICE COMPANY
LATI .DEG                                              :LATITUDE
LONG .DEG                                              :LONGITUDE
GDAT .                                                 :GeoDetic Datum
SECT .        NA                                       :Section
RANG .        NA                                       :Range
TOWN .        NA                                       :Township
#-----------------------------------------------------------------------------
~PARAMETER INFORMATION
#MNEM.UNIT    VALUE                      DESCRIPTION
#---- -----   --------------------       ------------------------
U-PHASE_B_COMP_PER_YT.                 0 :Phase B Comparator Period Yt
U-PHASE_A_COMP_PER_XT.                 0 :Phase A Comparator Period Xt
U-MAX_EXC_CUR_LIMIT.MA       265.00000   :Requested CM Current Limit
U-REQ_EXC_FQ.HZ              50          :Requested CM Frequency
U-TILT_Y_OFFSET.          -2.06578       :WPTET Tilt Y Offset
U-TILT_Y_GAIN.           1.02173         :WPTET Tilt Y Gain
U-TILT_X_OFFSET.           2.30841       :WPTET Tilt X Offset
U-TILT_X_GAIN.           1.00000         :WPTET Tilt X Gain
U-TILT_OFFSET_TOL.           0.00100     :WPTET Tilt Offset Calibration Tolerance
U-MOT_CUR_LIMIT_REQ.MA        70.00000   :Requested Motor Current Limit
U-MOT_SPD_REQ_WPMS.RPM        1.00000    :Requested Motor Speed
U-STD_TOL_TILT.           0.01000        :Tilt Standard Deviation Tolerance
CWEI .LB/F      29.00000                 :Casing Weight
CSIZ .IN         7.00000                 :Current Casing Size
LCC  .               440                 :Logging Company Code
LUN  .              2134                 :Logging Unit Number
HIDE .                                   :Header Identifier
HID1 .                                   :Header Identifier Line 1
R1   .                                   :Remark Line 1
WITN .        MR. KELLY McCOY            :Witness's Name
ENGI .        MORRIS MOORE               :Engineer's Name
LUL  .        IOWA COLONY                :Logging Unit Location
DATE .        02-Aug-2018                :Date as Month-Day-Year
STAT .        TEXAS                      :State or Province
COUN .        HARRIS                     :County or Rig Name
FN   .        WILDCAT                    :Field Name
WN   .        WPP TEST 4                 :Well Name
CN   .        SHELL INTERNATIONAL EP     :Company Name
CLAB .        County                     :County/Rig Label
SLAB .        State                      :State/Province Label
RUN  .          1                        :RUN NUMBER
PDAT .        GROUND LEVEL               :Permanent Datum
EPD  .                                   :Elevation of Permanent Datum above Mean Sea Level
LMF  .          NA                       :Logging Measured From (Name of Logging Elevation Reference)
APD  .                                   :Elevation of Depth Reference (LMF) above Permanent Datum
#-----------------------------------------------------------------------------
~CURVE INFORMATION
#MNEM.UNIT   API CODE                                  DESCRIPTION
#---- -----  --------                                  -----------------------
TIME .S                                                :TIME {F10.1}
FREQ_EMF_SL.HZ                                         :Electromagnetic Field Frequency {F13.4}
PH_SH_WPPCM_SL.DEG                                     :WPPCM Phase Shift {F13.4}
RB_SL.DEG                                              :Relative Bearing {F13.4}
SDEV_SL.DEG                                            :Sonde Deviation {F13.4}
RTIX_SL.DEG                                            :Raw X-axis Tilt {F13.4}
RTIY_SL.DEG                                            :Raw Y-axis Tilt {F13.4}
TILX_SL.DEG                                            :X-axis Tilt {F13.4}
TILY_SL.DEG                                            :Y-axis Tilt {F13.4}
ROTA_SL.DEG                                            :Motor Rotation Angle {F13.4}
TOD7 .S                                                :Time of Day {I11}
TOJ  .S                                                :Time of Job {F13.4}
#-----------------------------------------------------------------------------
# 
#     TIME    FREQ_EMF_SL  PH_SH_WPPCM_    RB_SL       SDEV_SL      RTIX_SL      RTIY_SL      TILX_SL      TILY_SL      ROTA_SL        TOD7            TOJ
#                          SL
~A  
# ...
     530.0    2493.3511       0.0000     141.7961    -999.2500      47.3163      75.8748      49.6247      75.4576     137.0504 1533232533 9999999.9999
     531.0    2449.9128       0.0000     145.6209    -999.2500      40.5683      84.2295      42.8767      83.9938     143.1625 1533232534 9999999.9999
     532.0    2328.2285       0.0000     149.6880    -999.2500      33.4588      91.3390      35.7672      91.2578     149.2621 1533232535 9999999.9999
     533.0    2211.0850       0.0000     154.6151    -999.2500      25.7468      97.5648      28.0552      97.6189     155.3671 1533232536 9999999.9999
     534.0    2080.2515       0.0000     160.4426    -999.2500      17.9947     102.2242      20.3031     102.3794     161.4721 1533232537 9999999.9999
     535.0    1980.6338       0.0000     167.4893      82.1053      10.0818     104.5538      12.3902     104.7597     167.5709 1533232538 9999999.9999
     536.0    1895.2157       0.0000     176.2813      75.1130       1.2853     105.1162       3.5937     105.3343     173.6576 1533232539 9999999.9999
     537.0    1831.0547       0.0000    -174.8320      75.4559      -7.3103     105.1965      -5.0019     105.4163     179.7626 1533232540 9999999.9999
     538.0    1762.2180       0.0000    -167.1431      86.6371     -15.1428     103.1078     -12.8344     103.2823     185.8806 1533232541 9999999.9999
     539.0    1690.2042       0.0000    -159.9609    -999.2500     -23.4573      98.3682     -21.1489      98.4397     191.9672 1533232542 9999999.9999
     540.0    1612.6721       0.0000    -154.1314    -999.2500     -31.2898      92.3030     -28.9814      92.2427     198.0537 1533232543 9999999.9999
     541.0    1541.9408       0.0000    -148.9622    -999.2500     -39.1223      84.9525     -36.8139      84.7325     204.1719 1533232544 9999999.9999
     542.0    1461.7983       0.0000    -144.2884    -999.2500     -46.6335      76.7987     -44.3251      76.4015     210.6819 1533232545 9999999.9999
     543.0    1392.3268       0.0000    -139.6367    -999.2500     -53.7028      67.4398     -51.3944      66.8393     216.7807 1533232546 9999999.9999
     544.0    1329.1588       0.0000    -131.4353    -999.2500     -68.0423      54.4660     -65.7339      53.5836     222.8987 1533232547 9999999.9999
     545.0    1273.7772       0.0000    -126.9182    -999.2500     -77.4413      47.5975     -75.1329      46.5659     229.0037 1533232548 9999999.9999
     546.0    1222.8260       0.0000    -122.6735    -999.2500     -85.4345      40.7290     -83.1261      39.5481     235.1025 1533232549 9999999.9999
     547.0    1173.8313       0.0000    -117.9183    -999.2500     -92.6243      33.3383     -90.3159      31.9969     241.2013 1533232550 9999999.9999
     548.0    1136.3636       0.0000    -112.1205    -999.2500     -98.8100      25.3351     -96.5016      23.8198     247.3063 1533232551 9999999.9999
     549.0    1098.6328       0.0000    -105.2599    -999.2500    -103.1882      17.2315    -100.8798      15.5401     253.4113 1533232552 9999999.9999
     550.0    1065.3409       0.0000     -97.7326      80.2174    -104.7547       9.4793    -102.4463       7.6195     259.5100 1533232553 9999999.9999
     551.0    1035.5303       0.0000     -89.1453      77.5424    -104.7948       1.2050    -102.4864      -0.8346     265.6086 1533232554 9999999.9999
     552.0    1016.0765       0.0000     -80.5421      82.2500    -104.5137      -7.1497    -102.2053      -9.3708     271.7133 1533232555 9999999.9999
     553.0    1000.1779       0.0000     -72.9689      85.6797    -102.6660     -15.1428    -100.3576     -17.5376     277.8058 1533232556 9999999.9999
     554.0     980.6486       0.0000     -67.2145    -999.2500     -98.6092     -22.1318     -96.3008     -24.6785     284.3093 1533232557 9999999.9999
     555.0     964.5062       0.0000     -61.4977    -999.2500     -92.9457     -30.1652     -90.6373     -32.8863     290.4271 1533232558 9999999.9999
     556.0     964.5062       0.0000     -56.9046    -999.2500     -86.1977     -37.5157     -83.8893     -40.3966     296.5319 1533232559 9999999.9999
     557.0     957.9360       0.0000     -52.8383    -999.2500     -78.4053     -44.3440     -76.0969     -47.3732     302.6182 1533232560 9999999.9999
     558.0     963.1849       0.0000     -48.6040    -999.2500     -69.0867     -50.9313     -66.7783     -54.1037     308.7168 1533232561 9999999.9999
     559.0     967.1596       0.0000     -39.3601    -999.2500     -53.2208     -67.6005     -50.9124     -71.1350     314.8215 1533232562 9999999.9999
     560.0     977.5808       0.0000     -35.1265    -999.2500     -46.3624     -77.5116     -44.0540     -81.2615     320.9263 1533232563 9999999.9999
     561.0     993.1144       0.0000     -31.0027    -999.2500     -39.2428     -85.5550     -36.9344     -89.4797     327.0249 1533232564 9999999.9999
     562.0    1013.1484       0.0000     -26.5609    -999.2500     -32.1333     -91.7407     -29.8249     -95.7997     333.1304 1533232565 9999999.9999
     563.0    1037.0575       0.0000     -21.3722    -999.2500     -24.9435     -96.2795     -22.6351    -100.4372     339.2351 1533232566 9999999.9999
     564.0    1063.7292       0.0000     -15.2810    -999.2500     -17.7537     -98.6895     -15.4453    -102.8995     345.3337 1533232567 9999999.9999
     565.0    1102.0768       0.0000      -7.7614      78.8012      -9.9212     -99.3723      -7.6128    -103.5972     351.4454 1533232568 9999999.9999
     566.0    1141.4368       0.0000       1.0109      76.4809      -1.3255     -99.3322       0.9829    -103.5562     357.5501 1533232569 9999999.9999
     567.0    1183.7122       0.0000       9.4930      81.1044       7.0693     -98.7698       9.3777    -102.9816       4.0599 1533232570 9999999.9999
     568.0    1231.3923       0.0000      16.3854     107.5166      14.4600     -96.9623      16.7684    -101.1348      10.1594 1533232571 9999999.9999
     569.0    1292.5093       0.0000      22.0794    -999.2500      21.4088     -93.3473      23.7172     -97.4413      16.2643 1533232572 9999999.9999
     570.0    1352.1635       0.0000      26.9026    -999.2500      28.1568     -88.2060      30.4652     -92.1882      22.3516 1533232573 9999999.9999
     571.0    1432.0265       0.0000      31.1201    -999.2500      34.7040     -81.8195      37.0124     -85.6630      28.4442 1533232574 9999999.9999
     572.0    1508.8519       0.0000      35.2098    -999.2500      41.3315     -74.2682      43.6399     -77.9476      34.5430 1533232575 9999999.9999
     573.0    1590.7806       0.0000      39.9665    -999.2500      48.3205     -63.8248      50.6289     -67.2774      40.6478 1533232576 9999999.9999
     574.0    1662.2340       0.0000      50.3975    -999.2500      69.2875     -48.6017      71.5959     -51.7234      46.7527 1533232577 9999999.9999
     575.0    1744.7272       0.0000      54.2018    -999.2500      78.0840     -42.3357      80.3924     -45.3213      52.8514 1533232578 9999999.9999
     576.0    1802.8846       0.0000      58.0294    -999.2500      85.6353     -35.7483      87.9437     -38.5908      58.9502 1533232579 9999999.9999
     577.0    1875.0000       0.0000      62.2193    -999.2500      91.8612     -29.0003      94.1696     -31.6962      65.0550 1533232580 9999999.9999
     578.0    1942.3344       0.0000      67.1375    -999.2500      96.3197     -22.0917      98.6281     -24.6374      71.1599 1533232581 9999999.9999
     579.0    2049.9270       0.0000      73.1885    -999.2500      98.7297     -14.8617     101.0381     -17.2503      77.6513 1533232582 9999999.9999
     580.0    2170.1389       0.0000      80.7049      82.1210      99.8543      -6.9890     102.1627      -9.2066      83.7631 1533232583 9999999.9999
     581.0    2312.9111       0.0000      89.8176      77.3967     100.2962       1.8477     102.6046      -0.1780      89.8679 1533232584 9999999.9999
     582.0    2441.4063       0.0000      98.2683      80.4530     100.2962      10.0015     102.6046       8.1530      95.9858 1533232585 9999999.9999
