~VERSION INFORMATION
VERS.           2.0   :CWLS Log ASCII Standard - VERSION 2.0
WRAP.           NO    :One Line per depth step
PROD.  Schlumberger   :LAS Producer
PROG.  DLIS to ASCII 19C2-270                          :LAS Program name and version
CREA.        2018/08/03 10:59                          :LAS Creation date {YYYY/MM/DD hh:mm}
DLIS_CREA.  2018-Aug-03 08:58                          :DLIS Creation date and time {YYYY-MMM-DD hh:mm}
SOURCE.     PERFO_Perfo_064PTP.DLIS                    :DLIS File Name
FILE-ID.     PERFO_Perfo_064PTP                        :File Identification Number
#--------------------------------------------------
~WELL INFORMATION
#MNEM.UNIT      DATA             DESCRIPTION
#---- ------ --------------   -----------------------------
STRT .S            0.0       :START TIME      
STOP .S          966.0       :STOP TIME      
STEP .S            1.0       :STEP     
NULL .          -999.25      :NULL VALUE
COMP .        SHELL INTERNATIONAL EP                   :COMPANY
WELL .        WPP TEST 4                               :WELL
FLD  .        WILDCAT                                  :FIELD
LOC  .        NA                                       :LOCATION
CNTY .        HARRIS                                   :COUNTY
STAT .        TEXAS                                    :STATE
CTRY .                                                 :COUNTRY
API  .        NA                                       :API NUMBER
UWI  .                                                 :UNIQUE WELL ID
DATE .        02-Aug-2018                              :LOG DATE {DD-MMM-YYYY}
SRVC .        Schlumberger                             :SERVICE COMPANY
LATI .DEG                                              :LATITUDE
LONG .DEG                                              :LONGITUDE
GDAT .                                                 :GeoDetic Datum
SECT .        NA                                       :Section
RANG .        NA                                       :Range
TOWN .        NA                                       :Township
#-----------------------------------------------------------------------------
~PARAMETER INFORMATION
#MNEM.UNIT    VALUE                      DESCRIPTION
#---- -----   --------------------       ------------------------
U-PHASE_B_COMP_PER_YT.                 0 :Phase B Comparator Period Yt
U-PHASE_A_COMP_PER_XT.                 0 :Phase A Comparator Period Xt
U-MAX_EXC_CUR_LIMIT.MA       265.00000   :Requested CM Current Limit
U-REQ_EXC_FQ.HZ              50          :Requested CM Frequency
U-TILT_Y_OFFSET.          -2.06578       :WPTET Tilt Y Offset
U-TILT_Y_GAIN.           1.02173         :WPTET Tilt Y Gain
U-TILT_X_OFFSET.           2.30841       :WPTET Tilt X Offset
U-TILT_X_GAIN.           1.00000         :WPTET Tilt X Gain
U-TILT_OFFSET_TOL.           0.00100     :WPTET Tilt Offset Calibration Tolerance
U-MOT_CUR_LIMIT_REQ.MA        70.00000   :Requested Motor Current Limit
U-MOT_SPD_REQ_WPMS.RPM        1.00000    :Requested Motor Speed
U-STD_TOL_TILT.           0.01000        :Tilt Standard Deviation Tolerance
CWEI .LB/F      29.00000                 :Casing Weight
CSIZ .IN         7.00000                 :Current Casing Size
LCC  .               440                 :Logging Company Code
LUN  .              2134                 :Logging Unit Number
HIDE .                                   :Header Identifier
HID1 .                                   :Header Identifier Line 1
R1   .                                   :Remark Line 1
WITN .        MR. KELLY McCOY            :Witness's Name
ENGI .        MORRIS MOORE               :Engineer's Name
LUL  .        IOWA COLONY                :Logging Unit Location
DATE .        02-Aug-2018                :Date as Month-Day-Year
STAT .        TEXAS                      :State or Province
COUN .        HARRIS                     :County or Rig Name
FN   .        WILDCAT                    :Field Name
WN   .        WPP TEST 4                 :Well Name
CN   .        SHELL INTERNATIONAL EP     :Company Name
CLAB .        County                     :County/Rig Label
SLAB .        State                      :State/Province Label
RUN  .          1                        :RUN NUMBER
PDAT .        GROUND LEVEL               :Permanent Datum
EPD  .                                   :Elevation of Permanent Datum above Mean Sea Level
LMF  .          NA                       :Logging Measured From (Name of Logging Elevation Reference)
APD  .                                   :Elevation of Depth Reference (LMF) above Permanent Datum
#-----------------------------------------------------------------------------
~CURVE INFORMATION
#MNEM.UNIT   API CODE                                  DESCRIPTION
#---- -----  --------                                  -----------------------
TIME .S                                                :TIME {F10.1}
FREQ_EMF_SL.HZ                                         :Electromagnetic Field Frequency {F13.4}
PH_SH_WPPCM_SL.DEG                                     :WPPCM Phase Shift {F13.4}
RB_SL.DEG                                              :Relative Bearing {F13.4}
SDEV_SL.DEG                                            :Sonde Deviation {F13.4}
RTIX_SL.DEG                                            :Raw X-axis Tilt {F13.4}
RTIY_SL.DEG                                            :Raw Y-axis Tilt {F13.4}
TILX_SL.DEG                                            :X-axis Tilt {F13.4}
TILY_SL.DEG                                            :Y-axis Tilt {F13.4}
ROTA_SL.DEG                                            :Motor Rotation Angle {F13.4}
TOD7 .S                                                :Time of Day {I11}
TOJ  .S                                                :Time of Job {F13.4}
#-----------------------------------------------------------------------------
# 
#     TIME    FREQ_EMF_SL  PH_SH_WPPCM_    RB_SL       SDEV_SL      RTIX_SL      RTIY_SL      TILX_SL      TILY_SL      ROTA_SL        TOD7            TOJ
#                          SL
~A  
# ...
     477.0       0.0000       0.0000    -179.7695      74.5033      -2.5305     105.2768      -0.2221     105.4984     171.7251 1533232480 9999999.9999
     478.0       0.0000       0.0000    -171.7910      77.5429     -10.3228     104.6743      -8.0144     104.8828     177.8300 1533232481 9999999.9999
     479.0       0.0000       0.0000    -164.1038      87.3903     -18.5168     101.3003     -16.2084     101.4355     183.9356 1533232482 9999999.9999
     480.0       0.0000       0.0000    -157.4166    -999.2500     -26.7510      95.7975     -24.4426      95.8131     190.0344 1533232483 9999999.9999
     481.0       0.0000       0.0000    -151.7636    -999.2500     -34.7843      89.2102     -32.4759      89.0827     196.1210 1533232484 9999999.9999
     482.0       0.0000       0.0000    -146.9855    -999.2500     -42.2955      81.7793     -39.9871      81.4904     202.6370 1533232485 9999999.9999
     483.0       0.0000       0.0000    -142.2217    -999.2500     -49.8870      72.7418     -47.5786      72.2565     208.7359 1533232486 9999999.9999
     484.0       0.0000       0.0000    -137.2484    -999.2500     -56.6752      62.2583     -54.3668      61.5453     214.8224 1533232487 9999999.9999
     485.0       0.0000       0.0000    -129.4681    -999.2500     -72.2598      51.6142     -69.9514      50.6698     220.9274 1533232488 9999999.9999
     486.0       0.0000       0.0000    -125.1013    -999.2500     -81.0162      44.6653     -78.7078      43.5700     227.0454 1533232489 9999999.9999
     487.0       0.0000       0.0000    -120.7289    -999.2500     -88.6880      37.6362     -86.3796      36.3881     233.1442 1533232490 9999999.9999
     488.0       0.0000       0.0000    -115.2866    -999.2500     -95.6368      29.5627     -93.3284      28.1392     239.2431 1533232491 9999999.9999
     489.0       0.0000       0.0000    -109.1615    -999.2500    -100.8987      21.6900     -98.5903      20.0955     245.3611 1533232492 9999999.9999
     490.0       0.0000       0.0000    -102.1978      84.3316    -104.1120      13.9780    -101.8036      12.2159     251.4924 1533232493 9999999.9999
     491.0       0.0000       0.0000     -94.0955      78.1517    -104.8350       5.9447    -102.5266       4.0080     257.5912 1533232494 9999999.9999
     492.0       0.0000       0.0000     -85.3792      78.5174    -104.6743      -2.4100    -102.3659      -4.5281     263.6773 1533232495 9999999.9999
     493.0    1269.1787       0.0000     -77.2333      88.9303    -104.0317     -10.5237    -101.7233     -12.8181     269.7111 1533232496 9999999.9999
     494.0    1020.5007       0.0000     -70.2482    -999.2500    -101.1798     -18.3160     -98.8714     -20.7797     276.2208 1533232497 9999999.9999
     495.0     969.8276       0.0000     -64.4098    -999.2500     -96.3598     -25.9075     -94.0514     -28.5362     282.3194 1533232498 9999999.9999
     496.0     959.2429       0.0000     -59.4604    -999.2500     -90.2545     -33.3383     -87.9461     -36.1285     288.4241 1533232499 9999999.9999
     497.0     951.4547       0.0000     -55.1904    -999.2500     -83.1852     -40.4077     -80.8768     -43.3514     294.5288 1533232500 9999999.9999
     498.0     951.4547       0.0000     -51.1581    -999.2500     -74.7903     -47.0753     -72.4819     -50.1639     300.6274 1533232501 9999999.9999
     499.0     959.2429       0.0000     -46.4402    -999.2500     -64.1060     -53.7028     -61.7976     -56.9354     306.7260 1533232502 9999999.9999
     500.0     968.4918       0.0000     -37.3478    -999.2500     -50.1280     -72.5410     -47.8196     -76.1829     312.8308 1533232503 9999999.9999
     501.0     979.2828       0.0000     -33.2759    -999.2500     -43.1390     -81.2170     -40.8306     -85.0474     318.9355 1533232504 9999999.9999
     502.0     991.7137       0.0000     -29.1594    -999.2500     -36.1902     -88.3667     -33.8818     -92.3524     325.0341 1533232505 9999999.9999
     503.0    1021.9840       0.0000     -24.4002    -999.2500     -29.0003     -93.9097     -26.6919     -98.0158     331.1327 1533232506 9999999.9999
     504.0    1046.3170       0.0000     -18.8979    -999.2500     -21.8908     -97.5648     -19.5824    -101.7504     337.2375 1533232507 9999999.9999
     505.0    1080.0691       0.0000     -12.4001      85.0125     -14.6608     -99.1313     -12.3524    -103.3510     343.3422 1533232508 9999999.9999
     506.0    1117.8457       0.0000      -4.2257      77.0643      -6.4267     -99.3723      -4.1183    -103.5972     349.8457 1533232509 9999999.9999
     507.0    1156.4556       0.0000       4.5888      77.3615       2.1690     -99.2117       4.4774    -103.4330     355.9505 1533232510 9999999.9999
     508.0    1203.9811       0.0000      12.4370      88.1533      10.1220     -98.3682      12.4304    -102.5712       2.0430 1533232511 9999999.9999
     509.0    1260.0807       0.0000      18.7557    -999.2500      17.2315     -95.7975      19.5399     -99.9447       8.1295 1533232512 9999999.9999
     510.0    1319.1838       0.0000      24.1354    -999.2500      24.1803     -91.4193      26.4887     -95.4714      14.2282 1533232513 9999999.9999
     511.0    1386.8344       0.0000      28.7534    -999.2500      30.9685     -85.7157      33.2769     -89.6438      20.3331 1533232514 9999999.9999
     512.0    1467.9019       0.0000      33.0915    -999.2500      37.9173     -78.5258      40.2257     -82.2978      26.4257 1533232515 9999999.9999
     513.0    1541.9408       0.0000      37.2849    -999.2500      44.5850     -69.9302      46.8934     -73.5153      32.5245 1533232516 9999999.9999
     514.0    1620.1036       0.0000      42.3776    -999.2500      50.3288     -57.2777      52.6372     -60.5879      38.6232 1533232517 9999999.9999
     515.0    1702.4818       0.0000      51.9950    -999.2500      72.9828     -46.0310      75.2912     -49.0969      44.7281 1533232518 9999999.9999
     516.0    1771.0958       0.0000      55.7967    -999.2500      81.2973     -39.5642      83.6057     -42.4896      50.8329 1533232519 9999999.9999
     517.0    1835.8356       0.0000      59.6965    -999.2500      88.4872     -32.9768      90.7956     -35.7591      56.9447 1533232520 9999999.9999
     518.0    1900.3378       0.0000      64.1834    -999.2500      93.9900     -26.1083      96.2984     -28.7414      63.4484 1533232521 9999999.9999
     519.0    1997.5142       0.0000      69.5426    -999.2500      97.6050     -19.0792      99.9134     -21.5595      69.5349 1533232522 9999999.9999
     520.0    2098.8806       0.0000      76.0776    -999.2500      99.3723     -11.7287     101.6807     -14.0493      75.6336 1533232523 9999999.9999
     521.0    2246.4058       0.0000      84.5079      78.9511     100.0150      -3.2535     102.3234      -5.3900      81.7323 1533232524 9999999.9999
     522.0    2391.5815       0.0000      93.3874      77.7686     100.3765       5.2618     102.6849       3.3104      87.8433 1533232525 9999999.9999
     523.0    2475.7922       0.0000     101.4590      86.4064      99.6937      13.2148     102.0021      11.4362      93.9420 1533232526 9999999.9999
     524.0    2484.5405       0.0000     108.8237    -999.2500      96.5205      21.2883      98.8289      19.6851     100.0285 1533232527 9999999.9999
     525.0    2484.5405       0.0000     114.7594    -999.2500      91.4595      28.8397      93.7679      27.4005     106.1272 1533232528 9999999.9999
     526.0    2484.5405       0.0000     119.8582    -999.2500      85.1132      36.2705      87.4216      34.9928     112.2320 1533232529 9999999.9999
     527.0    2493.3511       0.0000     124.3758    -999.2500      77.6020      43.4603      79.9104      42.3388     118.3369 1533232530 9999999.9999
     528.0    2493.3511       0.0000     128.9091    -999.2500      68.2432      50.5297      70.5516      49.5618     124.4356 1533232531 9999999.9999
     529.0    2493.3511       0.0000     137.6520    -999.2500      53.6627      66.0340      55.9711      65.4030     130.5344 1533232532 9999999.9999
