~VERSION INFORMATION
VERS.           2.0   :CWLS Log ASCII Standard - VERSION 2.0
WRAP.           NO    :One Line per depth step
PROD.  Schlumberger   :LAS Producer
PROG.  DLIS to ASCII 19C2-270                          :LAS Program name and version
CREA.        2018/08/03 10:59                          :LAS Creation date {YYYY/MM/DD hh:mm}
DLIS_CREA.  2018-Aug-03 08:58                          :DLIS Creation date and time {YYYY-MMM-DD hh:mm}
SOURCE.     PERFO_Perfo_064PTP.DLIS                    :DLIS File Name
FILE-ID.     PERFO_Perfo_064PTP                        :File Identification Number
#--------------------------------------------------
~WELL INFORMATION
#MNEM.UNIT      DATA             DESCRIPTION
#---- ------ --------------   -----------------------------
STRT .S            0.0       :START TIME      
STOP .S          966.0       :STOP TIME      
STEP .S            1.0       :STEP     
NULL .          -999.25      :NULL VALUE
COMP .        SHELL INTERNATIONAL EP                   :COMPANY
WELL .        WPP TEST 4                               :WELL
FLD  .        WILDCAT                                  :FIELD
LOC  .        NA                                       :LOCATION
CNTY .        HARRIS                                   :COUNTY
STAT .        TEXAS                                    :STATE
CTRY .                                                 :COUNTRY
API  .        NA                                       :API NUMBER
UWI  .                                                 :UNIQUE WELL ID
DATE .        02-Aug-2018                              :LOG DATE {DD-MMM-YYYY}
SRVC .        Schlumberger                             :SERVICE COMPANY
LATI .DEG                                              :LATITUDE
LONG .DEG                                              :LONGITUDE
GDAT .                                                 :GeoDetic Datum
SECT .        NA                                       :Section
RANG .        NA                                       :Range
TOWN .        NA                                       :Township
#-----------------------------------------------------------------------------
~PARAMETER INFORMATION
#MNEM.UNIT    VALUE                      DESCRIPTION
#---- -----   --------------------       ------------------------
U-PHASE_B_COMP_PER_YT.                 0 :Phase B Comparator Period Yt
U-PHASE_A_COMP_PER_XT.                 0 :Phase A Comparator Period Xt
U-MAX_EXC_CUR_LIMIT.MA       265.00000   :Requested CM Current Limit
U-REQ_EXC_FQ.HZ              50          :Requested CM Frequency
U-TILT_Y_OFFSET.          -2.06578       :WPTET Tilt Y Offset
U-TILT_Y_GAIN.           1.02173         :WPTET Tilt Y Gain
U-TILT_X_OFFSET.           2.30841       :WPTET Tilt X Offset
U-TILT_X_GAIN.           1.00000         :WPTET Tilt X Gain
U-TILT_OFFSET_TOL.           0.00100     :WPTET Tilt Offset Calibration Tolerance
U-MOT_CUR_LIMIT_REQ.MA        70.00000   :Requested Motor Current Limit
U-MOT_SPD_REQ_WPMS.RPM        1.00000    :Requested Motor Speed
U-STD_TOL_TILT.           0.01000        :Tilt Standard Deviation Tolerance
CWEI .LB/F      29.00000                 :Casing Weight
CSIZ .IN         7.00000                 :Current Casing Size
LCC  .               440                 :Logging Company Code
LUN  .              2134                 :Logging Unit Number
HIDE .                                   :Header Identifier
HID1 .                                   :Header Identifier Line 1
R1   .                                   :Remark Line 1
WITN .        MR. KELLY McCOY            :Witness's Name
ENGI .        MORRIS MOORE               :Engineer's Name
LUL  .        IOWA COLONY                :Logging Unit Location
DATE .        02-Aug-2018                :Date as Month-Day-Year
STAT .        TEXAS                      :State or Province
COUN .        HARRIS                     :County or Rig Name
FN   .        WILDCAT                    :Field Name
WN   .        WPP TEST 4                 :Well Name
CN   .        SHELL INTERNATIONAL EP     :Company Name
CLAB .        County                     :County/Rig Label
SLAB .        State                      :State/Province Label
RUN  .          1                        :RUN NUMBER
PDAT .        GROUND LEVEL               :Permanent Datum
EPD  .                                   :Elevation of Permanent Datum above Mean Sea Level
LMF  .          NA                       :Logging Measured From (Name of Logging Elevation Reference)
APD  .                                   :Elevation of Depth Reference (LMF) above Permanent Datum
#-----------------------------------------------------------------------------
~CURVE INFORMATION
#MNEM.UNIT   API CODE                                  DESCRIPTION
#---- -----  --------                                  -----------------------
TIME .S                                                :TIME {F10.1}
FREQ_EMF_SL.HZ                                         :Electromagnetic Field Frequency {F13.4}
PH_SH_WPPCM_SL.DEG                                     :WPPCM Phase Shift {F13.4}
RB_SL.DEG                                              :Relative Bearing {F13.4}
SDEV_SL.DEG                                            :Sonde Deviation {F13.4}
RTIX_SL.DEG                                            :Raw X-axis Tilt {F13.4}
RTIY_SL.DEG                                            :Raw Y-axis Tilt {F13.4}
TILX_SL.DEG                                            :X-axis Tilt {F13.4}
TILY_SL.DEG                                            :Y-axis Tilt {F13.4}
ROTA_SL.DEG                                            :Motor Rotation Angle {F13.4}
TOD7 .S                                                :Time of Day {I11}
TOJ  .S                                                :Time of Job {F13.4}
#-----------------------------------------------------------------------------
# 
#     TIME    FREQ_EMF_SL  PH_SH_WPPCM_    RB_SL       SDEV_SL      RTIX_SL      RTIY_SL      TILX_SL      TILY_SL      ROTA_SL        TOD7            TOJ
#                          SL
~A  
# ...
     742.0    1060.5204       0.0000     -16.9385    -999.2500     -19.6013     -98.3682     -17.2929    -102.5712     356.9620 1533232745 9999999.9999
     743.0    1088.4288       0.0000      -9.9165      80.5898     -12.0902     -99.4125      -9.7818    -103.6382       3.0668 1533232746 9999999.9999
     744.0    1132.2463       0.0000      -1.3852      76.4722      -3.6552     -99.3723      -1.3468    -103.5972       9.1656 1533232747 9999999.9999
     745.0    1173.8313       0.0000       7.7836      79.4245       5.3422     -98.8903       7.6506    -103.1047      15.2643 1533232748 9999999.9999
     746.0    1218.5875       0.0000      14.5703      97.0786      12.4115     -97.9665      14.7199    -102.1608      21.3692 1533232749 9999999.9999
     747.0    1269.1787       0.0000      20.6466    -999.2500      19.5612     -94.5523      21.8696     -98.6725      27.4741 1533232750 9999999.9999
     748.0    1331.6761       0.0000      25.8102    -999.2500      26.5502     -89.6520      28.8586     -93.6657      33.9778 1533232751 9999999.9999
     749.0    1397.8628       0.0000      30.3884    -999.2500      33.5392     -83.1450      35.8476     -87.0173      40.0827 1533232752 9999999.9999
     750.0    1486.5221       0.0000      34.2115    -999.2500      39.7248     -76.2765      42.0332     -79.9995      46.2008 1533232753 9999999.9999
     751.0    1559.0355       0.0000      38.4675    -999.2500      46.3122     -67.2792      48.6206     -70.8067      52.2873 1533232754 9999999.9999
     752.0    1635.1744       0.0000      44.2768    -999.2500      49.4452     -50.4895      51.7536     -53.6523      58.3860 1533232755 9999999.9999
     753.0    1714.9390       0.0000      53.0683    -999.2500      75.3527     -44.2235      77.6611     -47.2501      64.4909 1533232756 9999999.9999
     754.0    1793.6862       0.0000      57.0826    -999.2500      83.8278     -37.3550      86.1362     -40.2324      70.5957 1533232757 9999999.9999
     755.0    1780.0632       0.0000      61.0754    -999.2500      90.4152     -30.7677      92.7236     -33.5019      76.6944 1533232758 9999999.9999
     756.0    1802.8846       0.0000      65.5320    -999.2500      95.2753     -24.2205      97.5837     -26.8125      82.8068 1533232759 9999999.9999
     757.0    1865.0531       0.0000      71.3729    -999.2500      98.3682     -16.9102     100.6766     -19.3434      88.9117 1533232760 9999999.9999
     758.0    1997.5142       0.0000      78.8276      85.3703      99.7740      -8.8768     102.0824     -11.1355      95.0043 1533232761 9999999.9999
     759.0    1980.6338       0.0000      86.9651      78.0091     100.0552      -0.8837     102.3636      -2.9686     101.1162 1533232762 9999999.9999
     760.0    5716.4634       0.0000      96.0134      78.6735     100.4970       7.7923     102.8054       5.8959     107.6328 1533232763 9999999.9999
     761.0       0.0000       0.0000     103.5709      89.3448      98.9707      15.4240     101.2791      13.6933     113.8265 1533232764 9999999.9999
     762.0       0.0000       0.0000     110.3317    -999.2500      95.5967      23.0958      97.9051      21.5319     119.9005 1533232765 9999999.9999
     763.0       0.0000       0.0000     116.0873    -999.2500      90.0537      30.6873      92.3621      29.2883     126.0125 1533232766 9999999.9999
     764.0       0.0000       0.0000     121.2031    -999.2500      82.9040      38.3592      85.2124      37.1268     132.1174 1533232767 9999999.9999
     765.0       0.0000       0.0000     125.4783    -999.2500      75.4330      45.2277      77.7414      44.1446     138.2357 1533232768 9999999.9999
     766.0       0.0000       0.0000     130.3690    -999.2500      65.0700      52.6183      67.3784      51.6958     144.3351 1533232769 9999999.9999
     767.0       0.0000       0.0000     139.0380    -999.2500      51.7748      69.4482      54.0832      68.8913     150.4339 1533232770 9999999.9999
     768.0       0.0000       0.0000     143.1310    -999.2500      45.0268      79.0078      47.3352      78.6587     156.5389 1533232771 9999999.9999
     769.0       0.0000       0.0000     146.8813    -999.2500      38.3190      86.6797      40.6274      86.4972     162.6438 1533232772 9999999.9999
     770.0       0.0000       0.0000     151.1262    -999.2500      31.0890      93.4678      33.3974      93.4328     168.7557 1533232773 9999999.9999
     771.0       0.0000       0.0000     156.4921    -999.2500      23.0958      99.4125      25.4042      99.5067     174.8553 1533232774 9999999.9999
     772.0       0.0000       0.0000     162.7496    -999.2500      15.2633     103.3488      17.5717     103.5285     181.3714 1533232775 9999999.9999
     773.0       0.0000       0.0000     169.0248      79.3430       8.4752     105.0358      10.7836     105.2522     187.4833 1533232776 9999999.9999
     774.0       0.0000       0.0000     178.8554      74.5840      -1.2050     105.2367       1.1034     105.4574     193.5821 1533232777 9999999.9999
     775.0       0.0000       0.0000    -172.8743      76.5728      -9.2383     104.9555      -6.9299     105.1701     199.6871 1533232778 9999999.9999
     776.0       0.0000       0.0000    -165.3393      94.4231     -17.1110     102.2643     -14.8026     102.4205     205.8051 1533232779 9999999.9999
     777.0       0.0000       0.0000    -158.5096    -999.2500     -25.3050      97.0828     -22.9966      97.1264     211.8921 1533232780 9999999.9999
     778.0       0.0000       0.0000    -152.9478    -999.2500     -33.0170      90.2143     -30.7086      90.1087     218.0040 1533232781 9999999.9999
     779.0       0.0000       0.0000    -147.4585    -999.2500     -41.5323      82.5827     -39.2239      82.3112     224.1089 1533232782 9999999.9999
     780.0       0.0000       0.0000    -143.0052    -999.2500     -48.6820      74.3485     -46.3736      73.8981     230.2270 1533232783 9999999.9999
     781.0       0.0000       0.0000    -138.0027    -999.2500     -55.8317      63.9453     -53.5233      63.2689     236.3391 1533232784 9999999.9999
     782.0       0.0000       0.0000    -129.8907    -999.2500     -71.2958      52.2167     -68.9874      51.2854     242.4264 1533232785 9999999.9999
     783.0       0.0000       0.0000    -125.5572    -999.2500     -80.2530      45.4285     -77.9446      44.3498     248.5323 1533232786 9999999.9999
     784.0       0.0000       0.0000    -121.2422    -999.2500     -87.7642      38.4395     -85.4557      37.2089     255.0553 1533232787 9999999.9999
     785.0       0.0000       0.0000    -116.5951    -999.2500     -94.1105      31.4103     -91.8021      30.0270     261.1539 1533232788 9999999.9999
     786.0       0.0000       0.0000    -110.4315    -999.2500    -100.1757      23.2163     -97.8672      21.6550     267.2719 1533232789 9999999.9999
     787.0       0.0000       0.0000    -103.6917      88.3398    -103.7103      15.5445    -101.4019      13.8165     273.3767 1533232790 9999999.9999
     788.0       0.0000       0.0000     -95.5514      78.7530    -104.8350       7.3505    -102.5266       5.4444     279.4883 1533232791 9999999.9999
     789.0       0.0000       0.0000     -87.2987      77.8047    -104.7948      -0.5623    -102.4864      -2.6403     285.5869 1533232792 9999999.9999
     790.0       0.0000       0.0000     -78.3204      87.5807    -104.2325      -9.3990    -101.9241     -11.6690     291.6917 1533232793 9999999.9999
     791.0       0.0000       0.0000     -71.1250    -999.2500    -101.7020     -17.2717     -99.3936     -19.7127     297.7841 1533232794 9999999.9999
     792.0       0.0000       0.0000     -64.9293    -999.2500     -96.8418     -25.1845     -94.5334     -27.7975     303.8958 1533232795 9999999.9999
     793.0       0.0000       0.0000     -59.9680    -999.2500     -91.0980     -32.5350     -88.7896     -35.3077     309.9944 1533232796 9999999.9999
     794.0       0.0000       0.0000     -55.5839    -999.2500     -83.7877     -39.7248     -81.4793     -42.6537     316.0992 1533232797 9999999.9999
