~VERSION INFORMATION
VERS.           2.0   :CWLS Log ASCII Standard - VERSION 2.0
WRAP.           NO    :One Line per depth step
PROD.  Schlumberger   :LAS Producer
PROG.  DLIS to ASCII 19C2-270                          :LAS Program name and version
CREA.        2018/08/03 10:59                          :LAS Creation date {YYYY/MM/DD hh:mm}
DLIS_CREA.  2018-Aug-03 08:53                          :DLIS Creation date and time {YYYY-MMM-DD hh:mm}
SOURCE.     PERFO_Perfo_062PTP.DLIS                    :DLIS File Name
FILE-ID.     PERFO_Perfo_062PTP                        :File Identification Number
#--------------------------------------------------
~WELL INFORMATION
#MNEM.UNIT      DATA             DESCRIPTION
#---- ------ --------------   -----------------------------
STRT .S            0.0       :START TIME      
STOP .S          971.0       :STOP TIME      
STEP .S            1.0       :STEP     
NULL .          -999.25      :NULL VALUE
COMP .        SHELL INTERNATIONAL EP                   :COMPANY
WELL .        WPP TEST 4                               :WELL
FLD  .        WILDCAT                                  :FIELD
LOC  .        NA                                       :LOCATION
CNTY .        HARRIS                                   :COUNTY
STAT .        TEXAS                                    :STATE
CTRY .                                                 :COUNTRY
API  .        NA                                       :API NUMBER
UWI  .                                                 :UNIQUE WELL ID
DATE .        02-Aug-2018                              :LOG DATE {DD-MMM-YYYY}
SRVC .        Schlumberger                             :SERVICE COMPANY
LATI .DEG                                              :LATITUDE
LONG .DEG                                              :LONGITUDE
GDAT .                                                 :GeoDetic Datum
SECT .        NA                                       :Section
RANG .        NA                                       :Range
TOWN .        NA                                       :Township
#-----------------------------------------------------------------------------
~PARAMETER INFORMATION
#MNEM.UNIT    VALUE                      DESCRIPTION
#---- -----   --------------------       ------------------------
U-PHASE_B_COMP_PER_YT.                 0 :Phase B Comparator Period Yt
U-PHASE_A_COMP_PER_XT.                 0 :Phase A Comparator Period Xt
U-MAX_EXC_CUR_LIMIT.MA       265.00000   :Requested CM Current Limit
U-REQ_EXC_FQ.HZ              50          :Requested CM Frequency
U-TILT_Y_OFFSET.          -2.06578       :WPTET Tilt Y Offset
U-TILT_Y_GAIN.           1.02173         :WPTET Tilt Y Gain
U-TILT_X_OFFSET.           2.30841       :WPTET Tilt X Offset
U-TILT_X_GAIN.           1.00000         :WPTET Tilt X Gain
U-TILT_OFFSET_TOL.           0.00100     :WPTET Tilt Offset Calibration Tolerance
U-MOT_CUR_LIMIT_REQ.MA        70.00000   :Requested Motor Current Limit
U-MOT_SPD_REQ_WPMS.RPM        1.00000    :Requested Motor Speed
U-STD_TOL_TILT.           0.01000        :Tilt Standard Deviation Tolerance
CWEI .LB/F      29.00000                 :Casing Weight
CSIZ .IN         7.00000                 :Current Casing Size
LCC  .               440                 :Logging Company Code
LUN  .              2134                 :Logging Unit Number
HIDE .                                   :Header Identifier
HID1 .                                   :Header Identifier Line 1
R1   .                                   :Remark Line 1
WITN .        MR. KELLY McCOY            :Witness's Name
ENGI .        MORRIS MOORE               :Engineer's Name
LUL  .        IOWA COLONY                :Logging Unit Location
DATE .        02-Aug-2018                :Date as Month-Day-Year
STAT .        TEXAS                      :State or Province
COUN .        HARRIS                     :County or Rig Name
FN   .        WILDCAT                    :Field Name
WN   .        WPP TEST 4                 :Well Name
CN   .        SHELL INTERNATIONAL EP     :Company Name
CLAB .        County                     :County/Rig Label
SLAB .        State                      :State/Province Label
RUN  .          1                        :RUN NUMBER
PDAT .        GROUND LEVEL               :Permanent Datum
EPD  .                                   :Elevation of Permanent Datum above Mean Sea Level
LMF  .          NA                       :Logging Measured From (Name of Logging Elevation Reference)
APD  .                                   :Elevation of Depth Reference (LMF) above Permanent Datum
#-----------------------------------------------------------------------------
~CURVE INFORMATION
#MNEM.UNIT   API CODE                                  DESCRIPTION
#---- -----  --------                                  -----------------------
TIME .S                                                :TIME {F10.1}
FREQ_EMF_SL.HZ                                         :Electromagnetic Field Frequency {F13.4}
PH_SH_WPPCM_SL.DEG                                     :WPPCM Phase Shift {F13.4}
RB_SL.DEG                                              :Relative Bearing {F13.4}
SDEV_SL.DEG                                            :Sonde Deviation {F13.4}
RTIX_SL.DEG                                            :Raw X-axis Tilt {F13.4}
RTIY_SL.DEG                                            :Raw Y-axis Tilt {F13.4}
TILX_SL.DEG                                            :X-axis Tilt {F13.4}
TILY_SL.DEG                                            :Y-axis Tilt {F13.4}
ROTA_SL.DEG                                            :Motor Rotation Angle {F13.4}
TOD7 .S                                                :Time of Day {I11}
TOJ  .S                                                :Time of Job {F13.4}
#-----------------------------------------------------------------------------
# 
#     TIME    FREQ_EMF_SL  PH_SH_WPPCM_    RB_SL       SDEV_SL      RTIX_SL      RTIY_SL      TILX_SL      TILY_SL      ROTA_SL        TOD7            TOJ
#                          SL
~A  
# ...
     530.0    1548.7335       0.0000    -168.3933      82.6075     -13.8173     103.5497     -11.5089     103.7337      36.4629 1533230446 9999999.9999
     531.0    1515.3556       0.0000    -161.1058      88.9726     -22.0515      99.1715     -19.7431      99.2604      42.5808 1533230447 9999999.9999
     532.0    1483.3861       0.0000    -155.0681    -999.2500     -29.9643      93.1867     -27.6559      93.1456      48.6857 1533230448 9999999.9999
     533.0    1458.7655       0.0000    -149.8014    -999.2500     -37.7968      86.1575     -35.4884      85.9637      54.7844 1533230449 9999999.9999
     534.0    1426.2170       0.0000    -145.1061    -999.2500     -45.2678      78.0840     -42.9594      77.7148      61.2942 1533230450 9999999.9999
     535.0    1409.0682       0.0000    -140.4692    -999.2500     -52.4577      69.0465     -50.1493      68.4809      67.3991 1533230451 9999999.9999
     536.0    1378.6765       0.0000    -132.3146    -999.2500     -65.9938      55.5505     -63.6854      54.6917      73.4978 1533230452 9999999.9999
     537.0    1352.1635       0.0000    -127.6911    -999.2500     -75.7945      48.8025     -73.4861      47.7971      79.5843 1533230453 9999999.9999
     538.0    1339.2858       0.0000    -123.4286    -999.2500     -83.9885      41.9340     -81.6801      40.7793      85.6891 1533230454 9999999.9999
     539.0    1311.8003       0.0000    -118.7520    -999.2500     -91.2587      34.5835     -88.9502      33.2691      91.7940 1533230455 9999999.9999
     540.0    1292.5093       0.0000    -112.9914    -999.2500     -97.8862      26.4698     -95.5778      24.9792      97.8927 1533230456 9999999.9999
     541.0    1276.0889       0.0000    -106.4832    -999.2500    -102.4250      18.5972    -100.1166      16.9355     103.9914 1533230457 9999999.9999
     542.0    1260.0807       0.0000     -99.2291      81.9781    -104.5137      10.9655    -102.2053       9.1380     110.1095 1533230458 9999999.9999
     543.0    1251.1122       0.0000     -90.6581      77.6111    -104.7145       2.6510    -102.4061       0.6428     116.2144 1533230459 9999999.9999
     544.0    1240.0793       0.0000     -82.0032      80.8027    -104.4735      -5.7037    -102.1651      -7.8934     122.3261 1533230460 9999999.9999
     545.0    1220.7031       0.0000     -74.3905      96.4301    -102.9472     -13.5763    -100.6388     -15.9371     128.4249 1533230461 9999999.9999
     546.0    1216.4792       0.0000     -67.8227    -999.2500     -99.4527     -21.3285     -97.1442     -23.8577     134.9409 1533230462 9999999.9999
     547.0    1210.1979       0.0000     -62.3279    -999.2500     -93.8695     -28.9200     -91.5611     -31.6141     141.0398 1533230463 9999999.9999
     548.0    1210.1979       0.0000     -57.6710    -999.2500     -87.2822     -36.2303     -84.9738     -39.0833     147.1386 1533230464 9999999.9999
     549.0    1203.9811       0.0000     -53.5117    -999.2500     -79.6103     -43.1792     -77.3019     -46.1831     153.2436 1533230465 9999999.9999
     550.0    1203.9811       0.0000     -49.3445    -999.2500     -70.5728     -49.7665     -68.2644     -52.9136     159.3485 1533230466 9999999.9999
     551.0    1210.1979       0.0000     -41.3148    -999.2500     -54.0242     -59.8885     -51.7158     -63.2555     165.4474 1533230467 9999999.9999
     552.0    1210.1979       0.0000     -35.6099    -999.2500     -47.1557     -76.2363     -44.8473     -79.9585     171.5592 1533230468 9999999.9999
     553.0    1218.5875       0.0000     -31.5037    -999.2500     -40.0863     -84.3500     -37.7779     -88.2485     177.6517 1533230469 9999999.9999
     554.0    1222.8260       0.0000     -27.1891    -999.2500     -33.0973     -90.7767     -30.7889     -94.8148     183.7567 1533230470 9999999.9999
     555.0    1233.5526       0.0000     -22.1360    -999.2500     -25.9477     -95.5565     -23.6393     -99.6984     189.8555 1533230471 9999999.9999
     556.0    1251.1122       0.0000     -16.1763    -999.2500     -18.7578     -98.3280     -16.4494    -102.5302     195.9544 1533230472 9999999.9999
     557.0    1260.0807       0.0000      -8.9962      79.9829     -11.1663     -99.2117      -8.8579    -103.4330     202.0726 1533230473 9999999.9999
     558.0    1276.0889       0.0000      -0.2695      76.6517      -2.5707     -99.1313      -0.2623    -103.3510     208.5825 1533230474 9999999.9999
     559.0    1299.6765       0.0000       8.3387      80.0691       5.9045     -98.7297       8.2129    -102.9406     214.6821 1533230475 9999999.9999
     560.0    1319.1838       0.0000      15.3451      94.8532      13.2952     -97.2435      15.6036    -101.4221     220.7871 1533230476 9999999.9999
     561.0    1344.4073       0.0000      21.2046    -999.2500      20.2842     -93.9097      22.5926     -98.0158     226.8796 1533230477 9999999.9999
     562.0    1365.2913       0.0000      26.2191    -999.2500      27.1527     -88.9290      29.4611     -92.9270     232.9915 1533230478 9999999.9999
     563.0    1389.5751       0.0000      30.4932    -999.2500      33.6998     -82.8237      36.0082     -86.6890     239.0654 1533230479 9999999.9999
     564.0    1420.4546       0.0000      34.7850    -999.2500      40.6085     -74.9108      42.9169     -78.6042     245.1704 1533230480 9999999.9999
     565.0    1446.7593       0.0000      39.1324    -999.2500      47.1557     -65.5922      49.4641     -69.0831     251.2884 1533230481 9999999.9999
     566.0    1470.9729       0.0000      49.6996    -999.2500      66.8373     -49.2845      69.1457     -52.4211     257.3749 1533230482 9999999.9999
     567.0    1505.6210       0.0000      53.5604    -999.2500      76.3970     -43.3800      78.7054     -46.3883     263.4868 1533230483 9999999.9999
     568.0    1528.5327       0.0000      57.4547    -999.2500      84.3500     -36.7123      86.6584     -39.5758     269.6176 1533230484 9999999.9999
     569.0    1569.4755       0.0000      61.6218    -999.2500      90.8972     -29.9242      93.2056     -32.6401     275.7224 1533230485 9999999.9999
     570.0    1587.1896       0.0000      66.4733    -999.2500      95.6770     -22.9753      97.9854     -25.5403     282.2269 1533230486 9999999.9999
     571.0    1608.9817       0.0000      72.3008    -999.2500      98.3682     -15.8658     100.6766     -18.2763     288.3192 1533230487 9999999.9999
     572.0    1635.1744       0.0000      79.5926      84.3201      99.5330      -8.1137     101.8414     -10.3557     294.4239 1533230488 9999999.9999
     573.0    1658.3137       0.0000      88.4317      77.6943     100.0953       0.5222     102.4037      -1.5323     300.5103 1533230489 9999999.9999
     574.0    1674.1072       0.0000      97.1188      79.7180     100.1757       8.8768     102.4841       7.0039     306.6229 1533230490 9999999.9999
     575.0    1690.2042       0.0000     104.5838      92.0517      98.6092      16.5085     100.9176      14.8014     312.7285 1533230491 9999999.9999
     576.0    1702.4818       0.0000     111.5801    -999.2500      94.3515      24.6623      96.6599      23.1324     318.8207 1533230492 9999999.9999
     577.0    1714.9390       0.0000     116.9828    -999.2500      88.7282      31.9727      91.0366      30.6016     324.9193 1533230493 9999999.9999
     578.0    1714.9390       0.0000     121.8682    -999.2500      81.7392      39.4035      84.0476      38.1938     331.0186 1533230494 9999999.9999
     579.0    1714.9390       0.0000     126.4274    -999.2500      73.4247      46.7138      75.7331      45.6630     337.1239 1533230495 9999999.9999
     580.0    1710.7665       0.0000     131.1414    -999.2500      63.1018      53.5020      65.4102      52.5987     343.2548 1533230496 9999999.9999
     581.0    1706.6141       0.0000     139.5650    -999.2500      50.8912      70.5327      53.1996      69.9994     349.3664 1533230497 9999999.9999
     582.0    1702.4818       0.0000     143.5228    -999.2500      44.3038      79.7308      46.6122      79.3974     355.8638 1533230498 9999999.9999
