~VERSION INFORMATION
VERS.           2.0   :CWLS Log ASCII Standard - VERSION 2.0
WRAP.           NO    :One Line per depth step
PROD.  Schlumberger   :LAS Producer
PROG.  DLIS to ASCII 19C2-270                          :LAS Program name and version
CREA.        2018/08/03 10:59                          :LAS Creation date {YYYY/MM/DD hh:mm}
DLIS_CREA.  2018-Aug-03 08:53                          :DLIS Creation date and time {YYYY-MMM-DD hh:mm}
SOURCE.     PERFO_Perfo_062PTP.DLIS                    :DLIS File Name
FILE-ID.     PERFO_Perfo_062PTP                        :File Identification Number
#--------------------------------------------------
~WELL INFORMATION
#MNEM.UNIT      DATA             DESCRIPTION
#---- ------ --------------   -----------------------------
STRT .S            0.0       :START TIME      
STOP .S          971.0       :STOP TIME      
STEP .S            1.0       :STEP     
NULL .          -999.25      :NULL VALUE
COMP .        SHELL INTERNATIONAL EP                   :COMPANY
WELL .        WPP TEST 4                               :WELL
FLD  .        WILDCAT                                  :FIELD
LOC  .        NA                                       :LOCATION
CNTY .        HARRIS                                   :COUNTY
STAT .        TEXAS                                    :STATE
CTRY .                                                 :COUNTRY
API  .        NA                                       :API NUMBER
UWI  .                                                 :UNIQUE WELL ID
DATE .        02-Aug-2018                              :LOG DATE {DD-MMM-YYYY}
SRVC .        Schlumberger                             :SERVICE COMPANY
LATI .DEG                                              :LATITUDE
LONG .DEG                                              :LONGITUDE
GDAT .                                                 :GeoDetic Datum
SECT .        NA                                       :Section
RANG .        NA                                       :Range
TOWN .        NA                                       :Township
#-----------------------------------------------------------------------------
~PARAMETER INFORMATION
#MNEM.UNIT    VALUE                      DESCRIPTION
#---- -----   --------------------       ------------------------
U-PHASE_B_COMP_PER_YT.                 0 :Phase B Comparator Period Yt
U-PHASE_A_COMP_PER_XT.                 0 :Phase A Comparator Period Xt
U-MAX_EXC_CUR_LIMIT.MA       265.00000   :Requested CM Current Limit
U-REQ_EXC_FQ.HZ              50          :Requested CM Frequency
U-TILT_Y_OFFSET.          -2.06578       :WPTET Tilt Y Offset
U-TILT_Y_GAIN.           1.02173         :WPTET Tilt Y Gain
U-TILT_X_OFFSET.           2.30841       :WPTET Tilt X Offset
U-TILT_X_GAIN.           1.00000         :WPTET Tilt X Gain
U-TILT_OFFSET_TOL.           0.00100     :WPTET Tilt Offset Calibration Tolerance
U-MOT_CUR_LIMIT_REQ.MA        70.00000   :Requested Motor Current Limit
U-MOT_SPD_REQ_WPMS.RPM        1.00000    :Requested Motor Speed
U-STD_TOL_TILT.           0.01000        :Tilt Standard Deviation Tolerance
CWEI .LB/F      29.00000                 :Casing Weight
CSIZ .IN         7.00000                 :Current Casing Size
LCC  .               440                 :Logging Company Code
LUN  .              2134                 :Logging Unit Number
HIDE .                                   :Header Identifier
HID1 .                                   :Header Identifier Line 1
R1   .                                   :Remark Line 1
WITN .        MR. KELLY McCOY            :Witness's Name
ENGI .        MORRIS MOORE               :Engineer's Name
LUL  .        IOWA COLONY                :Logging Unit Location
DATE .        02-Aug-2018                :Date as Month-Day-Year
STAT .        TEXAS                      :State or Province
COUN .        HARRIS                     :County or Rig Name
FN   .        WILDCAT                    :Field Name
WN   .        WPP TEST 4                 :Well Name
CN   .        SHELL INTERNATIONAL EP     :Company Name
CLAB .        County                     :County/Rig Label
SLAB .        State                      :State/Province Label
RUN  .          1                        :RUN NUMBER
PDAT .        GROUND LEVEL               :Permanent Datum
EPD  .                                   :Elevation of Permanent Datum above Mean Sea Level
LMF  .          NA                       :Logging Measured From (Name of Logging Elevation Reference)
APD  .                                   :Elevation of Depth Reference (LMF) above Permanent Datum
#-----------------------------------------------------------------------------
~CURVE INFORMATION
#MNEM.UNIT   API CODE                                  DESCRIPTION
#---- -----  --------                                  -----------------------
TIME .S                                                :TIME {F10.1}
FREQ_EMF_SL.HZ                                         :Electromagnetic Field Frequency {F13.4}
PH_SH_WPPCM_SL.DEG                                     :WPPCM Phase Shift {F13.4}
RB_SL.DEG                                              :Relative Bearing {F13.4}
SDEV_SL.DEG                                            :Sonde Deviation {F13.4}
RTIX_SL.DEG                                            :Raw X-axis Tilt {F13.4}
RTIY_SL.DEG                                            :Raw Y-axis Tilt {F13.4}
TILX_SL.DEG                                            :X-axis Tilt {F13.4}
TILY_SL.DEG                                            :Y-axis Tilt {F13.4}
ROTA_SL.DEG                                            :Motor Rotation Angle {F13.4}
TOD7 .S                                                :Time of Day {I11}
TOJ  .S                                                :Time of Job {F13.4}
#-----------------------------------------------------------------------------
# 
#     TIME    FREQ_EMF_SL  PH_SH_WPPCM_    RB_SL       SDEV_SL      RTIX_SL      RTIY_SL      TILX_SL      TILY_SL      ROTA_SL        TOD7            TOJ
#                          SL
~A  
# ...
     265.0    1666.1730       0.0000      26.1627    -999.2500      27.0723     -88.9290      29.3807     -92.9270     210.9197 1533230181 9999999.9999
     266.0    1686.1511       0.0000      30.4963    -999.2500      33.6998     -82.7032      36.0082     -86.5658     217.0247 1533230182 9999999.9999
     267.0    1690.2042       0.0000      34.5566    -999.2500      40.2470     -75.3928      42.5554     -79.0967     223.1235 1533230183 9999999.9999
     268.0    1702.4818       0.0000      38.8596    -999.2500      46.7942     -66.2348      49.1026     -69.7397     229.6334 1533230184 9999999.9999
     269.0    1702.4818       0.0000      49.8503    -999.2500      66.6365     -48.8025      68.9449     -51.9286     235.7198 1533230185 9999999.9999
     270.0    1706.6141       0.0000      53.3300    -999.2500      75.7543     -43.7415      78.0627     -46.7577     241.8247 1533230186 9999999.9999
     271.0    1706.6141       0.0000      57.1923    -999.2500      83.7877     -37.1542      86.0961     -40.0272     247.9297 1533230187 9999999.9999
     272.0    1698.3695       0.0000      61.2372    -999.2500      90.2143     -30.5267      92.5227     -33.2557     254.0163 1533230188 9999999.9999
     273.0    1690.2042       0.0000      66.0581    -999.2500      95.2352     -23.5377      97.5436     -26.1149     260.1024 1533230189 9999999.9999
     274.0    1682.1173       0.0000      72.2670    -999.2500      98.3280     -15.9060     100.6364     -18.3174     266.2133 1533230190 9999999.9999
     275.0    1662.2340       0.0000      79.5128      84.4700      99.5330      -8.1940     101.8414     -10.4378     272.3119 1533230191 9999999.9999
     276.0    1646.6628       0.0000      88.0960      77.7410     100.0953       0.2008     102.4037      -1.8606     278.4105 1533230192 9999999.9999
     277.0    1623.8453       0.0000      96.9544      79.6067     100.1757       8.7162     102.4841       6.8398     284.5091 1533230193 9999999.9999
     278.0    1605.3082       0.0000     104.3943      98.4000      98.6092      16.3077     100.9176      14.5962     290.6200 1533230194 9999999.9999
     279.0    1580.0563       0.0000     111.0042    -999.2500      94.8335      23.9393      97.1419      22.3937     296.7186 1533230195 9999999.9999
     280.0    1555.5862       0.0000     116.5652    -999.2500      89.3708      31.3702      91.6792      29.9860     303.2099 1533230196 9999999.9999
     281.0    1531.8628       0.0000     121.4371    -999.2500      82.4220      38.7207      84.7304      37.4962     309.3207 1533230197 9999999.9999
     282.0    1496.0106       0.0000     125.9226    -999.2500      74.4288      45.9105      76.7372      44.8422     315.4193 1533230198 9999999.9999
     283.0    1470.9729       0.0000     130.7296    -999.2500      64.1863      53.0602      66.4947      52.1472     321.5179 1533230199 9999999.9999
     284.0    1440.8298       0.0000     139.2829    -999.2500      51.3330      69.8900      53.6414      69.3427     327.6165 1533230200 9999999.9999
     285.0    1420.4546       0.0000     143.2598    -999.2500      44.7457      79.0480      47.0541      78.6997     333.7213 1533230201 9999999.9999
     286.0    1395.0892       0.0000     147.3539    -999.2500      37.4755      87.3625      39.7839      87.1949     339.8260 1533230202 9999999.9999
     287.0    1367.9475       0.0000     151.8910    -999.2500      29.8840      94.1507      32.1924      94.1305     345.9246 1533230203 9999999.9999
     288.0    1339.2858       0.0000     157.0329    -999.2500      22.3728      99.7338      24.6812      99.8350     352.0294 1533230204 9999999.9999
     289.0    1324.1526       0.0000     163.4307    -999.2500      14.5002     103.4292      16.8086     103.6106     358.1347 1533230205 9999999.9999
     290.0    1304.4990       0.0000     171.2703      77.8992       6.2258     104.6743       8.5342     104.8828       4.2334 1533230206 9999999.9999
     291.0    1280.7377       0.0000     179.7722      74.7495      -2.0887     105.0358       0.2197     105.2522      10.3322 1533230207 9999999.9999
     292.0    1266.8918       0.0000    -171.9539      77.4871     -10.1622     104.6342      -7.8538     104.8418      16.8420 1533230208 9999999.9999
     293.0    1246.6755       0.0000    -164.4258      94.5730     -18.1553     101.4208     -15.8469     101.5586      22.9469 1533230209 9999999.9999
     294.0    1244.4691       0.0000    -157.7476    -999.2500     -26.3092      96.1992     -24.0008      96.2235      29.0587 1533230210 9999999.9999
     295.0    1229.2395       0.0000    -152.1898    -999.2500     -34.1417      89.6520     -31.8333      89.5341      35.1574 1533230211 9999999.9999
     296.0    1218.5875       0.0000    -147.2414    -999.2500     -41.8537      81.9802     -39.5453      81.6956      41.2623 1533230212 9999999.9999
     297.0    1210.1979       0.0000    -142.7172    -999.2500     -49.0837      73.6255     -46.7753      73.1594      47.3672 1533230213 9999999.9999
     298.0    1210.1979       0.0000    -137.1591    -999.2500     -56.6752      61.9370     -54.3668      61.2169      53.4659 1533230214 9999999.9999
     299.0    1208.1185       0.0000    -129.4019    -999.2500     -72.2598      51.4535     -69.9514      50.5057      59.5585 1533230215 9999999.9999
     300.0    1206.0464       0.0000    -125.1254    -999.2500     -80.9760      44.7055     -78.6676      43.6110      65.6764 1533230216 9999999.9999
     301.0    1203.9811       0.0000    -120.8067    -999.2500     -88.5273      37.7567     -86.2189      36.5112      71.7752 1533230217 9999999.9999
     302.0    1214.3783       0.0000    -115.6287    -999.2500     -95.0745      30.0447     -92.7661      28.6317      77.8739 1533230218 9999999.9999
     303.0    1218.5875       0.0000    -109.6636    -999.2500    -100.5372      22.2925     -98.2288      20.7111      83.9787 1533230219 9999999.9999
     304.0    1224.9564       0.0000    -102.6875      86.1716    -103.7103      14.5002    -101.4019      12.7494      90.4885 1533230220 9999999.9999
     305.0    1227.0942       0.0000     -94.5914      78.5924    -104.5940       6.4267    -102.2856       4.5005      96.5872 1533230221 9999999.9999
     306.0    1240.0793       0.0000     -85.8815      78.5007    -104.5137      -1.9280    -102.2053      -4.0357     102.6860 1533230222 9999999.9999
     307.0    1257.8265       0.0000     -77.6264      88.8060    -103.9513     -10.1220    -101.6429     -12.4077     108.7916 1533230223 9999999.9999
     308.0    1269.1787       0.0000     -70.7570    -999.2500    -101.3807     -17.7135     -99.0723     -20.1641     114.8965 1533230224 9999999.9999
     309.0    1283.0748       0.0000     -64.8194    -999.2500     -96.5205     -25.3452     -94.2121     -27.9616     120.9952 1533230225 9999999.9999
     310.0    1304.4990       0.0000     -59.4050    -999.2500     -89.8930     -33.4187     -87.5846     -36.2105     127.1000 1533230226 9999999.9999
     311.0    1324.1526       0.0000     -55.1188    -999.2500     -82.7835     -40.4880     -80.4751     -43.4335     133.2050 1533230227 9999999.9999
     312.0    1357.3842       0.0000     -51.0184    -999.2500     -74.4288     -47.2762     -72.1204     -50.3691     139.3038 1533230228 9999999.9999
     313.0    1381.3850       0.0000     -46.3317    -999.2500     -63.7043     -53.7028     -61.3959     -56.9354     145.4026 1533230229 9999999.9999
     314.0    1400.6475       0.0000     -37.4628    -999.2500     -50.2083     -71.8983     -47.8999     -75.5263     151.5076 1533230230 9999999.9999
     315.0    1426.2170       0.0000     -33.4222    -999.2500     -43.3800     -80.7752     -41.0716     -84.5960     157.5755 1533230231 9999999.9999
     316.0    1452.7377       0.0000     -29.2544    -999.2500     -36.3508     -87.9650     -34.0424     -91.9420     164.0924 1533230232 9999999.9999
     317.0    1483.3861       0.0000     -24.5929    -999.2500     -29.2815     -93.5883     -26.9731     -97.6875     170.1912 1533230233 9999999.9999
