~VERSION INFORMATION
VERS.           2.0   :CWLS Log ASCII Standard - VERSION 2.0
WRAP.           NO    :One Line per depth step
PROD.  Schlumberger   :LAS Producer
PROG.  DLIS to ASCII 19C2-270                          :LAS Program name and version
CREA.        2018/08/03 10:59                          :LAS Creation date {YYYY/MM/DD hh:mm}
DLIS_CREA.  2018-Aug-03 09:51                          :DLIS Creation date and time {YYYY-MMM-DD hh:mm}
SOURCE.     PERFO_Perfo_089PTP.DLIS                    :DLIS File Name
FILE-ID.     PERFO_Perfo_089PTP                        :File Identification Number
#--------------------------------------------------
~WELL INFORMATION
#MNEM.UNIT      DATA             DESCRIPTION
#---- ------ --------------   -----------------------------
STRT .S            0.0       :START TIME      
STOP .S          261.0       :STOP TIME      
STEP .S            1.0       :STEP     
NULL .          -999.25      :NULL VALUE
COMP .        SHELL INTERNATIONAL EP                   :COMPANY
WELL .        WPP TEST 4                               :WELL
FLD  .        WILDCAT                                  :FIELD
LOC  .        NA                                       :LOCATION
CNTY .        HARRIS                                   :COUNTY
STAT .        TEXAS                                    :STATE
CTRY .                                                 :COUNTRY
API  .        NA                                       :API NUMBER
UWI  .                                                 :UNIQUE WELL ID
DATE .        02-Aug-2018                              :LOG DATE {DD-MMM-YYYY}
SRVC .        Schlumberger                             :SERVICE COMPANY
LATI .DEG                                              :LATITUDE
LONG .DEG                                              :LONGITUDE
GDAT .                                                 :GeoDetic Datum
SECT .        NA                                       :Section
RANG .        NA                                       :Range
TOWN .        NA                                       :Township
#-----------------------------------------------------------------------------
~PARAMETER INFORMATION
#MNEM.UNIT    VALUE                      DESCRIPTION
#---- -----   --------------------       ------------------------
U-PHASE_B_COMP_PER_YT.                 0 :Phase B Comparator Period Yt
U-PHASE_A_COMP_PER_XT.                 0 :Phase A Comparator Period Xt
U-MAX_EXC_CUR_LIMIT.MA       265.00000   :Requested CM Current Limit
U-REQ_EXC_FQ.HZ              50          :Requested CM Frequency
U-TILT_Y_OFFSET.          -2.06578       :WPTET Tilt Y Offset
U-TILT_Y_GAIN.           1.02173         :WPTET Tilt Y Gain
U-TILT_X_OFFSET.           2.30841       :WPTET Tilt X Offset
U-TILT_X_GAIN.           1.00000         :WPTET Tilt X Gain
U-TILT_OFFSET_TOL.           0.00100     :WPTET Tilt Offset Calibration Tolerance
U-MOT_CUR_LIMIT_REQ.MA        70.00000   :Requested Motor Current Limit
U-MOT_SPD_REQ_WPMS.RPM        1.00000    :Requested Motor Speed
U-STD_TOL_TILT.           0.01000        :Tilt Standard Deviation Tolerance
CWEI .LB/F      29.00000                 :Casing Weight
CSIZ .IN         7.00000                 :Current Casing Size
LCC  .               440                 :Logging Company Code
LUN  .              2134                 :Logging Unit Number
HIDE .                                   :Header Identifier
HID1 .                                   :Header Identifier Line 1
R1   .                                   :Remark Line 1
WITN .        MR. KELLY McCOY            :Witness's Name
ENGI .        MORRIS MOORE               :Engineer's Name
LUL  .        IOWA COLONY                :Logging Unit Location
DATE .        02-Aug-2018                :Date as Month-Day-Year
STAT .        TEXAS                      :State or Province
COUN .        HARRIS                     :County or Rig Name
FN   .        WILDCAT                    :Field Name
WN   .        WPP TEST 4                 :Well Name
CN   .        SHELL INTERNATIONAL EP     :Company Name
CLAB .        County                     :County/Rig Label
SLAB .        State                      :State/Province Label
RUN  .          1                        :RUN NUMBER
PDAT .        GROUND LEVEL               :Permanent Datum
EPD  .                                   :Elevation of Permanent Datum above Mean Sea Level
LMF  .          NA                       :Logging Measured From (Name of Logging Elevation Reference)
APD  .                                   :Elevation of Depth Reference (LMF) above Permanent Datum
#-----------------------------------------------------------------------------
~CURVE INFORMATION
#MNEM.UNIT   API CODE                                  DESCRIPTION
#---- -----  --------                                  -----------------------
TIME .S                                                :TIME {F10.1}
FREQ_EMF_SL.HZ                                         :Electromagnetic Field Frequency {F13.4}
PH_SH_WPPCM_SL.DEG                                     :WPPCM Phase Shift {F13.4}
RB_SL.DEG                                              :Relative Bearing {F13.4}
SDEV_SL.DEG                                            :Sonde Deviation {F13.4}
RTIX_SL.DEG                                            :Raw X-axis Tilt {F13.4}
RTIY_SL.DEG                                            :Raw Y-axis Tilt {F13.4}
TILX_SL.DEG                                            :X-axis Tilt {F13.4}
TILY_SL.DEG                                            :Y-axis Tilt {F13.4}
ROTA_SL.DEG                                            :Motor Rotation Angle {F13.4}
TOD7 .S                                                :Time of Day {I11}
TOJ  .S                                                :Time of Job {F13.4}
#-----------------------------------------------------------------------------
# 
#     TIME    FREQ_EMF_SL  PH_SH_WPPCM_    RB_SL       SDEV_SL      RTIX_SL      RTIY_SL      TILX_SL      TILY_SL      ROTA_SL        TOD7            TOJ
#                          SL
~A  
# ...
     106.0    1041.6666       0.0000     168.3807      78.5792       9.0777     105.9998      11.3861     106.2371     309.2961 1533251101 9999999.9999
     107.0     993.1144       0.0000     176.6730      73.6372       0.8837     106.4417       3.1921     106.6886     315.3947 1533251102 9999999.9999
     108.0     941.2651       0.0000    -174.6760      74.2039      -7.4308     106.4015      -5.1224     106.6475     321.4941 1533251103 9999999.9999
     109.0     904.9228       0.0000    -166.5572      85.3008     -15.7052     104.0317     -13.3968     104.2262     327.5865 1533251104 9999999.9999
     110.0     868.0555       0.0000    -159.4332    -999.2500     -24.0598      98.9305     -21.7514      99.0142     333.6913 1533251105 9999999.9999
     111.0     820.9282       0.0000    -153.4249    -999.2500     -32.2940      92.4536     -29.9856      92.3966     339.7899 1533251106 9999999.9999
     112.0     801.7388       0.0000    -148.3044    -999.2500     -40.2470      84.8722     -37.9386      84.6504     345.8762 1533251107 9999999.9999
     113.0     784.7377       0.0000    -143.8319    -999.2500     -47.5975      76.8388     -45.2891      76.4426     351.9810 1533251108 9999999.9999
     114.0     765.9314       0.0000    -139.1888    -999.2500     -54.7472      67.2390     -52.4388      66.6341     358.0857 1533251109 9999999.9999
     115.0     764.2664       0.0000    -131.4603    -999.2500     -68.6047      54.8677     -66.2962      53.9940       4.1844 1533251110 9999999.9999
     116.0     759.3143       0.0000    -127.1581    -999.2500     -77.8832      48.2402     -75.5748      47.2225      10.3025 1533251111 9999999.9999
     117.0     762.6085       0.0000    -122.9415    -999.2500     -85.8763      41.2512     -83.5679      40.0817      16.4074 1533251112 9999999.9999
     118.0     776.0762       0.0000    -118.2707    -999.2500     -92.9858      33.8605     -90.6774      32.5304      22.9111 1533251113 9999999.9999
     119.0     785.6145       0.0000    -112.7285    -999.2500     -99.2920      26.0682     -96.9836      24.5688      29.0099 1533251114 9999999.9999
     120.0     805.4124       0.0000    -106.0477    -999.2500    -103.9915      18.0348    -101.6831      16.3609      35.1280 1533251115 9999999.9999
     121.0     836.0582       0.0000     -98.4273      79.1702    -105.9998      10.1220    -103.6914       8.2761      41.2329 1533251116 9999999.9999
     122.0     876.7144       0.0000     -89.9435      76.0677    -106.2408       1.9682    -103.9324      -0.0549      47.3316 1533251117 9999999.9999
     123.0     932.5266       0.0000     -81.1747      79.3854    -106.0802      -6.4668    -103.7718      -8.6731      53.4436 1533251118 9999999.9999
     124.0     986.1500       0.0000     -73.0747      94.8185    -104.0718     -14.9420    -101.7634     -17.3324      59.5360 1533251119 9999999.9999
     125.0    1027.9606       0.0000     -66.7415    -999.2500     -99.9748     -22.6540     -97.6664     -25.2120      65.6541 1533251120 9999999.9999
     126.0    1102.0768       0.0000     -61.1477    -999.2500     -93.7490     -30.6873     -91.4406     -33.4199      71.7659 1533251121 9999999.9999
     127.0    1171.8750       0.0000     -56.3547    -999.2500     -86.5190     -38.5600     -84.2106     -41.4636      77.8646 1533251122 9999999.9999
     128.0    1253.3423       0.0000     -52.2887    -999.2500     -78.7267     -45.6695     -76.4183     -48.7276      83.9756 1533251123 9999999.9999
     129.0    1375.9785       0.0000     -48.3629    -999.2500     -69.7293     -51.9757     -67.4209     -55.1707      90.0743 1533251124 9999999.9999
     130.0    1474.0566       0.0000     -39.8798    -999.2500     -54.6267     -67.7612     -52.3183     -71.2992      96.5780 1533251125 9999999.9999
     131.0    1590.7806       0.0000     -35.3695    -999.2500     -47.0352     -78.6865     -44.7268     -82.4619     102.6829 1533251126 9999999.9999
     132.0    1714.9390       0.0000     -31.3782    -999.2500     -39.8855     -86.8002     -37.5771     -90.7519     108.7763 1533251127 9999999.9999
     133.0    1807.5192       0.0000     -27.1195    -999.2500     -32.8563     -92.9858     -30.5479     -97.0719     114.8750 1533251128 9999999.9999
     134.0    1900.3378       0.0000     -22.1461    -999.2500     -25.7870     -97.6050     -23.4786    -101.7915     120.9737 1533251129 9999999.9999
     135.0    2979.3433       0.0000     -15.4881      84.0274     -17.8340    -100.7380     -15.5256    -104.9925     127.0785 1533251130 9999999.9999
     136.0       0.0000       0.0000      -7.2671      76.0101      -9.3588    -101.4610      -7.0504    -105.7312     133.2497 1533251131 9999999.9999
     137.0       0.0000       0.0000       1.6464      74.3530      -0.7230    -101.4610       1.5854    -105.7312     139.3485 1533251132 9999999.9999
     138.0       0.0000       0.0000       9.8611      78.4324       7.3505    -100.8987       9.6589    -105.1567     145.4796 1533251133 9999999.9999
     139.0       0.0000       0.0000      17.4206      90.4596      15.5043     -98.6493      17.8127    -102.8585     151.5845 1533251134 9999999.9999
     140.0       0.0000       0.0000      23.2468    -999.2500      22.8147     -94.6327      25.1231     -98.7545     157.6966 1533251135 9999999.9999
     141.0       0.0000       0.0000      28.0325    -999.2500      29.8037     -89.2503      32.1121     -93.2553     163.7830 1533251136 9999999.9999
     142.0       0.0000       0.0000      32.2679    -999.2500      36.7525     -82.5425      39.0609     -86.4017     170.2929 1533251137 9999999.9999
     143.0       0.0000       0.0000      36.4685    -999.2500      43.9423     -74.1075      46.2507     -77.7834     176.3979 1533251138 9999999.9999
     144.0       0.0000       0.0000      40.7425    -999.2500      50.5297     -64.2265      52.8381     -67.6877     182.4844 1533251139 9999999.9999
     145.0       0.0000       0.0000      50.0807    -999.2500      70.3318     -49.8468      72.6402     -52.9956     188.5833 1533251140 9999999.9999
     146.0       0.0000       0.0000      53.8568    -999.2500      79.5702     -43.2997      81.8786     -46.3062     194.6882 1533251141 9999999.9999
     147.0       0.0000       0.0000      57.8618    -999.2500      87.4830     -36.0697      89.7914     -38.9191     200.7932 1533251142 9999999.9999
     148.0       0.0000       0.0000      62.4868    -999.2500      94.2310     -28.4782      96.5394     -31.1627     206.8920 1533251143 9999999.9999
     149.0       0.0000       0.0000      67.3785    -999.2500      98.6895     -21.6097     100.9979     -24.1450     212.9909 1533251144 9999999.9999
     150.0       0.0000       0.0000      74.1969    -999.2500     101.1397     -13.6165     103.4481     -15.9781     219.1152 1533251145 9999999.9999
     151.0       0.0000       0.0000      81.8971      78.3349     101.8627      -5.7438     104.1711      -7.9344     225.2018 1533251146 9999999.9999
     152.0       0.0000       0.0000      90.8333      75.5713     102.1438       2.8117     104.4522       0.8070     231.3006 1533251147 9999999.9999
     153.0       0.0000       0.0000      99.3055      79.1581     101.9430      10.9655     104.2514       9.1380     237.3931 1533251148 9999999.9999
     154.0       0.0000       0.0000     106.8616      95.1397      99.4125      18.9185     101.7209      17.2638     243.9161 1533251149 9999999.9999
     155.0       0.0000       0.0000     113.3927    -999.2500      94.6327      26.9117      96.9411      25.4306     250.0149 1533251150 9999999.9999
     156.0       0.0000       0.0000     118.6448    -999.2500      88.5273      34.4228      90.8357      33.1050     256.1260 1533251151 9999999.9999
     157.0       0.0000       0.0000     123.3446    -999.2500      81.1367      41.9742      83.4451      40.8204     262.2185 1533251152 9999999.9999
     158.0       0.0000       0.0000     127.6613    -999.2500      72.3000      49.0837      74.6084      48.0843     268.3238 1533251153 9999999.9999
