~VERSION INFORMATION
VERS.           2.0   :CWLS Log ASCII Standard - VERSION 2.0
WRAP.           NO    :One Line per depth step
PROD.  Schlumberger   :LAS Producer
PROG.  DLIS to ASCII 19C2-270                          :LAS Program name and version
CREA.        2018/08/03 10:59                          :LAS Creation date {YYYY/MM/DD hh:mm}
DLIS_CREA.  2018-Aug-03 08:58                          :DLIS Creation date and time {YYYY-MMM-DD hh:mm}
SOURCE.     PERFO_Perfo_064PTP.DLIS                    :DLIS File Name
FILE-ID.     PERFO_Perfo_064PTP                        :File Identification Number
#--------------------------------------------------
~WELL INFORMATION
#MNEM.UNIT      DATA             DESCRIPTION
#---- ------ --------------   -----------------------------
STRT .S            0.0       :START TIME      
STOP .S          966.0       :STOP TIME      
STEP .S            1.0       :STEP     
NULL .          -999.25      :NULL VALUE
COMP .        SHELL INTERNATIONAL EP                   :COMPANY
WELL .        WPP TEST 4                               :WELL
FLD  .        WILDCAT                                  :FIELD
LOC  .        NA                                       :LOCATION
CNTY .        HARRIS                                   :COUNTY
STAT .        TEXAS                                    :STATE
CTRY .                                                 :COUNTRY
API  .        NA                                       :API NUMBER
UWI  .                                                 :UNIQUE WELL ID
DATE .        02-Aug-2018                              :LOG DATE {DD-MMM-YYYY}
SRVC .        Schlumberger                             :SERVICE COMPANY
LATI .DEG                                              :LATITUDE
LONG .DEG                                              :LONGITUDE
GDAT .                                                 :GeoDetic Datum
SECT .        NA                                       :Section
RANG .        NA                                       :Range
TOWN .        NA                                       :Township
#-----------------------------------------------------------------------------
~PARAMETER INFORMATION
#MNEM.UNIT    VALUE                      DESCRIPTION
#---- -----   --------------------       ------------------------
U-PHASE_B_COMP_PER_YT.                 0 :Phase B Comparator Period Yt
U-PHASE_A_COMP_PER_XT.                 0 :Phase A Comparator Period Xt
U-MAX_EXC_CUR_LIMIT.MA       265.00000   :Requested CM Current Limit
U-REQ_EXC_FQ.HZ              50          :Requested CM Frequency
U-TILT_Y_OFFSET.          -2.06578       :WPTET Tilt Y Offset
U-TILT_Y_GAIN.           1.02173         :WPTET Tilt Y Gain
U-TILT_X_OFFSET.           2.30841       :WPTET Tilt X Offset
U-TILT_X_GAIN.           1.00000         :WPTET Tilt X Gain
U-TILT_OFFSET_TOL.           0.00100     :WPTET Tilt Offset Calibration Tolerance
U-MOT_CUR_LIMIT_REQ.MA        70.00000   :Requested Motor Current Limit
U-MOT_SPD_REQ_WPMS.RPM        1.00000    :Requested Motor Speed
U-STD_TOL_TILT.           0.01000        :Tilt Standard Deviation Tolerance
CWEI .LB/F      29.00000                 :Casing Weight
CSIZ .IN         7.00000                 :Current Casing Size
LCC  .               440                 :Logging Company Code
LUN  .              2134                 :Logging Unit Number
HIDE .                                   :Header Identifier
HID1 .                                   :Header Identifier Line 1
R1   .                                   :Remark Line 1
WITN .        MR. KELLY McCOY            :Witness's Name
ENGI .        MORRIS MOORE               :Engineer's Name
LUL  .        IOWA COLONY                :Logging Unit Location
DATE .        02-Aug-2018                :Date as Month-Day-Year
STAT .        TEXAS                      :State or Province
COUN .        HARRIS                     :County or Rig Name
FN   .        WILDCAT                    :Field Name
WN   .        WPP TEST 4                 :Well Name
CN   .        SHELL INTERNATIONAL EP     :Company Name
CLAB .        County                     :County/Rig Label
SLAB .        State                      :State/Province Label
RUN  .          1                        :RUN NUMBER
PDAT .        GROUND LEVEL               :Permanent Datum
EPD  .                                   :Elevation of Permanent Datum above Mean Sea Level
LMF  .          NA                       :Logging Measured From (Name of Logging Elevation Reference)
APD  .                                   :Elevation of Depth Reference (LMF) above Permanent Datum
#-----------------------------------------------------------------------------
~CURVE INFORMATION
#MNEM.UNIT   API CODE                                  DESCRIPTION
#---- -----  --------                                  -----------------------
TIME .S                                                :TIME {F10.1}
FREQ_EMF_SL.HZ                                         :Electromagnetic Field Frequency {F13.4}
PH_SH_WPPCM_SL.DEG                                     :WPPCM Phase Shift {F13.4}
RB_SL.DEG                                              :Relative Bearing {F13.4}
SDEV_SL.DEG                                            :Sonde Deviation {F13.4}
RTIX_SL.DEG                                            :Raw X-axis Tilt {F13.4}
RTIY_SL.DEG                                            :Raw Y-axis Tilt {F13.4}
TILX_SL.DEG                                            :X-axis Tilt {F13.4}
TILY_SL.DEG                                            :Y-axis Tilt {F13.4}
ROTA_SL.DEG                                            :Motor Rotation Angle {F13.4}
TOD7 .S                                                :Time of Day {I11}
TOJ  .S                                                :Time of Job {F13.4}
#-----------------------------------------------------------------------------
# 
#     TIME    FREQ_EMF_SL  PH_SH_WPPCM_    RB_SL       SDEV_SL      RTIX_SL      RTIY_SL      TILX_SL      TILY_SL      ROTA_SL        TOD7            TOJ
#                          SL
~A  
# ...
     159.0       0.0000       0.0000      53.4673    -999.2500      76.3970     -43.5808      78.7054     -46.5935      21.0048 1533232162 9999999.9999
     160.0       0.0000       0.0000      57.3200    -999.2500      84.3500     -36.9533      86.6584     -39.8220      27.1035 1533232163 9999999.9999
     161.0       0.0000       0.0000      61.6696    -999.2500      91.1382     -29.8438      93.4466     -32.5580      33.2023 1533232164 9999999.9999
     162.0       0.0000       0.0000      66.4000    -999.2500      95.8778     -23.0557      98.1862     -25.6224      39.3071 1533232165 9999999.9999
     163.0       0.0000       0.0000      72.5786    -999.2500      98.5690     -15.5445     100.8774     -17.9480      45.4120 1533232166 9999999.9999
     164.0       0.0000       0.0000      79.7449      83.6533      99.7338      -7.9530     102.0422     -10.1916      51.5238 1533232167 9999999.9999
     165.0       0.0000       0.0000      88.0525      77.5444     100.2962       0.1607     102.6046      -1.9016      57.6103 1533232168 9999999.9999
     166.0       0.0000       0.0000      97.1621      79.6497     100.2560       8.9170     102.5644       7.0450      63.7282 1533232169 9999999.9999
     167.0       0.0000       0.0000     104.7331      92.2889      98.5690      16.6692     100.8774      14.9656      70.2513 1533232170 9999999.9999
     168.0       0.0000       0.0000     111.2616    -999.2500      94.6327      24.2607      96.9411      22.7220      76.3377 1533232171 9999999.9999
     169.0       0.0000       0.0000     116.7889    -999.2500      89.0897      31.6915      91.3981      30.3143      82.4556 1533232172 9999999.9999
     170.0       0.0000       0.0000     121.7059    -999.2500      82.2212      39.1625      84.5296      37.9476      88.5482 1533232173 9999999.9999
     171.0       0.0000       0.0000     126.3216    -999.2500      73.6657      46.5532      75.9741      45.4989      94.6469 1533232174 9999999.9999
     172.0       0.0000       0.0000     130.3773    -999.2500      65.0298      52.6183      67.3382      51.6958     100.7457 1533232175 9999999.9999
     173.0       0.0000       0.0000     139.3731    -999.2500      51.2928      70.2917      53.6012      69.7531     106.8505 1533232176 9999999.9999
     174.0       0.0000       0.0000     143.4758    -999.2500      44.4243      79.8112      46.7327      79.4795     112.9815 1533232177 9999999.9999
     175.0       0.0000       0.0000     147.3119    -999.2500      37.5558      87.4428      39.8642      87.2769     119.0802 1533232178 9999999.9999
     176.0       0.0000       0.0000     151.8794    -999.2500      29.8840      94.5122      32.1924      94.4999     125.1922 1533232179 9999999.9999
     177.0       0.0000       0.0000     156.8813    -999.2500      22.5737      99.6535      24.8821      99.7529     131.2971 1533232180 9999999.9999
     178.0       0.0000       0.0000     163.4225    -999.2500      14.5002     103.5497      16.8086     103.7337     137.4021 1533232181 9999999.9999
     179.0       0.0000       0.0000     171.2588      77.5529       6.2258     104.9555       8.5342     105.1701     143.9191 1533232182 9999999.9999
     180.0       0.0000       0.0000     179.6056      74.6707      -1.9280     105.1162       0.3804     105.3343     150.0241 1533232183 9999999.9999
     181.0       0.0000       0.0000    -171.9105      77.4167     -10.2023     104.7145      -7.8939     104.9239     156.1290 1533232184 9999999.9999
     182.0       0.0000       0.0000    -164.3139      94.7677     -18.2758     101.4610     -15.9674     101.5997     162.2409 1533232185 9999999.9999
     183.0       0.0000       0.0000    -157.7476    -999.2500     -26.3092      96.1992     -24.0008      96.2235     168.3398 1533232186 9999999.9999
     184.0       0.0000       0.0000    -152.0567    -999.2500     -34.3425      89.6520     -32.0341      89.5341     174.4455 1533232187 9999999.9999
     185.0       0.0000       0.0000    -146.9713    -999.2500     -42.2955      81.5785     -39.9871      81.2852     180.5505 1533232188 9999999.9999
     186.0       0.0000       0.0000    -142.3183    -999.2500     -49.7263      72.9025     -47.4179      72.4207     186.6493 1533232189 9999999.9999
     187.0       0.0000       0.0000    -136.9798    -999.2500     -56.7957      61.4550     -54.4873      60.7245     192.7614 1533232190 9999999.9999
     188.0       0.0000       0.0000    -129.2617    -999.2500     -72.5812      51.2527     -70.2728      50.3005     198.8664 1533232191 9999999.9999
     189.0       0.0000       0.0000    -125.0976    -999.2500     -81.0563      44.6653     -78.7479      43.5700     204.9713 1533232192 9999999.9999
     190.0       0.0000       0.0000    -120.6265    -999.2500     -88.8487      37.4755     -86.5403      36.2240     211.0702 1533232193 9999999.9999
     191.0       0.0000       0.0000    -115.5176    -999.2500     -95.3958      29.8840     -93.0874      28.4675     217.1690 1533232194 9999999.9999
     192.0       0.0000       0.0000    -109.5351    -999.2500    -100.7380      22.1318     -98.4296      20.5469     223.6981 1533232195 9999999.9999
     193.0       0.0000       0.0000    -102.6556      85.1348    -103.8710      14.4600    -101.5626      12.7084     229.7969 1533232196 9999999.9999
     194.0       0.0000       0.0000     -94.4263      78.4419    -104.6743       6.2660    -102.3659       4.3364     235.9088 1533232197 9999999.9999
     195.0       0.0000       0.0000     -86.0471      78.3585    -104.5940      -1.7673    -102.2856      -3.8715     242.0138 1533232198 9999999.9999
     196.0       0.0000       0.0000     -77.8933      87.9583    -104.1120      -9.8408    -101.8036     -12.1204     248.1188 1533232199 9999999.9999
     197.0       0.0000       0.0000     -70.3953    -999.2500    -101.3405     -18.1353     -99.0321     -20.5951     254.2176 1533232200 9999999.9999
     198.0       0.0000       0.0000     -64.8548    -999.2500     -96.3197     -25.3050     -94.0113     -27.9206     260.3224 1533232201 9999999.9999
     199.0       0.0000       0.0000     -59.4557    -999.2500     -89.9733     -33.3383     -87.6649     -36.1285     266.4210 1533232202 9999999.9999
     200.0       0.0000       0.0000     -55.1670    -999.2500     -83.1450     -40.4478     -80.8366     -43.3924     272.5257 1533232203 9999999.9999
     201.0       0.0000       0.0000     -51.0831    -999.2500     -74.6297     -47.1958     -72.3213     -50.2870     278.6243 1533232204 9999999.9999
     202.0       0.0000       0.0000     -46.3354    -999.2500     -63.8650     -53.8233     -61.5566     -57.0585     284.7107 1533232205 9999999.9999
     203.0       0.0000       0.0000     -37.5656    -999.2500     -50.4092     -71.7778     -48.1008     -75.4031     290.8154 1533232206 9999999.9999
     204.0       0.0000       0.0000     -33.5544    -999.2500     -43.6210     -80.6547     -41.3126     -84.4728     297.3251 1533232207 9999999.9999
     205.0       0.0000       0.0000     -29.3063    -999.2500     -36.4312     -88.0453     -34.1228     -92.0241     303.4237 1533232208 9999999.9999
     206.0       0.0000       0.0000     -24.6291    -999.2500     -29.3217     -93.7088     -27.0133     -97.8106     309.5284 1533232209 9999999.9999
     207.0       0.0000       0.0000     -19.0999    -999.2500     -22.1318     -97.4845     -19.8234    -101.6683     315.6331 1533232210 9999999.9999
     208.0       0.0000       0.0000     -12.4791      85.1011     -14.7412     -99.1715     -12.4328    -103.3920     321.7448 1533232211 9999999.9999
     209.0       0.0000       0.0000      -4.4313      77.0888      -6.6275     -99.4125      -4.3191    -103.6382     327.8434 1533232212 9999999.9999
     210.0       0.0000       0.0000       5.0367      77.6195       2.6108     -99.1313       4.9192    -103.3510     333.9482 1533232213 9999999.9999
     211.0       0.0000       0.0000      12.6990      86.5513      10.4032     -98.2477      12.7116    -102.4481     340.0529 1533232214 9999999.9999
