~VERSION INFORMATION
VERS.           2.0   :CWLS Log ASCII Standard - VERSION 2.0
WRAP.           NO    :One Line per depth step
PROD.  Schlumberger   :LAS Producer
PROG.  DLIS to ASCII 19C2-270                          :LAS Program name and version
CREA.        2018/08/03 10:59                          :LAS Creation date {YYYY/MM/DD hh:mm}
DLIS_CREA.  2018-Aug-03 09:40                          :DLIS Creation date and time {YYYY-MMM-DD hh:mm}
SOURCE.     PERFO_Perfo_082PTP.DLIS                    :DLIS File Name
FILE-ID.     PERFO_Perfo_082PTP                        :File Identification Number
#--------------------------------------------------
~WELL INFORMATION
#MNEM.UNIT      DATA             DESCRIPTION
#---- ------ --------------   -----------------------------
STRT .S            0.0       :START TIME      
STOP .S          387.0       :STOP TIME      
STEP .S            1.0       :STEP     
NULL .          -999.25      :NULL VALUE
COMP .        SHELL INTERNATIONAL EP                   :COMPANY
WELL .        WPP TEST 4                               :WELL
FLD  .        WILDCAT                                  :FIELD
LOC  .        NA                                       :LOCATION
CNTY .        HARRIS                                   :COUNTY
STAT .        TEXAS                                    :STATE
CTRY .                                                 :COUNTRY
API  .        NA                                       :API NUMBER
UWI  .                                                 :UNIQUE WELL ID
DATE .        02-Aug-2018                              :LOG DATE {DD-MMM-YYYY}
SRVC .        Schlumberger                             :SERVICE COMPANY
LATI .DEG                                              :LATITUDE
LONG .DEG                                              :LONGITUDE
GDAT .                                                 :GeoDetic Datum
SECT .        NA                                       :Section
RANG .        NA                                       :Range
TOWN .        NA                                       :Township
#-----------------------------------------------------------------------------
~PARAMETER INFORMATION
#MNEM.UNIT    VALUE                      DESCRIPTION
#---- -----   --------------------       ------------------------
U-PHASE_B_COMP_PER_YT.                 0 :Phase B Comparator Period Yt
U-PHASE_A_COMP_PER_XT.                 0 :Phase A Comparator Period Xt
U-MAX_EXC_CUR_LIMIT.MA       265.00000   :Requested CM Current Limit
U-REQ_EXC_FQ.HZ              50          :Requested CM Frequency
U-TILT_Y_OFFSET.          -2.06578       :WPTET Tilt Y Offset
U-TILT_Y_GAIN.           1.02173         :WPTET Tilt Y Gain
U-TILT_X_OFFSET.           2.30841       :WPTET Tilt X Offset
U-TILT_X_GAIN.           1.00000         :WPTET Tilt X Gain
U-TILT_OFFSET_TOL.           0.00100     :WPTET Tilt Offset Calibration Tolerance
U-MOT_CUR_LIMIT_REQ.MA        70.00000   :Requested Motor Current Limit
U-MOT_SPD_REQ_WPMS.RPM        1.00000    :Requested Motor Speed
U-STD_TOL_TILT.           0.01000        :Tilt Standard Deviation Tolerance
CWEI .LB/F      29.00000                 :Casing Weight
CSIZ .IN         7.00000                 :Current Casing Size
LCC  .               440                 :Logging Company Code
LUN  .              2134                 :Logging Unit Number
HIDE .                                   :Header Identifier
HID1 .                                   :Header Identifier Line 1
R1   .                                   :Remark Line 1
WITN .        MR. KELLY McCOY            :Witness's Name
ENGI .        MORRIS MOORE               :Engineer's Name
LUL  .        IOWA COLONY                :Logging Unit Location
DATE .        02-Aug-2018                :Date as Month-Day-Year
STAT .        TEXAS                      :State or Province
COUN .        HARRIS                     :County or Rig Name
FN   .        WILDCAT                    :Field Name
WN   .        WPP TEST 4                 :Well Name
CN   .        SHELL INTERNATIONAL EP     :Company Name
CLAB .        County                     :County/Rig Label
SLAB .        State                      :State/Province Label
RUN  .          1                        :RUN NUMBER
PDAT .        GROUND LEVEL               :Permanent Datum
EPD  .                                   :Elevation of Permanent Datum above Mean Sea Level
LMF  .          NA                       :Logging Measured From (Name of Logging Elevation Reference)
APD  .                                   :Elevation of Depth Reference (LMF) above Permanent Datum
#-----------------------------------------------------------------------------
~CURVE INFORMATION
#MNEM.UNIT   API CODE                                  DESCRIPTION
#---- -----  --------                                  -----------------------
TIME .S                                                :TIME {F10.1}
FREQ_EMF_SL.HZ                                         :Electromagnetic Field Frequency {F13.4}
PH_SH_WPPCM_SL.DEG                                     :WPPCM Phase Shift {F13.4}
RB_SL.DEG                                              :Relative Bearing {F13.4}
SDEV_SL.DEG                                            :Sonde Deviation {F13.4}
RTIX_SL.DEG                                            :Raw X-axis Tilt {F13.4}
RTIY_SL.DEG                                            :Raw Y-axis Tilt {F13.4}
TILX_SL.DEG                                            :X-axis Tilt {F13.4}
TILY_SL.DEG                                            :Y-axis Tilt {F13.4}
ROTA_SL.DEG                                            :Motor Rotation Angle {F13.4}
TOD7 .S                                                :Time of Day {I11}
TOJ  .S                                                :Time of Job {F13.4}
#-----------------------------------------------------------------------------
# 
#     TIME    FREQ_EMF_SL  PH_SH_WPPCM_    RB_SL       SDEV_SL      RTIX_SL      RTIY_SL      TILX_SL      TILY_SL      ROTA_SL        TOD7            TOJ
#                          SL
~A  
# ...
     106.0     477.0183       0.0000    -123.3605    -999.2500     -85.0730      41.9340     -82.7646      40.7793      87.6759 1533245569 9999999.9999
     107.0     479.2945       0.0000    -118.6158    -999.2500     -92.3432      34.3827     -90.0348      33.0639      93.7747 1533245570 9999999.9999
     108.0     488.2813       0.0000    -113.0566    -999.2500     -98.7698      26.5100     -96.4614      25.0202      99.8734 1533245571 9999999.9999
     109.0     506.9394       0.0000    -106.3199    -999.2500    -103.5497      18.3562    -101.2412      16.6892     105.9915 1533245572 9999999.9999
     110.0     529.4616       0.0000     -98.7890      79.6717    -105.8392      10.4835    -103.5308       8.6455     112.1094 1533245573 9999999.9999
     111.0     578.2278       0.0000     -90.1548      76.2291    -106.0802       2.1690    -103.7718       0.1503     118.6008 1533245574 9999999.9999
     112.0     629.4763       0.0000     -81.4677      79.4074    -105.8793      -6.1857    -103.5709      -8.3858     124.7056 1533245575 9999999.9999
     113.0     685.3070       0.0000     -73.7005      92.9346    -104.0718     -14.2592    -101.7634     -16.6348     130.8105 1533245576 9999999.9999
     114.0     748.0053       0.0000     -67.1189    -999.2500    -100.0552     -22.1720     -97.7467     -24.7195     136.9094 1533245577 9999999.9999
     115.0     816.6376       0.0000     -61.6179    -999.2500     -94.3113     -29.9643     -92.0029     -32.6812     143.0082 1533245578 9999999.9999
     116.0     884.4340       0.0000     -57.0286    -999.2500     -87.5232     -37.3952     -85.2148     -40.2734     149.1132 1533245579 9999999.9999
     117.0     970.4969       0.0000     -52.8070    -999.2500     -79.6806     -44.7356     -77.3722     -47.7734     155.2181 1533245580 9999999.9999
     118.0    1134.0725       0.0000     -48.5305    -999.2500     -70.1310     -51.7347     -67.8226     -54.9245     161.3170 1533245581 9999999.9999
     119.0    1316.7135       0.0000     -39.6727    -999.2500     -54.1045     -67.8013     -51.7961     -71.3402     167.0047 1533245582 9999999.9999
     120.0    1508.8519       0.0000     -35.8188    -999.2500     -47.7983     -77.4012     -45.4899     -81.1487     173.0972 1533245583 9999999.9999
     121.0    1678.1025       0.0000     -31.8361    -999.2500     -40.6888     -85.6353     -38.3804     -89.5617     179.2022 1533245584 9999999.9999
     122.0    1845.4724       0.0000     -27.4916    -999.2500     -33.4588     -92.1825     -31.1504     -96.2511     185.2887 1533245585 9999999.9999
     123.0    2014.6848       0.0000     -22.3798    -999.2500     -26.1083     -97.2837     -23.7999    -101.4631     191.3876 1533245586 9999999.9999
     124.0    2143.6738       0.0000     -16.3401    -999.2500     -18.7980    -100.2560     -16.4896    -104.5001     197.9036 1533245587 9999999.9999
     125.0    2260.8521       0.0000      -8.9944      77.4440     -11.0860    -101.1397      -8.7776    -105.4029     203.9902 1533245588 9999999.9999
     126.0    2375.4224       0.0000      -0.1470      74.5978      -2.4502    -101.1397      -0.1418    -105.4029     210.0890 1533245589 9999999.9999
     127.0    2458.4790       0.0000       8.5733      77.6542       6.0652    -100.7380       8.3736    -104.9925     216.1940 1533245590 9999999.9999
     128.0    2493.3511       0.0000      15.7851      91.0778      13.6567     -99.1313      15.9651    -103.3510     222.2989 1533245591 9999999.9999
     129.0    2486.7373       0.0000      21.9379    -999.2500      21.0875     -95.4962      23.3959     -99.6369     228.3978 1533245592 9999999.9999
     130.0    2493.3511       0.0000      27.1665    -999.2500      28.4782     -90.1340      30.7866     -94.1581     234.4966 1533245593 9999999.9999
     131.0    2493.3511       0.0000      31.3972    -999.2500      35.2663     -83.7073      37.5747     -87.5918     240.6015 1533245594 9999999.9999
     132.0    2484.5405       0.0000      35.4444    -999.2500      42.1348     -75.9150      44.4432     -79.6302     246.7065 1533245595 9999999.9999
     133.0    2493.3511       0.0000      39.7841    -999.2500      49.0033     -66.1143      51.3117     -69.6166     252.8053 1533245596 9999999.9999
     134.0    2484.5405       0.0000      49.2847    -999.2500      67.9620     -50.9313      70.2704     -54.1037     258.9041 1533245597 9999999.9999
     135.0    2493.3511       0.0000      53.4200    -999.2500      78.1643     -44.0227      80.4727     -47.0449     265.0088 1533245598 9999999.9999
     136.0    2493.3511       0.0000      57.1743    -999.2500      85.9567     -37.2747      88.2651     -40.1503     271.5185 1533245599 9999999.9999
     137.0    2484.5405       0.0000      61.3566    -999.2500      92.6243     -30.2455      94.9327     -32.9684     277.6301 1533245600 9999999.9999
     138.0    2484.5405       0.0000      66.3252    -999.2500      97.6853     -23.0155      99.9937     -25.5813     283.7479 1533245601 9999999.9999
     139.0    2484.5405       0.0000      72.2941    -999.2500     100.2962     -15.7453     102.6046     -18.1532     289.8527 1533245602 9999999.9999
     140.0    2484.5405       0.0000      79.7173      80.8534     101.4208      -7.9128     103.7292     -10.1505     295.9513 1533245603 9999999.9999
     141.0    2493.3511       0.0000      88.4622      75.8705     101.9028       0.5623     104.2112      -1.4912     302.0499 1533245604 9999999.9999
     142.0    2493.3511       0.0000      97.9121      78.1571     101.9028       9.5998     104.2112       7.7426     308.1677 1533245605 9999999.9999
     143.0    2424.5691       0.0000     105.5165      93.1640      99.8945      17.4323     102.2029      15.7453     314.2724 1533245606 9999999.9999
     144.0    2343.7500       0.0000     112.1848    -999.2500      95.4762      25.3452      97.7846      23.8301     320.3841 1533245607 9999999.9999
     145.0    2239.2517       0.0000     117.6850    -999.2500      89.5717      32.9768      91.8801      31.6275     326.4827 1533245608 9999999.9999
     146.0    2111.4866       0.0000     122.4863    -999.2500      82.3417      40.5282      84.6501      39.3430     332.5874 1533245609 9999999.9999
     147.0    1969.5378       0.0000     126.9112    -999.2500      73.7862      47.8385      76.0946      46.8121     338.6921 1533245610 9999999.9999
     148.0    1802.8846       0.0000     131.5792    -999.2500      63.3830      54.8275      65.6914      53.9530     345.1957 1533245611 9999999.9999
     149.0    1650.5282       0.0000     139.4821    -999.2500      51.4937      71.2958      53.8021      70.7791     351.3135 1533245612 9999999.9999
     150.0    1477.1533       0.0000     143.3560    -999.2500      44.8260      80.4940      47.1344      80.1771     357.4182 1533245613 9999999.9999
     151.0    1276.0889       0.0000     147.3045    -999.2500      37.5960      88.2060      39.9044      88.0567       3.5302 1533245614 9999999.9999
     152.0       0.0000       0.0000     151.7674    -999.2500      30.0045      95.3958      32.3129      95.4027       9.7246 1533245615 9999999.9999
     153.0       0.0000       0.0000     157.2616    -999.2500      21.9712     101.0192      24.2796     101.1482      15.8294 1533245616 9999999.9999
     154.0       0.0000       0.0000     164.1275      83.9169      13.6165     104.9957      15.9249     105.2112      21.9343 1533245617 9999999.9999
     155.0       0.0000       0.0000     172.1805      75.5375       5.2618     106.1605       7.5702     106.4013      28.0331 1533245618 9999999.9999
     156.0       0.0000       0.0000    -179.1813      73.3721      -3.0928     106.4015      -0.7844     106.6475      34.1318 1533245619 9999999.9999
     157.0       0.0000       0.0000    -170.7899      77.1746     -11.2868     105.5178      -8.9784     105.7447      40.2367 1533245620 9999999.9999
     158.0       0.0000       0.0000    -163.1745      91.5653     -19.5210     101.7422     -17.2126     101.8870      46.3416 1533245621 9999999.9999
