~VERSION INFORMATION
VERS.           2.0   :CWLS Log ASCII Standard - VERSION 2.0
WRAP.           NO    :One Line per depth step
PROD.  Schlumberger   :LAS Producer
PROG.  DLIS to ASCII 19C2-270                          :LAS Program name and version
CREA.        2018/08/03 10:59                          :LAS Creation date {YYYY/MM/DD hh:mm}
DLIS_CREA.  2018-Aug-03 08:53                          :DLIS Creation date and time {YYYY-MMM-DD hh:mm}
SOURCE.     PERFO_Perfo_062PTP.DLIS                    :DLIS File Name
FILE-ID.     PERFO_Perfo_062PTP                        :File Identification Number
#--------------------------------------------------
~WELL INFORMATION
#MNEM.UNIT      DATA             DESCRIPTION
#---- ------ --------------   -----------------------------
STRT .S            0.0       :START TIME      
STOP .S          971.0       :STOP TIME      
STEP .S            1.0       :STEP     
NULL .          -999.25      :NULL VALUE
COMP .        SHELL INTERNATIONAL EP                   :COMPANY
WELL .        WPP TEST 4                               :WELL
FLD  .        WILDCAT                                  :FIELD
LOC  .        NA                                       :LOCATION
CNTY .        HARRIS                                   :COUNTY
STAT .        TEXAS                                    :STATE
CTRY .                                                 :COUNTRY
API  .        NA                                       :API NUMBER
UWI  .                                                 :UNIQUE WELL ID
DATE .        02-Aug-2018                              :LOG DATE {DD-MMM-YYYY}
SRVC .        Schlumberger                             :SERVICE COMPANY
LATI .DEG                                              :LATITUDE
LONG .DEG                                              :LONGITUDE
GDAT .                                                 :GeoDetic Datum
SECT .        NA                                       :Section
RANG .        NA                                       :Range
TOWN .        NA                                       :Township
#-----------------------------------------------------------------------------
~PARAMETER INFORMATION
#MNEM.UNIT    VALUE                      DESCRIPTION
#---- -----   --------------------       ------------------------
U-PHASE_B_COMP_PER_YT.                 0 :Phase B Comparator Period Yt
U-PHASE_A_COMP_PER_XT.                 0 :Phase A Comparator Period Xt
U-MAX_EXC_CUR_LIMIT.MA       265.00000   :Requested CM Current Limit
U-REQ_EXC_FQ.HZ              50          :Requested CM Frequency
U-TILT_Y_OFFSET.          -2.06578       :WPTET Tilt Y Offset
U-TILT_Y_GAIN.           1.02173         :WPTET Tilt Y Gain
U-TILT_X_OFFSET.           2.30841       :WPTET Tilt X Offset
U-TILT_X_GAIN.           1.00000         :WPTET Tilt X Gain
U-TILT_OFFSET_TOL.           0.00100     :WPTET Tilt Offset Calibration Tolerance
U-MOT_CUR_LIMIT_REQ.MA        70.00000   :Requested Motor Current Limit
U-MOT_SPD_REQ_WPMS.RPM        1.00000    :Requested Motor Speed
U-STD_TOL_TILT.           0.01000        :Tilt Standard Deviation Tolerance
CWEI .LB/F      29.00000                 :Casing Weight
CSIZ .IN         7.00000                 :Current Casing Size
LCC  .               440                 :Logging Company Code
LUN  .              2134                 :Logging Unit Number
HIDE .                                   :Header Identifier
HID1 .                                   :Header Identifier Line 1
R1   .                                   :Remark Line 1
WITN .        MR. KELLY McCOY            :Witness's Name
ENGI .        MORRIS MOORE               :Engineer's Name
LUL  .        IOWA COLONY                :Logging Unit Location
DATE .        02-Aug-2018                :Date as Month-Day-Year
STAT .        TEXAS                      :State or Province
COUN .        HARRIS                     :County or Rig Name
FN   .        WILDCAT                    :Field Name
WN   .        WPP TEST 4                 :Well Name
CN   .        SHELL INTERNATIONAL EP     :Company Name
CLAB .        County                     :County/Rig Label
SLAB .        State                      :State/Province Label
RUN  .          1                        :RUN NUMBER
PDAT .        GROUND LEVEL               :Permanent Datum
EPD  .                                   :Elevation of Permanent Datum above Mean Sea Level
LMF  .          NA                       :Logging Measured From (Name of Logging Elevation Reference)
APD  .                                   :Elevation of Depth Reference (LMF) above Permanent Datum
#-----------------------------------------------------------------------------
~CURVE INFORMATION
#MNEM.UNIT   API CODE                                  DESCRIPTION
#---- -----  --------                                  -----------------------
TIME .S                                                :TIME {F10.1}
FREQ_EMF_SL.HZ                                         :Electromagnetic Field Frequency {F13.4}
PH_SH_WPPCM_SL.DEG                                     :WPPCM Phase Shift {F13.4}
RB_SL.DEG                                              :Relative Bearing {F13.4}
SDEV_SL.DEG                                            :Sonde Deviation {F13.4}
RTIX_SL.DEG                                            :Raw X-axis Tilt {F13.4}
RTIY_SL.DEG                                            :Raw Y-axis Tilt {F13.4}
TILX_SL.DEG                                            :X-axis Tilt {F13.4}
TILY_SL.DEG                                            :Y-axis Tilt {F13.4}
ROTA_SL.DEG                                            :Motor Rotation Angle {F13.4}
TOD7 .S                                                :Time of Day {I11}
TOJ  .S                                                :Time of Job {F13.4}
#-----------------------------------------------------------------------------
# 
#     TIME    FREQ_EMF_SL  PH_SH_WPPCM_    RB_SL       SDEV_SL      RTIX_SL      RTIY_SL      TILX_SL      TILY_SL      ROTA_SL        TOD7            TOJ
#                          SL
~A  
# ...
     477.0       0.0000       0.0000    -130.2227    -999.2500     -70.4925      52.6585     -68.1841      51.7368      71.5135 1533230393 9999999.9999
     478.0       0.0000       0.0000    -125.8737    -999.2500     -79.4898      45.9105     -77.1814      44.8422      77.6254 1533230394 9999999.9999
     479.0       0.0000       0.0000    -121.1193    -999.2500     -87.8445      38.2387     -85.5361      37.0037      83.7242 1533230395 9999999.9999
     480.0       0.0000       0.0000    -116.4542    -999.2500     -94.2310      31.2095     -91.9226      29.8218      89.8351 1533230396 9999999.9999
     481.0       0.0000       0.0000    -110.8141    -999.2500     -99.6937      23.6983     -97.3853      22.1475      95.9339 1533230397 9999999.9999
     482.0       0.0000       0.0000    -103.6843    -999.2500    -103.5497      15.5445    -101.2412      13.8165     102.0456 1533230398 9999999.9999
     483.0       0.0000       0.0000     -95.7119      79.1048    -104.5940       7.5112    -102.2856       5.6086     108.1505 1533230399 9999999.9999
     484.0       0.0000       0.0000     -87.0906      77.9760    -104.6743      -0.7632    -102.3659      -2.8455     114.2553 1533230400 9999999.9999
     485.0       0.0000       0.0000     -78.4831      87.3966    -104.1120      -9.2383    -101.8036     -11.5048     120.7590 1533230401 9999999.9999
     486.0       0.0000       0.0000     -71.5435    -999.2500    -101.7823     -16.7897     -99.4739     -19.2202     126.8577 1533230402 9999999.9999
     487.0       0.0000       0.0000     -65.3994    -999.2500     -97.2033     -24.5418     -94.8949     -27.1408     132.9627 1533230403 9999999.9999
     488.0       0.0000       0.0000     -60.2467    -999.2500     -91.2185     -32.0932     -88.9101     -34.8562     139.0676 1533230404 9999999.9999
     489.0       0.0000       0.0000     -55.9069    -999.2500     -84.2295     -39.1625     -81.9211     -42.0792     145.1795 1533230405 9999999.9999
     490.0       0.0000       0.0000     -51.8421    -999.2500     -76.0757     -45.9105     -73.7673     -48.9738     151.2845 1533230406 9999999.9999
     491.0       0.0000       0.0000     -47.0118    -999.2500     -65.3110     -52.9397     -63.0026     -56.1557     157.3833 1533230407 9999999.9999
     492.0    3255.2083       0.0000     -37.9813    -999.2500     -51.0518     -70.7335     -48.7434     -74.3361     163.4883 1533230408 9999999.9999
     493.0    1177.7638       0.0000     -33.9526    -999.2500     -44.3038     -79.7710     -41.9954     -83.5700     169.5035 1533230409 9999999.9999
     494.0    1214.3783       0.0000     -29.7964    -999.2500     -37.2345     -87.1215     -34.9261     -91.0802     175.5961 1533230410 9999999.9999
     495.0    1229.2395       0.0000     -25.2678    -999.2500     -30.2455     -92.9055     -27.9371     -96.9899     181.7142 1533230411 9999999.9999
     496.0    1237.8961       0.0000     -19.8441    -999.2500     -23.0557     -96.8418     -20.7473    -101.0117     187.8130 1533230412 9999999.9999
     497.0    1253.3423       0.0000     -13.5665      84.6391     -15.9060     -98.8100     -13.5976    -103.0226     194.3045 1533230413 9999999.9999
     498.0    1266.8918       0.0000      -5.5699      77.8020      -7.7522     -99.1715      -5.4438    -103.3920     200.3970 1533230414 9999999.9999
     499.0    1290.1376       0.0000       3.1933      77.0298       0.8033     -99.1313       3.1117    -103.3510     206.5020 1533230415 9999999.9999
     500.0    1306.9238       0.0000      11.1649      84.0961       8.7965     -98.4083      11.1049    -102.6123     212.6008 1533230416 9999999.9999
     501.0    1326.6509       0.0000      17.7289    -999.2500      16.0265     -96.1188      18.3349    -100.2730     218.7058 1533230417 9999999.9999
     502.0    1354.7688       0.0000      23.2014    -999.2500      22.9352     -91.7005      25.2436     -95.7587     224.8046 1533230418 9999999.9999
     503.0    1374.6334       0.0000      27.7884    -999.2500      29.4924     -86.4889      31.8008     -90.4338     230.9096 1533230419 9999999.9999
     504.0    1409.0682       0.0000      32.3236    -999.2500      36.6320     -79.5702      38.9404     -83.3648     237.0084 1533230420 9999999.9999
     505.0    1434.9490       0.0000      36.4408    -999.2500      43.2193     -71.4967      45.5277     -75.1159     243.1134 1533230421 9999999.9999
     506.0    1455.7454       0.0000      41.1935    -999.2500      49.4853     -60.4910      51.7937     -63.8711     249.2183 1533230422 9999999.9999
     507.0    1492.8344       0.0000      51.2226    -999.2500      70.9343     -47.1958      73.2427     -50.2870     255.2926 1533230423 9999999.9999
     508.0    1518.6285       0.0000      55.0498    -999.2500      79.7308     -40.8495      82.0392     -43.8028     261.3928 1533230424 9999999.9999
     509.0    1552.1523       0.0000      59.0602    -999.2500      87.0010     -34.0212      89.3094     -36.8261     267.9025 1533230425 9999999.9999
     510.0    1576.5134       0.0000      63.4174    -999.2500      92.8653     -27.2330      95.1737     -29.8905     274.0072 1533230426 9999999.9999
     511.0    1601.6515       0.0000      68.5416    -999.2500      96.8820     -20.3243      99.1904     -22.8317     280.1058 1533230427 9999999.9999
     512.0    1631.3805       0.0000      74.9224    -999.2500      98.9305     -12.9738     101.2389     -15.3215     286.2105 1533230428 9999999.9999
     513.0    1646.6628       0.0000      82.9064      80.2438      99.7338      -4.8200     102.0422      -6.9905     292.3153 1533230429 9999999.9999
     514.0    1674.1072       0.0000      91.8769      77.5744     100.2560       3.8158     102.5644       1.8330     298.4139 1533230430 9999999.9999
     515.0    1686.1511       0.0000     100.3673      83.8795      99.7137      12.1102     102.0222      10.3076     304.5255 1533230431 9999999.9999
     516.0    1702.4818       0.0000     107.7507    -999.2500      97.0427      20.0432      99.3511      18.4129     310.6436 1533230432 9999999.9999
     517.0    1710.7665       0.0000     113.7435    -999.2500      92.3030      27.4740      94.6114      26.0052     316.7483 1533230433 9999999.9999
     518.0    1714.9390       0.0000     118.8869    -999.2500      86.2780      34.7843      88.5864      33.4743     322.8469 1533230434 9999999.9999
     519.0    1719.1321       0.0000     123.5495    -999.2500      78.8873      42.0947      81.1957      40.9435     328.9332 1533230435 9999999.9999
     520.0    1719.1321       0.0000     128.1037    -999.2500      69.9703      49.3247      72.2787      48.3306     335.0380 1533230436 9999999.9999
     521.0    1714.9390       0.0000     135.2016    -999.2500      55.4300      59.1655      57.7384      58.3852     341.1558 1533230437 9999999.9999
     522.0    1702.4818       0.0000     141.0302    -999.2500      48.5615      73.9870      50.8699      73.5287     347.6601 1533230438 9999999.9999
     523.0    1694.2772       0.0000     144.9807    -999.2500      41.6930      82.7433      44.0014      82.4753     353.7649 1533230439 9999999.9999
     524.0    1686.1511       0.0000     148.9997    -999.2500      34.6237      90.0135      36.9321      89.9035     359.8573 1533230440 9999999.9999
     525.0    1666.1730       0.0000     153.7428    -999.2500      27.0322      96.6008      29.3406      96.6339       5.9691 1533230441 9999999.9999
     526.0    1650.5282       0.0000     159.5138    -999.2500      19.1595     101.4610      21.4679     101.5997      12.0556 1533230442 9999999.9999
     527.0    1623.8453       0.0000     166.3594      85.3714      11.2868     104.1923      13.5952     104.3904      18.1666 1533230443 9999999.9999
     528.0    1605.3082       0.0000     175.0050      75.6575       2.5305     104.9555       4.8389     105.1701      24.2654 1533230444 9999999.9999
     529.0    1569.4755       0.0000    -176.2810      75.2401      -5.9045     104.9957      -3.5961     105.2112      30.3641 1533230445 9999999.9999
