~VERSION INFORMATION
VERS.           2.0   :CWLS Log ASCII Standard - VERSION 2.0
WRAP.           NO    :One Line per depth step
PROD.  Schlumberger   :LAS Producer
PROG.  DLIS to ASCII 19C2-270                          :LAS Program name and version
CREA.        2018/08/03 10:59                          :LAS Creation date {YYYY/MM/DD hh:mm}
DLIS_CREA.  2018-Aug-03 08:53                          :DLIS Creation date and time {YYYY-MMM-DD hh:mm}
SOURCE.     PERFO_Perfo_062PTP.DLIS                    :DLIS File Name
FILE-ID.     PERFO_Perfo_062PTP                        :File Identification Number
#--------------------------------------------------
~WELL INFORMATION
#MNEM.UNIT      DATA             DESCRIPTION
#---- ------ --------------   -----------------------------
STRT .S            0.0       :START TIME      
STOP .S          971.0       :STOP TIME      
STEP .S            1.0       :STEP     
NULL .          -999.25      :NULL VALUE
COMP .        SHELL INTERNATIONAL EP                   :COMPANY
WELL .        WPP TEST 4                               :WELL
FLD  .        WILDCAT                                  :FIELD
LOC  .        NA                                       :LOCATION
CNTY .        HARRIS                                   :COUNTY
STAT .        TEXAS                                    :STATE
CTRY .                                                 :COUNTRY
API  .        NA                                       :API NUMBER
UWI  .                                                 :UNIQUE WELL ID
DATE .        02-Aug-2018                              :LOG DATE {DD-MMM-YYYY}
SRVC .        Schlumberger                             :SERVICE COMPANY
LATI .DEG                                              :LATITUDE
LONG .DEG                                              :LONGITUDE
GDAT .                                                 :GeoDetic Datum
SECT .        NA                                       :Section
RANG .        NA                                       :Range
TOWN .        NA                                       :Township
#-----------------------------------------------------------------------------
~PARAMETER INFORMATION
#MNEM.UNIT    VALUE                      DESCRIPTION
#---- -----   --------------------       ------------------------
U-PHASE_B_COMP_PER_YT.                 0 :Phase B Comparator Period Yt
U-PHASE_A_COMP_PER_XT.                 0 :Phase A Comparator Period Xt
U-MAX_EXC_CUR_LIMIT.MA       265.00000   :Requested CM Current Limit
U-REQ_EXC_FQ.HZ              50          :Requested CM Frequency
U-TILT_Y_OFFSET.          -2.06578       :WPTET Tilt Y Offset
U-TILT_Y_GAIN.           1.02173         :WPTET Tilt Y Gain
U-TILT_X_OFFSET.           2.30841       :WPTET Tilt X Offset
U-TILT_X_GAIN.           1.00000         :WPTET Tilt X Gain
U-TILT_OFFSET_TOL.           0.00100     :WPTET Tilt Offset Calibration Tolerance
U-MOT_CUR_LIMIT_REQ.MA        70.00000   :Requested Motor Current Limit
U-MOT_SPD_REQ_WPMS.RPM        1.00000    :Requested Motor Speed
U-STD_TOL_TILT.           0.01000        :Tilt Standard Deviation Tolerance
CWEI .LB/F      29.00000                 :Casing Weight
CSIZ .IN         7.00000                 :Current Casing Size
LCC  .               440                 :Logging Company Code
LUN  .              2134                 :Logging Unit Number
HIDE .                                   :Header Identifier
HID1 .                                   :Header Identifier Line 1
R1   .                                   :Remark Line 1
WITN .        MR. KELLY McCOY            :Witness's Name
ENGI .        MORRIS MOORE               :Engineer's Name
LUL  .        IOWA COLONY                :Logging Unit Location
DATE .        02-Aug-2018                :Date as Month-Day-Year
STAT .        TEXAS                      :State or Province
COUN .        HARRIS                     :County or Rig Name
FN   .        WILDCAT                    :Field Name
WN   .        WPP TEST 4                 :Well Name
CN   .        SHELL INTERNATIONAL EP     :Company Name
CLAB .        County                     :County/Rig Label
SLAB .        State                      :State/Province Label
RUN  .          1                        :RUN NUMBER
PDAT .        GROUND LEVEL               :Permanent Datum
EPD  .                                   :Elevation of Permanent Datum above Mean Sea Level
LMF  .          NA                       :Logging Measured From (Name of Logging Elevation Reference)
APD  .                                   :Elevation of Depth Reference (LMF) above Permanent Datum
#-----------------------------------------------------------------------------
~CURVE INFORMATION
#MNEM.UNIT   API CODE                                  DESCRIPTION
#---- -----  --------                                  -----------------------
TIME .S                                                :TIME {F10.1}
FREQ_EMF_SL.HZ                                         :Electromagnetic Field Frequency {F13.4}
PH_SH_WPPCM_SL.DEG                                     :WPPCM Phase Shift {F13.4}
RB_SL.DEG                                              :Relative Bearing {F13.4}
SDEV_SL.DEG                                            :Sonde Deviation {F13.4}
RTIX_SL.DEG                                            :Raw X-axis Tilt {F13.4}
RTIY_SL.DEG                                            :Raw Y-axis Tilt {F13.4}
TILX_SL.DEG                                            :X-axis Tilt {F13.4}
TILY_SL.DEG                                            :Y-axis Tilt {F13.4}
ROTA_SL.DEG                                            :Motor Rotation Angle {F13.4}
TOD7 .S                                                :Time of Day {I11}
TOJ  .S                                                :Time of Job {F13.4}
#-----------------------------------------------------------------------------
# 
#     TIME    FREQ_EMF_SL  PH_SH_WPPCM_    RB_SL       SDEV_SL      RTIX_SL      RTIY_SL      TILX_SL      TILY_SL      ROTA_SL        TOD7            TOJ
#                          SL
~A  
# ...
     318.0    1515.3556       0.0000     -18.9861    -999.2500     -22.0113     -97.3238     -19.7029    -101.5042     176.2962 1533230234 9999999.9999
     319.0    1541.9408       0.0000     -12.4668      85.7966     -14.7412     -98.9305     -12.4328    -103.1458     182.4011 1533230235 9999999.9999
     320.0    1565.9799       0.0000      -4.4283      77.2617      -6.6275     -99.2518      -4.3191    -103.4741     188.4877 1533230236 9999999.9999
     321.0    1601.6515       0.0000       4.5047      77.4626       2.0887     -99.0912       4.3971    -103.3099     194.5926 1533230237 9999999.9999
     322.0    1620.1036       0.0000      12.8799      88.1015      10.6040     -98.0468      12.9124    -102.2429     200.6976 1533230238 9999999.9999
     323.0    1642.8153       0.0000      19.0389    -999.2500      17.5930     -95.3155      19.9014     -99.4522     206.7840 1533230239 9999999.9999
     324.0    1650.5282       0.0000      24.4153    -999.2500      24.5820     -90.8570      26.8904     -94.8969     212.8828 1533230240 9999999.9999
     325.0    1674.1072       0.0000      28.9100    -999.2500      31.2095     -85.2337      33.5179     -89.1513     218.9878 1533230241 9999999.9999
     326.0    1690.2042       0.0000      33.1313    -999.2500      37.9575     -78.2447      40.2659     -82.0105     225.0927 1533230242 9999999.9999
     327.0    1694.2772       0.0000      37.2599    -999.2500      44.4645     -69.7293      46.7729     -73.3101     231.1916 1533230243 9999999.9999
     328.0    1702.4818       0.0000      42.3548    -999.2500      50.2083     -57.1973      52.5167     -60.5058     237.6829 1533230244 9999999.9999
     329.0    1702.4818       0.0000      51.9536    -999.2500      72.6615     -46.0310      74.9699     -49.0969     243.7756 1533230245 9999999.9999
     330.0    1710.7665       0.0000      55.6865    -999.2500      81.1768     -39.7650      83.4852     -42.6948     249.8681 1533230246 9999999.9999
     331.0    1698.3695       0.0000      59.7230    -999.2500      88.1257     -32.9367      90.4341     -35.7181     255.9546 1533230247 9999999.9999
     332.0    1694.2772       0.0000      64.1936    -999.2500      93.7490     -26.1083      96.0574     -28.7414     262.0594 1533230248 9999999.9999
     333.0    1678.1025       0.0000      69.5947    -999.2500      97.2837     -19.0390      99.5921     -21.5184     268.1774 1533230249 9999999.9999
     334.0    1666.1730       0.0000      76.6947    -999.2500      99.3322     -11.0860     101.6406     -13.3926     274.2760 1533230250 9999999.9999
     335.0    1658.3137       0.0000      85.0904      78.7707      99.9347      -2.6912     102.2431      -4.8154     280.3746 1533230251 9999999.9999
     336.0    1635.1744       0.0000      94.0531      78.1823     100.1757       5.9045     102.4841       3.9670     286.4924 1533230252 9999999.9999
     337.0    1612.6721       0.0000     101.8772      87.1525      99.3322      13.6567     101.6406      11.8876     292.6102 1533230253 9999999.9999
     338.0    1598.0114       0.0000     108.8806    -999.2500      96.2393      21.3687      98.5477      19.7672     298.7088 1533230254 9999999.9999
     339.0    1565.9799       0.0000     114.7836    -999.2500      91.2185      28.8798      93.5269      27.4415     304.8204 1533230255 9999999.9999
     340.0    1531.8628       0.0000     119.8377    -999.2500      84.8722      36.2303      87.1806      34.9517     311.3362 1533230256 9999999.9999
     341.0    1508.8519       0.0000     124.3750    -999.2500      77.3610      43.4202      79.6694      42.2978     317.4348 1533230257 9999999.9999
     342.0    1480.2632       0.0000     129.0574    -999.2500      67.8817      50.7305      70.1901      49.7670     323.5334 1533230258 9999999.9999
     343.0    1455.7454       0.0000     137.6009    -999.2500      53.7028      65.8733      56.0112      65.2388     329.6382 1533230259 9999999.9999
     344.0    1426.2170       0.0000     141.9486    -999.2500      47.0352      76.1560      49.3436      75.7449     335.7429 1533230260 9999999.9999
     345.0    1395.0892       0.0000     145.7849    -999.2500      40.2470      84.2697      42.5554      84.0348     341.8293 1533230261 9999999.9999
     346.0    1373.2910       0.0000     150.1963    -999.2500      32.6153      91.9415      34.9237      91.8734     347.9154 1533230262 9999999.9999
     347.0    1352.1635       0.0000     155.2375    -999.2500      24.8632      98.0468      27.1716      98.1113     354.0201 1533230263 9999999.9999
     348.0    1329.1588       0.0000     161.1211    -999.2500      17.1913     102.3848      19.4997     102.5436       0.1379 1533230264 9999999.9999
     349.0    1306.9238       0.0000     168.4243      80.8464       9.1178     104.5137      11.4262     104.7187       6.2244 1533230265 9999999.9999
     350.0    1292.5093       0.0000     176.7382      75.0926       0.8435     105.0358       3.1519     105.2522      12.3362 1533230266 9999999.9999
     351.0    1273.7772       0.0000    -174.7970      75.7304      -7.3505     104.9555      -5.0421     105.1701      18.4542 1533230267 9999999.9999
     352.0    1257.8265       0.0000    -166.9689      86.0423     -15.3437     102.7865     -13.0353     102.9540      24.9516 1533230268 9999999.9999
     353.0    1240.0793       0.0000    -159.8705    -999.2500     -23.5778      98.1673     -21.2694      98.2345      31.0503 1533230269 9999999.9999
     354.0    1237.8961       0.0000    -153.9395    -999.2500     -31.5710      91.8210     -29.2626      91.7502      37.1552 1533230270 9999999.9999
     355.0    1224.9564       0.0000    -148.8283    -999.2500     -39.3232      84.5910     -37.0148      84.3631      43.2731 1533230271 9999999.9999
     356.0    1216.4792       0.0000    -144.2015    -999.2500     -46.7540      76.5577     -44.4456      76.1553      49.3473 1533230272 9999999.9999
     357.0    1210.1979       0.0000    -139.4280    -999.2500     -53.9438      66.9177     -51.6354      66.3058      55.4460 1533230273 9999999.9999
     358.0    1206.0464       0.0000    -130.8807    -999.2500     -69.0465      53.5823     -66.7381      52.6807      61.5509 1533230274 9999999.9999
     359.0    1208.1185       0.0000    -126.5271    -999.2500     -78.1643      46.9548     -75.8559      45.9092      67.6558 1533230275 9999999.9999
     360.0    1208.1185       0.0000    -122.2066    -999.2500     -86.0772      39.9658     -83.7688      38.7684      73.7422 1533230276 9999999.9999
     361.0    1210.1979       0.0000    -117.4266    -999.2500     -93.0662      32.6153     -90.7578      31.2582      79.8542 1533230277 9999999.9999
     362.0    1214.3783       0.0000    -111.7721    -999.2500     -98.8502      24.9033     -96.5418      23.3786      85.9591 1533230278 9999999.9999
     363.0    1216.4792       0.0000    -105.0684    -999.2500    -103.1078      17.0307    -100.7994      15.3349      92.0639 1533230279 9999999.9999
     364.0    1233.5526       0.0000     -98.0533      80.7448    -104.5538       9.8007    -102.2454       7.9478      98.5806 1533230280 9999999.9999
     365.0    1240.0793       0.0000     -88.7677      77.6947    -104.6743       0.8435    -102.3659      -1.2040     104.6855 1533230281 9999999.9999
     366.0    1248.8899       0.0000     -80.3062      82.8170    -104.3530      -7.3907    -102.0446      -9.6170     110.7913 1533230282 9999999.9999
     367.0    1264.6134       0.0000     -72.8399      86.7673    -102.3447     -15.3035    -100.0363     -17.7018     116.9031 1533230283 9999999.9999
     368.0    1280.7377       0.0000     -66.6288    -999.2500     -98.2075     -22.8950     -95.8991     -25.4582     123.0018 1533230284 9999999.9999
     369.0    1304.4990       0.0000     -61.2605    -999.2500     -92.5440     -30.5267     -90.2356     -33.2557     129.1067 1533230285 9999999.9999
     370.0    1319.1838       0.0000     -56.5275    -999.2500     -85.2738     -38.1182     -82.9654     -41.0121     135.2117 1533230286 9999999.9999
