~VERSION INFORMATION
VERS.           2.0   :CWLS Log ASCII Standard - VERSION 2.0
WRAP.           NO    :One Line per depth step
PROD.  Schlumberger   :LAS Producer
PROG.  DLIS to ASCII 19C2-270                          :LAS Program name and version
CREA.        2018/08/03 10:59                          :LAS Creation date {YYYY/MM/DD hh:mm}
DLIS_CREA.  2018-Aug-03 08:58                          :DLIS Creation date and time {YYYY-MMM-DD hh:mm}
SOURCE.     PERFO_Perfo_064PTP.DLIS                    :DLIS File Name
FILE-ID.     PERFO_Perfo_064PTP                        :File Identification Number
#--------------------------------------------------
~WELL INFORMATION
#MNEM.UNIT      DATA             DESCRIPTION
#---- ------ --------------   -----------------------------
STRT .S            0.0       :START TIME      
STOP .S          966.0       :STOP TIME      
STEP .S            1.0       :STEP     
NULL .          -999.25      :NULL VALUE
COMP .        SHELL INTERNATIONAL EP                   :COMPANY
WELL .        WPP TEST 4                               :WELL
FLD  .        WILDCAT                                  :FIELD
LOC  .        NA                                       :LOCATION
CNTY .        HARRIS                                   :COUNTY
STAT .        TEXAS                                    :STATE
CTRY .                                                 :COUNTRY
API  .        NA                                       :API NUMBER
UWI  .                                                 :UNIQUE WELL ID
DATE .        02-Aug-2018                              :LOG DATE {DD-MMM-YYYY}
SRVC .        Schlumberger                             :SERVICE COMPANY
LATI .DEG                                              :LATITUDE
LONG .DEG                                              :LONGITUDE
GDAT .                                                 :GeoDetic Datum
SECT .        NA                                       :Section
RANG .        NA                                       :Range
TOWN .        NA                                       :Township
#-----------------------------------------------------------------------------
~PARAMETER INFORMATION
#MNEM.UNIT    VALUE                      DESCRIPTION
#---- -----   --------------------       ------------------------
U-PHASE_B_COMP_PER_YT.                 0 :Phase B Comparator Period Yt
U-PHASE_A_COMP_PER_XT.                 0 :Phase A Comparator Period Xt
U-MAX_EXC_CUR_LIMIT.MA       265.00000   :Requested CM Current Limit
U-REQ_EXC_FQ.HZ              50          :Requested CM Frequency
U-TILT_Y_OFFSET.          -2.06578       :WPTET Tilt Y Offset
U-TILT_Y_GAIN.           1.02173         :WPTET Tilt Y Gain
U-TILT_X_OFFSET.           2.30841       :WPTET Tilt X Offset
U-TILT_X_GAIN.           1.00000         :WPTET Tilt X Gain
U-TILT_OFFSET_TOL.           0.00100     :WPTET Tilt Offset Calibration Tolerance
U-MOT_CUR_LIMIT_REQ.MA        70.00000   :Requested Motor Current Limit
U-MOT_SPD_REQ_WPMS.RPM        1.00000    :Requested Motor Speed
U-STD_TOL_TILT.           0.01000        :Tilt Standard Deviation Tolerance
CWEI .LB/F      29.00000                 :Casing Weight
CSIZ .IN         7.00000                 :Current Casing Size
LCC  .               440                 :Logging Company Code
LUN  .              2134                 :Logging Unit Number
HIDE .                                   :Header Identifier
HID1 .                                   :Header Identifier Line 1
R1   .                                   :Remark Line 1
WITN .        MR. KELLY McCOY            :Witness's Name
ENGI .        MORRIS MOORE               :Engineer's Name
LUL  .        IOWA COLONY                :Logging Unit Location
DATE .        02-Aug-2018                :Date as Month-Day-Year
STAT .        TEXAS                      :State or Province
COUN .        HARRIS                     :County or Rig Name
FN   .        WILDCAT                    :Field Name
WN   .        WPP TEST 4                 :Well Name
CN   .        SHELL INTERNATIONAL EP     :Company Name
CLAB .        County                     :County/Rig Label
SLAB .        State                      :State/Province Label
RUN  .          1                        :RUN NUMBER
PDAT .        GROUND LEVEL               :Permanent Datum
EPD  .                                   :Elevation of Permanent Datum above Mean Sea Level
LMF  .          NA                       :Logging Measured From (Name of Logging Elevation Reference)
APD  .                                   :Elevation of Depth Reference (LMF) above Permanent Datum
#-----------------------------------------------------------------------------
~CURVE INFORMATION
#MNEM.UNIT   API CODE                                  DESCRIPTION
#---- -----  --------                                  -----------------------
TIME .S                                                :TIME {F10.1}
FREQ_EMF_SL.HZ                                         :Electromagnetic Field Frequency {F13.4}
PH_SH_WPPCM_SL.DEG                                     :WPPCM Phase Shift {F13.4}
RB_SL.DEG                                              :Relative Bearing {F13.4}
SDEV_SL.DEG                                            :Sonde Deviation {F13.4}
RTIX_SL.DEG                                            :Raw X-axis Tilt {F13.4}
RTIY_SL.DEG                                            :Raw Y-axis Tilt {F13.4}
TILX_SL.DEG                                            :X-axis Tilt {F13.4}
TILY_SL.DEG                                            :Y-axis Tilt {F13.4}
ROTA_SL.DEG                                            :Motor Rotation Angle {F13.4}
TOD7 .S                                                :Time of Day {I11}
TOJ  .S                                                :Time of Job {F13.4}
#-----------------------------------------------------------------------------
# 
#     TIME    FREQ_EMF_SL  PH_SH_WPPCM_    RB_SL       SDEV_SL      RTIX_SL      RTIY_SL      TILX_SL      TILY_SL      ROTA_SL        TOD7            TOJ
#                          SL
~A  
# ...
     636.0    1845.4724       0.0000      60.2670    -999.2500      89.2905     -32.0530      91.5989     -34.8152      66.7385 1533232639 9999999.9999
     637.0    1910.6658       0.0000      64.8700    -999.2500      94.5523     -25.1443      96.8607     -27.7564      72.8442 1533232640 9999999.9999
     638.0    1991.8556       0.0000      70.2787    -999.2500      97.9263     -18.1955     100.2347     -20.6566      78.9429 1533232641 9999999.9999
     639.0    2117.8464       0.0000      77.1521      89.5293      99.4928     -10.6040     101.8012     -12.9002      85.4418 1533232642 9999999.9999
     640.0    2232.1428       0.0000      85.5443      78.3694     100.1355      -2.2493     102.4439      -4.3640      91.5597 1533232643 9999999.9999
     641.0    2359.4797       0.0000      94.6007      78.0367     100.4970       6.4267     102.8054       4.5005      97.6592 1533232644 9999999.9999
     642.0    2467.1052       0.0000     102.4287      87.9085      99.4125      14.2190     101.7209      12.4622     103.7710 1533232645 9999999.9999
     643.0    2493.3511       0.0000     109.3294    -999.2500      96.1590      21.8908      98.4674      20.3007     109.8759 1533232646 9999999.9999
     644.0    2493.3511       0.0000     115.1417    -999.2500      91.1783      29.3618      93.4867      27.9340     115.9807 1533232647 9999999.9999
     645.0    2493.3511       0.0000     120.4282    -999.2500      84.2697      37.1542      86.5781      35.8956     122.0795 1533232648 9999999.9999
     646.0    2493.3511       0.0000     125.0036    -999.2500      76.3568      44.4645      78.6652      43.3648     128.1782 1533232649 9999999.9999
     647.0    2493.3511       0.0000     129.6307    -999.2500      66.7570      51.6142      69.0654      50.6698     134.2964 1533232650 9999999.9999
     648.0    2493.3511       0.0000     138.0573    -999.2500      53.1405      67.0382      55.4489      66.4289     140.3889 1533232651 9999999.9999
     649.0    2493.3511       0.0000     142.3095    -999.2500      46.4327      77.0397      48.7411      76.6477     146.4754 1533232652 9999999.9999
     650.0    2407.9622       0.0000     146.0504    -999.2500      39.8052      85.1533      42.1136      84.9377     152.5618 1533232653 9999999.9999
     651.0    2282.8735       0.0000     150.2416    -999.2500      32.5350      92.2227      34.8434      92.1606     159.0656 1533232654 9999999.9999
     652.0    2183.6179       0.0000     155.2812    -999.2500      24.7828      98.3280      27.0912      98.3986     165.1654 1533232655 9999999.9999
     653.0    2061.9502       0.0000     161.1765    -999.2500      17.1110     102.5857      19.4194     102.7488     171.2642 1533232656 9999999.9999
     654.0    1964.0363       0.0000     168.3398      80.7531       9.1982     104.6342      11.5066     104.8418     177.3692 1533232657 9999999.9999
     655.0    1895.2157       0.0000     176.9028      74.9744       0.6828     105.1162       2.9912     105.3343     183.4742 1533232658 9999999.9999
     656.0    1826.2988       0.0000    -174.6284      75.6162      -7.5112     105.1162      -5.2028     105.3343     189.5860 1533232659 9999999.9999
     657.0    1753.4288       0.0000    -166.3322      86.6282     -16.0265     102.6258     -13.7181     102.7898     195.6849 1533232660 9999999.9999
     658.0    1686.1511       0.0000    -159.2238    -999.2500     -24.3812      97.8460     -22.0728      97.9061     201.7898 1533232661 9999999.9999
     659.0    1608.9817       0.0000    -153.4100    -999.2500     -32.3342      91.4997     -30.0258      91.4219     207.9081 1533232662 9999999.9999
     660.0    1531.8628       0.0000    -148.3598    -999.2500     -40.0863      84.0688     -37.7779      83.8296     214.0069 1533232663 9999999.9999
     661.0    1455.7454       0.0000    -143.8095    -999.2500     -47.3967      75.8748     -45.0883      75.4576     220.1180 1533232664 9999999.9999
     662.0    1386.8344       0.0000    -139.0377    -999.2500     -54.5062      66.1545     -52.1978      65.5261     226.2245 1533232665 9999999.9999
     663.0    1324.1526       0.0000    -130.8776    -999.2500     -69.2072      53.6627     -66.8988      52.7628     232.7475 1533232666 9999999.9999
     664.0    1264.6134       0.0000    -126.4745    -999.2500     -78.4455      46.9147     -76.1371      45.8682     238.8464 1533232667 9999999.9999
     665.0    1220.7031       0.0000    -122.1682    -999.2500     -86.3985      39.9257     -84.0901      38.7274     244.9644 1533232668 9999999.9999
     666.0    1173.8313       0.0000    -117.3451    -999.2500     -93.3072      32.4948     -90.9987      31.1351     251.0694 1533232669 9999999.9999
     667.0    1134.0725       0.0000    -111.6902    -999.2500     -99.2518      24.7828     -96.9434      23.2555     257.1682 1533232670 9999999.9999
     668.0    1098.6328       0.0000    -104.9594    -999.2500    -103.1882      16.9102    -100.8798      15.2118     263.2545 1533232671 9999999.9999
     669.0    1068.5791       0.0000     -96.6252      79.3924    -104.7948       8.3948    -102.4864       6.5114     269.3723 1533232672 9999999.9999
     670.0    1037.0575       0.0000     -87.9276      77.6841    -104.7948       0.0402    -102.4864      -2.0247     275.4770 1533232673 9999999.9999
     671.0    1014.6104       0.0000     -79.5420      83.8301    -104.4333      -8.1538    -102.1249     -10.3968     281.5756 1533232674 9999999.9999
     672.0     994.5190       0.0000     -72.2608    -999.2500    -102.3848     -15.9462    -100.0764     -18.3584     287.6618 1533232675 9999999.9999
     673.0     982.7044       0.0000     -66.3029    -999.2500     -98.1472     -23.3167     -95.8388     -25.8891     293.7665 1533232676 9999999.9999
     674.0     973.8573       0.0000     -60.7898    -999.2500     -92.1423     -31.2497     -89.8339     -33.9944     299.4794 1533232677 9999999.9999
     675.0     969.8276       0.0000     -56.4283    -999.2500     -85.4345     -38.3190     -83.1261     -41.2173     305.9829 1533232678 9999999.9999
     676.0     965.8310       0.0000     -52.3368    -999.2500     -77.4012     -45.1875     -75.0928     -48.2351     312.0876 1533232679 9999999.9999
     677.0     965.8310       0.0000     -47.9842    -999.2500     -67.7210     -51.8150     -65.4126     -55.0066     318.2054 1533232680 9999999.9999
     678.0     976.5625       0.0000     -38.8830    -999.2500     -52.4978     -68.7252     -50.1894     -72.2841     324.2791 1533232681 9999999.9999
     679.0     983.3916       0.0000     -34.7941    -999.2500     -45.7900     -78.2447     -43.4816     -82.0105     330.3777 1533232682 9999999.9999
     680.0    1000.1779       0.0000     -30.6691    -999.2500     -38.6805     -85.9567     -36.3721     -89.8900     336.4825 1533232683 9999999.9999
     681.0    1015.7097       0.0000     -26.1024    -999.2500     -31.4505     -92.2428     -29.1421     -96.3127     342.5872 1533232684 9999999.9999
     682.0    1047.8762       0.0000     -20.6674    -999.2500     -24.0598     -96.6008     -21.7514    -100.7655     348.6858 1533232685 9999999.9999
     683.0    1073.4733       0.0000     -14.3928      87.1246     -16.7897     -98.7698     -14.4813    -102.9816     354.7844 1533232686 9999999.9999
     684.0    1107.2834       0.0000      -6.7168      77.9615      -8.8768     -99.5330      -6.5684    -103.7614       0.8892 1533232687 9999999.9999
     685.0    1148.8971       0.0000       2.0012      76.6311      -0.3615     -99.2920       1.9469    -103.5151       6.9941 1533232688 9999999.9999
     686.0    1193.7606       0.0000      10.3583      82.2007       7.9530     -98.7297      10.2614    -102.9406      13.0936 1533232689 9999999.9999
     687.0    1237.8961       0.0000      17.1226      85.4562      15.3035     -96.6812      17.6119    -100.8475      19.1924 1533232690 9999999.9999
     688.0    1302.0834       0.0000      22.8387    -999.2500      22.4130     -92.7047      24.7214     -96.7847      25.7083 1533232691 9999999.9999
