~VERSION INFORMATION
VERS.           2.0   :CWLS Log ASCII Standard - VERSION 2.0
WRAP.           NO    :One Line per depth step
PROD.  Schlumberger   :LAS Producer
PROG.  DLIS to ASCII 19C2-270                          :LAS Program name and version
CREA.        2018/08/03 10:59                          :LAS Creation date {YYYY/MM/DD hh:mm}
DLIS_CREA.  2018-Aug-03 09:35                          :DLIS Creation date and time {YYYY-MMM-DD hh:mm}
SOURCE.     PERFO_Perfo_079PTP.DLIS                    :DLIS File Name
FILE-ID.     PERFO_Perfo_079PTP                        :File Identification Number
#--------------------------------------------------
~WELL INFORMATION
#MNEM.UNIT      DATA             DESCRIPTION
#---- ------ --------------   -----------------------------
STRT .S            0.0       :START TIME      
STOP .S          455.0       :STOP TIME      
STEP .S            1.0       :STEP     
NULL .          -999.25      :NULL VALUE
COMP .        SHELL INTERNATIONAL EP                   :COMPANY
WELL .        WPP TEST 4                               :WELL
FLD  .        WILDCAT                                  :FIELD
LOC  .        NA                                       :LOCATION
CNTY .        HARRIS                                   :COUNTY
STAT .        TEXAS                                    :STATE
CTRY .                                                 :COUNTRY
API  .        NA                                       :API NUMBER
UWI  .                                                 :UNIQUE WELL ID
DATE .        02-Aug-2018                              :LOG DATE {DD-MMM-YYYY}
SRVC .        Schlumberger                             :SERVICE COMPANY
LATI .DEG                                              :LATITUDE
LONG .DEG                                              :LONGITUDE
GDAT .                                                 :GeoDetic Datum
SECT .        NA                                       :Section
RANG .        NA                                       :Range
TOWN .        NA                                       :Township
#-----------------------------------------------------------------------------
~PARAMETER INFORMATION
#MNEM.UNIT    VALUE                      DESCRIPTION
#---- -----   --------------------       ------------------------
U-PHASE_B_COMP_PER_YT.                 0 :Phase B Comparator Period Yt
U-PHASE_A_COMP_PER_XT.                 0 :Phase A Comparator Period Xt
U-MAX_EXC_CUR_LIMIT.MA       265.00000   :Requested CM Current Limit
U-REQ_EXC_FQ.HZ              50          :Requested CM Frequency
U-TILT_Y_OFFSET.          -2.06578       :WPTET Tilt Y Offset
U-TILT_Y_GAIN.           1.02173         :WPTET Tilt Y Gain
U-TILT_X_OFFSET.           2.30841       :WPTET Tilt X Offset
U-TILT_X_GAIN.           1.00000         :WPTET Tilt X Gain
U-TILT_OFFSET_TOL.           0.00100     :WPTET Tilt Offset Calibration Tolerance
U-MOT_CUR_LIMIT_REQ.MA        70.00000   :Requested Motor Current Limit
U-MOT_SPD_REQ_WPMS.RPM        1.00000    :Requested Motor Speed
U-STD_TOL_TILT.           0.01000        :Tilt Standard Deviation Tolerance
CWEI .LB/F      29.00000                 :Casing Weight
CSIZ .IN         7.00000                 :Current Casing Size
LCC  .               440                 :Logging Company Code
LUN  .              2134                 :Logging Unit Number
HIDE .                                   :Header Identifier
HID1 .                                   :Header Identifier Line 1
R1   .                                   :Remark Line 1
WITN .        MR. KELLY McCOY            :Witness's Name
ENGI .        MORRIS MOORE               :Engineer's Name
LUL  .        IOWA COLONY                :Logging Unit Location
DATE .        02-Aug-2018                :Date as Month-Day-Year
STAT .        TEXAS                      :State or Province
COUN .        HARRIS                     :County or Rig Name
FN   .        WILDCAT                    :Field Name
WN   .        WPP TEST 4                 :Well Name
CN   .        SHELL INTERNATIONAL EP     :Company Name
CLAB .        County                     :County/Rig Label
SLAB .        State                      :State/Province Label
RUN  .          1                        :RUN NUMBER
PDAT .        GROUND LEVEL               :Permanent Datum
EPD  .                                   :Elevation of Permanent Datum above Mean Sea Level
LMF  .          NA                       :Logging Measured From (Name of Logging Elevation Reference)
APD  .                                   :Elevation of Depth Reference (LMF) above Permanent Datum
#-----------------------------------------------------------------------------
~CURVE INFORMATION
#MNEM.UNIT   API CODE                                  DESCRIPTION
#---- -----  --------                                  -----------------------
TIME .S                                                :TIME {F10.1}
FREQ_EMF_SL.HZ                                         :Electromagnetic Field Frequency {F13.4}
PH_SH_WPPCM_SL.DEG                                     :WPPCM Phase Shift {F13.4}
RB_SL.DEG                                              :Relative Bearing {F13.4}
SDEV_SL.DEG                                            :Sonde Deviation {F13.4}
RTIX_SL.DEG                                            :Raw X-axis Tilt {F13.4}
RTIY_SL.DEG                                            :Raw Y-axis Tilt {F13.4}
TILX_SL.DEG                                            :X-axis Tilt {F13.4}
TILY_SL.DEG                                            :Y-axis Tilt {F13.4}
ROTA_SL.DEG                                            :Motor Rotation Angle {F13.4}
TOD7 .S                                                :Time of Day {I11}
TOJ  .S                                                :Time of Job {F13.4}
#-----------------------------------------------------------------------------
# 
#     TIME    FREQ_EMF_SL  PH_SH_WPPCM_    RB_SL       SDEV_SL      RTIX_SL      RTIY_SL      TILX_SL      TILY_SL      ROTA_SL        TOD7            TOJ
#                          SL
~A  
# ...
     318.0    1554.7263       0.0000      35.8747    -999.2500      42.8679     -75.0414      45.1763     -78.7376     161.4796 1533244407 9999999.9999
     319.0    1694.2772       0.0000      40.4330    -999.2500      49.8870     -64.5478      52.1954     -68.0161     167.5785 1533244408 9999999.9999
     320.0    1812.1779       0.0000      50.0397    -999.2500      69.9703     -49.8067      72.2787     -52.9546     173.6834 1533244409 9999999.9999
     321.0    1926.3699       0.0000      53.9179    -999.2500      79.3693     -43.1390      81.6777     -46.1421     179.7884 1533244410 9999999.9999
     322.0    2043.9680       0.0000      57.7005    -999.2500      87.0010     -36.3508      89.3094     -39.2064     185.8872 1533244411 9999999.9999
     323.0    2137.1582       0.0000      62.0264    -999.2500      93.4277     -29.2012      95.7361     -31.9014     191.9991 1533244412 9999999.9999
     324.0    2211.0850       0.0000      67.0660    -999.2500      98.0468     -22.0515     100.3552     -24.5964     198.1041 1533244413 9999999.9999
     325.0    2275.4854       0.0000      73.1535    -999.2500     100.5773     -14.7813     102.8857     -17.1683     204.6271 1533244414 9999999.9999
     326.0    2335.9634       0.0000      80.8098      79.7562     101.4208      -6.8283     103.7292      -9.0425     210.7259 1533244415 9999999.9999
     327.0    2391.5815       0.0000      89.7742      75.8709     101.8225       1.8075     104.1309      -0.2190     216.8309 1533244416 9999999.9999
     328.0    2432.9585       0.0000      98.5630      78.8184     101.7422      10.2425     104.0506       8.3993     222.9358 1533244417 9999999.9999
     329.0    2467.1052       0.0000     105.9821      91.2333      99.5330      17.9545     101.8414      16.2788     229.0347 1533244418 9999999.9999
     330.0    2480.1587       0.0000     112.9163    -999.2500      94.7732      26.2991      97.0817      24.8048     235.1468 1533244419 9999999.9999
     331.0    2475.7922       0.0000     118.4324    -999.2500      88.5675      34.1015      90.8759      32.7766     241.2517 1533244420 9999999.9999
     332.0    2475.7922       0.0000     123.1451    -999.2500      81.1768      41.6127      83.4852      40.4510     247.3567 1533244421 9999999.9999
     333.0    2484.5405       0.0000     127.5201    -999.2500      72.4205      48.8025      74.7289      47.7971     253.4555 1533244422 9999999.9999
     334.0    2475.7922       0.0000     132.3981    -999.2500      61.2140      55.6710      63.5224      54.8148     259.5542 1533244423 9999999.9999
     335.0    2484.5405       0.0000     140.0471    -999.2500      50.5297      72.5410      52.8381      72.0513     265.6590 1533244424 9999999.9999
     336.0    2475.7922       0.0000     143.9137    -999.2500      43.7817      81.5785      46.0901      81.2852     271.7770 1533244425 9999999.9999
     337.0    2449.9128       0.0000     147.9372    -999.2500      36.4713      89.2905      38.7797      89.1647     278.2805 1533244426 9999999.9999
     338.0    2424.5691       0.0000     152.4859    -999.2500      28.8798      96.1590      31.1882      96.1825     284.3853 1533244427 9999999.9999
     339.0    2375.4224       0.0000     158.0874    -999.2500      20.8867     101.5815      23.1951     101.7228     290.4900 1533244428 9999999.9999
     340.0    2312.9111       0.0000     164.6853      82.7505      13.0140     104.9957      15.3224     105.2112     296.5886 1533244429 9999999.9999
     341.0    2253.6057       0.0000     172.6308      75.3527       4.8200     106.1203       7.1284     106.3603     302.6872 1533244430 9999999.9999
     342.0    2170.1389       0.0000    -178.6788      73.4447      -3.5748     106.3613      -1.2664     106.6065     308.3870 1533244431 9999999.9999
     343.0    2068.0146       0.0000    -169.8856      78.3043     -12.2107     105.1965      -9.9023     105.4163     314.4917 1533244432 9999999.9999
     344.0    1964.0363       0.0000    -162.3691      98.1320     -20.4850     100.8987     -18.1766     101.0251     320.5903 1533244433 9999999.9999
     345.0    1845.4724       0.0000    -155.9052    -999.2500     -28.7593      95.1147     -26.4509      95.1155     326.6767 1533244434 9999999.9999
     346.0    1706.6141       0.0000    -150.5430    -999.2500     -36.6722      88.1658     -34.3638      88.0156     332.7814 1533244435 9999999.9999
     347.0    1569.4755       0.0000    -145.7610    -999.2500     -44.3842      80.2530     -42.0758      79.9309     338.8992 1533244436 9999999.9999
     348.0    1426.2170       0.0000    -141.2717    -999.2500     -51.6142      71.4967     -49.3058      70.9843     344.9978 1533244437 9999999.9999
     349.0    1208.1185       0.0000    -134.2678    -999.2500     -62.0173      58.1212     -59.7089      57.3182     351.5075 1533244438 9999999.9999
     350.0    1075.1146       0.0000    -128.8075    -999.2500     -74.1878      50.8108     -71.8794      49.8490     357.6122 1533244439 9999999.9999
     351.0     991.7137       0.0000    -124.6549    -999.2500     -82.6228      44.0628     -80.3144      42.9544       3.7109 1533244440 9999999.9999
     352.0     910.7836       0.0000    -120.2034    -999.2500     -90.0938      36.8328     -87.7854      35.5673       9.8097 1533244441 9999999.9999
     353.0     820.4493       0.0000    -114.9008    -999.2500     -96.8418      29.0003     -94.5334      27.5646      15.9145 1533244442 9999999.9999
     354.0     744.8358       0.0000    -108.5658    -999.2500    -102.3045      20.9268     -99.9961      19.3157      22.0325 1533244443 9999999.9999
     355.0     683.9738       0.0000    -100.9147      82.5142    -105.5178      12.6123    -103.2094      10.8206      28.1312 1533244444 9999999.9999
     356.0     636.8886       0.0000     -92.3922      76.4336    -106.0802       4.2978    -103.7718       2.3254      34.2430 1533244445 9999999.9999
     357.0     612.4782       0.0000     -83.5241      78.0025    -105.9195      -4.1773    -103.6111      -6.3339      40.3541 1533244446 9999999.9999
     358.0     595.3641       0.0000     -75.5482      88.9807    -104.6342     -12.2508    -102.3258     -14.5828      46.4791 1533244447 9999999.9999
     359.0     578.7037       0.0000     -68.6875    -999.2500    -101.2602     -20.1637     -98.9518     -22.6675      52.5779 1533244448 9999999.9999
     360.0     561.1533       0.0000     -62.9010    -999.2500     -95.8778     -28.0363     -93.5694     -30.7113      58.6827 1533244449 9999999.9999
     361.0     551.9034       0.0000     -58.0778    -999.2500     -89.2102     -35.6278     -86.9017     -38.4677      65.1925 1533244450 9999999.9999
     362.0     551.0384       0.0000     -53.9135    -999.2500     -81.7793     -42.7775     -79.4709     -45.7727      71.2912 1533244451 9999999.9999
     363.0     556.2698       0.0000     -49.7832    -999.2500     -72.9427     -49.7665     -70.6343     -52.9136      77.4030 1533244452 9999999.9999
     364.0     569.3320       0.0000     -44.6684    -999.2500     -60.4910     -55.9923     -58.1826     -59.2747      83.5079 1533244453 9999999.9999
     365.0     587.8972       0.0000     -36.9526    -999.2500     -49.7665     -74.6698     -47.4581     -78.3580      89.6127 1533244454 9999999.9999
     366.0     622.2346       0.0000     -32.9485    -999.2500     -42.6570     -83.4663     -40.3486     -87.3456      95.7114 1533244455 9999999.9999
     367.0     661.4534       0.0000     -28.4231    -999.2500     -34.9450     -90.7767     -32.6366     -94.8148     101.7979 1533244456 9999999.9999
     368.0     705.2407       0.0000     -23.5978    -999.2500     -27.7552     -96.2393     -25.4468    -100.3961     107.9219 1533244457 9999999.9999
     369.0     756.8622       0.0000     -17.6385    -999.2500     -20.2842     -99.6937     -17.9758    -103.9255     114.0337 1533244458 9999999.9999
     370.0     812.8613       0.0000     -10.7421      79.0690     -12.8533    -101.0192     -10.5449    -105.2798     120.1202 1533244459 9999999.9999
