~VERSION INFORMATION
VERS.           2.0   :CWLS Log ASCII Standard - VERSION 2.0
WRAP.           NO    :One Line per depth step
PROD.  Schlumberger   :LAS Producer
PROG.  DLIS to ASCII 19C2-270                          :LAS Program name and version
CREA.        2018/08/03 10:59                          :LAS Creation date {YYYY/MM/DD hh:mm}
DLIS_CREA.  2018-Aug-03 08:53                          :DLIS Creation date and time {YYYY-MMM-DD hh:mm}
SOURCE.     PERFO_Perfo_062PTP.DLIS                    :DLIS File Name
FILE-ID.     PERFO_Perfo_062PTP                        :File Identification Number
#--------------------------------------------------
~WELL INFORMATION
#MNEM.UNIT      DATA             DESCRIPTION
#---- ------ --------------   -----------------------------
STRT .S            0.0       :START TIME      
STOP .S          971.0       :STOP TIME      
STEP .S            1.0       :STEP     
NULL .          -999.25      :NULL VALUE
COMP .        SHELL INTERNATIONAL EP                   :COMPANY
WELL .        WPP TEST 4                               :WELL
FLD  .        WILDCAT                                  :FIELD
LOC  .        NA                                       :LOCATION
CNTY .        HARRIS                                   :COUNTY
STAT .        TEXAS                                    :STATE
CTRY .                                                 :COUNTRY
API  .        NA                                       :API NUMBER
UWI  .                                                 :UNIQUE WELL ID
DATE .        02-Aug-2018                              :LOG DATE {DD-MMM-YYYY}
SRVC .        Schlumberger                             :SERVICE COMPANY
LATI .DEG                                              :LATITUDE
LONG .DEG                                              :LONGITUDE
GDAT .                                                 :GeoDetic Datum
SECT .        NA                                       :Section
RANG .        NA                                       :Range
TOWN .        NA                                       :Township
#-----------------------------------------------------------------------------
~PARAMETER INFORMATION
#MNEM.UNIT    VALUE                      DESCRIPTION
#---- -----   --------------------       ------------------------
U-PHASE_B_COMP_PER_YT.                 0 :Phase B Comparator Period Yt
U-PHASE_A_COMP_PER_XT.                 0 :Phase A Comparator Period Xt
U-MAX_EXC_CUR_LIMIT.MA       265.00000   :Requested CM Current Limit
U-REQ_EXC_FQ.HZ              50          :Requested CM Frequency
U-TILT_Y_OFFSET.          -2.06578       :WPTET Tilt Y Offset
U-TILT_Y_GAIN.           1.02173         :WPTET Tilt Y Gain
U-TILT_X_OFFSET.           2.30841       :WPTET Tilt X Offset
U-TILT_X_GAIN.           1.00000         :WPTET Tilt X Gain
U-TILT_OFFSET_TOL.           0.00100     :WPTET Tilt Offset Calibration Tolerance
U-MOT_CUR_LIMIT_REQ.MA        70.00000   :Requested Motor Current Limit
U-MOT_SPD_REQ_WPMS.RPM        1.00000    :Requested Motor Speed
U-STD_TOL_TILT.           0.01000        :Tilt Standard Deviation Tolerance
CWEI .LB/F      29.00000                 :Casing Weight
CSIZ .IN         7.00000                 :Current Casing Size
LCC  .               440                 :Logging Company Code
LUN  .              2134                 :Logging Unit Number
HIDE .                                   :Header Identifier
HID1 .                                   :Header Identifier Line 1
R1   .                                   :Remark Line 1
WITN .        MR. KELLY McCOY            :Witness's Name
ENGI .        MORRIS MOORE               :Engineer's Name
LUL  .        IOWA COLONY                :Logging Unit Location
DATE .        02-Aug-2018                :Date as Month-Day-Year
STAT .        TEXAS                      :State or Province
COUN .        HARRIS                     :County or Rig Name
FN   .        WILDCAT                    :Field Name
WN   .        WPP TEST 4                 :Well Name
CN   .        SHELL INTERNATIONAL EP     :Company Name
CLAB .        County                     :County/Rig Label
SLAB .        State                      :State/Province Label
RUN  .          1                        :RUN NUMBER
PDAT .        GROUND LEVEL               :Permanent Datum
EPD  .                                   :Elevation of Permanent Datum above Mean Sea Level
LMF  .          NA                       :Logging Measured From (Name of Logging Elevation Reference)
APD  .                                   :Elevation of Depth Reference (LMF) above Permanent Datum
#-----------------------------------------------------------------------------
~CURVE INFORMATION
#MNEM.UNIT   API CODE                                  DESCRIPTION
#---- -----  --------                                  -----------------------
TIME .S                                                :TIME {F10.1}
FREQ_EMF_SL.HZ                                         :Electromagnetic Field Frequency {F13.4}
PH_SH_WPPCM_SL.DEG                                     :WPPCM Phase Shift {F13.4}
RB_SL.DEG                                              :Relative Bearing {F13.4}
SDEV_SL.DEG                                            :Sonde Deviation {F13.4}
RTIX_SL.DEG                                            :Raw X-axis Tilt {F13.4}
RTIY_SL.DEG                                            :Raw Y-axis Tilt {F13.4}
TILX_SL.DEG                                            :X-axis Tilt {F13.4}
TILY_SL.DEG                                            :Y-axis Tilt {F13.4}
ROTA_SL.DEG                                            :Motor Rotation Angle {F13.4}
TOD7 .S                                                :Time of Day {I11}
TOJ  .S                                                :Time of Job {F13.4}
#-----------------------------------------------------------------------------
# 
#     TIME    FREQ_EMF_SL  PH_SH_WPPCM_    RB_SL       SDEV_SL      RTIX_SL      RTIY_SL      TILX_SL      TILY_SL      ROTA_SL        TOD7            TOJ
#                          SL
~A  
# ...
     742.0    1231.3923       0.0000      33.7011    -999.2500      38.8813     -77.1602      41.1897     -80.9024     257.4904 1533230658 9999999.9999
     743.0    1248.8899       0.0000      37.9566    -999.2500      45.5088     -68.2432      47.8172     -71.7917     263.5890 1533230659 9999999.9999
     744.0    1260.0807       0.0000      43.8522    -999.2500      49.1238     -51.2928      51.4322     -54.4731     269.6938 1533230660 9999999.9999
     745.0    1278.4092       0.0000      52.8627    -999.2500      74.7903     -44.5448      77.0987     -47.5784     275.7995 1533230661 9999999.9999
     746.0    1297.2786       0.0000      56.6577    -999.2500      82.9442     -38.0780      85.2526     -40.9711     281.8981 1533230662 9999999.9999
     747.0    1314.2523       0.0000      60.6727    -999.2500      89.6118     -31.4103      91.9202     -34.1586     287.9967 1533230663 9999999.9999
     748.0    1344.4073       0.0000      65.3419    -999.2500      94.7933     -24.5017      97.1017     -27.0998     294.1022 1533230664 9999999.9999
     749.0    1360.0098       0.0000      70.9028    -999.2500      97.9665     -17.4725     100.2749     -19.9179     300.2070 1533230665 9999999.9999
     750.0    1384.1044       0.0000      77.7811      84.4452      99.3723      -9.9613     101.6807     -12.2435     306.3056 1533230666 9999999.9999
     751.0    1414.7384       0.0000      86.3809      78.2542      99.9748      -1.4460     102.2832      -3.5432     312.8414 1533230667 9999999.9999
     752.0    1437.8834       0.0000      95.3049      78.5054     100.3363       7.1095     102.6447       5.1982     318.9461 1533230668 9999999.9999
     753.0    1474.0566       0.0000     103.0436      92.8327      99.2518      14.8617     101.5602      13.1188     325.0578 1533230669 9999999.9999
     754.0    1502.4038       0.0000     109.8584    -999.2500      95.6770      22.5335      97.9854      20.9573     331.1574 1533230670 9999999.9999
     755.0    1528.5327       0.0000     115.5421    -999.2500      90.5357      29.9242      92.8441      28.5086     337.2627 1533230671 9999999.9999
     756.0    1565.9799       0.0000     120.5382    -999.2500      83.8680      37.3148      86.1764      36.0598     343.3675 1533230672 9999999.9999
     757.0    1591.6808       0.0000     125.2771    -999.2500      75.7342      44.8862      78.0427      43.7957     349.4791 1533230673 9999999.9999
     758.0    1620.1036       0.0000     130.0699    -999.2500      65.6725      52.1765      67.9809      51.2444     355.5777 1533230674 9999999.9999
     759.0    1642.8153       0.0000     138.6118    -999.2500      52.3372      68.3235      54.6456      67.7422       1.6825 1533230675 9999999.9999
     760.0    1666.1730       0.0000     142.7240    -999.2500      45.7097      77.9635      48.0181      77.5917       7.7874 1533230676 9999999.9999
     761.0    1690.2042       0.0000     146.6453    -999.2500      38.7207      85.9567      41.0291      85.7585      13.8869 1533230677 9999999.9999
     762.0    1710.7665       0.0000     150.8332    -999.2500      31.5710      92.8653      33.8794      92.8173      19.9857 1533230678 9999999.9999
     763.0    1727.5798       0.0000     156.0350    -999.2500      23.7385      98.8502      26.0469      98.9321      26.0906 1533230679 9999999.9999
     764.0    1736.1111       0.0000     162.2471    -999.2500      15.8658     102.8668      18.1742     103.0361      32.6014 1533230680 9999999.9999
     765.0    1740.4083       0.0000     169.7146      79.1846       7.7923     104.6743      10.1007     104.8828      38.7001 1533230681 9999999.9999
     766.0    1744.7272       0.0000     178.1079      74.8629      -0.4820     105.0358       1.8264     105.2522      44.7925 1533230682 9999999.9999
     767.0    1731.8351       0.0000    -173.4882      76.3600      -8.6358     104.8752      -6.3274     105.0880      50.8974 1533230683 9999999.9999
     768.0    1731.8351       0.0000    -165.7873      91.6770     -16.6290     102.2643     -14.3206     102.4205      56.9839 1533230684 9999999.9999
     769.0    1720.1835       0.0000    -158.6545    -999.2500     -25.1243      97.0929     -22.8158      97.1367      63.0887 1533230685 9999999.9999
     770.0    1702.4818       0.0000    -152.7562    -999.2500     -33.2982      90.4955     -30.9898      90.3959      69.2005 1533230686 9999999.9999
     771.0    1686.1511       0.0000    -147.8381    -999.2500     -40.8897      82.9040     -38.5813      82.6395      75.3054 1533230687 9999999.9999
     772.0    1674.1072       0.0000    -143.2615    -999.2500     -48.2000      74.5895     -45.8916      74.1443      81.4041 1533230688 9999999.9999
     773.0    1646.6628       0.0000    -138.3334    -999.2500     -55.3497      64.5478     -53.0413      63.8845      87.5159 1533230689 9999999.9999
     774.0    1627.6041       0.0000    -130.3023    -999.2500     -70.3318      52.7790     -68.0234      51.8600      93.6338 1533230690 9999999.9999
     775.0    1594.3877       0.0000    -125.9977    -999.2500     -79.2488      46.1113     -76.9404      45.0474      99.7386 1533230691 9999999.9999
     776.0    1569.4755       0.0000    -121.7192    -999.2500     -87.0813      39.2027     -84.7729      37.9887     106.2423 1533230692 9999999.9999
     777.0    1541.9408       0.0000    -116.7910    -999.2500     -93.9097      31.6915     -91.6012      30.3143     112.3478 1533230693 9999999.9999
     778.0    1508.8519       0.0000    -111.0427    -999.2500     -99.5732      23.9795     -97.2648      22.4347     118.4526 1533230694 9999999.9999
     779.0    1483.3861       0.0000    -104.1338    -999.2500    -103.3488      16.0265    -101.0404      14.3089     124.5513 1533230695 9999999.9999
     780.0    1452.7377       0.0000     -96.3336      79.3574    -104.6743       8.1137    -102.3659       6.2242     130.6501 1533230696 9999999.9999
     781.0    1423.3300       0.0000     -87.8863      77.7725    -104.7145       0.0000    -102.4061      -2.0658     136.7551 1533230697 9999999.9999
     782.0    1395.0892       0.0000     -78.7976      86.1306    -104.1522      -8.9170    -101.8438     -11.1765     142.8733 1533230698 9999999.9999
     783.0    1370.6140       0.0000     -71.7185    -999.2500    -101.8225     -16.5888     -99.5141     -19.0150     148.9852 1533230699 9999999.9999
     784.0    1349.5681       0.0000     -65.4574    -999.2500     -97.2837     -24.4615     -94.9753     -27.0588     155.0840 1533230700 9999999.9999
     785.0    1324.1526       0.0000     -60.3497    -999.2500     -91.3792     -31.9325     -89.0708     -34.6921     161.1890 1533230701 9999999.9999
     786.0    1306.9238       0.0000     -55.9834    -999.2500     -84.4303     -39.0420     -82.1219     -41.9561     167.2939 1533230702 9999999.9999
     787.0    1292.5093       0.0000     -51.9225    -999.2500     -76.2765     -45.7900     -73.9681     -48.8507     173.4060 1533230703 9999999.9999
     788.0    1273.7772       0.0000     -47.4737    -999.2500     -66.2750     -52.2970     -63.9666     -55.4990     179.9159 1533230704 9999999.9999
     789.0    1253.3423       0.0000     -38.5090    -999.2500     -51.9355     -69.6490     -49.6271     -73.2281     186.0209 1533230705 9999999.9999
     790.0    1244.4691       0.0000     -34.2712    -999.2500     -44.8662     -79.2087     -42.5578     -82.9954     192.1075 1533230706 9999999.9999
     791.0    1231.3923       0.0000     -30.2358    -999.2500     -37.9575     -86.6395     -35.6491     -90.5877     198.1938 1533230707 9999999.9999
     792.0    1222.8260       0.0000     -25.6323    -999.2500     -30.7677     -92.6243     -28.4593     -96.7026     204.2988 1533230708 9999999.9999
     793.0    1214.3783       0.0000     -20.3441    -999.2500     -23.6582     -96.7615     -21.3498    -100.9296     210.4168 1533230709 9999999.9999
     794.0    1208.1185       0.0000     -13.5687      84.8828     -15.9060     -98.8502     -13.5976    -103.0637     216.5034 1533230710 9999999.9999
