~VERSION INFORMATION
VERS.           2.0   :CWLS Log ASCII Standard - VERSION 2.0
WRAP.           NO    :One Line per depth step
PROD.  Schlumberger   :LAS Producer
PROG.  DLIS to ASCII 19C2-270                          :LAS Program name and version
CREA.        2018/08/03 10:59                          :LAS Creation date {YYYY/MM/DD hh:mm}
DLIS_CREA.  2018-Aug-03 09:35                          :DLIS Creation date and time {YYYY-MMM-DD hh:mm}
SOURCE.     PERFO_Perfo_079PTP.DLIS                    :DLIS File Name
FILE-ID.     PERFO_Perfo_079PTP                        :File Identification Number
#--------------------------------------------------
~WELL INFORMATION
#MNEM.UNIT      DATA             DESCRIPTION
#---- ------ --------------   -----------------------------
STRT .S            0.0       :START TIME      
STOP .S          455.0       :STOP TIME      
STEP .S            1.0       :STEP     
NULL .          -999.25      :NULL VALUE
COMP .        SHELL INTERNATIONAL EP                   :COMPANY
WELL .        WPP TEST 4                               :WELL
FLD  .        WILDCAT                                  :FIELD
LOC  .        NA                                       :LOCATION
CNTY .        HARRIS                                   :COUNTY
STAT .        TEXAS                                    :STATE
CTRY .                                                 :COUNTRY
API  .        NA                                       :API NUMBER
UWI  .                                                 :UNIQUE WELL ID
DATE .        02-Aug-2018                              :LOG DATE {DD-MMM-YYYY}
SRVC .        Schlumberger                             :SERVICE COMPANY
LATI .DEG                                              :LATITUDE
LONG .DEG                                              :LONGITUDE
GDAT .                                                 :GeoDetic Datum
SECT .        NA                                       :Section
RANG .        NA                                       :Range
TOWN .        NA                                       :Township
#-----------------------------------------------------------------------------
~PARAMETER INFORMATION
#MNEM.UNIT    VALUE                      DESCRIPTION
#---- -----   --------------------       ------------------------
U-PHASE_B_COMP_PER_YT.                 0 :Phase B Comparator Period Yt
U-PHASE_A_COMP_PER_XT.                 0 :Phase A Comparator Period Xt
U-MAX_EXC_CUR_LIMIT.MA       265.00000   :Requested CM Current Limit
U-REQ_EXC_FQ.HZ              50          :Requested CM Frequency
U-TILT_Y_OFFSET.          -2.06578       :WPTET Tilt Y Offset
U-TILT_Y_GAIN.           1.02173         :WPTET Tilt Y Gain
U-TILT_X_OFFSET.           2.30841       :WPTET Tilt X Offset
U-TILT_X_GAIN.           1.00000         :WPTET Tilt X Gain
U-TILT_OFFSET_TOL.           0.00100     :WPTET Tilt Offset Calibration Tolerance
U-MOT_CUR_LIMIT_REQ.MA        70.00000   :Requested Motor Current Limit
U-MOT_SPD_REQ_WPMS.RPM        1.00000    :Requested Motor Speed
U-STD_TOL_TILT.           0.01000        :Tilt Standard Deviation Tolerance
CWEI .LB/F      29.00000                 :Casing Weight
CSIZ .IN         7.00000                 :Current Casing Size
LCC  .               440                 :Logging Company Code
LUN  .              2134                 :Logging Unit Number
HIDE .                                   :Header Identifier
HID1 .                                   :Header Identifier Line 1
R1   .                                   :Remark Line 1
WITN .        MR. KELLY McCOY            :Witness's Name
ENGI .        MORRIS MOORE               :Engineer's Name
LUL  .        IOWA COLONY                :Logging Unit Location
DATE .        02-Aug-2018                :Date as Month-Day-Year
STAT .        TEXAS                      :State or Province
COUN .        HARRIS                     :County or Rig Name
FN   .        WILDCAT                    :Field Name
WN   .        WPP TEST 4                 :Well Name
CN   .        SHELL INTERNATIONAL EP     :Company Name
CLAB .        County                     :County/Rig Label
SLAB .        State                      :State/Province Label
RUN  .          1                        :RUN NUMBER
PDAT .        GROUND LEVEL               :Permanent Datum
EPD  .                                   :Elevation of Permanent Datum above Mean Sea Level
LMF  .          NA                       :Logging Measured From (Name of Logging Elevation Reference)
APD  .                                   :Elevation of Depth Reference (LMF) above Permanent Datum
#-----------------------------------------------------------------------------
~CURVE INFORMATION
#MNEM.UNIT   API CODE                                  DESCRIPTION
#---- -----  --------                                  -----------------------
TIME .S                                                :TIME {F10.1}
FREQ_EMF_SL.HZ                                         :Electromagnetic Field Frequency {F13.4}
PH_SH_WPPCM_SL.DEG                                     :WPPCM Phase Shift {F13.4}
RB_SL.DEG                                              :Relative Bearing {F13.4}
SDEV_SL.DEG                                            :Sonde Deviation {F13.4}
RTIX_SL.DEG                                            :Raw X-axis Tilt {F13.4}
RTIY_SL.DEG                                            :Raw Y-axis Tilt {F13.4}
TILX_SL.DEG                                            :X-axis Tilt {F13.4}
TILY_SL.DEG                                            :Y-axis Tilt {F13.4}
ROTA_SL.DEG                                            :Motor Rotation Angle {F13.4}
TOD7 .S                                                :Time of Day {I11}
TOJ  .S                                                :Time of Job {F13.4}
#-----------------------------------------------------------------------------
# 
#     TIME    FREQ_EMF_SL  PH_SH_WPPCM_    RB_SL       SDEV_SL      RTIX_SL      RTIY_SL      TILX_SL      TILY_SL      ROTA_SL        TOD7            TOJ
#                          SL
~A  
# ...
      53.0     765.9314       0.0000    -129.0238    -999.2500     -73.7862      51.1723     -71.4778      50.2184     335.7545 1533244142 9999999.9999
      54.0     768.4426       0.0000    -124.8281    -999.2500     -82.2613      44.3440     -79.9529      43.2417     341.8531 1533244143 9999999.9999
      55.0     776.9337       0.0000    -120.3329    -999.2500     -89.8127      37.0337     -87.5042      35.7725     347.9517 1533244144 9999999.9999
      56.0     788.2567       0.0000    -115.1594    -999.2500     -96.4803      29.3618     -94.1719      27.9340     354.0503 1533244145 9999999.9999
      57.0     813.8021       0.0000    -108.8349    -999.2500    -102.0635      21.2482     -99.7551      19.6440       0.1622 1533244146 9999999.9999
      58.0     838.0513       0.0000    -101.7364      84.5397    -105.2367      13.4558    -102.9283      11.6824       6.6659 1533244147 9999999.9999
      59.0     880.0062       0.0000     -93.2747      76.7401    -105.9597       5.1413    -103.6513       3.1873      12.7971 1533244148 9999999.9999
      60.0     926.3834       0.0000     -84.5638      77.5467    -105.8793      -3.1732    -103.5709      -5.3079      18.9020 1533244149 9999999.9999
      61.0     982.0181       0.0000     -76.3390      88.8911    -104.9153     -11.4073    -102.6069     -13.7210      25.0007 1533244150 9999999.9999
      62.0    1051.0089       0.0000     -69.4654    -999.2500    -101.7823     -19.1997     -99.4739     -21.6826      31.0995 1533244151 9999999.9999
      63.0    1135.9047       0.0000     -63.6196    -999.2500     -96.5607     -26.9920     -94.2523     -29.6442      37.2105 1533244152 9999999.9999
      64.0    1236.8074       0.0000     -58.5793    -999.2500     -89.9231     -34.7944     -87.6147     -37.6161      43.3092 1533244153 9999999.9999
      65.0    1352.1635       0.0000     -54.2563    -999.2500     -82.4220     -42.1750     -80.1136     -45.1571      49.4079 1533244154 9999999.9999
      66.0    1477.1533       0.0000     -50.1954    -999.2500     -73.8263     -49.0837     -71.5179     -52.2159      55.5067 1533244155 9999999.9999
      67.0    1620.1036       0.0000     -45.4009    -999.2500     -62.5797     -55.6308     -60.2713     -58.9053      61.6309 1533244156 9999999.9999
      68.0    1762.2180       0.0000     -37.3394    -999.2500     -50.4493     -73.8263     -48.1409     -77.4962      67.7297 1533244157 9999999.9999
      69.0    1905.4878       0.0000     -33.3311    -999.2500     -43.3398     -82.7032     -41.0314     -86.5658      73.8284 1533244158 9999999.9999
      70.0    2032.1531       0.0000     -29.1424    -999.2500     -36.1098     -89.8127     -33.8014     -93.8298      80.3382 1533244159 9999999.9999
      71.0    2170.1389       0.0000     -24.3506    -999.2500     -28.7995     -95.5967     -26.4911     -99.7395      86.4430 1533244160 9999999.9999
      72.0    2275.4854       0.0000     -18.6735    -999.2500     -21.4892     -99.3322     -19.1808    -103.5562      92.5417 1533244161 9999999.9999
      73.0    2391.5815       0.0000     -11.9113      80.6258     -14.0583    -100.8585     -11.7499    -105.1157      98.6405 1533244162 9999999.9999
      74.0    2493.3511       0.0000      -3.5560      75.0457      -5.7438    -101.0995      -3.4354    -105.3619     104.7453 1533244163 9999999.9999
      75.0    2484.5405       0.0000       5.4037      75.9062       2.9322    -100.8183       5.2406    -105.0746     110.8377 1533244164 9999999.9999
      76.0    2467.1052       0.0000      13.5138      86.2788      11.1764     -99.7740      13.4848    -104.0076     116.9364 1533244165 9999999.9999
      77.0    2484.5405       0.0000      20.0474    -999.2500      18.6775     -96.8820      20.9859    -101.0527     123.0167 1533244166 9999999.9999
      78.0    2475.7922       0.0000      25.4009    -999.2500      25.8673     -92.0218      28.1757     -96.0870     129.1216 1533244167 9999999.9999
      79.0    2493.3511       0.0000      29.8896    -999.2500      32.7760     -86.1173      35.0844     -90.0542     135.2080 1533244168 9999999.9999
      80.0    2475.7922       0.0000      33.9630    -999.2500      39.6043     -78.8472      41.9127     -82.6261     141.3078 1533244169 9999999.9999
      81.0    2475.7922       0.0000      38.0775    -999.2500      46.4327     -70.0507      48.7411     -73.6385     147.4128 1533244170 9999999.9999
      82.0    2484.5405       0.0000      43.6838    -999.2500      51.2527     -54.1447      53.5611     -57.3869     153.5185 1533244171 9999999.9999
      83.0    2484.5405       0.0000      52.0437    -999.2500      74.8305     -46.4327      77.1389     -49.5073     160.0353 1533244172 9999999.9999
      84.0    2493.3511       0.0000      55.7824    -999.2500      83.3458     -39.7650      85.6542     -42.6948     166.1342 1533244173 9999999.9999
      85.0    2493.3511       0.0000      59.7477    -999.2500      90.2947     -32.8563      92.6031     -35.6360     172.2453 1533244174 9999999.9999
      86.0    2475.7922       0.0000      64.3846    -999.2500      95.8778     -25.7067      98.1862     -28.3310     178.3441 1533244175 9999999.9999
      87.0    2493.3511       0.0000      69.9311    -999.2500      99.6133     -18.4767     101.9217     -20.9439     184.4560 1533244176 9999999.9999
      88.0    2467.1052       0.0000      76.6842      88.4164     101.0995     -11.0057     103.4079     -13.3106     190.5610 1533244177 9999999.9999
      89.0    2484.5405       0.0000      85.6850      76.7425     101.6217      -2.0887     103.9301      -4.1998     196.6659 1533244178 9999999.9999
      90.0    2475.7922       0.0000      94.7543      76.5495     101.9430       6.5472     104.2514       4.6236     202.7523 1533244179 9999999.9999
      91.0    2484.5405       0.0000     102.6548      86.1894     100.8987      14.3797     103.2071      12.6263     208.8511 1533244180 9999999.9999
      92.0    2407.9622       0.0000     109.7379    -999.2500      97.4042      22.2925      99.7126      20.7111     214.9561 1533244181 9999999.9999
      93.0    2297.7942       0.0000     115.7521    -999.2500      91.9415      30.1652      94.2499      28.7548     221.0611 1533244182 9999999.9999
      94.0    2176.8577       0.0000     120.6513    -999.2500      85.3140      37.5558      87.6224      36.3060     227.1599 1533244183 9999999.9999
      95.0    2049.9270       0.0000     125.2410    -999.2500      77.0798      45.0670      79.3882      43.9804     233.6637 1533244184 9999999.9999
      96.0    1921.1066       0.0000     129.6974    -999.2500      67.6407      52.1765      69.9491      51.2444     239.7878 1533244185 9999999.9999
      97.0    1780.0632       0.0000     137.8172    -999.2500      53.9840      67.2390      56.2924      66.6341     245.8867 1533244186 9999999.9999
      98.0    1638.9860       0.0000     141.9325    -999.2500      47.3565      77.1200      49.6649      76.7298     251.9855 1533244187 9999999.9999
      99.0    1505.6210       0.0000     145.7323    -999.2500      40.4478      85.3542      42.7562      85.1429     258.0904 1533244188 9999999.9999
     100.0    1386.8344       0.0000     149.9139    -999.2500      33.0572      92.5842      35.3656      92.5300     264.1951 1533244189 9999999.9999
     101.0       0.0000       0.0000     155.3424    -999.2500      24.6222      99.2920      26.9306      99.3836     270.2937 1533244190 9999999.9999
     102.0       0.0000       0.0000     161.5784    -999.2500      16.5487     103.7907      18.8571     103.9800     276.4892 1533244191 9999999.9999
     103.0       0.0000       0.0000     168.9818      78.2247       8.4752     105.8392      10.7836     106.0730     282.6072 1533244192 9999999.9999
     104.0       0.0000       0.0000     177.5101      73.6176       0.0803     106.3212       2.3887     106.5654     288.7120 1533244193 9999999.9999
     105.0       0.0000       0.0000    -173.8575      74.7630      -8.2342     106.1605      -5.9258     106.4013     294.8106 1533244194 9999999.9999
