~VERSION INFORMATION
VERS.           2.0   :CWLS Log ASCII Standard - VERSION 2.0
WRAP.           NO    :One Line per depth step
PROD.  Schlumberger   :LAS Producer
PROG.  DLIS to ASCII 19C2-270                          :LAS Program name and version
CREA.        2018/08/03 10:59                          :LAS Creation date {YYYY/MM/DD hh:mm}
DLIS_CREA.  2018-Aug-03 09:51                          :DLIS Creation date and time {YYYY-MMM-DD hh:mm}
SOURCE.     PERFO_Perfo_089PTP.DLIS                    :DLIS File Name
FILE-ID.     PERFO_Perfo_089PTP                        :File Identification Number
#--------------------------------------------------
~WELL INFORMATION
#MNEM.UNIT      DATA             DESCRIPTION
#---- ------ --------------   -----------------------------
STRT .S            0.0       :START TIME      
STOP .S          261.0       :STOP TIME      
STEP .S            1.0       :STEP     
NULL .          -999.25      :NULL VALUE
COMP .        SHELL INTERNATIONAL EP                   :COMPANY
WELL .        WPP TEST 4                               :WELL
FLD  .        WILDCAT                                  :FIELD
LOC  .        NA                                       :LOCATION
CNTY .        HARRIS                                   :COUNTY
STAT .        TEXAS                                    :STATE
CTRY .                                                 :COUNTRY
API  .        NA                                       :API NUMBER
UWI  .                                                 :UNIQUE WELL ID
DATE .        02-Aug-2018                              :LOG DATE {DD-MMM-YYYY}
SRVC .        Schlumberger                             :SERVICE COMPANY
LATI .DEG                                              :LATITUDE
LONG .DEG                                              :LONGITUDE
GDAT .                                                 :GeoDetic Datum
SECT .        NA                                       :Section
RANG .        NA                                       :Range
TOWN .        NA                                       :Township
#-----------------------------------------------------------------------------
~PARAMETER INFORMATION
#MNEM.UNIT    VALUE                      DESCRIPTION
#---- -----   --------------------       ------------------------
U-PHASE_B_COMP_PER_YT.                 0 :Phase B Comparator Period Yt
U-PHASE_A_COMP_PER_XT.                 0 :Phase A Comparator Period Xt
U-MAX_EXC_CUR_LIMIT.MA       265.00000   :Requested CM Current Limit
U-REQ_EXC_FQ.HZ              50          :Requested CM Frequency
U-TILT_Y_OFFSET.          -2.06578       :WPTET Tilt Y Offset
U-TILT_Y_GAIN.           1.02173         :WPTET Tilt Y Gain
U-TILT_X_OFFSET.           2.30841       :WPTET Tilt X Offset
U-TILT_X_GAIN.           1.00000         :WPTET Tilt X Gain
U-TILT_OFFSET_TOL.           0.00100     :WPTET Tilt Offset Calibration Tolerance
U-MOT_CUR_LIMIT_REQ.MA        70.00000   :Requested Motor Current Limit
U-MOT_SPD_REQ_WPMS.RPM        1.00000    :Requested Motor Speed
U-STD_TOL_TILT.           0.01000        :Tilt Standard Deviation Tolerance
CWEI .LB/F      29.00000                 :Casing Weight
CSIZ .IN         7.00000                 :Current Casing Size
LCC  .               440                 :Logging Company Code
LUN  .              2134                 :Logging Unit Number
HIDE .                                   :Header Identifier
HID1 .                                   :Header Identifier Line 1
R1   .                                   :Remark Line 1
WITN .        MR. KELLY McCOY            :Witness's Name
ENGI .        MORRIS MOORE               :Engineer's Name
LUL  .        IOWA COLONY                :Logging Unit Location
DATE .        02-Aug-2018                :Date as Month-Day-Year
STAT .        TEXAS                      :State or Province
COUN .        HARRIS                     :County or Rig Name
FN   .        WILDCAT                    :Field Name
WN   .        WPP TEST 4                 :Well Name
CN   .        SHELL INTERNATIONAL EP     :Company Name
CLAB .        County                     :County/Rig Label
SLAB .        State                      :State/Province Label
RUN  .          1                        :RUN NUMBER
PDAT .        GROUND LEVEL               :Permanent Datum
EPD  .                                   :Elevation of Permanent Datum above Mean Sea Level
LMF  .          NA                       :Logging Measured From (Name of Logging Elevation Reference)
APD  .                                   :Elevation of Depth Reference (LMF) above Permanent Datum
#-----------------------------------------------------------------------------
~CURVE INFORMATION
#MNEM.UNIT   API CODE                                  DESCRIPTION
#---- -----  --------                                  -----------------------
TIME .S                                                :TIME {F10.1}
FREQ_EMF_SL.HZ                                         :Electromagnetic Field Frequency {F13.4}
PH_SH_WPPCM_SL.DEG                                     :WPPCM Phase Shift {F13.4}
RB_SL.DEG                                              :Relative Bearing {F13.4}
SDEV_SL.DEG                                            :Sonde Deviation {F13.4}
RTIX_SL.DEG                                            :Raw X-axis Tilt {F13.4}
RTIY_SL.DEG                                            :Raw Y-axis Tilt {F13.4}
TILX_SL.DEG                                            :X-axis Tilt {F13.4}
TILY_SL.DEG                                            :Y-axis Tilt {F13.4}
ROTA_SL.DEG                                            :Motor Rotation Angle {F13.4}
TOD7 .S                                                :Time of Day {I11}
TOJ  .S                                                :Time of Job {F13.4}
#-----------------------------------------------------------------------------
# 
#     TIME    FREQ_EMF_SL  PH_SH_WPPCM_    RB_SL       SDEV_SL      RTIX_SL      RTIY_SL      TILX_SL      TILY_SL      ROTA_SL        TOD7            TOJ
#                          SL
~A  
# ...
      53.0     803.5715       0.0000    -146.5526    -999.2500     -43.0988      81.7793     -40.7904      81.4904     343.8195 1533251048 9999999.9999
      54.0     776.9337       0.0000    -142.0915    -999.2500     -50.3690      73.2640     -48.0606      72.7900     349.9304 1533251049 9999999.9999
      55.0     771.8167       0.0000    -137.0833    -999.2500     -57.5187      62.7403     -55.2103      62.0377     356.0165 1533251050 9999999.9999
      56.0     760.1351       0.0000    -129.7239    -999.2500     -72.3803      52.2970     -70.0719      51.3675       2.1029 1533251051 9999999.9999
      57.0     761.7822       0.0000    -125.5459    -999.2500     -80.9760      45.5490     -78.6676      44.4729       8.6128 1533251052 9999999.9999
      58.0     770.1259       0.0000    -121.2108    -999.2500     -88.7683      38.4395     -86.4599      37.2089      14.7176 1533251053 9999999.9999
      59.0     780.3829       0.0000    -116.2208    -999.2500     -95.5967      30.8480     -93.2883      29.4525      20.8164 1533251054 9999999.9999
      60.0     799.9147       0.0000    -110.1781    -999.2500    -101.2602      22.8548     -98.9518      21.2856      26.9165 1533251055 9999999.9999
      61.0     825.2641       0.0000    -103.2195      83.8714    -105.1162      14.9822    -102.8078      13.2419      33.0347 1533251056 9999999.9999
      62.0     849.1848       0.0000     -95.1650      77.0860    -106.2007       6.9488    -103.8923       5.0340      39.1396 1533251057 9999999.9999
      63.0     895.7007       0.0000     -85.9380      76.7457    -106.1605      -1.8477    -103.8521      -3.9536      45.2383 1533251058 9999999.9999
      64.0     945.0605       0.0000     -77.4735      85.6478    -105.5580     -10.2023    -103.2496     -12.4898      51.3370 1533251059 9999999.9999
      65.0    1003.0314       0.0000     -70.3755    -999.2500    -102.6660     -18.0750    -100.3576     -20.5335      57.4419 1533251060 9999999.9999
      66.0    1068.5791       0.0000     -64.3098    -999.2500     -97.6452     -25.9878     -95.3368     -28.6183      63.5468 1533251061 9999999.9999
      67.0    1130.4260       0.0000     -59.1779    -999.2500     -91.1382     -33.8203     -88.8298     -36.6209      69.6455 1533251062 9999999.9999
      68.0    1195.7908       0.0000     -54.9309    -999.2500     -84.0688     -41.0503     -81.7604     -44.0080      75.7442 1533251063 9999999.9999
      69.0    1283.0748       0.0000     -50.9077    -999.2500     -75.7543     -48.0393     -73.4459     -51.1489      82.2601 1533251064 9999999.9999
      70.0    1423.3300       0.0000     -46.3739    -999.2500     -65.1503     -54.7472     -62.8419     -58.0024      88.3588 1533251065 9999999.9999
      71.0    1528.5327       0.0000     -38.0890    -999.2500     -51.7748     -72.2197     -49.4664     -75.8546      94.4706 1533251066 9999999.9999
      72.0    1638.9860       0.0000     -34.0096    -999.2500     -44.5850     -81.6990     -42.2766     -85.5399     100.5755 1533251067 9999999.9999
      73.0    1749.0671       0.0000     -29.9004    -999.2500     -37.3550     -89.0093     -35.0466     -93.0090     106.6803 1533251068 9999999.9999
      74.0    1840.6414       0.0000     -25.2158    -999.2500     -30.0045     -95.1147     -27.6961     -99.2470     112.7791 1533251069 9999999.9999
      75.0    1936.9835       0.0000     -19.1329    -999.2500     -22.0113     -99.4125     -19.7029    -103.6382     118.8778 1533251070 9999999.9999
      76.0    2032.1531       0.0000     -12.3992      80.6503     -14.5403    -101.2200     -12.2319    -105.4850     124.9826 1533251071 9999999.9999
      77.0    2105.1646       0.0000      -3.8934      74.7887      -6.0652    -101.4208      -3.7568    -105.6902     131.0875 1533251072 9999999.9999
      78.0    2176.8577       0.0000       5.2105      75.3105       2.7313    -101.3003       5.0397    -105.5671     137.1994 1533251073 9999999.9999
      79.0    2232.1428       0.0000      13.1888      83.9202      10.8048    -100.2560      13.1132    -104.5001     143.3105 1533251074 9999999.9999
      80.0    2275.4854       0.0000      19.7062    -999.2500      18.2357     -97.3640      20.5441    -101.5452     149.4163 1533251075 9999999.9999
      81.0    2312.9111       0.0000      25.2820    -999.2500      25.6665     -92.6243      27.9749     -96.7026     155.9262 1533251076 9999999.9999
      82.0    2343.7500       0.0000      29.8416    -999.2500      32.6957     -86.6797      35.0041     -90.6288     162.0250 1533251077 9999999.9999
      83.0    2367.4243       0.0000      33.9461    -999.2500      39.6445     -79.4898      41.9529     -83.2827     168.1433 1533251078 9999999.9999
      84.0    2375.4224       0.0000      38.0369    -999.2500      46.5130     -70.5728      48.8214     -74.1720     174.2482 1533251079 9999999.9999
      85.0    2367.4243       0.0000      43.0959    -999.2500      52.0560     -56.9965      54.3644     -60.3007     180.3348 1533251080 9999999.9999
      86.0    2375.4224       0.0000      51.8067    -999.2500      74.6698     -46.9548      76.9782     -50.0408     186.4213 1533251081 9999999.9999
      87.0    2379.4417       0.0000      55.6469    -999.2500      83.4463     -40.0361      85.7547     -42.9718     192.5263 1533251082 9999999.9999
      88.0    2343.7500       0.0000      59.7872    -999.2500      90.7767     -32.7760      93.0851     -35.5539     198.6443 1533251083 9999999.9999
      89.0    2328.2285       0.0000      64.3615    -999.2500      96.2795     -25.7067      98.5879     -28.3310     204.7431 1533251084 9999999.9999
      90.0    2290.3093       0.0000      69.9350    -999.2500     100.0552     -18.4365     102.3636     -20.9029     210.8420 1533251085 9999999.9999
      91.0    2246.4058       0.0000      76.7036      86.3893     101.4610     -10.9655     103.7694     -13.2695     216.9600 1533251086 9999999.9999
      92.0    2190.4207       0.0000      85.3843      76.4596     101.9832      -2.3698     104.2916      -4.4871     223.0527 1533251087 9999999.9999
      93.0    2124.2446       0.0000      94.5512      76.1415     102.2643       6.3463     104.5727       4.4184     229.5565 1533251088 9999999.9999
      94.0    2068.0146       0.0000     102.4748      84.7238     101.2200      14.1788     103.5284      12.4211     235.6806 1533251089 9999999.9999
      95.0    1991.8556       0.0000     109.6453    -999.2500      97.6050      22.1720      99.9134      20.5880     241.7925 1533251090 9999999.9999
      96.0    1905.4878       0.0000     115.5895    -999.2500      92.3833      29.9242      94.6917      28.5086     247.8914 1533251091 9999999.9999
      97.0    1821.5673       0.0000     120.5962    -999.2500      85.6755      37.4755      87.9839      36.2240     253.9910 1533251092 9999999.9999
      98.0    1727.5798       0.0000     125.1091    -999.2500      77.6823      44.9063      79.9907      43.8162     260.0958 1533251093 9999999.9999
      99.0    1613.5973       0.0000     129.7677    -999.2500      67.7210      52.3874      70.0294      51.4598     266.2005 1533251094 9999999.9999
     100.0    1508.8519       0.0000     137.8082    -999.2500      54.0643      67.3193      56.3727      66.7162     272.2867 1533251095 9999999.9999
     101.0    1373.2910       0.0000     142.0043    -999.2500      47.3163      77.6020      49.6247      77.2223     278.3983 1533251096 9999999.9999
     102.0    1269.1787       0.0000     145.8056    -999.2500      40.3273      85.6755      42.6357      85.4712     284.4906 1533251097 9999999.9999
     103.0    1191.7373       0.0000     150.0284    -999.2500      32.8563      92.9858      35.1647      92.9404     290.5953 1533251098 9999999.9999
     104.0    1150.7773       0.0000     154.9922    -999.2500      25.1042      99.1715      27.4126      99.2604     296.6939 1533251099 9999999.9999
     105.0    1093.5071       0.0000     161.1157    -999.2500      17.0708     103.8710      19.3792     104.0620     302.7803 1533251100 9999999.9999
