~VERSION INFORMATION
VERS.           2.0   :CWLS Log ASCII Standard - VERSION 2.0
WRAP.           NO    :One Line per depth step
PROD.  Schlumberger   :LAS Producer
PROG.  DLIS to ASCII 19C2-270                          :LAS Program name and version
CREA.        2018/08/03 10:59                          :LAS Creation date {YYYY/MM/DD hh:mm}
DLIS_CREA.  2018-Aug-03 09:53                          :DLIS Creation date and time {YYYY-MMM-DD hh:mm}
SOURCE.     PERFO_Perfo_090PTP.DLIS                    :DLIS File Name
FILE-ID.     PERFO_Perfo_090PTP                        :File Identification Number
#--------------------------------------------------
~WELL INFORMATION
#MNEM.UNIT      DATA             DESCRIPTION
#---- ------ --------------   -----------------------------
STRT .S            0.0       :START TIME      
STOP .S          228.0       :STOP TIME      
STEP .S            1.0       :STEP     
NULL .          -999.25      :NULL VALUE
COMP .        SHELL INTERNATIONAL EP                   :COMPANY
WELL .        WPP TEST 4                               :WELL
FLD  .        WILDCAT                                  :FIELD
LOC  .        NA                                       :LOCATION
CNTY .        HARRIS                                   :COUNTY
STAT .        TEXAS                                    :STATE
CTRY .                                                 :COUNTRY
API  .        NA                                       :API NUMBER
UWI  .                                                 :UNIQUE WELL ID
DATE .        02-Aug-2018                              :LOG DATE {DD-MMM-YYYY}
SRVC .        Schlumberger                             :SERVICE COMPANY
LATI .DEG                                              :LATITUDE
LONG .DEG                                              :LONGITUDE
GDAT .                                                 :GeoDetic Datum
SECT .        NA                                       :Section
RANG .        NA                                       :Range
TOWN .        NA                                       :Township
#-----------------------------------------------------------------------------
~PARAMETER INFORMATION
#MNEM.UNIT    VALUE                      DESCRIPTION
#---- -----   --------------------       ------------------------
U-PHASE_B_COMP_PER_YT.                 0 :Phase B Comparator Period Yt
U-PHASE_A_COMP_PER_XT.                 0 :Phase A Comparator Period Xt
U-MAX_EXC_CUR_LIMIT.MA       265.00000   :Requested CM Current Limit
U-REQ_EXC_FQ.HZ              50          :Requested CM Frequency
U-TILT_Y_OFFSET.          -2.06578       :WPTET Tilt Y Offset
U-TILT_Y_GAIN.           1.02173         :WPTET Tilt Y Gain
U-TILT_X_OFFSET.           2.30841       :WPTET Tilt X Offset
U-TILT_X_GAIN.           1.00000         :WPTET Tilt X Gain
U-TILT_OFFSET_TOL.           0.00100     :WPTET Tilt Offset Calibration Tolerance
U-MOT_CUR_LIMIT_REQ.MA        70.00000   :Requested Motor Current Limit
U-MOT_SPD_REQ_WPMS.RPM        1.00000    :Requested Motor Speed
U-STD_TOL_TILT.           0.01000        :Tilt Standard Deviation Tolerance
CWEI .LB/F      29.00000                 :Casing Weight
CSIZ .IN         7.00000                 :Current Casing Size
LCC  .               440                 :Logging Company Code
LUN  .              2134                 :Logging Unit Number
HIDE .                                   :Header Identifier
HID1 .                                   :Header Identifier Line 1
R1   .                                   :Remark Line 1
WITN .        MR. KELLY McCOY            :Witness's Name
ENGI .        MORRIS MOORE               :Engineer's Name
LUL  .        IOWA COLONY                :Logging Unit Location
DATE .        02-Aug-2018                :Date as Month-Day-Year
STAT .        TEXAS                      :State or Province
COUN .        HARRIS                     :County or Rig Name
FN   .        WILDCAT                    :Field Name
WN   .        WPP TEST 4                 :Well Name
CN   .        SHELL INTERNATIONAL EP     :Company Name
CLAB .        County                     :County/Rig Label
SLAB .        State                      :State/Province Label
RUN  .          1                        :RUN NUMBER
PDAT .        GROUND LEVEL               :Permanent Datum
EPD  .                                   :Elevation of Permanent Datum above Mean Sea Level
LMF  .          NA                       :Logging Measured From (Name of Logging Elevation Reference)
APD  .                                   :Elevation of Depth Reference (LMF) above Permanent Datum
#-----------------------------------------------------------------------------
~CURVE INFORMATION
#MNEM.UNIT   API CODE                                  DESCRIPTION
#---- -----  --------                                  -----------------------
TIME .S                                                :TIME {F10.1}
FREQ_EMF_SL.HZ                                         :Electromagnetic Field Frequency {F13.4}
PH_SH_WPPCM_SL.DEG                                     :WPPCM Phase Shift {F13.4}
RB_SL.DEG                                              :Relative Bearing {F13.4}
SDEV_SL.DEG                                            :Sonde Deviation {F13.4}
RTIX_SL.DEG                                            :Raw X-axis Tilt {F13.4}
RTIY_SL.DEG                                            :Raw Y-axis Tilt {F13.4}
TILX_SL.DEG                                            :X-axis Tilt {F13.4}
TILY_SL.DEG                                            :Y-axis Tilt {F13.4}
ROTA_SL.DEG                                            :Motor Rotation Angle {F13.4}
TOD7 .S                                                :Time of Day {I11}
TOJ  .S                                                :Time of Job {F13.4}
#-----------------------------------------------------------------------------
# 
#     TIME    FREQ_EMF_SL  PH_SH_WPPCM_    RB_SL       SDEV_SL      RTIX_SL      RTIY_SL      TILX_SL      TILY_SL      ROTA_SL        TOD7            TOJ
#                          SL
~A  
# ...
     106.0       0.0000       0.0000     -62.3290    -999.2500     -95.4360     -28.8798     -93.1276     -31.5731      92.3106 1533251418 9999999.9999
     107.0       0.0000       0.0000     -57.6790    -999.2500     -88.8888     -36.3107     -86.5804     -39.1654      98.4154 1533251419 9999999.9999
     108.0       0.0000       0.0000     -53.6280    -999.2500     -81.5383     -43.3398     -79.2299     -46.3473     104.5141 1533251420 9999999.9999
     109.0       0.0000       0.0000     -49.0727    -999.2500     -71.5770     -51.0117     -69.2686     -54.1858     110.6128 1533251421 9999999.9999
     110.0       0.0000       0.0000     -41.7990    -999.2500     -56.3940     -61.5353     -54.0856     -64.9381     116.7369 1533251422 9999999.9999
     111.0       0.0000       0.0000     -36.3725    -999.2500     -48.8427     -76.4773     -46.5343     -80.2048     122.8487 1533251423 9999999.9999
     112.0       0.0000       0.0000     -32.2882    -999.2500     -41.4922     -85.1935     -39.1838     -89.1103     128.9474 1533251424 9999999.9999
     113.0       0.0000       0.0000     -28.0146    -999.2500     -34.2622     -91.8210     -31.9538     -95.8818     135.0593 1533251425 9999999.9999
     114.0       0.0000       0.0000     -22.6141    -999.2500     -26.3493     -97.8460     -24.0409    -102.0377     141.1773 1533251426 9999999.9999
     115.0       0.0000       0.0000     -16.5201    -999.2500     -18.9988    -100.2158     -16.6904    -104.4590     147.6750 1533251427 9999999.9999
     116.0       0.0000       0.0000      -9.5323      77.3755     -11.6082    -101.5012      -9.2998    -105.7723     153.7738 1533251428 9999999.9999
     117.0       0.0000       0.0000      -0.7728      74.3695      -3.0527    -101.3807      -0.7443    -105.6492     159.8918 1533251429 9999999.9999
     118.0       0.0000       0.0000       7.9433      76.7606       5.4225    -101.1397       7.7309    -105.4029     165.9968 1533251430 9999999.9999
     119.0       0.0000       0.0000      15.5503      91.3044      13.3755     -99.4928      15.6839    -103.7203     172.0956 1533251431 9999999.9999
     120.0       0.0000       0.0000      21.9216    -999.2500      21.0473     -95.7573      23.3557     -99.9036     178.2138 1533251432 9999999.9999
     121.0       0.0000       0.0000      27.2548    -999.2500      28.5987     -90.3348      30.9071     -94.3633     184.3127 1533251433 9999999.9999
     122.0       0.0000       0.0000      31.6036    -999.2500      35.6278     -83.7877      37.9362     -87.6739     190.4176 1533251434 9999999.9999
     123.0       0.0000       0.0000      35.5652    -999.2500      42.4160     -76.0757      44.7244     -79.7943     196.5165 1533251435 9999999.9999
     124.0       0.0000       0.0000      39.8727    -999.2500      49.3247     -66.3152      51.6331     -69.8218     202.6153 1533251436 9999999.9999
     125.0       0.0000       0.0000      49.2972    -999.2500      68.2833     -51.0518      70.5917     -54.2268     208.7203 1533251437 9999999.9999
     126.0       0.0000       0.0000      53.3235    -999.2500      78.3250     -44.2637      80.6334     -47.2912     214.8252 1533251438 9999999.9999
     127.0    1515.3556       0.0000      57.1331    -999.2500      86.1977     -37.3550      88.5061     -40.2324     221.2695 1533251439 9999999.9999
     128.0    2043.9680       0.0000      61.1665    -999.2500      92.7448     -30.5267      95.0532     -33.2557     227.3745 1533251440 9999999.9999
     129.0    2170.1389       0.0000      66.0919    -999.2500      97.8862     -23.2967     100.1946     -25.8686     233.4795 1533251441 9999999.9999
     130.0    2211.0850       0.0000      72.0918    -999.2500     100.6175     -15.9462     102.9259     -18.3584     239.5660 1533251442 9999999.9999
     131.0    2232.1428       0.0000      79.5404      80.5051     101.7823      -8.0735     104.0907     -10.3147     245.6779 1533251443 9999999.9999
     132.0    2246.4058       0.0000      88.4183      75.6328     102.1438       0.5222     104.4522      -1.5323     251.7829 1533251444 9999999.9999
     133.0    2268.1450       0.0000      97.7996      77.6996     102.2242       9.4793     104.5326       7.6195     257.8878 1533251445 9999999.9999
     134.0    2260.8521       0.0000     105.4595      90.1796     100.2158      17.3520     102.5242      15.6632     263.9872 1533251446 9999999.9999
     135.0    2253.6057       0.0000     112.0030    -999.2500      95.7573      25.1042      98.0657      23.5838     270.0988 1533251447 9999999.9999
     136.0    2253.6057       0.0000     117.6355    -999.2500      89.9332      32.8965      92.2416      31.5455     276.2036 1533251448 9999999.9999
     137.0    2232.1428       0.0000     122.3806    -999.2500      82.7032      40.3675      85.0116      39.1788     282.3091 1533251449 9999999.9999
     138.0    2204.1536       0.0000     126.8503    -999.2500      74.1477      47.7983      76.4561      46.7711     288.4077 1533251450 9999999.9999
     139.0    2163.4614       0.0000     131.4959    -999.2500      63.8248      54.8677      66.1332      53.9940     294.9305 1533251451 9999999.9999
     140.0    2111.4866       0.0000     139.2808    -999.2500      51.8953      70.9745      54.2037      70.4508     301.0352 1533251452 9999999.9999
     141.0    2074.1150       0.0000     143.2286    -999.2500      45.0670      80.2530      47.3754      79.9309     307.1338 1533251453 9999999.9999
     142.0    2003.2051       0.0000     147.0854    -999.2500      37.9977      88.0855      40.3061      87.9336     313.2324 1533251454 9999999.9999
     143.0    1942.3344       0.0000     151.5675    -999.2500      30.3258      95.1147      32.6342      95.1155     319.3371 1533251455 9999999.9999
     144.0    1885.0536       0.0000     156.8597    -999.2500      22.4933     100.8987      24.8017     101.0251     325.4296 1533251456 9999999.9999
     145.0    1821.5673       0.0000     163.6906      85.0980      14.0985     104.9153      16.4069     105.1291     331.5159 1533251457 9999999.9999
     146.0    1736.1111       0.0000     171.4790      75.6452       5.9447     106.4015       8.2531     106.6475     337.6023 1533251458 9999999.9999
     147.0    1666.1730       0.0000    -179.8939      73.1886      -2.4100     106.5622      -0.1016     106.8117     343.6947 1533251459 9999999.9999
     148.0    1583.6149       0.0000    -171.5383      76.1877     -10.5237     105.9195      -8.2153     106.1551     349.7872 1533251460 9999999.9999
     149.0    1489.6716       0.0000    -163.7163      93.2631     -18.8783     102.3447     -16.5699     102.5025     355.8858 1533251461 9999999.9999
     150.0    1397.8628       0.0000    -157.0966    -999.2500     -27.1125      96.7615     -24.8041      96.7981       1.9722 1533251462 9999999.9999
     151.0    1321.6636       0.0000    -151.5570    -999.2500     -35.1057      90.0135     -32.7973      89.9035       8.4757 1533251463 9999999.9999
     152.0    1262.3429       0.0000    -146.8379    -999.2500     -42.6570      82.5023     -40.3486      82.2291      14.5744 1533251464 9999999.9999
     153.0    1220.7031       0.0000    -142.4584    -999.2500     -49.8067      74.0673     -47.4983      73.6108      20.6732 1533251465 9999999.9999
     154.0    1169.9252       0.0000    -137.5457    -999.2500     -56.9563      63.7445     -54.6479      63.0637      26.7658 1533251466 9999999.9999
     155.0    1141.4368       0.0000    -130.1249    -999.2500     -71.4967      52.8995     -69.1883      51.9831      32.8707 1533251467 9999999.9999
     156.0    1102.0768       0.0000    -125.9027    -999.2500     -80.3333      46.1515     -78.0249      45.0885      38.9694 1533251468 9999999.9999
     157.0    1065.3409       0.0000    -121.2370    -999.2500     -88.6880      38.4797     -86.3796      37.2499      45.0681 1533251469 9999999.9999
     158.0    1032.4890       0.0000    -116.3322    -999.2500     -95.4360      31.0087     -93.1276      29.6166      51.1730 1533251470 9999999.9999
