~VERSION INFORMATION
VERS.           2.0   :CWLS Log ASCII Standard - VERSION 2.0
WRAP.           NO    :One Line per depth step
PROD.  Schlumberger   :LAS Producer
PROG.  DLIS to ASCII 19C2-270                          :LAS Program name and version
CREA.        2018/08/03 10:59                          :LAS Creation date {YYYY/MM/DD hh:mm}
DLIS_CREA.  2018-Aug-03 09:53                          :DLIS Creation date and time {YYYY-MMM-DD hh:mm}
SOURCE.     PERFO_Perfo_090PTP.DLIS                    :DLIS File Name
FILE-ID.     PERFO_Perfo_090PTP                        :File Identification Number
#--------------------------------------------------
~WELL INFORMATION
#MNEM.UNIT      DATA             DESCRIPTION
#---- ------ --------------   -----------------------------
STRT .S            0.0       :START TIME      
STOP .S          228.0       :STOP TIME      
STEP .S            1.0       :STEP     
NULL .          -999.25      :NULL VALUE
COMP .        SHELL INTERNATIONAL EP                   :COMPANY
WELL .        WPP TEST 4                               :WELL
FLD  .        WILDCAT                                  :FIELD
LOC  .        NA                                       :LOCATION
CNTY .        HARRIS                                   :COUNTY
STAT .        TEXAS                                    :STATE
CTRY .                                                 :COUNTRY
API  .        NA                                       :API NUMBER
UWI  .                                                 :UNIQUE WELL ID
DATE .        02-Aug-2018                              :LOG DATE {DD-MMM-YYYY}
SRVC .        Schlumberger                             :SERVICE COMPANY
LATI .DEG                                              :LATITUDE
LONG .DEG                                              :LONGITUDE
GDAT .                                                 :GeoDetic Datum
SECT .        NA                                       :Section
RANG .        NA                                       :Range
TOWN .        NA                                       :Township
#-----------------------------------------------------------------------------
~PARAMETER INFORMATION
#MNEM.UNIT    VALUE                      DESCRIPTION
#---- -----   --------------------       ------------------------
U-PHASE_B_COMP_PER_YT.                 0 :Phase B Comparator Period Yt
U-PHASE_A_COMP_PER_XT.                 0 :Phase A Comparator Period Xt
U-MAX_EXC_CUR_LIMIT.MA       265.00000   :Requested CM Current Limit
U-REQ_EXC_FQ.HZ              50          :Requested CM Frequency
U-TILT_Y_OFFSET.          -2.06578       :WPTET Tilt Y Offset
U-TILT_Y_GAIN.           1.02173         :WPTET Tilt Y Gain
U-TILT_X_OFFSET.           2.30841       :WPTET Tilt X Offset
U-TILT_X_GAIN.           1.00000         :WPTET Tilt X Gain
U-TILT_OFFSET_TOL.           0.00100     :WPTET Tilt Offset Calibration Tolerance
U-MOT_CUR_LIMIT_REQ.MA        70.00000   :Requested Motor Current Limit
U-MOT_SPD_REQ_WPMS.RPM        1.00000    :Requested Motor Speed
U-STD_TOL_TILT.           0.01000        :Tilt Standard Deviation Tolerance
CWEI .LB/F      29.00000                 :Casing Weight
CSIZ .IN         7.00000                 :Current Casing Size
LCC  .               440                 :Logging Company Code
LUN  .              2134                 :Logging Unit Number
HIDE .                                   :Header Identifier
HID1 .                                   :Header Identifier Line 1
R1   .                                   :Remark Line 1
WITN .        MR. KELLY McCOY            :Witness's Name
ENGI .        MORRIS MOORE               :Engineer's Name
LUL  .        IOWA COLONY                :Logging Unit Location
DATE .        02-Aug-2018                :Date as Month-Day-Year
STAT .        TEXAS                      :State or Province
COUN .        HARRIS                     :County or Rig Name
FN   .        WILDCAT                    :Field Name
WN   .        WPP TEST 4                 :Well Name
CN   .        SHELL INTERNATIONAL EP     :Company Name
CLAB .        County                     :County/Rig Label
SLAB .        State                      :State/Province Label
RUN  .          1                        :RUN NUMBER
PDAT .        GROUND LEVEL               :Permanent Datum
EPD  .                                   :Elevation of Permanent Datum above Mean Sea Level
LMF  .          NA                       :Logging Measured From (Name of Logging Elevation Reference)
APD  .                                   :Elevation of Depth Reference (LMF) above Permanent Datum
#-----------------------------------------------------------------------------
~CURVE INFORMATION
#MNEM.UNIT   API CODE                                  DESCRIPTION
#---- -----  --------                                  -----------------------
TIME .S                                                :TIME {F10.1}
FREQ_EMF_SL.HZ                                         :Electromagnetic Field Frequency {F13.4}
PH_SH_WPPCM_SL.DEG                                     :WPPCM Phase Shift {F13.4}
RB_SL.DEG                                              :Relative Bearing {F13.4}
SDEV_SL.DEG                                            :Sonde Deviation {F13.4}
RTIX_SL.DEG                                            :Raw X-axis Tilt {F13.4}
RTIY_SL.DEG                                            :Raw Y-axis Tilt {F13.4}
TILX_SL.DEG                                            :X-axis Tilt {F13.4}
TILY_SL.DEG                                            :Y-axis Tilt {F13.4}
ROTA_SL.DEG                                            :Motor Rotation Angle {F13.4}
TOD7 .S                                                :Time of Day {I11}
TOJ  .S                                                :Time of Job {F13.4}
#-----------------------------------------------------------------------------
# 
#     TIME    FREQ_EMF_SL  PH_SH_WPPCM_    RB_SL       SDEV_SL      RTIX_SL      RTIY_SL      TILX_SL      TILY_SL      ROTA_SL        TOD7            TOJ
#                          SL
~A  
       0.0    2343.7500       0.0000      16.7203    -999.2500      14.7010     -98.9305      17.0094    -103.1458     163.8226 1533251313 9999999.9999
       1.0    2359.4797       0.0000      20.9003    -999.2500      19.7218     -96.6410      22.0302    -100.8065     168.3147 1533251313 9999999.9999
       2.0    2399.7441       0.0000      26.1864    -999.2500      26.9920     -91.5800      29.3004     -95.6356     174.4135 1533251314 9999999.9999
       3.0    2416.2371       0.0000      30.6216    -999.2500      33.9810     -85.3943      36.2894     -89.3155     180.5123 1533251315 9999999.9999
       4.0    2441.4063       0.0000      34.6644    -999.2500      40.8897     -78.0840      43.1981     -81.8463     186.6173 1533251316 9999999.9999
       5.0    2441.4063       0.0000      38.7328    -999.2500      47.6377     -69.0465      49.9461     -72.6125     192.7223 1533251317 9999999.9999
       6.0    2441.4063       0.0000      47.7318    -999.2500      61.1337     -51.2125      63.4421     -54.3910     199.2260 1533251318 9999999.9999
       7.0    2441.4063       0.0000      52.4381    -999.2500      76.3167     -45.8703      78.6251     -48.9327     205.3310 1533251319 9999999.9999
       8.0    2432.9585       0.0000      56.1487    -999.2500      84.3902     -39.1223      86.6986     -42.0381     211.4360 1533251320 9999999.9999
       9.0    2391.5815       0.0000      60.2254    -999.2500      91.3792     -32.0530      93.6876     -34.8152     217.5348 1533251321 9999999.9999
      10.0    2367.4243       0.0000      64.8690    -999.2500      96.8017     -24.9837      99.1101     -27.5923     223.6336 1533251322 9999999.9999
      11.0    2335.9634       0.0000      70.6214    -999.2500     100.2158     -17.6332     102.5242     -20.0821     229.7386 1533251323 9999999.9999
      12.0    2275.4854       0.0000      78.2705      82.5076     101.5815      -9.3588     103.8899     -11.6280     235.8436 1533251324 9999999.9999
      13.0    2218.0601       0.0000      86.8975      75.9601     102.0635      -0.9238     104.3719      -3.0097     241.9301 1533251325 9999999.9999
      14.0    2143.6738       0.0000      96.0189      76.6154     102.3447       7.7522     104.6531       5.8548     248.0289 1533251326 9999999.9999
      15.0    2068.0146       0.0000     103.8168      87.0682     100.8183      15.5847     103.1267      13.8575     254.1339 1533251327 9999999.9999
      16.0    1975.0703       0.0000     110.7669    -999.2500      96.8820      23.5377      99.1904      21.9833     260.2395 1533251328 9999999.9999
      17.0    1890.1210       0.0000     116.5448    -999.2500      91.3390      31.2898      93.6474      29.9039     266.3512 1533251329 9999999.9999
      18.0    1798.2737       0.0000     121.4470    -999.2500      84.2295      38.8412      86.5379      37.6193     272.8608 1533251330 9999999.9999
      19.0    1682.1173       0.0000     125.9020    -999.2500      76.1158      46.2318      78.4242      45.1705     278.9786 1533251331 9999999.9999
      20.0    1545.3296       0.0000     130.4516    -999.2500      66.2348      53.4217      68.5432      52.5166     285.0772 1533251332 9999999.9999
      21.0    1414.7384       0.0000     138.3173    -999.2500      53.3815      68.6448      55.6899      68.0705     291.1634 1533251333 9999999.9999
      22.0    1280.7377       0.0000     142.4818    -999.2500      46.4327      78.6062      48.7411      78.2483     297.2681 1533251334 9999999.9999
      23.0    1191.7373       0.0000     146.2663    -999.2500      39.4838      86.5592      41.7922      86.3741     303.3729 1533251335 9999999.9999
      24.0    1121.4115       0.0000     150.8490    -999.2500      31.4907      94.1908      33.7991      94.1716     309.4715 1533251336 9999999.9999
      25.0    1071.8369       0.0000     156.0082    -999.2500      23.6582     100.2158      25.9666     100.3275     315.5701 1533251337 9999999.9999
      26.0    1005.9013       0.0000     162.3143    -999.2500      15.6650     104.3932      17.9734     104.5956     321.6501 1533251338 9999999.9999
      27.0     937.5000       0.0000     169.7993      77.0880       7.6317     106.1605       9.9401     106.4013     327.7426 1533251339 9999999.9999
      28.0     875.6227       0.0000     178.2607      73.2759      -0.6427     106.5622       1.6657     106.8117     333.8549 1533251340 9999999.9999
      29.0     826.2339       0.0000    -173.1576      75.0132      -8.9170     106.2007      -6.6086     106.4423     339.9596 1533251341 9999999.9999
      30.0     777.7931       0.0000    -165.2863      88.8315     -17.1110     103.1882     -14.8026     103.3644     346.4568 1533251342 9999999.9999
      31.0     732.4219       0.0000    -158.4020    -999.2500     -25.3853      98.0067     -23.0769      98.0703     352.5554 1533251343 9999999.9999
      32.0     705.2407       0.0000    -152.6676    -999.2500     -33.4187      91.5398     -31.1103      91.4630     358.6540 1533251344 9999999.9999
      33.0     690.0148       0.0000    -147.7436    -999.2500     -41.1708      84.0688     -38.8624      83.8296       4.7341 1533251345 9999999.9999
      34.0     678.6921       0.0000    -143.3108    -999.2500     -48.4410      75.7945     -46.1326      75.3755      10.8266 1533251346 9999999.9999
      35.0     674.7841       0.0000    -138.5768    -999.2500     -55.6308      65.9938     -53.3224      65.3619      16.9253 1533251347 9999999.9999
      36.0     668.3698       0.0000    -130.6856    -999.2500     -70.2917      53.7430     -67.9833      52.8449      23.0241 1533251348 9999999.9999
      37.0     673.4914       0.0000    -126.3840    -999.2500     -79.4095      46.9548     -77.1011      45.9092      28.7373 1533251349 9999999.9999
      38.0     681.3227       0.0000    -122.0792    -999.2500     -87.4027      39.8453     -85.0943      38.6453      34.8429 1533251350 9999999.9999
      39.0     701.0219       0.0000    -117.3003    -999.2500     -94.3113      32.4145     -92.0029      31.0530      40.9417 1533251351 9999999.9999
      40.0     710.2273       0.0000    -111.5066    -999.2500    -100.2962      24.5017     -97.9878      22.9682      47.0412 1533251352 9999999.9999
      41.0     737.0283       0.0000    -104.5763    -999.2500    -104.5940      16.4282    -102.2856      14.7193      53.1522 1533251353 9999999.9999
      42.0     774.3668       0.0000     -96.8689      77.9419    -106.1605       8.5957    -103.8521       6.7166      59.6565 1533251354 9999999.9999
      43.0     818.5389       0.0000     -88.1266      76.2322    -106.2007       0.2410    -103.8923      -1.8195      65.7683 1533251355 9999999.9999
      44.0     870.2042       0.0000     -79.5231      81.3256    -105.8793      -8.1137    -103.5709     -10.3557      71.8731 1533251356 9999999.9999
      45.0     937.5000       0.0000     -72.1458      84.3670    -103.1882     -16.0265    -100.8798     -18.4405      77.9911 1533251357 9999999.9999
      46.0    1016.0765       0.0000     -65.7557    -999.2500     -99.0510     -23.9795     -96.7426     -26.5663      84.0898 1533251358 9999999.9999
      47.0    1109.0300       0.0000     -60.4028    -999.2500     -92.8653     -31.8522     -90.5569     -34.6100      90.1956 1533251359 9999999.9999
      48.0    1187.7112       0.0000     -55.7358    -999.2500     -85.5550     -39.6445     -83.2466     -42.5716      96.3074 1533251360 9999999.9999
      49.0    1316.7135       0.0000     -51.6574    -999.2500     -77.3610     -46.7540     -75.0526     -49.8356     102.4123 1533251361 9999999.9999
      50.0    1446.7593       0.0000     -47.3380    -999.2500     -67.4398     -53.5020     -65.1314     -56.7302     108.5110 1533251362 9999999.9999
      51.0    1572.9866       0.0000     -38.9213    -999.2500     -53.1405     -70.1712     -50.8321     -73.7616     114.6158 1533251363 9999999.9999
      52.0    1698.3695       0.0000     -34.7920    -999.2500     -45.9908     -79.9317     -43.6824     -83.7341     120.7207 1533251364 9999999.9999
