~VERSION INFORMATION
VERS.           2.0   :CWLS Log ASCII Standard - VERSION 2.0
WRAP.           NO    :One Line per depth step
PROD.  Schlumberger   :LAS Producer
PROG.  DLIS to ASCII 19C2-270                          :LAS Program name and version
CREA.        2018/08/03 10:59                          :LAS Creation date {YYYY/MM/DD hh:mm}
DLIS_CREA.  2018-Aug-03 08:48                          :DLIS Creation date and time {YYYY-MMM-DD hh:mm}
SOURCE.     PERFO_Perfo_061PTP.DLIS                    :DLIS File Name
FILE-ID.     PERFO_Perfo_061PTP                        :File Identification Number
#--------------------------------------------------
~WELL INFORMATION
#MNEM.UNIT      DATA             DESCRIPTION
#---- ------ --------------   -----------------------------
STRT .S            0.0       :START TIME      
STOP .S          993.0       :STOP TIME      
STEP .S            1.0       :STEP     
NULL .          -999.25      :NULL VALUE
COMP .        SHELL INTERNATIONAL EP                   :COMPANY
WELL .        WPP TEST 4                               :WELL
FLD  .        WILDCAT                                  :FIELD
LOC  .        NA                                       :LOCATION
CNTY .        HARRIS                                   :COUNTY
STAT .        TEXAS                                    :STATE
CTRY .                                                 :COUNTRY
API  .        NA                                       :API NUMBER
UWI  .                                                 :UNIQUE WELL ID
DATE .        02-Aug-2018                              :LOG DATE {DD-MMM-YYYY}
SRVC .        Schlumberger                             :SERVICE COMPANY
LATI .DEG                                              :LATITUDE
LONG .DEG                                              :LONGITUDE
GDAT .                                                 :GeoDetic Datum
SECT .        NA                                       :Section
RANG .        NA                                       :Range
TOWN .        NA                                       :Township
#-----------------------------------------------------------------------------
~PARAMETER INFORMATION
#MNEM.UNIT    VALUE                      DESCRIPTION
#---- -----   --------------------       ------------------------
U-PHASE_B_COMP_PER_YT.                 0 :Phase B Comparator Period Yt
U-PHASE_A_COMP_PER_XT.                 0 :Phase A Comparator Period Xt
U-MAX_EXC_CUR_LIMIT.MA       265.00000   :Requested CM Current Limit
U-REQ_EXC_FQ.HZ              50          :Requested CM Frequency
U-TILT_Y_OFFSET.          -2.06578       :WPTET Tilt Y Offset
U-TILT_Y_GAIN.           1.02173         :WPTET Tilt Y Gain
U-TILT_X_OFFSET.           2.30841       :WPTET Tilt X Offset
U-TILT_X_GAIN.           1.00000         :WPTET Tilt X Gain
U-TILT_OFFSET_TOL.           0.00100     :WPTET Tilt Offset Calibration Tolerance
U-MOT_CUR_LIMIT_REQ.MA        70.00000   :Requested Motor Current Limit
U-MOT_SPD_REQ_WPMS.RPM        1.00000    :Requested Motor Speed
U-STD_TOL_TILT.           0.01000        :Tilt Standard Deviation Tolerance
CWEI .LB/F      29.00000                 :Casing Weight
CSIZ .IN         7.00000                 :Current Casing Size
LCC  .               440                 :Logging Company Code
LUN  .              2134                 :Logging Unit Number
HIDE .                                   :Header Identifier
HID1 .                                   :Header Identifier Line 1
R1   .                                   :Remark Line 1
WITN .        MR. KELLY McCOY            :Witness's Name
ENGI .        MORRIS MOORE               :Engineer's Name
LUL  .        IOWA COLONY                :Logging Unit Location
DATE .        02-Aug-2018                :Date as Month-Day-Year
STAT .        TEXAS                      :State or Province
COUN .        HARRIS                     :County or Rig Name
FN   .        WILDCAT                    :Field Name
WN   .        WPP TEST 4                 :Well Name
CN   .        SHELL INTERNATIONAL EP     :Company Name
CLAB .        County                     :County/Rig Label
SLAB .        State                      :State/Province Label
RUN  .          1                        :RUN NUMBER
PDAT .        GROUND LEVEL               :Permanent Datum
EPD  .                                   :Elevation of Permanent Datum above Mean Sea Level
LMF  .          NA                       :Logging Measured From (Name of Logging Elevation Reference)
APD  .                                   :Elevation of Depth Reference (LMF) above Permanent Datum
#-----------------------------------------------------------------------------
~CURVE INFORMATION
#MNEM.UNIT   API CODE                                  DESCRIPTION
#---- -----  --------                                  -----------------------
TIME .S                                                :TIME {F10.1}
FREQ_EMF_SL.HZ                                         :Electromagnetic Field Frequency {F13.4}
PH_SH_WPPCM_SL.DEG                                     :WPPCM Phase Shift {F13.4}
RB_SL.DEG                                              :Relative Bearing {F13.4}
SDEV_SL.DEG                                            :Sonde Deviation {F13.4}
RTIX_SL.DEG                                            :Raw X-axis Tilt {F13.4}
RTIY_SL.DEG                                            :Raw Y-axis Tilt {F13.4}
TILX_SL.DEG                                            :X-axis Tilt {F13.4}
TILY_SL.DEG                                            :Y-axis Tilt {F13.4}
ROTA_SL.DEG                                            :Motor Rotation Angle {F13.4}
TOD7 .S                                                :Time of Day {I11}
TOJ  .S                                                :Time of Job {F13.4}
#-----------------------------------------------------------------------------
# 
#     TIME    FREQ_EMF_SL  PH_SH_WPPCM_    RB_SL       SDEV_SL      RTIX_SL      RTIY_SL      TILX_SL      TILY_SL      ROTA_SL        TOD7            TOJ
#                          SL
~A  
# ...
     318.0    1727.5798       0.0000      41.1921    -999.2500      49.4050     -60.3705      51.7134     -63.7480     163.0739 1533229158 9999999.9999
     319.0    1731.8351       0.0000      51.2167    -999.2500      70.8942     -47.1958      73.2026     -50.2870     169.1921 1533229159 9999999.9999
     320.0    1731.8351       0.0000      55.1277    -999.2500      79.6907     -40.6888      81.9991     -43.6387     175.2971 1533229160 9999999.9999
     321.0    1731.8351       0.0000      59.0109    -999.2500      86.8403     -34.1015      89.1487     -36.9082     181.8009 1533229161 9999999.9999
     322.0    1719.1321       0.0000      63.4157    -999.2500      92.0620     -27.2732      94.3704     -29.9315     187.9058 1533229162 9999999.9999
     323.0    1706.6141       0.0000      68.5460    -999.2500      96.8017     -20.3243      99.1101     -22.8317     194.0241 1533229163 9999999.9999
     324.0    1694.2772       0.0000      74.9977    -999.2500      98.9305     -12.8935     101.2389     -15.2394     200.1229 1533229164 9999999.9999
     325.0    1678.1025       0.0000      83.1126      80.1469      99.6937      -4.6192     102.0021      -6.7853     206.2217 1533229165 9999999.9999
     326.0    1650.5282       0.0000      91.9600      77.7090     100.1355       3.8962     102.4439       1.9150     212.3267 1533229166 9999999.9999
     327.0    1623.8453       0.0000     100.7391      84.9814      99.5330      12.4918     101.8414      10.6975     218.4317 1533229167 9999999.9999
     328.0    1605.3082       0.0000     107.7789    -999.2500      96.8820      20.0833      99.1904      18.4539     224.5180 1533229168 9999999.9999
     329.0    1569.4755       0.0000     113.8283    -999.2500      92.0218      27.5945      94.3302      26.1283     230.6305 1533229169 9999999.9999
     330.0    1548.7335       0.0000     119.0477    -999.2500      85.9567      35.0253      88.2651      33.7206     236.7485 1533229170 9999999.9999
     331.0    1515.3556       0.0000     123.7710    -999.2500      78.5258      42.4562      80.8342      41.3128     242.8535 1533229171 9999999.9999
     332.0    1486.5221       0.0000     128.2263    -999.2500      69.5285      49.4452      71.8369      48.4537     248.9523 1533229172 9999999.9999
     333.0    1452.7377       0.0000     136.4916    -999.2500      53.8233      61.7362      56.1317      61.0117     255.4632 1533229173 9999999.9999
     334.0    1420.4546       0.0000     141.2553    -999.2500      48.1598      74.4288      50.4682      73.9802     261.5690 1533229174 9999999.9999
     335.0    1395.0892       0.0000     145.1898    -999.2500      41.2913      82.9442      43.5997      82.6805     267.6676 1533229175 9999999.9999
     336.0    1365.2913       0.0000     149.1654    -999.2500      34.3425      90.1742      36.6509      90.0676     273.7549 1533229176 9999999.9999
     337.0    1336.7396       0.0000     153.9685    -999.2500      26.7108      96.6410      29.0192      96.6750     279.8597 1533229177 9999999.9999
     338.0    1316.7135       0.0000     159.6396    -999.2500      18.9988     101.5815      21.3072     101.7228     285.9644 1533229178 9999999.9999
     339.0    1291.3223       0.0000     166.7535      84.4604      10.8751     104.1421      13.1835     104.3391     292.0630 1533229179 9999999.9999
     340.0    1273.7772       0.0000     175.2127      75.6748       2.3297     104.8752       4.6381     105.0880     298.1616 1533229180 9999999.9999
     341.0    1248.8899       0.0000    -176.0322      75.2611      -6.1455     105.0358      -3.8371     105.2522     304.2664 1533229181 9999999.9999
     342.0    1235.7206       0.0000    -168.0561      83.6885     -14.1788     103.3087     -11.8704     103.4875     310.3711 1533229182 9999999.9999
     343.0    1229.2395       0.0000    -160.8525    -999.2500     -22.3728      98.7698     -20.0644      98.8501     316.4697 1533229183 9999999.9999
     344.0    1210.1979       0.0000    -154.7852    -999.2500     -30.3660      92.7448     -28.0576      92.6941     322.5814 1533229184 9999999.9999
     345.0    1199.8721       0.0000    -149.5343    -999.2500     -38.1985      85.4747     -35.8901      85.2660     328.6861 1533229185 9999999.9999
     346.0    1189.7208       0.0000    -144.9022    -999.2500     -45.5892      77.6823     -43.2808      77.3044     335.1958 1533229186 9999999.9999
     347.0    1181.7228       0.0000    -140.2253    -999.2500     -52.7790      68.4842     -50.4706      67.9063     341.2944 1533229187 9999999.9999
     348.0    1185.7083       0.0000    -131.9982    -999.2500     -66.6365      55.1087     -64.3281      54.2402     347.3868 1533229188 9999999.9999
     349.0    1179.7399       0.0000    -127.3999    -999.2500     -76.3167      48.3205     -74.0083      47.3046     353.4916 1533229189 9999999.9999
     350.0    1175.7943       0.0000    -123.1551    -999.2500     -84.4705      41.4922     -82.1621      40.3279     359.5963 1533229190 9999999.9999
     351.0    1180.7305       0.0000    -118.3302    -999.2500     -91.8210      33.9509     -89.5126      32.6228       5.6889 1533229191 9999999.9999
     352.0    1189.7208       0.0000    -112.6790    -999.2500     -98.0468      26.0682     -95.7384      24.5688      11.7938 1533229192 9999999.9999
     353.0    1193.7606       0.0000    -106.0843    -999.2500    -102.5455      18.1553    -100.2371      16.4840      17.9117 1533229193 9999999.9999
     354.0    1203.9811       0.0000     -98.6597      81.4807    -104.4333      10.4032    -102.1249       8.5634      24.0105 1533229194 9999999.9999
     355.0    1210.1979       0.0000     -90.0699      77.6744    -104.6342       2.0887    -102.3258       0.0683      30.1154 1533229195 9999999.9999
     356.0    1227.0942       0.0000     -81.5197      81.4722    -104.3128      -6.1857    -102.0044      -8.3858      36.2149 1533229196 9999999.9999
     357.0    1240.0793       0.0000     -73.9200     100.0781    -102.7062     -14.0985    -100.3978     -16.4706      42.3198 1533229197 9999999.9999
     358.0    1257.8265       0.0000     -67.5540    -999.2500     -98.9305     -21.6900     -96.6221     -24.2270      48.8235 1533229198 9999999.9999
     359.0    1273.7772       0.0000     -62.0858    -999.2500     -93.5080     -29.2815     -91.1996     -31.9835      54.9283 1533229199 9999999.9999
     360.0    1294.8895       0.0000     -57.4445    -999.2500     -86.7600     -36.5918     -84.4516     -39.4526      61.0332 1533229200 9999999.9999
     361.0    1324.1526       0.0000     -53.3970    -999.2500     -79.2488     -43.3398     -76.9404     -46.3473      67.1319 1533229201 9999999.9999
     362.0    1349.5681       0.0000     -49.0704    -999.2500     -69.8900     -50.1280     -67.5816     -53.2829      73.2306 1533229202 9999999.9999
     363.0    1375.9785       0.0000     -40.3624    -999.2500     -54.4258     -64.7487     -52.1174     -68.2213      79.3486 1533229203 9999999.9999
     364.0    1406.2500       0.0000     -35.2967    -999.2500     -46.5933     -76.7585     -44.2849     -80.4920      85.4534 1533229204 9999999.9999
     365.0    1434.9490       0.0000     -31.2437    -999.2500     -39.6445     -84.7115     -37.3361     -88.6178      91.5521 1533229205 9999999.9999
     366.0    1464.8438       0.0000     -26.8394    -999.2500     -32.5752     -91.0177     -30.2668     -95.0610      97.6508 1533229206 9999999.9999
     367.0    1496.0106       0.0000     -21.7920    -999.2500     -25.5058     -95.7172     -23.1974     -99.8626     103.7557 1533229207 9999999.9999
     368.0    1528.5327       0.0000     -15.8112    -999.2500     -18.3562     -98.3280     -16.0478    -102.5302     109.8613 1533229208 9999999.9999
     369.0    1565.9799       0.0000      -8.5133      79.7308     -10.6843     -99.0912      -8.3759    -103.3099     115.9731 1533229209 9999999.9999
     370.0    1590.7806       0.0000       0.1020      76.6084      -2.2092     -99.1715       0.0992    -103.3920     122.4829 1533229210 9999999.9999
