~VERSION INFORMATION
VERS.           2.0   :CWLS Log ASCII Standard - VERSION 2.0
WRAP.           NO    :One Line per depth step
PROD.  Schlumberger   :LAS Producer
PROG.  DLIS to ASCII 19C2-270                          :LAS Program name and version
CREA.        2018/08/03 10:59                          :LAS Creation date {YYYY/MM/DD hh:mm}
DLIS_CREA.  2018-Aug-03 09:35                          :DLIS Creation date and time {YYYY-MMM-DD hh:mm}
SOURCE.     PERFO_Perfo_079PTP.DLIS                    :DLIS File Name
FILE-ID.     PERFO_Perfo_079PTP                        :File Identification Number
#--------------------------------------------------
~WELL INFORMATION
#MNEM.UNIT      DATA             DESCRIPTION
#---- ------ --------------   -----------------------------
STRT .S            0.0       :START TIME      
STOP .S          455.0       :STOP TIME      
STEP .S            1.0       :STEP     
NULL .          -999.25      :NULL VALUE
COMP .        SHELL INTERNATIONAL EP                   :COMPANY
WELL .        WPP TEST 4                               :WELL
FLD  .        WILDCAT                                  :FIELD
LOC  .        NA                                       :LOCATION
CNTY .        HARRIS                                   :COUNTY
STAT .        TEXAS                                    :STATE
CTRY .                                                 :COUNTRY
API  .        NA                                       :API NUMBER
UWI  .                                                 :UNIQUE WELL ID
DATE .        02-Aug-2018                              :LOG DATE {DD-MMM-YYYY}
SRVC .        Schlumberger                             :SERVICE COMPANY
LATI .DEG                                              :LATITUDE
LONG .DEG                                              :LONGITUDE
GDAT .                                                 :GeoDetic Datum
SECT .        NA                                       :Section
RANG .        NA                                       :Range
TOWN .        NA                                       :Township
#-----------------------------------------------------------------------------
~PARAMETER INFORMATION
#MNEM.UNIT    VALUE                      DESCRIPTION
#---- -----   --------------------       ------------------------
U-PHASE_B_COMP_PER_YT.                 0 :Phase B Comparator Period Yt
U-PHASE_A_COMP_PER_XT.                 0 :Phase A Comparator Period Xt
U-MAX_EXC_CUR_LIMIT.MA       265.00000   :Requested CM Current Limit
U-REQ_EXC_FQ.HZ              50          :Requested CM Frequency
U-TILT_Y_OFFSET.          -2.06578       :WPTET Tilt Y Offset
U-TILT_Y_GAIN.           1.02173         :WPTET Tilt Y Gain
U-TILT_X_OFFSET.           2.30841       :WPTET Tilt X Offset
U-TILT_X_GAIN.           1.00000         :WPTET Tilt X Gain
U-TILT_OFFSET_TOL.           0.00100     :WPTET Tilt Offset Calibration Tolerance
U-MOT_CUR_LIMIT_REQ.MA        70.00000   :Requested Motor Current Limit
U-MOT_SPD_REQ_WPMS.RPM        1.00000    :Requested Motor Speed
U-STD_TOL_TILT.           0.01000        :Tilt Standard Deviation Tolerance
CWEI .LB/F      29.00000                 :Casing Weight
CSIZ .IN         7.00000                 :Current Casing Size
LCC  .               440                 :Logging Company Code
LUN  .              2134                 :Logging Unit Number
HIDE .                                   :Header Identifier
HID1 .                                   :Header Identifier Line 1
R1   .                                   :Remark Line 1
WITN .        MR. KELLY McCOY            :Witness's Name
ENGI .        MORRIS MOORE               :Engineer's Name
LUL  .        IOWA COLONY                :Logging Unit Location
DATE .        02-Aug-2018                :Date as Month-Day-Year
STAT .        TEXAS                      :State or Province
COUN .        HARRIS                     :County or Rig Name
FN   .        WILDCAT                    :Field Name
WN   .        WPP TEST 4                 :Well Name
CN   .        SHELL INTERNATIONAL EP     :Company Name
CLAB .        County                     :County/Rig Label
SLAB .        State                      :State/Province Label
RUN  .          1                        :RUN NUMBER
PDAT .        GROUND LEVEL               :Permanent Datum
EPD  .                                   :Elevation of Permanent Datum above Mean Sea Level
LMF  .          NA                       :Logging Measured From (Name of Logging Elevation Reference)
APD  .                                   :Elevation of Depth Reference (LMF) above Permanent Datum
#-----------------------------------------------------------------------------
~CURVE INFORMATION
#MNEM.UNIT   API CODE                                  DESCRIPTION
#---- -----  --------                                  -----------------------
TIME .S                                                :TIME {F10.1}
FREQ_EMF_SL.HZ                                         :Electromagnetic Field Frequency {F13.4}
PH_SH_WPPCM_SL.DEG                                     :WPPCM Phase Shift {F13.4}
RB_SL.DEG                                              :Relative Bearing {F13.4}
SDEV_SL.DEG                                            :Sonde Deviation {F13.4}
RTIX_SL.DEG                                            :Raw X-axis Tilt {F13.4}
RTIY_SL.DEG                                            :Raw Y-axis Tilt {F13.4}
TILX_SL.DEG                                            :X-axis Tilt {F13.4}
TILY_SL.DEG                                            :Y-axis Tilt {F13.4}
ROTA_SL.DEG                                            :Motor Rotation Angle {F13.4}
TOD7 .S                                                :Time of Day {I11}
TOJ  .S                                                :Time of Job {F13.4}
#-----------------------------------------------------------------------------
# 
#     TIME    FREQ_EMF_SL  PH_SH_WPPCM_    RB_SL       SDEV_SL      RTIX_SL      RTIY_SL      TILX_SL      TILY_SL      ROTA_SL        TOD7            TOJ
#                          SL
~A  
# ...
     424.0     580.6152       0.0000     -38.5551    -999.2500     -52.4577     -70.8138     -50.1493     -74.4182      91.6536 1533244513 9999999.9999
     425.0     605.6202       0.0000     -34.5116    -999.2500     -45.4687     -80.3735     -43.1603     -84.1856      97.7523 1533244514 9999999.9999
     426.0     640.3688       0.0000     -30.3480    -999.2500     -38.1182     -88.0855     -35.8098     -92.0651     103.8571 1533244515 9999999.9999
     427.0     685.9756       0.0000     -25.4647    -999.2500     -30.4062     -94.3917     -28.0978     -98.5083     109.9620 1533244516 9999999.9999
     428.0     729.3828       0.0000     -20.0401    -999.2500     -23.1360     -98.6895     -20.8276    -102.8995     116.0607 1533244517 9999999.9999
     429.0     786.4933       0.0000     -13.5670      83.4618     -15.7855    -100.7782     -13.4771    -105.0336     122.1594 1533244518 9999999.9999
     430.0     849.1848       0.0000      -5.4545      75.6172      -7.5915    -101.0995      -5.2831    -105.3619     128.2643 1533244519 9999999.9999
     431.0     913.1494       0.0000       3.4280      75.1008       1.0042    -101.0192       3.3126    -105.2798     134.3692 1533244520 9999999.9999
     432.0     980.6486       0.0000      11.5645      81.1925       9.1178    -100.2560      11.4262    -104.5001     140.4681 1533244521 9999999.9999
     433.0    1057.3308       0.0000      18.2875      84.3477      16.5487     -97.8460      18.8571    -102.0377     146.9913 1533244522 9999999.9999
     434.0    1143.2927       0.0000      23.9280    -999.2500      23.7787     -93.5883      26.0871     -97.6875     153.0962 1533244523 9999999.9999
     435.0    1309.3575       0.0000      28.6881    -999.2500      30.8480     -87.8847      33.1564     -91.8599     159.1951 1533244524 9999999.9999
     436.0    1458.7655       0.0000      32.7529    -999.2500      37.5558     -81.2973      39.8642     -85.1295     165.2812 1533244525 9999999.9999
     437.0    1590.7806       0.0000      36.8629    -999.2500      44.5047     -72.8623      46.8131     -76.5112     171.3862 1533244526 9999999.9999
     438.0    1731.8351       0.0000      41.4925    -999.2500      51.0920     -61.7763      53.4004     -65.1843     177.4912 1533244527 9999999.9999
     439.0    1849.1124       0.0000      50.9217    -999.2500      72.2096     -48.3807      74.5180     -51.4977     183.5900 1533244528 9999999.9999
     440.0    1953.1250       0.0000      54.9157    -999.2500      81.5383     -41.3315      83.8467     -44.2953     189.2716 1533244529 9999999.9999
     441.0    2055.9211       0.0000      58.7929    -999.2500      88.8085     -34.4630      91.1169     -37.2776     195.3766 1533244530 9999999.9999
     442.0    2156.8252       0.0000      63.2466    -999.2500      94.8335     -27.3535      97.1419     -30.0136     201.4815 1533244531 9999999.9999
     443.0    2225.0791       0.0000      68.4824    -999.2500      98.9305     -20.2440     101.2389     -22.7496     207.5804 1533244532 9999999.9999
     444.0    2297.7942       0.0000      75.0022    -999.2500     100.9388     -12.7730     103.2472     -15.1163     213.6792 1533244533 9999999.9999
     445.0    2359.4797       0.0000      83.2275      77.8908     101.5413      -4.4585     103.8497      -6.6212     219.7841 1533244534 9999999.9999
     446.0    2407.9622       0.0000      92.2279      75.9609     101.9028       4.1372     104.2112       2.1613     226.2941 1533244535 9999999.9999
     447.0    2449.9128       0.0000     100.6539      81.4187     101.3405      12.3312     103.6489      10.5333     232.3929 1533244536 9999999.9999
     448.0    2467.1052       0.0000     107.8658      84.3019      98.5690      20.0833     100.8774      18.4539     238.4979 1533244537 9999999.9999
     449.0    2475.7922       0.0000     114.2162    -999.2500      93.5080      28.0363      95.8164      26.5797     244.6028 1533244538 9999999.9999
     450.0    2484.5405       0.0000     119.4005    -999.2500      87.1215      35.5877      89.4299      34.2951     250.7017 1533244539 9999999.9999
     451.0    2473.6147       0.0000     124.1291    -999.2500      79.2589      43.2294      81.5673      42.1028     256.8005 1533244540 9999999.9999
     452.0    2484.5405       0.0000     128.7168    -999.2500      69.9302      50.7305      72.2386      49.7670     262.9052 1533244541 9999999.9999
     453.0    2484.5405       0.0000     136.3336    -999.2500      55.4300      63.0617      57.7384      62.3660     269.0099 1533244542 9999999.9999
     454.0    2467.1052       0.0000     141.1057    -999.2500      48.8025      75.1920      51.1109      74.7599     275.1086 1533244543 9999999.9999
     455.0    2484.5405       0.0000     144.8800    -999.2500      42.0143      83.6672      44.3227      83.4192     281.2072 1533244544 9999999.9999
