~VERSION INFORMATION
VERS.           2.0   :CWLS Log ASCII Standard - VERSION 2.0
WRAP.           NO    :One Line per depth step
PROD.  Schlumberger   :LAS Producer
PROG.  DLIS to ASCII 19C2-270                          :LAS Program name and version
CREA.        2018/08/03 10:59                          :LAS Creation date {YYYY/MM/DD hh:mm}
DLIS_CREA.  2018-Aug-03 08:58                          :DLIS Creation date and time {YYYY-MMM-DD hh:mm}
SOURCE.     PERFO_Perfo_064PTP.DLIS                    :DLIS File Name
FILE-ID.     PERFO_Perfo_064PTP                        :File Identification Number
#--------------------------------------------------
~WELL INFORMATION
#MNEM.UNIT      DATA             DESCRIPTION
#---- ------ --------------   -----------------------------
STRT .S            0.0       :START TIME      
STOP .S          966.0       :STOP TIME      
STEP .S            1.0       :STEP     
NULL .          -999.25      :NULL VALUE
COMP .        SHELL INTERNATIONAL EP                   :COMPANY
WELL .        WPP TEST 4                               :WELL
FLD  .        WILDCAT                                  :FIELD
LOC  .        NA                                       :LOCATION
CNTY .        HARRIS                                   :COUNTY
STAT .        TEXAS                                    :STATE
CTRY .                                                 :COUNTRY
API  .        NA                                       :API NUMBER
UWI  .                                                 :UNIQUE WELL ID
DATE .        02-Aug-2018                              :LOG DATE {DD-MMM-YYYY}
SRVC .        Schlumberger                             :SERVICE COMPANY
LATI .DEG                                              :LATITUDE
LONG .DEG                                              :LONGITUDE
GDAT .                                                 :GeoDetic Datum
SECT .        NA                                       :Section
RANG .        NA                                       :Range
TOWN .        NA                                       :Township
#-----------------------------------------------------------------------------
~PARAMETER INFORMATION
#MNEM.UNIT    VALUE                      DESCRIPTION
#---- -----   --------------------       ------------------------
U-PHASE_B_COMP_PER_YT.                 0 :Phase B Comparator Period Yt
U-PHASE_A_COMP_PER_XT.                 0 :Phase A Comparator Period Xt
U-MAX_EXC_CUR_LIMIT.MA       265.00000   :Requested CM Current Limit
U-REQ_EXC_FQ.HZ              50          :Requested CM Frequency
U-TILT_Y_OFFSET.          -2.06578       :WPTET Tilt Y Offset
U-TILT_Y_GAIN.           1.02173         :WPTET Tilt Y Gain
U-TILT_X_OFFSET.           2.30841       :WPTET Tilt X Offset
U-TILT_X_GAIN.           1.00000         :WPTET Tilt X Gain
U-TILT_OFFSET_TOL.           0.00100     :WPTET Tilt Offset Calibration Tolerance
U-MOT_CUR_LIMIT_REQ.MA        70.00000   :Requested Motor Current Limit
U-MOT_SPD_REQ_WPMS.RPM        1.00000    :Requested Motor Speed
U-STD_TOL_TILT.           0.01000        :Tilt Standard Deviation Tolerance
CWEI .LB/F      29.00000                 :Casing Weight
CSIZ .IN         7.00000                 :Current Casing Size
LCC  .               440                 :Logging Company Code
LUN  .              2134                 :Logging Unit Number
HIDE .                                   :Header Identifier
HID1 .                                   :Header Identifier Line 1
R1   .                                   :Remark Line 1
WITN .        MR. KELLY McCOY            :Witness's Name
ENGI .        MORRIS MOORE               :Engineer's Name
LUL  .        IOWA COLONY                :Logging Unit Location
DATE .        02-Aug-2018                :Date as Month-Day-Year
STAT .        TEXAS                      :State or Province
COUN .        HARRIS                     :County or Rig Name
FN   .        WILDCAT                    :Field Name
WN   .        WPP TEST 4                 :Well Name
CN   .        SHELL INTERNATIONAL EP     :Company Name
CLAB .        County                     :County/Rig Label
SLAB .        State                      :State/Province Label
RUN  .          1                        :RUN NUMBER
PDAT .        GROUND LEVEL               :Permanent Datum
EPD  .                                   :Elevation of Permanent Datum above Mean Sea Level
LMF  .          NA                       :Logging Measured From (Name of Logging Elevation Reference)
APD  .                                   :Elevation of Depth Reference (LMF) above Permanent Datum
#-----------------------------------------------------------------------------
~CURVE INFORMATION
#MNEM.UNIT   API CODE                                  DESCRIPTION
#---- -----  --------                                  -----------------------
TIME .S                                                :TIME {F10.1}
FREQ_EMF_SL.HZ                                         :Electromagnetic Field Frequency {F13.4}
PH_SH_WPPCM_SL.DEG                                     :WPPCM Phase Shift {F13.4}
RB_SL.DEG                                              :Relative Bearing {F13.4}
SDEV_SL.DEG                                            :Sonde Deviation {F13.4}
RTIX_SL.DEG                                            :Raw X-axis Tilt {F13.4}
RTIY_SL.DEG                                            :Raw Y-axis Tilt {F13.4}
TILX_SL.DEG                                            :X-axis Tilt {F13.4}
TILY_SL.DEG                                            :Y-axis Tilt {F13.4}
ROTA_SL.DEG                                            :Motor Rotation Angle {F13.4}
TOD7 .S                                                :Time of Day {I11}
TOJ  .S                                                :Time of Job {F13.4}
#-----------------------------------------------------------------------------
# 
#     TIME    FREQ_EMF_SL  PH_SH_WPPCM_    RB_SL       SDEV_SL      RTIX_SL      RTIY_SL      TILX_SL      TILY_SL      ROTA_SL        TOD7            TOJ
#                          SL
~A  
# ...
     265.0    1714.9390       0.0000     -26.6399    -999.2500     -32.2538     -91.6202     -29.9454     -95.6766     311.5604 1533232268 9999999.9999
     266.0    1802.8846       0.0000     -21.5251    -999.2500     -25.1443     -96.1188     -22.8359    -100.2730     317.6590 1533232269 9999999.9999
     267.0    1875.0000       0.0000     -15.3525    -999.2500     -17.8340     -98.6493     -15.5256    -102.8585     323.7576 1533232270 9999999.9999
     268.0    1969.5378       0.0000      -7.9235      78.8639     -10.0818     -99.4125      -7.7734    -103.6382     329.8562 1533232271 9999999.9999
     269.0    2086.4243       0.0000       0.8046      76.4262      -1.5263     -99.3723       0.7821    -103.5972     335.9671 1533232272 9999999.9999
     270.0    2282.8735       0.0000       9.8043      81.6393       7.3907     -98.6493       9.6991    -102.8585     342.0657 1533232273 9999999.9999
     271.0    2432.9585       0.0000      16.6352      84.1374      14.7412     -96.9222      17.0496    -101.0938     348.1643 1533232274 9999999.9999
     272.0    2475.7922       0.0000      22.4190    -999.2500      21.8507     -93.1465      24.1591     -97.2361     354.2690 1533232275 9999999.9999
     273.0    2493.3511       0.0000      27.1170    -999.2500      28.4782     -87.8445      30.7866     -91.8189       0.3738 1533232276 9999999.9999
     274.0    2484.5405       0.0000      31.3924    -999.2500      35.1458     -81.4178      37.4542     -85.2526       6.4603 1533232277 9999999.9999
     275.0    2493.3511       0.0000      35.4774    -999.2500      41.7733     -73.7862      44.0817     -77.4551      12.5590 1533232278 9999999.9999
     276.0    2493.3511       0.0000      39.9418    -999.2500      48.2803     -63.8650      50.5887     -67.3184      19.0688 1533232279 9999999.9999
     277.0    2484.5405       0.0000      50.3604    -999.2500      68.9662     -48.5615      71.2746     -51.6824      25.1747 1533232280 9999999.9999
     278.0    2493.3511       0.0000      54.1344    -999.2500      77.9635     -42.4562      80.2719     -45.4444      31.2671 1533232281 9999999.9999
     279.0    2475.7922       0.0000      57.9721    -999.2500      85.0328     -35.8287      87.3412     -38.6729      37.3597 1533232282 9999999.9999
     280.0    2484.5405       0.0000      62.1943    -999.2500      91.7808     -29.0405      94.0892     -31.7372      43.4708 1533232283 9999999.9999
     281.0    2475.7922       0.0000      67.1695    -999.2500      96.3197     -22.0515      98.6281     -24.5964      49.5695 1533232284 9999999.9999
     282.0    2449.9128       0.0000      73.5123    -999.2500      98.8502     -14.5002     101.1586     -16.8810      55.6682 1533232285 9999999.9999
     283.0    2290.3093       0.0000      81.1902      81.5810      99.8543      -6.5070     102.1627      -8.7142      61.7608 1533232286 9999999.9999
     284.0    2124.2446       0.0000      90.1961      77.4371     100.2560       2.2092     102.5644       0.1914      67.8789 1533232287 9999999.9999
     285.0    1997.5142       0.0000      98.7553      80.9530     100.2560      10.4835     102.5644       8.6455      73.9777 1533232288 9999999.9999
     286.0    1915.8719       0.0000     105.9791     101.3438      98.0468      18.0348     100.3552      16.3609      80.0764 1533232289 9999999.9999
     287.0    1840.6414       0.0000     112.4068    -999.2500      93.8695      25.7067      96.1779      24.1994      86.1812 1533232290 9999999.9999
     288.0    1766.6456       0.0000     117.6725    -999.2500      87.9248      32.9768      90.2332      31.6275      92.6786 1533232291 9999999.9999
     289.0    1690.2042       0.0000     122.4422    -999.2500      80.8957      40.3273      83.2041      39.1378      98.7773 1533232292 9999999.9999
     290.0    1612.6721       0.0000     127.0608    -999.2500      72.3000      47.7582      74.6084      46.7300     104.8893 1533232293 9999999.9999
     291.0    1538.5668       0.0000     131.8615    -999.2500      61.4148      54.3455      63.7232      53.4605     110.9880 1533232294 9999999.9999
     292.0    1455.7454       0.0000     140.1506    -999.2500      50.0075      71.9787      52.3159      71.4768     117.0867 1533232295 9999999.9999
     293.0    1378.6765       0.0000     143.9716    -999.2500      43.5407      80.8957      45.8491      80.5875     123.1854 1533232296 9999999.9999
     294.0    1306.9238       0.0000     148.2514    -999.2500      35.9090      88.9290      38.2174      88.7954     129.2778 1533232297 9999999.9999
     295.0    1253.3423       0.0000     152.7524    -999.2500      28.5183      95.6770      30.8267      95.6900     135.3959 1533232298 9999999.9999
     296.0    1195.7908       0.0000     158.2712    -999.2500      20.7260     100.8183      23.0344     100.9431     141.4947 1533232299 9999999.9999
     297.0    1148.8971       0.0000     164.8706      85.0457      12.8935     103.9112      15.2019     104.1031     147.5935 1533232300 9999999.9999
     298.0    1109.0300       0.0000     172.7968      76.6604       4.6995     104.9153       7.0079     105.1291     153.7116 1533232301 9999999.9999
     299.0    1078.4126       0.0000    -178.5612      74.5669      -3.6953     105.2768      -1.3869     105.4984     159.8042 1533232302 9999999.9999
     300.0    1046.3170       0.0000    -170.4799      78.8852     -11.6483     104.3932      -9.3399     104.5956     166.3211 1533232303 9999999.9999
     301.0    1014.6104       0.0000    -162.9880      99.2102     -19.8022     100.6175     -17.4938     100.7379     172.4261 1533232304 9999999.9999
     302.0     991.7137       0.0000    -156.4827    -999.2500     -27.9962      95.0745     -25.6878      95.0744     178.5310 1533232305 9999999.9999
     303.0     971.1672       0.0000    -151.0259    -999.2500     -35.9090      88.2060     -33.6006      88.0567     184.6299 1533232306 9999999.9999
     304.0     957.9360       0.0000    -146.3023    -999.2500     -43.3800      80.4538     -41.0716      80.1361     190.7287 1533232307 9999999.9999
     305.0     946.3324       0.0000    -141.7167    -999.2500     -50.6502      71.6975     -48.3418      71.1895     196.8336 1533232308 9999999.9999
     306.0     939.3788       0.0000    -134.3826    -999.2500     -61.1839      57.7195     -58.8755      56.9078     202.9517 1533232309 9999999.9999
     307.0     938.7516       0.0000    -128.4740    -999.2500     -74.3485      50.0878     -72.0401      49.1103     209.0505 1533232310 9999999.9999
     308.0     943.7920       0.0000    -124.2314    -999.2500     -82.7032      43.2595     -80.3948      42.1336     215.1493 1533232311 9999999.9999
     309.0     948.8867       0.0000    -119.6745    -999.2500     -90.0537      35.9893     -87.7453      34.7055     221.2543 1533232312 9999999.9999
     310.0     959.2429       0.0000    -114.4698    -999.2500     -96.5607      28.4380     -94.2523      26.9901     227.3725 1533232313 9999999.9999
     311.0     977.9207       0.0000    -108.1393    -999.2500    -101.5815      20.4850     -99.2731      18.8643     233.4844 1533232314 9999999.9999
     312.0    1004.4643       0.0000    -100.9442      85.0370    -104.3128      12.6927    -102.0044      10.9027     239.5833 1533232315 9999999.9999
     313.0    1027.9606       0.0000     -92.6317      77.7486    -104.8350       4.5388    -102.5266       2.5717     246.0993 1533232316 9999999.9999
     314.0    1058.9232       0.0000     -84.0085      79.0708    -104.7547      -3.7355    -102.4463      -5.8824     252.2112 1533232317 9999999.9999
     315.0    1095.2103       0.0000     -75.9781      90.2313    -103.6702     -11.8492    -101.3618     -14.1724     258.3099 1533232318 9999999.9999
     316.0    1132.2463       0.0000     -69.2554    -999.2500    -100.6175     -19.5210     -98.3091     -22.0109     264.4024 1533232319 9999999.9999
     317.0    1183.7122       0.0000     -63.5616    -999.2500     -95.4762     -27.1125     -93.1678     -29.7674     270.5071 1533232320 9999999.9999
