~VERSION INFORMATION
VERS.           2.0   :CWLS Log ASCII Standard - VERSION 2.0
WRAP.           NO    :One Line per depth step
PROD.  Schlumberger   :LAS Producer
PROG.  DLIS to ASCII 19C2-270                          :LAS Program name and version
CREA.        2018/08/03 10:59                          :LAS Creation date {YYYY/MM/DD hh:mm}
DLIS_CREA.  2018-Aug-03 09:54                          :DLIS Creation date and time {YYYY-MMM-DD hh:mm}
SOURCE.     PERFO_Perfo_091PTP.DLIS                    :DLIS File Name
FILE-ID.     PERFO_Perfo_091PTP                        :File Identification Number
#--------------------------------------------------
~WELL INFORMATION
#MNEM.UNIT      DATA             DESCRIPTION
#---- ------ --------------   -----------------------------
STRT .S            0.0       :START TIME      
STOP .S          220.0       :STOP TIME      
STEP .S            1.0       :STEP     
NULL .          -999.25      :NULL VALUE
COMP .        SHELL INTERNATIONAL EP                   :COMPANY
WELL .        WPP TEST 4                               :WELL
FLD  .        WILDCAT                                  :FIELD
LOC  .        NA                                       :LOCATION
CNTY .        HARRIS                                   :COUNTY
STAT .        TEXAS                                    :STATE
CTRY .                                                 :COUNTRY
API  .        NA                                       :API NUMBER
UWI  .                                                 :UNIQUE WELL ID
DATE .        02-Aug-2018                              :LOG DATE {DD-MMM-YYYY}
SRVC .        Schlumberger                             :SERVICE COMPANY
LATI .DEG                                              :LATITUDE
LONG .DEG                                              :LONGITUDE
GDAT .                                                 :GeoDetic Datum
SECT .        NA                                       :Section
RANG .        NA                                       :Range
TOWN .        NA                                       :Township
#-----------------------------------------------------------------------------
~PARAMETER INFORMATION
#MNEM.UNIT    VALUE                      DESCRIPTION
#---- -----   --------------------       ------------------------
U-PHASE_B_COMP_PER_YT.                 0 :Phase B Comparator Period Yt
U-PHASE_A_COMP_PER_XT.                 0 :Phase A Comparator Period Xt
U-MAX_EXC_CUR_LIMIT.MA       265.00000   :Requested CM Current Limit
U-REQ_EXC_FQ.HZ              50          :Requested CM Frequency
U-TILT_Y_OFFSET.          -2.06578       :WPTET Tilt Y Offset
U-TILT_Y_GAIN.           1.02173         :WPTET Tilt Y Gain
U-TILT_X_OFFSET.           2.30841       :WPTET Tilt X Offset
U-TILT_X_GAIN.           1.00000         :WPTET Tilt X Gain
U-TILT_OFFSET_TOL.           0.00100     :WPTET Tilt Offset Calibration Tolerance
U-MOT_CUR_LIMIT_REQ.MA        70.00000   :Requested Motor Current Limit
U-MOT_SPD_REQ_WPMS.RPM        1.00000    :Requested Motor Speed
U-STD_TOL_TILT.           0.01000        :Tilt Standard Deviation Tolerance
CWEI .LB/F      29.00000                 :Casing Weight
CSIZ .IN         7.00000                 :Current Casing Size
LCC  .               440                 :Logging Company Code
LUN  .              2134                 :Logging Unit Number
HIDE .                                   :Header Identifier
HID1 .                                   :Header Identifier Line 1
R1   .                                   :Remark Line 1
WITN .        MR. KELLY McCOY            :Witness's Name
ENGI .        MORRIS MOORE               :Engineer's Name
LUL  .        IOWA COLONY                :Logging Unit Location
DATE .        02-Aug-2018                :Date as Month-Day-Year
STAT .        TEXAS                      :State or Province
COUN .        HARRIS                     :County or Rig Name
FN   .        WILDCAT                    :Field Name
WN   .        WPP TEST 4                 :Well Name
CN   .        SHELL INTERNATIONAL EP     :Company Name
CLAB .        County                     :County/Rig Label
SLAB .        State                      :State/Province Label
RUN  .          1                        :RUN NUMBER
PDAT .        GROUND LEVEL               :Permanent Datum
EPD  .                                   :Elevation of Permanent Datum above Mean Sea Level
LMF  .          NA                       :Logging Measured From (Name of Logging Elevation Reference)
APD  .                                   :Elevation of Depth Reference (LMF) above Permanent Datum
#-----------------------------------------------------------------------------
~CURVE INFORMATION
#MNEM.UNIT   API CODE                                  DESCRIPTION
#---- -----  --------                                  -----------------------
TIME .S                                                :TIME {F10.1}
FREQ_EMF_SL.HZ                                         :Electromagnetic Field Frequency {F13.4}
PH_SH_WPPCM_SL.DEG                                     :WPPCM Phase Shift {F13.4}
RB_SL.DEG                                              :Relative Bearing {F13.4}
SDEV_SL.DEG                                            :Sonde Deviation {F13.4}
RTIX_SL.DEG                                            :Raw X-axis Tilt {F13.4}
RTIY_SL.DEG                                            :Raw Y-axis Tilt {F13.4}
TILX_SL.DEG                                            :X-axis Tilt {F13.4}
TILY_SL.DEG                                            :Y-axis Tilt {F13.4}
ROTA_SL.DEG                                            :Motor Rotation Angle {F13.4}
TOD7 .S                                                :Time of Day {I11}
TOJ  .S                                                :Time of Job {F13.4}
#-----------------------------------------------------------------------------
# 
#     TIME    FREQ_EMF_SL  PH_SH_WPPCM_    RB_SL       SDEV_SL      RTIX_SL      RTIY_SL      TILX_SL      TILY_SL      ROTA_SL        TOD7            TOJ
#                          SL
~A  
# ...
      53.0    1150.7773       0.0000     152.9111    -999.2500      28.1970      97.0025      30.5054      97.0443     334.4836 1533251633 9999999.9999
      54.0    1091.8090       0.0000     158.5293    -999.2500      20.2842     102.2242      22.5926     102.3794     340.5822 1533251634 9999999.9999
      55.0    1023.4716       0.0000     165.7388      83.1606      11.8492     105.5580      14.1576     105.7857     346.6747 1533251635 9999999.9999
      56.0     972.5104       0.0000     173.9759      74.4518       3.4945     106.4015       5.8029     106.6475     352.7794 1533251636 9999999.9999
      57.0     933.7650       0.0000    -177.3377      73.4360      -4.8602     106.5220      -2.5518     106.7706     358.8780 1533251637 9999999.9999
      58.0     894.5611       0.0000    -169.1762      79.0724     -12.9337     105.1162     -10.6253     105.3343       4.9643 1533251638 9999999.9999
      59.0     850.2117       0.0000    -161.7370      82.0244     -21.2080     100.8987     -18.8996     101.0251      11.0444 1533251639 9999999.9999
      60.0     828.1802       0.0000    -155.3166    -999.2500     -29.5627      94.8737     -27.2543      94.8692      17.1493 1533251640 9999999.9999
      61.0     809.1197       0.0000    -150.1114    -999.2500     -37.3550      87.7240     -35.0466      87.5642      23.6661 1533251641 9999999.9999
      62.0     800.8257       0.0000    -145.4767    -999.2500     -44.9063      80.0522     -42.5979      79.7257      29.7585 1533251642 9999999.9999
      63.0     795.3903       0.0000    -141.1501    -999.2500     -51.8552      71.3762     -49.5468      70.8612      35.8634 1533251643 9999999.9999
      64.0     800.8257       0.0000    -133.6867    -999.2500     -63.2625      57.4383     -60.9541      56.6205      41.9627 1533251644 9999999.9999
      65.0     796.2910       0.0000    -128.7354    -999.2500     -74.4288      50.7305     -72.1204      49.7670      48.0614 1533251645 9999999.9999
      66.0     799.9147       0.0000    -124.6359    -999.2500     -82.8638      44.0628     -80.5554      42.9544      54.1663 1533251646 9999999.9999
      67.0     808.1896       0.0000    -119.9568    -999.2500     -90.6762      36.4512     -88.3678      35.1775      60.2712 1533251647 9999999.9999
      68.0     816.6376       0.0000    -114.6448    -999.2500     -97.3238      28.6388     -95.0154      27.1953      66.3830 1533251648 9999999.9999
      69.0     832.1006       0.0000    -108.2995    -999.2500    -102.6258      20.6055    -100.3174      18.9874      72.4817 1533251649 9999999.9999
      70.0     870.2042       0.0000    -101.0815      82.4721    -105.6785      12.7730    -103.3701      10.9847      78.5741 1533251650 9999999.9999
      71.0     902.5995       0.0000     -92.8154      76.3495    -106.2408       4.6995    -103.9324       2.7358      84.6799 1533251651 9999999.9999
      72.0     940.0067       0.0000     -84.0159      77.4843    -106.1605      -3.6953    -103.8521      -5.8414      90.7786 1533251652 9999999.9999
      73.0     983.3916       0.0000     -75.9073      89.5216    -105.0760     -11.8492    -102.7676     -14.1724      96.8774 1533251653 9999999.9999
      74.0    1034.0073       0.0000     -69.0961    -999.2500    -101.7422     -19.6415     -99.4338     -22.1340     103.3933 1533251654 9999999.9999
      75.0    1100.3522       0.0000     -63.2226    -999.2500     -96.4803     -27.5543     -94.1719     -30.2188     109.4920 1533251655 9999999.9999
      76.0    1158.3608       0.0000     -58.3255    -999.2500     -89.8930     -35.2262     -87.5846     -38.0573     115.5907 1533251656 9999999.9999
      77.0    1237.8961       0.0000     -54.1154    -999.2500     -82.5827     -42.4963     -80.2743     -45.4854     121.7148 1533251657 9999999.9999
      78.0    1373.2910       0.0000     -50.0709    -999.2500     -73.8263     -49.4050     -71.5179     -52.5442     127.8135 1533251658 9999999.9999
      79.0    1480.2632       0.0000     -45.1864    -999.2500     -62.2182     -55.9923     -59.9098     -59.2747     133.9123 1533251659 9999999.9999
      80.0    1583.6149       0.0000     -37.0168    -999.2500     -49.9673     -74.9108     -47.6589     -78.6042     140.0242 1533251660 9999999.9999
      81.0    1690.2042       0.0000     -32.9859    -999.2500     -42.7373     -83.7475     -40.4289     -87.6329     146.1292 1533251661 9999999.9999
      82.0    1793.6862       0.0000     -28.7637    -999.2500     -35.4672     -90.8168     -33.1588     -94.8558     152.2472 1533251662 9999999.9999
      83.0    1870.0133       0.0000     -23.8252    -999.2500     -28.0363     -96.4000     -25.7279    -100.5603     158.3460 1533251663 9999999.9999
      84.0    1969.5378       0.0000     -17.8767    -999.2500     -20.5252    -100.0150     -18.2168    -104.2538     164.4449 1533251664 9999999.9999
      85.0    2049.9270       0.0000     -10.7629      78.5152     -12.8533    -101.4208     -10.5449    -105.6902     170.5498 1533251665 9999999.9999
      86.0    2124.2446       0.0000      -2.0239      74.3962      -4.2577    -101.4610      -1.9493    -105.7312     177.0598 1533251666 9999999.9999
      87.0    2190.4207       0.0000       7.0117      76.1586       4.4987    -101.2200       6.8071    -105.4850     183.1586 1533251667 9999999.9999
      88.0    2246.4058       0.0000      14.6751      87.1102      12.4115     -99.7740      14.7199    -104.0076     189.2635 1533251668 9999999.9999
      89.0    2290.3093       0.0000      20.9612    -999.2500      19.8022     -96.5607      22.1106    -100.7244     195.3685 1533251669 9999999.9999
      90.0    2320.5444       0.0000      26.2414    -999.2500      27.0723     -91.5398      29.3807     -95.5945     201.4806 1533251670 9999999.9999
      91.0    2335.9634       0.0000      30.6699    -999.2500      34.0613     -85.3140      36.3697     -89.2334     207.5672 1533251671 9999999.9999
      92.0    2367.4243       0.0000      34.9806    -999.2500      41.4118     -77.2807      43.7202     -81.0255     213.6913 1533251672 9999999.9999
      93.0    2367.4243       0.0000      39.1559    -999.2500      48.2803     -68.0423      50.5887     -71.5865     219.7907 1533251673 9999999.9999
      94.0    2375.4224       0.0000      48.9852    -999.2500      67.0382     -51.2928      69.3466     -54.4731     225.8896 1533251674 9999999.9999
      95.0    2359.4797       0.0000      52.6514    -999.2500      76.9192     -45.5088      79.2276     -48.5634     231.9945 1533251675 9999999.9999
      96.0    2343.7500       0.0000      56.5479    -999.2500      85.0730     -38.3993      87.3814     -41.2994     238.0995 1533251676 9999999.9999
      97.0    2297.7942       0.0000      60.7772    -999.2500      91.8612     -31.1693      94.1696     -33.9123     244.1983 1533251677 9999999.9999
      98.0    2275.4854       0.0000      65.2794    -999.2500      97.0427     -24.4213      99.3511     -27.0177     250.7021 1533251678 9999999.9999
      99.0    2239.2517       0.0000      71.0338    -999.2500     100.3765     -17.1512     102.6849     -19.5896     256.8071 1533251679 9999999.9999
     100.0    2197.2656       0.0000      78.1535      82.7735     101.5413      -9.4793     103.8497     -11.7511     262.8995 1533251680 9999999.9999
     101.0    2143.6738       0.0000      86.9830      76.0240     101.9832      -0.8435     104.2916      -2.9276     268.9981 1533251681 9999999.9999
     102.0    2211.0850       0.0000      96.5178      76.8928     102.3045       8.2342     104.6129       6.3473     275.0967 1533251682 9999999.9999
     103.0    2156.8252       0.0000     103.7739      91.1965     100.7380      15.5445     103.0464      13.8165     281.2015 1533251683 9999999.9999
     104.0    2092.6340       0.0000     111.5344    -999.2500      96.2393      24.5017      98.5477      22.9682     287.3062 1533251684 9999999.9999
     105.0    2055.9211       0.0000     117.0653    -999.2500      90.6160      32.0530      92.9244      30.6836     293.4048 1533251685 9999999.9999
