~VERSION INFORMATION
VERS.           2.0   :CWLS Log ASCII Standard - VERSION 2.0
WRAP.           NO    :One Line per depth step
PROD.  Schlumberger   :LAS Producer
PROG.  DLIS to ASCII 19C2-270                          :LAS Program name and version
CREA.        2018/08/03 10:59                          :LAS Creation date {YYYY/MM/DD hh:mm}
DLIS_CREA.  2018-Aug-03 08:53                          :DLIS Creation date and time {YYYY-MMM-DD hh:mm}
SOURCE.     PERFO_Perfo_062PTP.DLIS                    :DLIS File Name
FILE-ID.     PERFO_Perfo_062PTP                        :File Identification Number
#--------------------------------------------------
~WELL INFORMATION
#MNEM.UNIT      DATA             DESCRIPTION
#---- ------ --------------   -----------------------------
STRT .S            0.0       :START TIME      
STOP .S          971.0       :STOP TIME      
STEP .S            1.0       :STEP     
NULL .          -999.25      :NULL VALUE
COMP .        SHELL INTERNATIONAL EP                   :COMPANY
WELL .        WPP TEST 4                               :WELL
FLD  .        WILDCAT                                  :FIELD
LOC  .        NA                                       :LOCATION
CNTY .        HARRIS                                   :COUNTY
STAT .        TEXAS                                    :STATE
CTRY .                                                 :COUNTRY
API  .        NA                                       :API NUMBER
UWI  .                                                 :UNIQUE WELL ID
DATE .        02-Aug-2018                              :LOG DATE {DD-MMM-YYYY}
SRVC .        Schlumberger                             :SERVICE COMPANY
LATI .DEG                                              :LATITUDE
LONG .DEG                                              :LONGITUDE
GDAT .                                                 :GeoDetic Datum
SECT .        NA                                       :Section
RANG .        NA                                       :Range
TOWN .        NA                                       :Township
#-----------------------------------------------------------------------------
~PARAMETER INFORMATION
#MNEM.UNIT    VALUE                      DESCRIPTION
#---- -----   --------------------       ------------------------
U-PHASE_B_COMP_PER_YT.                 0 :Phase B Comparator Period Yt
U-PHASE_A_COMP_PER_XT.                 0 :Phase A Comparator Period Xt
U-MAX_EXC_CUR_LIMIT.MA       265.00000   :Requested CM Current Limit
U-REQ_EXC_FQ.HZ              50          :Requested CM Frequency
U-TILT_Y_OFFSET.          -2.06578       :WPTET Tilt Y Offset
U-TILT_Y_GAIN.           1.02173         :WPTET Tilt Y Gain
U-TILT_X_OFFSET.           2.30841       :WPTET Tilt X Offset
U-TILT_X_GAIN.           1.00000         :WPTET Tilt X Gain
U-TILT_OFFSET_TOL.           0.00100     :WPTET Tilt Offset Calibration Tolerance
U-MOT_CUR_LIMIT_REQ.MA        70.00000   :Requested Motor Current Limit
U-MOT_SPD_REQ_WPMS.RPM        1.00000    :Requested Motor Speed
U-STD_TOL_TILT.           0.01000        :Tilt Standard Deviation Tolerance
CWEI .LB/F      29.00000                 :Casing Weight
CSIZ .IN         7.00000                 :Current Casing Size
LCC  .               440                 :Logging Company Code
LUN  .              2134                 :Logging Unit Number
HIDE .                                   :Header Identifier
HID1 .                                   :Header Identifier Line 1
R1   .                                   :Remark Line 1
WITN .        MR. KELLY McCOY            :Witness's Name
ENGI .        MORRIS MOORE               :Engineer's Name
LUL  .        IOWA COLONY                :Logging Unit Location
DATE .        02-Aug-2018                :Date as Month-Day-Year
STAT .        TEXAS                      :State or Province
COUN .        HARRIS                     :County or Rig Name
FN   .        WILDCAT                    :Field Name
WN   .        WPP TEST 4                 :Well Name
CN   .        SHELL INTERNATIONAL EP     :Company Name
CLAB .        County                     :County/Rig Label
SLAB .        State                      :State/Province Label
RUN  .          1                        :RUN NUMBER
PDAT .        GROUND LEVEL               :Permanent Datum
EPD  .                                   :Elevation of Permanent Datum above Mean Sea Level
LMF  .          NA                       :Logging Measured From (Name of Logging Elevation Reference)
APD  .                                   :Elevation of Depth Reference (LMF) above Permanent Datum
#-----------------------------------------------------------------------------
~CURVE INFORMATION
#MNEM.UNIT   API CODE                                  DESCRIPTION
#---- -----  --------                                  -----------------------
TIME .S                                                :TIME {F10.1}
FREQ_EMF_SL.HZ                                         :Electromagnetic Field Frequency {F13.4}
PH_SH_WPPCM_SL.DEG                                     :WPPCM Phase Shift {F13.4}
RB_SL.DEG                                              :Relative Bearing {F13.4}
SDEV_SL.DEG                                            :Sonde Deviation {F13.4}
RTIX_SL.DEG                                            :Raw X-axis Tilt {F13.4}
RTIY_SL.DEG                                            :Raw Y-axis Tilt {F13.4}
TILX_SL.DEG                                            :X-axis Tilt {F13.4}
TILY_SL.DEG                                            :Y-axis Tilt {F13.4}
ROTA_SL.DEG                                            :Motor Rotation Angle {F13.4}
TOD7 .S                                                :Time of Day {I11}
TOJ  .S                                                :Time of Job {F13.4}
#-----------------------------------------------------------------------------
# 
#     TIME    FREQ_EMF_SL  PH_SH_WPPCM_    RB_SL       SDEV_SL      RTIX_SL      RTIY_SL      TILX_SL      TILY_SL      ROTA_SL        TOD7            TOJ
#                          SL
~A  
# ...
     848.0    1262.3429       0.0000     -41.4583    -999.2500     -54.8677     -60.6115     -52.5593     -63.9942     188.0546 1533230764 9999999.9999
     849.0    1251.1122       0.0000     -35.8721    -999.2500     -47.5975     -75.6338     -45.2891     -79.3429     194.1534 1533230765 9999999.9999
     850.0    1237.8961       0.0000     -31.8110    -999.2500     -40.6085     -83.7877     -38.3001     -87.6739     200.2522 1533230766 9999999.9999
     851.0    1227.0942       0.0000     -27.5566    -999.2500     -33.6597     -90.3750     -31.3513     -94.4044     206.3572 1533230767 9999999.9999
     852.0    1222.8260       0.0000     -22.5918    -999.2500     -26.5502     -95.1950     -24.2418     -99.3291     212.4497 1533230768 9999999.9999
     853.0    1212.2845       0.0000     -16.7075    -999.2500     -19.3603     -98.1272     -17.0519    -102.3250     218.5485 1533230769 9999999.9999
     854.0    1203.9811       0.0000      -9.1155      80.0912     -11.2868     -99.2117      -8.9784    -103.4330     224.6535 1533230770 9999999.9999
     855.0    1206.0464       0.0000      -0.4350      76.4918      -2.7313     -99.2920      -0.4229    -103.5151     230.7585 1533230771 9999999.9999
     856.0    1206.0464       0.0000       8.1002      79.8215       5.6635     -98.7698       7.9719    -102.9816     236.8573 1533230772 9999999.9999
     857.0    1214.3783       0.0000      15.1308      91.3341      13.0542     -97.3640      15.3626    -101.5452     242.9561 1533230773 9999999.9999
     858.0    1212.2845       0.0000      21.1068    -999.2500      20.1637     -93.9097      22.4721     -98.0158     249.0611 1533230774 9999999.9999
     859.0    1216.4792       0.0000      26.1070    -999.2500      26.9920     -88.9692      29.3004     -92.9680     255.1661 1533230775 9999999.9999
     860.0    1229.2395       0.0000      30.4216    -999.2500      33.5793     -82.7835      35.8877     -86.6479     261.6572 1533230776 9999999.9999
     861.0    1240.0793       0.0000      34.4564    -999.2500      40.0863     -75.5937      42.3947     -79.3019     267.7689 1533230777 9999999.9999
     862.0    1255.5803       0.0000      38.7888    -999.2500      46.7138     -66.4357      49.0222     -69.9449     273.8613 1533230778 9999999.9999
     863.0    1269.1787       0.0000      49.7378    -999.2500      66.9578     -49.2443      69.2662     -52.3801     279.9661 1533230779 9999999.9999
     864.0    1283.0748       0.0000      53.2205    -999.2500      75.2322     -43.8620      77.5406     -46.8808     286.0524 1533230780 9999999.9999
     865.0    1304.4990       0.0000      57.1453    -999.2500      83.7073     -37.2345      86.0157     -40.1093     292.1579 1533230781 9999999.9999
     866.0    1326.6509       0.0000      61.4643    -999.2500      90.7767     -30.1652      93.0851     -32.8863     298.2565 1533230782 9999999.9999
     867.0    1346.9828       0.0000      66.3185    -999.2500      95.6368     -23.1762      97.9452     -25.7455     304.3613 1533230783 9999999.9999
     868.0    1370.6140       0.0000      72.1593    -999.2500      98.3280     -16.0265     100.6364     -18.4405     310.4729 1533230784 9999999.9999
     869.0    1386.8344       0.0000      79.3933      84.7049      99.5330      -8.3145     101.8414     -10.5609     316.5785 1533230785 9999999.9999
     870.0    1420.4546       0.0000      88.1802      77.7690     100.0552       0.2812     102.3636      -1.7785     322.6709 1533230786 9999999.9999
     871.0    1446.7593       0.0000      96.9955      79.6342     100.1757       8.7563     102.4841       6.8808     328.7571 1533230787 9999999.9999
     872.0    1477.1533       0.0000     104.3962      98.4858      98.6493      16.3077     100.9577      14.5962     335.2737 1533230788 9999999.9999
     873.0    1505.6210       0.0000     111.0025    -999.2500      94.7933      23.9393      97.1017      22.3937     341.3853 1533230789 9999999.9999
     874.0    1531.8628       0.0000     116.5652    -999.2500      89.3708      31.3702      91.6792      29.9860     347.4839 1533230790 9999999.9999
     875.0    1569.4755       0.0000     121.4036    -999.2500      82.6630      38.6805      84.9714      37.4551     353.5703 1533230791 9999999.9999
     876.0    1594.3877       0.0000     125.9512    -999.2500      74.3485      45.9507      76.6569      44.8833     359.6750 1533230792 9999999.9999
     877.0    1620.1036       0.0000     130.6491    -999.2500      64.2667      52.8995      66.5751      51.9831       5.7932 1533230793 9999999.9999
     878.0    1644.7368       0.0000     139.3215    -999.2500      51.2426      69.9201      53.5510      69.3735      11.8919 1533230794 9999999.9999
     879.0    1666.1730       0.0000     143.4063    -999.2500      44.5047      79.4497      46.8131      79.1101      17.9907 1533230795 9999999.9999
     880.0    1690.2042       0.0000     147.3044    -999.2500      37.5558      87.1215      39.8642      86.9486      24.0955 1533230796 9999999.9999
     881.0    1706.6141       0.0000     151.7624    -999.2500      30.0848      94.0302      32.3932      94.0074      30.2004 1533230797 9999999.9999
     882.0    1723.3456       0.0000     157.0957    -999.2500      22.2925      99.7338      24.6009      99.8350      36.2992 1533230798 9999999.9999
     883.0    1731.8351       0.0000     163.3244    -999.2500      14.6207     103.3890      16.9291     103.5696      42.3985 1533230799 9999999.9999
     884.0    1736.1111       0.0000     170.9862      78.0045       6.5070     104.7547       8.8154     104.9649      48.9214 1533230800 9999999.9999
     885.0    1731.8351       0.0000     179.5224      74.7141      -1.8477     105.0760       0.4607     105.2932      55.0263 1533230801 9999999.9999
     886.0    1740.4083       0.0000    -172.1110      77.2429     -10.0015     104.7547      -7.6931     104.9649      61.1125 1533230802 9999999.9999
     887.0    1723.3456       0.0000    -164.4558      94.6112     -18.1152     101.5413     -15.8068     101.6818      67.2305 1533230803 9999999.9999
     888.0    1719.1321       0.0000    -157.8093    -999.2500     -26.2288      96.2393     -23.9204      96.2646      73.3484 1533230804 9999999.9999
     889.0    1706.6141       0.0000    -152.2703    -999.2500     -34.0212      89.7323     -31.7128      89.6162      79.4471 1533230805 9999999.9999
     890.0    1692.2383       0.0000    -147.1717    -999.2500     -41.9641      81.8496     -39.6557      81.5622      85.5458 1533230806 9999999.9999
     891.0    1662.2340       0.0000    -142.4874    -999.2500     -49.4452      73.1837     -47.1368      72.7080      91.6384 1533230807 9999999.9999
     892.0    1642.8153       0.0000    -137.3502    -999.2500     -56.5145      62.4190     -54.2061      61.7094      97.7432 1533230808 9999999.9999
     893.0    1620.1036       0.0000    -129.4805    -999.2500     -72.0992      51.5740     -69.7908      50.6288     103.8419 1533230809 9999999.9999
     894.0    1594.3877       0.0000    -125.2293    -999.2500     -80.7350      44.8662     -78.4266      43.7752     109.9537 1533230810 9999999.9999
     895.0    1562.5000       0.0000    -120.8858    -999.2500     -88.3265      37.8772     -86.0181      36.6344     116.0586 1533230811 9999999.9999
     896.0    1538.5668       0.0000    -115.7713    -999.2500     -94.8737      30.2455     -92.5653      28.8369     122.1634 1533230812 9999999.9999
     897.0    1505.6210       0.0000    -109.7954    -999.2500    -100.4167      22.4532     -98.1083      20.8752     128.6671 1533230813 9999999.9999
     898.0    1480.2632       0.0000    -102.8851      86.9450    -103.7907      14.7010    -101.4823      12.9546     134.7861 1533230814 9999999.9999
     899.0    1449.7422       0.0000     -95.3838      78.7618    -104.7547       7.1898    -102.4463       5.2803     140.8918 1533230815 9999999.9999
     900.0    1414.7384       0.0000     -86.2979      78.3194    -104.5538      -1.5263    -102.2454      -3.6253     147.0039 1533230816 9999999.9999
