~VERSION INFORMATION
VERS.           2.0   :CWLS Log ASCII Standard - VERSION 2.0
WRAP.           NO    :One Line per depth step
PROD.  Schlumberger   :LAS Producer
PROG.  DLIS to ASCII 19C2-270                          :LAS Program name and version
CREA.        2018/08/03 10:59                          :LAS Creation date {YYYY/MM/DD hh:mm}
DLIS_CREA.  2018-Aug-03 08:48                          :DLIS Creation date and time {YYYY-MMM-DD hh:mm}
SOURCE.     PERFO_Perfo_061PTP.DLIS                    :DLIS File Name
FILE-ID.     PERFO_Perfo_061PTP                        :File Identification Number
#--------------------------------------------------
~WELL INFORMATION
#MNEM.UNIT      DATA             DESCRIPTION
#---- ------ --------------   -----------------------------
STRT .S            0.0       :START TIME      
STOP .S          993.0       :STOP TIME      
STEP .S            1.0       :STEP     
NULL .          -999.25      :NULL VALUE
COMP .        SHELL INTERNATIONAL EP                   :COMPANY
WELL .        WPP TEST 4                               :WELL
FLD  .        WILDCAT                                  :FIELD
LOC  .        NA                                       :LOCATION
CNTY .        HARRIS                                   :COUNTY
STAT .        TEXAS                                    :STATE
CTRY .                                                 :COUNTRY
API  .        NA                                       :API NUMBER
UWI  .                                                 :UNIQUE WELL ID
DATE .        02-Aug-2018                              :LOG DATE {DD-MMM-YYYY}
SRVC .        Schlumberger                             :SERVICE COMPANY
LATI .DEG                                              :LATITUDE
LONG .DEG                                              :LONGITUDE
GDAT .                                                 :GeoDetic Datum
SECT .        NA                                       :Section
RANG .        NA                                       :Range
TOWN .        NA                                       :Township
#-----------------------------------------------------------------------------
~PARAMETER INFORMATION
#MNEM.UNIT    VALUE                      DESCRIPTION
#---- -----   --------------------       ------------------------
U-PHASE_B_COMP_PER_YT.                 0 :Phase B Comparator Period Yt
U-PHASE_A_COMP_PER_XT.                 0 :Phase A Comparator Period Xt
U-MAX_EXC_CUR_LIMIT.MA       265.00000   :Requested CM Current Limit
U-REQ_EXC_FQ.HZ              50          :Requested CM Frequency
U-TILT_Y_OFFSET.          -2.06578       :WPTET Tilt Y Offset
U-TILT_Y_GAIN.           1.02173         :WPTET Tilt Y Gain
U-TILT_X_OFFSET.           2.30841       :WPTET Tilt X Offset
U-TILT_X_GAIN.           1.00000         :WPTET Tilt X Gain
U-TILT_OFFSET_TOL.           0.00100     :WPTET Tilt Offset Calibration Tolerance
U-MOT_CUR_LIMIT_REQ.MA        70.00000   :Requested Motor Current Limit
U-MOT_SPD_REQ_WPMS.RPM        1.00000    :Requested Motor Speed
U-STD_TOL_TILT.           0.01000        :Tilt Standard Deviation Tolerance
CWEI .LB/F      29.00000                 :Casing Weight
CSIZ .IN         7.00000                 :Current Casing Size
LCC  .               440                 :Logging Company Code
LUN  .              2134                 :Logging Unit Number
HIDE .                                   :Header Identifier
HID1 .                                   :Header Identifier Line 1
R1   .                                   :Remark Line 1
WITN .        MR. KELLY McCOY            :Witness's Name
ENGI .        MORRIS MOORE               :Engineer's Name
LUL  .        IOWA COLONY                :Logging Unit Location
DATE .        02-Aug-2018                :Date as Month-Day-Year
STAT .        TEXAS                      :State or Province
COUN .        HARRIS                     :County or Rig Name
FN   .        WILDCAT                    :Field Name
WN   .        WPP TEST 4                 :Well Name
CN   .        SHELL INTERNATIONAL EP     :Company Name
CLAB .        County                     :County/Rig Label
SLAB .        State                      :State/Province Label
RUN  .          1                        :RUN NUMBER
PDAT .        GROUND LEVEL               :Permanent Datum
EPD  .                                   :Elevation of Permanent Datum above Mean Sea Level
LMF  .          NA                       :Logging Measured From (Name of Logging Elevation Reference)
APD  .                                   :Elevation of Depth Reference (LMF) above Permanent Datum
#-----------------------------------------------------------------------------
~CURVE INFORMATION
#MNEM.UNIT   API CODE                                  DESCRIPTION
#---- -----  --------                                  -----------------------
TIME .S                                                :TIME {F10.1}
FREQ_EMF_SL.HZ                                         :Electromagnetic Field Frequency {F13.4}
PH_SH_WPPCM_SL.DEG                                     :WPPCM Phase Shift {F13.4}
RB_SL.DEG                                              :Relative Bearing {F13.4}
SDEV_SL.DEG                                            :Sonde Deviation {F13.4}
RTIX_SL.DEG                                            :Raw X-axis Tilt {F13.4}
RTIY_SL.DEG                                            :Raw Y-axis Tilt {F13.4}
TILX_SL.DEG                                            :X-axis Tilt {F13.4}
TILY_SL.DEG                                            :Y-axis Tilt {F13.4}
ROTA_SL.DEG                                            :Motor Rotation Angle {F13.4}
TOD7 .S                                                :Time of Day {I11}
TOJ  .S                                                :Time of Job {F13.4}
#-----------------------------------------------------------------------------
# 
#     TIME    FREQ_EMF_SL  PH_SH_WPPCM_    RB_SL       SDEV_SL      RTIX_SL      RTIY_SL      TILX_SL      TILY_SL      ROTA_SL        TOD7            TOJ
#                          SL
~A  
# ...
     636.0    1572.9866       0.0000     166.8535      83.9942      10.7647     104.2325      13.0731     104.4314     314.3275 1533229476 9999999.9999
     637.0    1548.7335       0.0000     175.2951      75.6481       2.2493     104.8752       4.5577     105.0880     320.4261 1533229477 9999999.9999
     638.0    1525.2169       0.0000    -176.1148      75.2396      -6.0652     105.0358      -3.7568     105.2522     326.5247 1533229478 9999999.9999
     639.0    1499.2004       0.0000    -168.2071      83.2392     -14.0182     103.3890     -11.7098     103.5696     332.6295 1533229479 9999999.9999
     640.0    1474.0566       0.0000    -161.0112    -999.2500     -22.1720      99.0108     -19.8636      99.0963     338.7342 1533229480 9999999.9999
     641.0    1458.7655       0.0000    -154.9261    -999.2500     -30.1652      92.9858     -27.8568      92.9404     344.8205 1533229481 9999999.9999
     642.0    1426.2170       0.0000    -149.3334    -999.2500     -38.5198      85.2738     -36.2114      85.0608     350.9191 1533229482 9999999.9999
     643.0    1406.2500       0.0000    -144.7115    -999.2500     -45.9105      77.4012     -43.6021      77.0171     357.0239 1533229483 9999999.9999
     644.0    1375.9785       0.0000    -140.0043    -999.2500     -53.1003      68.0423     -50.7919      67.4549       3.1417 1533229484 9999999.9999
     645.0    1365.2913       0.0000    -131.8052    -999.2500     -67.0783      54.8677     -64.7699      53.9940       9.2537 1533229485 9999999.9999
     646.0    1344.4073       0.0000    -127.2514    -999.2500     -76.5978      48.0795     -74.2894      47.0584      15.3525 1533229486 9999999.9999
     647.0    1324.1526       0.0000    -123.0366    -999.2500     -84.5910      41.2913     -82.2826      40.1227      21.4512 1533229487 9999999.9999
     648.0    1304.4990       0.0000    -118.3234    -999.2500     -91.8612      33.9408     -89.5527      32.6125      27.9549 1533229488 9999999.9999
     649.0    1292.5093       0.0000    -112.9294    -999.2500     -97.9263      26.3895     -95.6179      24.8971      34.0412 1533229489 9999999.9999
     650.0    1276.0889       0.0000    -106.4079    -999.2500    -102.3848      18.5168    -100.0764      16.8534      40.1592 1533229490 9999999.9999
     651.0    1262.3429       0.0000     -99.0647      81.9134    -104.4333      10.8048    -102.1249       8.9738      46.2640 1533229491 9999999.9999
     652.0    1251.1122       0.0000     -90.6159      77.6894    -104.6342       2.6108    -102.3258       0.6018      52.3505 1533229492 9999999.9999
     653.0    1244.4691       0.0000     -81.8426      81.0535    -104.3932      -5.8643    -102.0848      -8.0575      58.4384 1533229493 9999999.9999
     654.0    1235.7206       0.0000     -73.8462     105.7621    -102.7062     -14.1788    -100.3978     -16.5527      64.5432 1533229494 9999999.9999
     655.0    1224.9564       0.0000     -67.3326    -999.2500     -98.8502     -21.9712     -96.5418     -24.5143      70.6481 1533229495 9999999.9999
     656.0    1224.9564       0.0000     -61.9241    -999.2500     -93.3875     -29.5225     -91.0791     -32.2297      76.7345 1533229496 9999999.9999
     657.0    1218.5875       0.0000     -57.3525    -999.2500     -86.7198     -36.7525     -84.4114     -39.6168      82.8333 1533229497 9999999.9999
     658.0    1222.8260       0.0000     -53.2302    -999.2500     -78.9275     -43.6210     -76.6191     -46.6345      88.9258 1533229498 9999999.9999
     659.0    1220.7031       0.0000     -48.9755    -999.2500     -69.6490     -50.2485     -67.3406     -53.4060      95.0307 1533229499 9999999.9999
     660.0    1220.7031       0.0000     -39.6400    -999.2500     -53.6627     -66.9980     -51.3543     -70.5195     101.5343 1533229500 9999999.9999
     661.0    1220.7031       0.0000     -35.5647    -999.2500     -47.0753     -76.3167     -44.7669     -80.0406     107.6392 1533229501 9999999.9999
     662.0    1235.7206       0.0000     -31.5026    -999.2500     -40.0863     -84.4303     -37.7779     -88.3306     113.7440 1533229502 9999999.9999
     663.0    1237.8961       0.0000     -27.1617    -999.2500     -33.0572     -90.7767     -30.7488     -94.8148     119.8428 1533229503 9999999.9999
     664.0    1248.8899       0.0000     -22.1040    -999.2500     -25.9075     -95.5565     -23.5991     -99.6984     125.9609 1533229504 9999999.9999
     665.0    1264.6134       0.0000     -16.1350    -999.2500     -18.7177     -98.2477     -16.4093    -102.4481     132.0658 1533229505 9999999.9999
     666.0    1278.4092       0.0000      -8.4776      79.5416     -10.6442     -99.2117      -8.3358    -103.4330     138.1646 1533229506 9999999.9999
     667.0    1294.8895       0.0000       0.1432      76.7319      -2.1690     -99.0510       0.1394    -103.2689     144.2635 1533229507 9999999.9999
     668.0    1306.9238       0.0000       8.6536      80.5085       6.2258     -98.6092       8.5342    -102.8174     150.3684 1533229508 9999999.9999
     669.0    1326.6509       0.0000      15.6576      94.3098      13.6567     -96.9222      15.9651    -101.0938     156.4734 1533229509 9999999.9999
     670.0    1349.5681       0.0000      21.4469    -999.2500      20.6055     -93.5482      22.9139     -97.6465     162.5722 1533229510 9999999.9999
     671.0    1370.6140       0.0000      26.4625    -999.2500      27.5142     -88.4470      29.8226     -92.4345     168.6711 1533229511 9999999.9999
     672.0    1395.0892       0.0000      30.7520    -999.2500      34.1015     -82.1810      36.4099     -86.0323     175.1810 1533229512 9999999.9999
     673.0    1414.7384       0.0000      34.7850    -999.2500      40.6085     -74.9108      42.9169     -78.6042     181.2859 1533229513 9999999.9999
     674.0    1440.8298       0.0000      39.1478    -999.2500      47.1557     -65.5118      49.4641     -69.0010     187.3856 1533229514 9999999.9999
     675.0    1467.9019       0.0000      49.4609    -999.2500      66.3955     -49.6862      68.7039     -52.8315     193.4844 1533229515 9999999.9999
     676.0    1486.5221       0.0000      53.5978    -999.2500      76.3970     -43.2997      78.7054     -46.3062     199.5963 1533229516 9999999.9999
     677.0    1515.3556       0.0000      57.4278    -999.2500      84.1893     -36.7525      86.4977     -39.6168     205.7084 1533229517 9999999.9999
     678.0    1538.5668       0.0000      61.8341    -999.2500      91.0177     -29.6028      93.3261     -32.3118     211.8072 1533229518 9999999.9999
     679.0    1562.5000       0.0000      66.6287    -999.2500      95.7172     -22.7745      98.0256     -25.3351     217.9252 1533229519 9999999.9999
     680.0    1580.0563       0.0000      72.6300    -999.2500      98.2878     -15.5043     100.5962     -17.9070     224.0179 1533229520 9999999.9999
     681.0    1601.6515       0.0000      80.0711      83.4410      99.5732      -7.6317     101.8816      -9.8633     230.1167 1533229521 9999999.9999
     682.0    1612.6721       0.0000      88.8940      77.7659      99.9748       0.9640     102.2832      -1.0808     236.2033 1533229522 9999999.9999
     683.0    1627.6041       0.0000      97.3606      80.0889     100.0150       9.1178     102.3234       7.2502     242.3223 1533229523 9999999.9999
     684.0    1642.8153       0.0000     104.9103      92.1021      98.3280      16.8700     100.6364      15.1708     248.8453 1533229524 9999999.9999
     685.0    1650.5282       0.0000     111.4123    -999.2500      94.2712      24.4615      96.5796      22.9272     254.9449 1533229525 9999999.9999
     686.0    1662.2340       0.0000     116.9539    -999.2500      88.6077      31.9325      90.9161      30.5605     261.0497 1533229526 9999999.9999
     687.0    1654.4117       0.0000     121.7942    -999.2500      81.8195      39.2830      84.1279      38.0707     267.1483 1533229527 9999999.9999
     688.0    1662.2340       0.0000     126.2783    -999.2500      73.7058      46.4728      76.0142      45.4168     273.2530 1533229528 9999999.9999
