~VERSION INFORMATION
VERS.           2.0   :CWLS Log ASCII Standard - VERSION 2.0
WRAP.           NO    :One Line per depth step
PROD.  Schlumberger   :LAS Producer
PROG.  DLIS to ASCII 19C2-270                          :LAS Program name and version
CREA.        2018/08/03 10:59                          :LAS Creation date {YYYY/MM/DD hh:mm}
DLIS_CREA.  2018-Aug-03 09:39                          :DLIS Creation date and time {YYYY-MMM-DD hh:mm}
SOURCE.     PERFO_Perfo_081PTP.DLIS                    :DLIS File Name
FILE-ID.     PERFO_Perfo_081PTP                        :File Identification Number
#--------------------------------------------------
~WELL INFORMATION
#MNEM.UNIT      DATA             DESCRIPTION
#---- ------ --------------   -----------------------------
STRT .S            0.0       :START TIME      
STOP .S          383.0       :STOP TIME      
STEP .S            1.0       :STEP     
NULL .          -999.25      :NULL VALUE
COMP .        SHELL INTERNATIONAL EP                   :COMPANY
WELL .        WPP TEST 4                               :WELL
FLD  .        WILDCAT                                  :FIELD
LOC  .        NA                                       :LOCATION
CNTY .        HARRIS                                   :COUNTY
STAT .        TEXAS                                    :STATE
CTRY .                                                 :COUNTRY
API  .        NA                                       :API NUMBER
UWI  .                                                 :UNIQUE WELL ID
DATE .        02-Aug-2018                              :LOG DATE {DD-MMM-YYYY}
SRVC .        Schlumberger                             :SERVICE COMPANY
LATI .DEG                                              :LATITUDE
LONG .DEG                                              :LONGITUDE
GDAT .                                                 :GeoDetic Datum
SECT .        NA                                       :Section
RANG .        NA                                       :Range
TOWN .        NA                                       :Township
#-----------------------------------------------------------------------------
~PARAMETER INFORMATION
#MNEM.UNIT    VALUE                      DESCRIPTION
#---- -----   --------------------       ------------------------
U-PHASE_B_COMP_PER_YT.                 0 :Phase B Comparator Period Yt
U-PHASE_A_COMP_PER_XT.                 0 :Phase A Comparator Period Xt
U-MAX_EXC_CUR_LIMIT.MA       265.00000   :Requested CM Current Limit
U-REQ_EXC_FQ.HZ              50          :Requested CM Frequency
U-TILT_Y_OFFSET.          -2.06578       :WPTET Tilt Y Offset
U-TILT_Y_GAIN.           1.02173         :WPTET Tilt Y Gain
U-TILT_X_OFFSET.           2.30841       :WPTET Tilt X Offset
U-TILT_X_GAIN.           1.00000         :WPTET Tilt X Gain
U-TILT_OFFSET_TOL.           0.00100     :WPTET Tilt Offset Calibration Tolerance
U-MOT_CUR_LIMIT_REQ.MA        70.00000   :Requested Motor Current Limit
U-MOT_SPD_REQ_WPMS.RPM        1.00000    :Requested Motor Speed
U-STD_TOL_TILT.           0.01000        :Tilt Standard Deviation Tolerance
CWEI .LB/F      29.00000                 :Casing Weight
CSIZ .IN         7.00000                 :Current Casing Size
LCC  .               440                 :Logging Company Code
LUN  .              2134                 :Logging Unit Number
HIDE .                                   :Header Identifier
HID1 .                                   :Header Identifier Line 1
R1   .                                   :Remark Line 1
WITN .        MR. KELLY McCOY            :Witness's Name
ENGI .        MORRIS MOORE               :Engineer's Name
LUL  .        IOWA COLONY                :Logging Unit Location
DATE .        02-Aug-2018                :Date as Month-Day-Year
STAT .        TEXAS                      :State or Province
COUN .        HARRIS                     :County or Rig Name
FN   .        WILDCAT                    :Field Name
WN   .        WPP TEST 4                 :Well Name
CN   .        SHELL INTERNATIONAL EP     :Company Name
CLAB .        County                     :County/Rig Label
SLAB .        State                      :State/Province Label
RUN  .          1                        :RUN NUMBER
PDAT .        GROUND LEVEL               :Permanent Datum
EPD  .                                   :Elevation of Permanent Datum above Mean Sea Level
LMF  .          NA                       :Logging Measured From (Name of Logging Elevation Reference)
APD  .                                   :Elevation of Depth Reference (LMF) above Permanent Datum
#-----------------------------------------------------------------------------
~CURVE INFORMATION
#MNEM.UNIT   API CODE                                  DESCRIPTION
#---- -----  --------                                  -----------------------
TIME .S                                                :TIME {F10.1}
FREQ_EMF_SL.HZ                                         :Electromagnetic Field Frequency {F13.4}
PH_SH_WPPCM_SL.DEG                                     :WPPCM Phase Shift {F13.4}
RB_SL.DEG                                              :Relative Bearing {F13.4}
SDEV_SL.DEG                                            :Sonde Deviation {F13.4}
RTIX_SL.DEG                                            :Raw X-axis Tilt {F13.4}
RTIY_SL.DEG                                            :Raw Y-axis Tilt {F13.4}
TILX_SL.DEG                                            :X-axis Tilt {F13.4}
TILY_SL.DEG                                            :Y-axis Tilt {F13.4}
ROTA_SL.DEG                                            :Motor Rotation Angle {F13.4}
TOD7 .S                                                :Time of Day {I11}
TOJ  .S                                                :Time of Job {F13.4}
#-----------------------------------------------------------------------------
# 
#     TIME    FREQ_EMF_SL  PH_SH_WPPCM_    RB_SL       SDEV_SL      RTIX_SL      RTIY_SL      TILX_SL      TILY_SL      ROTA_SL        TOD7            TOJ
#                          SL
~A  
# ...
      53.0    1357.3842       0.0000     141.9631    -999.2500      47.3163      77.2405      49.6247      76.8529     316.4592 1533245077 9999999.9999
      54.0    1183.7122       0.0000     145.7979    -999.2500      40.3273      85.4747      42.6357      85.2660     322.5639 1533245078 9999999.9999
      55.0    1088.4288       0.0000     149.9630    -999.2500      32.9768      92.5842      35.2852      92.5300     328.6687 1533245079 9999999.9999
      56.0    1011.6906       0.0000     154.9456    -999.2500      25.1845      98.9707      27.4929      99.0552     334.7673 1533245080 9999999.9999
      57.0     946.3324       0.0000     161.0964    -999.2500      17.1110     103.6702      19.4194     103.8568     340.8659 1533245081 9999999.9999
      58.0     891.1597       0.0000     168.3092      78.8319       9.1580     105.8793      11.4664     106.1140     347.3817 1533245082 9999999.9999
      59.0     842.0659       0.0000     176.8003      73.7380       0.7632     106.3212       3.0716     106.5654     353.4803 1533245083 9999999.9999
      60.0     804.4908       0.0000    -174.5553      74.3747      -7.5513     106.2810      -5.2429     106.5244     359.5789 1533245084 9999999.9999
      61.0     764.2664       0.0000    -166.6497      85.9552     -15.6248     103.7505     -13.3164     103.9389       5.6838 1533245085 9999999.9999
      62.0     733.9509       0.0000    -159.5058    -999.2500     -23.9795      98.8100     -21.6711      98.8911      11.7886 1533245086 9999999.9999
      63.0     712.3860       0.0000    -153.6462    -999.2500     -31.9727      92.5842     -29.6643      92.5300      17.8874 1533245087 9999999.9999
      64.0     691.3717       0.0000    -148.1964    -999.2500     -40.4077      84.5107     -38.0993      84.2811      23.9923 1533245088 9999999.9999
      65.0     676.7324       0.0000    -143.6986    -999.2500     -47.7582      76.3568     -45.4498      75.9501      30.0788 1533245089 9999999.9999
      66.0     671.5616       0.0000    -138.9124    -999.2500     -55.0283      66.4758     -52.7199      65.8544      36.1969 1533245090 9999999.9999
      67.0     669.0057       0.0000    -131.1067    -999.2500     -69.2072      54.2652     -66.8988      53.3784      42.2956 1533245091 9999999.9999
      68.0     671.5616       0.0000    -126.8511    -999.2500     -78.2848      47.6778     -75.9764      46.6480      48.3819 1533245092 9999999.9999
      69.0     680.0049       0.0000    -122.5359    -999.2500     -86.3583      40.5683     -84.0499      39.3840      54.4868 1533245093 9999999.9999
      70.0     692.7339       0.0000    -117.7873    -999.2500     -93.5482      33.1375     -91.2398      31.7917      60.9966 1533245094 9999999.9999
      71.0     709.5106       0.0000    -112.1031    -999.2500     -99.7338      25.2648     -97.4254      23.7480      67.0953 1533245095 9999999.9999
      72.0     736.2565       0.0000    -105.1963    -999.2500    -104.1522      17.1110    -101.8438      15.4170      73.2002 1533245096 9999999.9999
      73.0     773.5148       0.0000     -97.3572      78.5169    -105.9195       9.0777    -103.6111       7.2091      79.3050 1533245097 9999999.9999
      74.0     821.4077       0.0000     -88.7187      76.3272    -106.0400       0.8033    -103.7316      -1.2450      85.4037 1533245098 9999999.9999
      75.0     877.8090       0.0000     -79.9321      81.0955    -105.7187      -7.7120    -103.4103      -9.9453      91.5024 1533245099 9999999.9999
      76.0     932.5266       0.0000     -72.1008      83.6700    -103.3488     -16.0667    -101.0404     -18.4815      97.6073 1533245100 9999999.9999
      77.0     997.3405       0.0000     -65.6741    -999.2500     -98.8100     -24.1000     -96.5016     -26.6894     103.7122 1533245101 9999999.9999
      78.0    1068.5791       0.0000     -60.4290    -999.2500     -92.6645     -31.8120     -90.3561     -34.5690     109.8109 1533245102 9999999.9999
      79.0    1171.8750       0.0000     -56.0464    -999.2500     -85.8763     -39.0822     -83.5679     -41.9971     115.8973 1533245103 9999999.9999
      80.0    1319.1838       0.0000     -51.9791    -999.2500     -77.8832     -46.1515     -75.5748     -49.2200     121.9899 1533245104 9999999.9999
      81.0    1489.6716       0.0000     -47.7737    -999.2500     -68.2833     -52.7790     -65.9749     -55.9915     128.1080 1533245105 9999999.9999
      82.0    1631.3805       0.0000     -39.0685    -999.2500     -53.3012     -69.6088     -50.9928     -73.1870     134.6118 1533245106 9999999.9999
      83.0    1762.2180       0.0000     -35.0793    -999.2500     -46.4728     -79.0078     -44.1644     -82.7902     140.7168 1533245107 9999999.9999
      84.0    1890.1210       0.0000     -31.0055    -999.2500     -39.2428     -87.0412     -36.9344     -90.9981     146.8217 1533245108 9999999.9999
      85.0    2008.9286       0.0000     -26.5486    -999.2500     -32.0128     -93.2670     -29.7044     -97.3592     152.9206 1533245109 9999999.9999
      86.0    2137.1582       0.0000     -21.3518    -999.2500     -24.7828     -97.8862     -22.4744    -102.0787     159.0194 1533245110 9999999.9999
      87.0    2232.1428       0.0000     -15.1359      83.8864     -17.4725    -100.4970     -15.1641    -104.7463     165.1244 1533245111 9999999.9999
      88.0    2320.5444       0.0000      -6.8087      76.1050      -8.9170    -101.1798      -6.6086    -105.4440     171.2293 1533245112 9999999.9999
      89.0    2407.9622       0.0000       2.0953      75.3586      -0.2812    -100.5372       2.0272    -104.7873     177.3282 1533245113 9999999.9999
      90.0    2475.7922       0.0000      10.5163      79.6039       8.0333    -100.4970      10.3417    -104.7463     183.4331 1533245114 9999999.9999
      91.0    2484.5405       0.0000      17.4351      96.4532      15.5445     -98.3280      17.8529    -102.5302     189.5320 1533245115 9999999.9999
      92.0    2475.7922       0.0000      23.1978    -999.2500      22.7745     -94.3113      25.0829     -98.4262     195.6369 1533245116 9999999.9999
      93.0    2484.5405       0.0000      28.0781    -999.2500      29.8840     -88.9290      32.1924     -92.9270     201.7357 1533245117 9999999.9999
      94.0    2493.3511       0.0000      32.2790    -999.2500      36.7525     -82.1810      39.0609     -86.0323     208.2457 1533245118 9999999.9999
      95.0    2484.5405       0.0000      36.3165    -999.2500      43.6210     -74.1477      45.9294     -77.8245     214.3506 1533245119 9999999.9999
      96.0    2484.5405       0.0000      40.7596    -999.2500      50.3288     -63.7847      52.6372     -67.2363     220.4495 1533245120 9999999.9999
      97.0    2484.5405       0.0000      50.4119    -999.2500      70.8942     -49.2042      73.2026     -52.3390     226.5483 1533245121 9999999.9999
      98.0    2493.3511       0.0000      54.1445    -999.2500      79.9317     -42.7373      82.2401     -45.7317     232.6533 1533245122 9999999.9999
      99.0    2484.5405       0.0000      57.9997    -999.2500      87.4830     -35.8287      89.7914     -38.6729     238.7467 1533245123 9999999.9999
     100.0    2484.5405       0.0000      62.5778    -999.2500      94.0703     -28.3577      96.3787     -31.0396     244.8456 1533245124 9999999.9999
     101.0    2484.5405       0.0000      67.7184    -999.2500      98.4887     -21.2080     100.7971     -23.7346     250.9444 1533245125 9999999.9999
     102.0    2484.5405       0.0000      74.0319    -999.2500     100.7782     -13.8173     103.0866     -16.1833     257.0624 1533245126 9999999.9999
     103.0    2424.5691       0.0000      81.9111      78.8197     101.4610      -5.7438     103.7694      -7.9344     263.1671 1533245127 9999999.9999
     104.0    2343.7500       0.0000      90.7054      75.8059     101.9028       2.6912     104.2112       0.6839     269.2410 1533245128 9999999.9999
     105.0    2275.4854       0.0000      99.4568      79.6700     101.6618      11.1262     103.9702       9.3021     275.3527 1533245129 9999999.9999
