~VERSION INFORMATION
VERS.           2.0   :CWLS Log ASCII Standard - VERSION 2.0
WRAP.           NO    :One Line per depth step
PROD.  Schlumberger   :LAS Producer
PROG.  DLIS to ASCII 19C2-270                          :LAS Program name and version
CREA.        2018/08/03 10:59                          :LAS Creation date {YYYY/MM/DD hh:mm}
DLIS_CREA.  2018-Aug-03 09:53                          :DLIS Creation date and time {YYYY-MMM-DD hh:mm}
SOURCE.     PERFO_Perfo_090PTP.DLIS                    :DLIS File Name
FILE-ID.     PERFO_Perfo_090PTP                        :File Identification Number
#--------------------------------------------------
~WELL INFORMATION
#MNEM.UNIT      DATA             DESCRIPTION
#---- ------ --------------   -----------------------------
STRT .S            0.0       :START TIME      
STOP .S          228.0       :STOP TIME      
STEP .S            1.0       :STEP     
NULL .          -999.25      :NULL VALUE
COMP .        SHELL INTERNATIONAL EP                   :COMPANY
WELL .        WPP TEST 4                               :WELL
FLD  .        WILDCAT                                  :FIELD
LOC  .        NA                                       :LOCATION
CNTY .        HARRIS                                   :COUNTY
STAT .        TEXAS                                    :STATE
CTRY .                                                 :COUNTRY
API  .        NA                                       :API NUMBER
UWI  .                                                 :UNIQUE WELL ID
DATE .        02-Aug-2018                              :LOG DATE {DD-MMM-YYYY}
SRVC .        Schlumberger                             :SERVICE COMPANY
LATI .DEG                                              :LATITUDE
LONG .DEG                                              :LONGITUDE
GDAT .                                                 :GeoDetic Datum
SECT .        NA                                       :Section
RANG .        NA                                       :Range
TOWN .        NA                                       :Township
#-----------------------------------------------------------------------------
~PARAMETER INFORMATION
#MNEM.UNIT    VALUE                      DESCRIPTION
#---- -----   --------------------       ------------------------
U-PHASE_B_COMP_PER_YT.                 0 :Phase B Comparator Period Yt
U-PHASE_A_COMP_PER_XT.                 0 :Phase A Comparator Period Xt
U-MAX_EXC_CUR_LIMIT.MA       265.00000   :Requested CM Current Limit
U-REQ_EXC_FQ.HZ              50          :Requested CM Frequency
U-TILT_Y_OFFSET.          -2.06578       :WPTET Tilt Y Offset
U-TILT_Y_GAIN.           1.02173         :WPTET Tilt Y Gain
U-TILT_X_OFFSET.           2.30841       :WPTET Tilt X Offset
U-TILT_X_GAIN.           1.00000         :WPTET Tilt X Gain
U-TILT_OFFSET_TOL.           0.00100     :WPTET Tilt Offset Calibration Tolerance
U-MOT_CUR_LIMIT_REQ.MA        70.00000   :Requested Motor Current Limit
U-MOT_SPD_REQ_WPMS.RPM        1.00000    :Requested Motor Speed
U-STD_TOL_TILT.           0.01000        :Tilt Standard Deviation Tolerance
CWEI .LB/F      29.00000                 :Casing Weight
CSIZ .IN         7.00000                 :Current Casing Size
LCC  .               440                 :Logging Company Code
LUN  .              2134                 :Logging Unit Number
HIDE .                                   :Header Identifier
HID1 .                                   :Header Identifier Line 1
R1   .                                   :Remark Line 1
WITN .        MR. KELLY McCOY            :Witness's Name
ENGI .        MORRIS MOORE               :Engineer's Name
LUL  .        IOWA COLONY                :Logging Unit Location
DATE .        02-Aug-2018                :Date as Month-Day-Year
STAT .        TEXAS                      :State or Province
COUN .        HARRIS                     :County or Rig Name
FN   .        WILDCAT                    :Field Name
WN   .        WPP TEST 4                 :Well Name
CN   .        SHELL INTERNATIONAL EP     :Company Name
CLAB .        County                     :County/Rig Label
SLAB .        State                      :State/Province Label
RUN  .          1                        :RUN NUMBER
PDAT .        GROUND LEVEL               :Permanent Datum
EPD  .                                   :Elevation of Permanent Datum above Mean Sea Level
LMF  .          NA                       :Logging Measured From (Name of Logging Elevation Reference)
APD  .                                   :Elevation of Depth Reference (LMF) above Permanent Datum
#-----------------------------------------------------------------------------
~CURVE INFORMATION
#MNEM.UNIT   API CODE                                  DESCRIPTION
#---- -----  --------                                  -----------------------
TIME .S                                                :TIME {F10.1}
FREQ_EMF_SL.HZ                                         :Electromagnetic Field Frequency {F13.4}
PH_SH_WPPCM_SL.DEG                                     :WPPCM Phase Shift {F13.4}
RB_SL.DEG                                              :Relative Bearing {F13.4}
SDEV_SL.DEG                                            :Sonde Deviation {F13.4}
RTIX_SL.DEG                                            :Raw X-axis Tilt {F13.4}
RTIY_SL.DEG                                            :Raw Y-axis Tilt {F13.4}
TILX_SL.DEG                                            :X-axis Tilt {F13.4}
TILY_SL.DEG                                            :Y-axis Tilt {F13.4}
ROTA_SL.DEG                                            :Motor Rotation Angle {F13.4}
TOD7 .S                                                :Time of Day {I11}
TOJ  .S                                                :Time of Job {F13.4}
#-----------------------------------------------------------------------------
# 
#     TIME    FREQ_EMF_SL  PH_SH_WPPCM_    RB_SL       SDEV_SL      RTIX_SL      RTIY_SL      TILX_SL      TILY_SL      ROTA_SL        TOD7            TOJ
#                          SL
~A  
# ...
     159.0    1001.6025       0.0000    -110.3122    -999.2500    -101.2200      23.0155     -98.9116      21.4498      57.2779 1533251471 9999999.9999
     160.0     975.2081       0.0000    -103.2543      83.9431    -105.0358      15.0223    -102.7274      13.2829      63.3766 1533251472 9999999.9999
     161.0     951.4547       0.0000     -95.2477      77.1623    -106.1605       7.0292    -103.8521       5.1161      69.4884 1533251473 9999999.9999
     162.0     935.0067       0.0000     -86.5663      76.4477    -106.2810      -1.2452    -103.9726      -3.3380      75.6063 1533251474 9999999.9999
     163.0     921.5269       0.0000     -78.1334      83.6218    -105.7588      -9.5195    -103.4504     -11.7921      82.1161 1533251475 9999999.9999
     164.0     908.4302       0.0000     -70.9124    -999.2500    -103.0275     -17.4323    -100.7191     -19.8769      88.2148 1533251476 9999999.9999
     165.0     896.8431       0.0000     -64.7698    -999.2500     -98.0067     -25.3452     -95.6982     -27.9616      94.3197 1533251477 9999999.9999
     166.0     904.9228       0.0000     -59.5735    -999.2500     -91.6603     -33.1777     -89.3519     -35.9643     100.4376 1533251478 9999999.9999
     167.0     906.0889       0.0000     -55.2930    -999.2500     -84.6713     -40.4077     -82.3629     -43.3514     106.5363 1533251479 9999999.9999
     168.0     914.3368       0.0000     -51.2333    -999.2500     -76.4372     -47.4770     -74.1288     -50.5743     112.6483 1533251480 9999999.9999
     169.0     928.8309       0.0000     -46.4406    -999.2500     -65.3110     -54.6668     -63.0026     -57.9204     118.7531 1533251481 9999999.9999
     170.0     957.9360       0.0000     -38.1375    -999.2500     -51.8552     -72.0992     -49.5468     -75.7315     124.8580 1533251482 9999999.9999
     171.0     994.5190       0.0000     -34.0566    -999.2500     -44.6653     -81.5383     -42.3569     -85.3757     130.9698 1533251483 9999999.9999
     172.0    1024.9635       0.0000     -30.0257    -999.2500     -37.5558     -89.0897     -35.2474     -93.0911     137.0687 1533251484 9999999.9999
     173.0    1062.1223       0.0000     -25.2132    -999.2500     -30.0045     -95.0745     -27.6961     -99.2060     143.1736 1533251485 9999999.9999
     174.0    1109.0300       0.0000     -19.6357    -999.2500     -22.6138     -99.2117     -20.3054    -103.4330     149.2786 1533251486 9999999.9999
     175.0    1167.9817       0.0000     -13.0161      81.6148     -15.1830    -101.1798     -12.8746    -105.4440     155.7824 1533251487 9999999.9999
     176.0    1222.8260       0.0000      -4.7218      74.9770      -6.8685    -101.4610      -4.5601    -105.7312     161.8873 1533251488 9999999.9999
     177.0    1280.7377       0.0000       4.5100      75.0421       2.0485    -101.3405       4.3569    -105.6081     168.0054 1533251489 9999999.9999
     178.0    1375.9785       0.0000      12.6576      82.6167      10.2425    -100.3765      12.5509    -104.6232     174.1042 1533251490 9999999.9999
     179.0    1483.3861       0.0000      19.2832      88.0811      17.7135     -97.6853      20.0219    -101.8735     180.2030 1533251491 9999999.9999
     180.0    1587.1896       0.0000      24.9488    -999.2500      25.1845     -93.0260      27.4929     -97.1130     186.3080 1533251492 9999999.9999
     181.0    1677.1019       0.0000      29.6883    -999.2500      32.4446     -87.0010      34.7530     -90.9571     192.4137 1533251493 9999999.9999
     182.0    1766.6456       0.0000      33.9874    -999.2500      39.7248     -79.4898      42.0332     -83.2827     198.5126 1533251494 9999999.9999
     183.0    1850.3290       0.0000      38.0313    -999.2500      46.5130     -70.6130      48.8214     -74.2130     204.6114 1533251495 9999999.9999
     184.0    1926.3699       0.0000      43.0942    -999.2500      51.8552     -56.7555      54.1636     -60.0544     210.7225 1533251496 9999999.9999
     185.0    1991.8556       0.0000      51.7855    -999.2500      74.6297     -46.9950      76.9381     -50.0818     216.8213 1533251497 9999999.9999
     186.0    2061.9502       0.0000      55.4630    -999.2500      83.0245     -40.3675      85.3329     -43.3104     222.9202 1533251498 9999999.9999
     187.0    2111.4866       0.0000      59.4260    -999.2500      90.2947     -33.3785      92.6031     -36.1695     229.4301 1533251499 9999999.9999
     188.0    2150.2292       0.0000      63.9942    -999.2500      95.9983     -26.2288      98.3067     -28.8645     235.5350 1533251500 9999999.9999
     189.0    2197.2656       0.0000      69.4670    -999.2500      99.8543     -18.9988     102.1627     -21.4774     241.6339 1533251501 9999999.9999
     190.0    2218.0601       0.0000      76.2399      83.3890     101.4208     -11.4475     103.7292     -13.7620     247.7327 1533251502 9999999.9999
     191.0    2246.4058       0.0000      84.7969      76.6276     102.0233      -2.9322     104.3317      -5.0617     253.8254 1533251503 9999999.9999
     192.0    2260.8521       0.0000      93.8367      75.8892     102.3045       5.6635     104.6129       3.7208     259.9302 1533251504 9999999.9999
     193.0    2269.9758       0.0000     102.2235      83.9490     101.3104      13.9177     103.6188      12.1544     266.0173 1533251505 9999999.9999
     194.0    2253.6057       0.0000     109.6520    -999.2500      97.7255      22.1720     100.0339      20.5880     272.1292 1533251506 9999999.9999
     195.0    2246.4058       0.0000     115.5614    -999.2500      92.4235      29.8840      94.7319      28.4675     278.2339 1533251507 9999999.9999
     196.0    2232.1428       0.0000     120.5968    -999.2500      85.6353      37.4755      87.9437      36.2240     284.3387 1533251508 9999999.9999
     197.0    2211.0850       0.0000     125.1024    -999.2500      77.7627      44.9063      80.0711      43.8162     290.4503 1533251509 9999999.9999
     198.0    2170.1389       0.0000     129.5981    -999.2500      68.2030      52.1765      70.5114      51.2444     296.5490 1533251510 9999999.9999
     199.0    2124.2446       0.0000     137.4133    -999.2500      54.6668      66.4357      56.9752      65.8133     302.6598 1533251511 9999999.9999
     200.0    2074.1150       0.0000     141.7443    -999.2500      47.7582      76.9192      50.0666      76.5246     309.1634 1533251512 9999999.9999
     201.0    2032.1531       0.0000     145.5697    -999.2500      40.7692      85.3140      43.0776      85.1019     315.2620 1533251513 9999999.9999
     202.0    1964.0363       0.0000     149.6955    -999.2500      33.4187      92.5038      35.7271      92.4479     321.3606 1533251514 9999999.9999
     203.0    1905.4878       0.0000     154.6608    -999.2500      25.5862      98.8100      27.8946      98.8911     327.4592 1533251515 9999999.9999
     204.0    1845.4724       0.0000     160.6538    -999.2500      17.6332     103.5497      19.9416     103.7337     333.5578 1533251516 9999999.9999
     205.0    1762.2180       0.0000     168.0677      78.9376       9.3990     105.9798      11.7074     106.2166     339.6564 1533251517 9999999.9999
     206.0    1682.1173       0.0000     176.7148      73.6290       0.8435     106.4417       3.1519     106.6886     345.7487 1533251518 9999999.9999
     207.0    1612.6721       0.0000    -174.5932      74.2314      -7.5112     106.4015      -5.2028     106.6475     351.8534 1533251519 9999999.9999
     208.0    1521.9155       0.0000    -166.7122      84.9895     -15.5445     103.9915     -13.2361     104.1852     357.9397 1533251520 9999999.9999
     209.0    1434.9490       0.0000    -159.5615    -999.2500     -23.8992      99.0108     -21.5908      99.0963       4.0394 1533251521 9999999.9999
     210.0    1341.8416       0.0000    -153.6159    -999.2500     -32.0128      92.7047     -29.7044      92.6531      10.1443 1533251522 9999999.9999
     211.0    1278.4092       0.0000    -148.6285    -999.2500     -39.7248      85.4345     -37.4164      85.2250      16.2492 1533251523 9999999.9999
