~VERSION INFORMATION
VERS.           2.0   :CWLS Log ASCII Standard - VERSION 2.0
WRAP.           NO    :One Line per depth step
PROD.  Schlumberger   :LAS Producer
PROG.  DLIS to ASCII 19C2-270                          :LAS Program name and version
CREA.        2018/08/03 10:59                          :LAS Creation date {YYYY/MM/DD hh:mm}
DLIS_CREA.  2018-Aug-03 09:38                          :DLIS Creation date and time {YYYY-MMM-DD hh:mm}
SOURCE.     PERFO_Perfo_080PTP.DLIS                    :DLIS File Name
FILE-ID.     PERFO_Perfo_080PTP                        :File Identification Number
#--------------------------------------------------
~WELL INFORMATION
#MNEM.UNIT      DATA             DESCRIPTION
#---- ------ --------------   -----------------------------
STRT .S            0.0       :START TIME      
STOP .S          356.0       :STOP TIME      
STEP .S            1.0       :STEP     
NULL .          -999.25      :NULL VALUE
COMP .        SHELL INTERNATIONAL EP                   :COMPANY
WELL .        WPP TEST 4                               :WELL
FLD  .        WILDCAT                                  :FIELD
LOC  .        NA                                       :LOCATION
CNTY .        HARRIS                                   :COUNTY
STAT .        TEXAS                                    :STATE
CTRY .                                                 :COUNTRY
API  .        NA                                       :API NUMBER
UWI  .                                                 :UNIQUE WELL ID
DATE .        02-Aug-2018                              :LOG DATE {DD-MMM-YYYY}
SRVC .        Schlumberger                             :SERVICE COMPANY
LATI .DEG                                              :LATITUDE
LONG .DEG                                              :LONGITUDE
GDAT .                                                 :GeoDetic Datum
SECT .        NA                                       :Section
RANG .        NA                                       :Range
TOWN .        NA                                       :Township
#-----------------------------------------------------------------------------
~PARAMETER INFORMATION
#MNEM.UNIT    VALUE                      DESCRIPTION
#---- -----   --------------------       ------------------------
U-PHASE_B_COMP_PER_YT.                 0 :Phase B Comparator Period Yt
U-PHASE_A_COMP_PER_XT.                 0 :Phase A Comparator Period Xt
U-MAX_EXC_CUR_LIMIT.MA       265.00000   :Requested CM Current Limit
U-REQ_EXC_FQ.HZ              50          :Requested CM Frequency
U-TILT_Y_OFFSET.          -2.06578       :WPTET Tilt Y Offset
U-TILT_Y_GAIN.           1.02173         :WPTET Tilt Y Gain
U-TILT_X_OFFSET.           2.30841       :WPTET Tilt X Offset
U-TILT_X_GAIN.           1.00000         :WPTET Tilt X Gain
U-TILT_OFFSET_TOL.           0.00100     :WPTET Tilt Offset Calibration Tolerance
U-MOT_CUR_LIMIT_REQ.MA        70.00000   :Requested Motor Current Limit
U-MOT_SPD_REQ_WPMS.RPM        1.00000    :Requested Motor Speed
U-STD_TOL_TILT.           0.01000        :Tilt Standard Deviation Tolerance
CWEI .LB/F      29.00000                 :Casing Weight
CSIZ .IN         7.00000                 :Current Casing Size
LCC  .               440                 :Logging Company Code
LUN  .              2134                 :Logging Unit Number
HIDE .                                   :Header Identifier
HID1 .                                   :Header Identifier Line 1
R1   .                                   :Remark Line 1
WITN .        MR. KELLY McCOY            :Witness's Name
ENGI .        MORRIS MOORE               :Engineer's Name
LUL  .        IOWA COLONY                :Logging Unit Location
DATE .        02-Aug-2018                :Date as Month-Day-Year
STAT .        TEXAS                      :State or Province
COUN .        HARRIS                     :County or Rig Name
FN   .        WILDCAT                    :Field Name
WN   .        WPP TEST 4                 :Well Name
CN   .        SHELL INTERNATIONAL EP     :Company Name
CLAB .        County                     :County/Rig Label
SLAB .        State                      :State/Province Label
RUN  .          1                        :RUN NUMBER
PDAT .        GROUND LEVEL               :Permanent Datum
EPD  .                                   :Elevation of Permanent Datum above Mean Sea Level
LMF  .          NA                       :Logging Measured From (Name of Logging Elevation Reference)
APD  .                                   :Elevation of Depth Reference (LMF) above Permanent Datum
#-----------------------------------------------------------------------------
~CURVE INFORMATION
#MNEM.UNIT   API CODE                                  DESCRIPTION
#---- -----  --------                                  -----------------------
TIME .S                                                :TIME {F10.1}
FREQ_EMF_SL.HZ                                         :Electromagnetic Field Frequency {F13.4}
PH_SH_WPPCM_SL.DEG                                     :WPPCM Phase Shift {F13.4}
RB_SL.DEG                                              :Relative Bearing {F13.4}
SDEV_SL.DEG                                            :Sonde Deviation {F13.4}
RTIX_SL.DEG                                            :Raw X-axis Tilt {F13.4}
RTIY_SL.DEG                                            :Raw Y-axis Tilt {F13.4}
TILX_SL.DEG                                            :X-axis Tilt {F13.4}
TILY_SL.DEG                                            :Y-axis Tilt {F13.4}
ROTA_SL.DEG                                            :Motor Rotation Angle {F13.4}
TOD7 .S                                                :Time of Day {I11}
TOJ  .S                                                :Time of Job {F13.4}
#-----------------------------------------------------------------------------
# 
#     TIME    FREQ_EMF_SL  PH_SH_WPPCM_    RB_SL       SDEV_SL      RTIX_SL      RTIY_SL      TILX_SL      TILY_SL      ROTA_SL        TOD7            TOJ
#                          SL
~A  
# ...
     265.0     805.4124       0.0000       6.0607      76.1266       3.5748    -100.8585       5.8832    -105.1157     162.9109 1533244877 9999999.9999
     266.0     895.7007       0.0000      14.2873      88.5888      12.0098     -99.5732      14.3182    -103.8024     169.0159 1533244878 9999999.9999
     267.0     999.4670       0.0000      20.6195    -999.2500      19.4005     -96.4000      21.7089    -100.5603     175.1022 1533244879 9999999.9999
     268.0    1147.0228       0.0000      26.0589    -999.2500      26.8313     -91.2185      29.1397     -95.2662     181.2011 1533244880 9999999.9999
     269.0    1392.3268       0.0000      30.4788    -999.2500      33.7400     -85.1533      36.0484     -89.0693     187.3060 1533244881 9999999.9999
     270.0    1580.0563       0.0000      34.5433    -999.2500      40.6085     -77.8028      42.9169     -81.5591     193.4110 1533244882 9999999.9999
     271.0    1749.0671       0.0000      38.6548    -999.2500      47.3565     -68.8055      49.6649     -72.3662     199.5098 1533244883 9999999.9999
     272.0    1915.8719       0.0000      47.0708    -999.2500      58.8843     -51.4133      61.1927     -54.5962     205.5964 1533244884 9999999.9999
     273.0    2061.9502       0.0000      52.5518    -999.2500      76.2363     -45.5892      78.5447     -48.6455     211.7013 1533244885 9999999.9999
     274.0    2183.6179       0.0000      56.2967    -999.2500      84.3902     -38.8412      86.6986     -41.7509     218.2113 1533244886 9999999.9999
     275.0    2282.8735       0.0000      60.3829    -999.2500      91.2185     -31.8120      93.5269     -34.5690     224.3101 1533244887 9999999.9999
     276.0    2391.5815       0.0000      65.1516    -999.2500      96.6410     -24.6222      98.9494     -27.2229     230.4151 1533244888 9999999.9999
     277.0    2449.9128       0.0000      70.7814    -999.2500      99.9347     -17.4725     102.2431     -19.9179     236.5200 1533244889 9999999.9999
     278.0    2484.5405       0.0000      77.8491      83.8254     101.3003      -9.8007     103.6087     -12.0794     242.6189 1533244890 9999999.9999
     279.0    2486.7373       0.0000      86.8604      76.3390     101.7020      -0.9640     104.0104      -3.0507     248.7177 1533244891 9999999.9999
     280.0    2484.5405       0.0000      96.2185      77.0621     102.0233       7.9530     104.3317       6.0600     254.8226 1533244892 9999999.9999
     281.0    2484.5405       0.0000     103.8382      88.7808     100.4970      15.6248     102.8054      13.8985     260.9274 1533244893 9999999.9999
     282.0    2493.3511       0.0000     110.7184    -999.2500      96.6008      23.4975      98.9092      21.9423     267.0260 1533244894 9999999.9999
     283.0    2484.5405       0.0000     116.5646    -999.2500      90.9775      31.3300      93.2859      29.9449     273.1246 1533244895 9999999.9999
     284.0    2484.5405       0.0000     121.3552    -999.2500      84.1090      38.6805      86.4174      37.4551     279.2294 1533244896 9999999.9999
     285.0    2493.3511       0.0000     125.8829    -999.2500      75.9150      46.1515      78.2234      45.0885     285.3341 1533244897 9999999.9999
     286.0    2467.1052       0.0000     130.3268    -999.2500      66.3152      53.1405      68.6236      52.2293     291.8376 1533244898 9999999.9999
     287.0    2484.5405       0.0000     138.3199    -999.2500      53.3012      68.5243      55.6096      67.9474     297.9557 1533244899 9999999.9999
     288.0    2493.3511       0.0000     142.3633    -999.2500      46.5933      78.1242      48.9017      77.7558     304.0604 1533244900 9999999.9999
     289.0    2484.5405       0.0000     146.1747    -999.2500      39.6445      86.2780      41.9529      86.0868     310.1721 1533244901 9999999.9999
     290.0    2493.3511       0.0000     150.4648    -999.2500      32.1333      93.4678      34.4417      93.4328     316.2707 1533244902 9999999.9999
     291.0    2484.5405       0.0000     155.6279    -999.2500      24.2205      99.5330      26.5289      99.6298     322.3754 1533244903 9999999.9999
     292.0    2475.7922       0.0000     162.2581    -999.2500      15.7453     104.1923      18.0537     104.3904     328.4801 1533244904 9999999.9999
     293.0    2416.2371       0.0000     169.7720      77.4278       7.6718     105.9195       9.9802     106.1551     334.5787 1533244905 9999999.9999
     294.0    2328.2285       0.0000     178.3040      73.4367      -0.6828     106.4015       1.6256     106.6475     340.6773 1533244906 9999999.9999
     295.0    2225.0791       0.0000    -173.1647      75.2364      -8.9170     105.9998      -6.6086     106.2371     346.7821 1533244907 9999999.9999
     296.0    2098.8806       0.0000    -165.2958      89.1533     -17.1110     103.0275     -14.8026     103.2002     352.8868 1533244908 9999999.9999
     297.0    1942.3344       0.0000    -158.2548    -999.2500     -25.5862      97.7255     -23.2778      97.7830     358.9854 1533244909 9999999.9999
     298.0    1784.5813       0.0000    -152.5097    -999.2500     -33.6597      91.0177     -31.3513      90.9294       5.5085 1533244910 9999999.9999
     299.0    1594.3877       0.0000    -147.5371    -999.2500     -41.4922      83.5467     -39.1838      83.2961      11.6134 1533244911 9999999.9999
     300.0    1370.6140       0.0000    -143.0190    -999.2500     -48.8828      75.1117     -46.5744      74.6778      17.7121 1533244912 9999999.9999
     301.0    1125.0000       0.0000    -138.1511    -999.2500     -56.1128      64.9495     -53.8044      64.2949      23.8109 1533244913 9999999.9999
     302.0     991.7137       0.0000    -130.4750    -999.2500     -70.5728      53.3413     -68.2644      52.4345      29.9219 1533244914 9999999.9999
     303.0     872.3636       0.0000    -126.2053    -999.2500     -79.6505      46.6335     -77.3421      45.5809      36.0214 1533244915 9999999.9999
     304.0     752.8105       0.0000    -121.5448    -999.2500     -87.9650      38.9617     -85.6566      37.7424      42.1202 1533244916 9999999.9999
     305.0     642.7103       0.0000    -116.6359    -999.2500     -94.9138      31.4505     -92.6054      30.0681      48.2189 1533244917 9999999.9999
     306.0     552.7712       0.0000    -110.6625    -999.2500    -100.7782      23.4573     -98.4697      21.9012      54.3368 1533244918 9999999.9999
     307.0     487.2661       0.0000    -103.6249      85.4921    -104.7145      15.4240    -102.4061      13.6933      60.4417 1533244919 9999999.9999
     308.0     433.2255       0.0000     -95.6201      77.4510    -106.0400       7.3907    -103.7316       5.4855      66.5404 1533244920 9999999.9999
     309.0     395.0141       0.0000     -86.9914      76.6783    -105.9597      -0.8435    -103.6513      -2.9276      72.6267 1533244921 9999999.9999
     310.0     366.0203       0.0000     -78.3823      83.6700    -105.5178      -9.2785    -103.2094     -11.5459      79.1557 1533244922 9999999.9999
     311.0     345.1767       0.0000     -71.2360    -999.2500    -102.9070     -17.0708    -100.5986     -19.5075      85.2544 1533244923 9999999.9999
     312.0     325.9736       0.0000     -64.9160    -999.2500     -98.0870     -25.1443     -95.7786     -27.7564      91.3531 1533244924 9999999.9999
     313.0     315.1613       0.0000     -59.7724    -999.2500     -91.7808     -32.8563     -89.4724     -35.6360      97.4580 1533244925 9999999.9999
     314.0     311.1173       0.0000     -55.4895    -999.2500     -84.8722     -40.0462     -82.5638     -42.9820     103.5759 1533244926 9999999.9999
     315.0     315.8693       0.0000     -51.4545    -999.2500     -76.7183     -47.0352     -74.4099     -50.1229     109.6746 1533244927 9999999.9999
     316.0     330.1056       0.0000     -46.6743    -999.2500     -65.6725     -54.2250     -63.3641     -57.4689     115.7733 1533244928 9999999.9999
     317.0     349.6395       0.0000     -38.2658    -999.2500     -52.0158     -71.6172     -49.7074     -75.2390     121.8782 1533244929 9999999.9999
