~VERSION INFORMATION
VERS.           2.0   :CWLS Log ASCII Standard - VERSION 2.0
WRAP.           NO    :One Line per depth step
PROD.  Schlumberger   :LAS Producer
PROG.  DLIS to ASCII 19C2-270                          :LAS Program name and version
CREA.        2018/08/03 10:59                          :LAS Creation date {YYYY/MM/DD hh:mm}
DLIS_CREA.  2018-Aug-03 09:40                          :DLIS Creation date and time {YYYY-MMM-DD hh:mm}
SOURCE.     PERFO_Perfo_082PTP.DLIS                    :DLIS File Name
FILE-ID.     PERFO_Perfo_082PTP                        :File Identification Number
#--------------------------------------------------
~WELL INFORMATION
#MNEM.UNIT      DATA             DESCRIPTION
#---- ------ --------------   -----------------------------
STRT .S            0.0       :START TIME      
STOP .S          387.0       :STOP TIME      
STEP .S            1.0       :STEP     
NULL .          -999.25      :NULL VALUE
COMP .        SHELL INTERNATIONAL EP                   :COMPANY
WELL .        WPP TEST 4                               :WELL
FLD  .        WILDCAT                                  :FIELD
LOC  .        NA                                       :LOCATION
CNTY .        HARRIS                                   :COUNTY
STAT .        TEXAS                                    :STATE
CTRY .                                                 :COUNTRY
API  .        NA                                       :API NUMBER
UWI  .                                                 :UNIQUE WELL ID
DATE .        02-Aug-2018                              :LOG DATE {DD-MMM-YYYY}
SRVC .        Schlumberger                             :SERVICE COMPANY
LATI .DEG                                              :LATITUDE
LONG .DEG                                              :LONGITUDE
GDAT .                                                 :GeoDetic Datum
SECT .        NA                                       :Section
RANG .        NA                                       :Range
TOWN .        NA                                       :Township
#-----------------------------------------------------------------------------
~PARAMETER INFORMATION
#MNEM.UNIT    VALUE                      DESCRIPTION
#---- -----   --------------------       ------------------------
U-PHASE_B_COMP_PER_YT.                 0 :Phase B Comparator Period Yt
U-PHASE_A_COMP_PER_XT.                 0 :Phase A Comparator Period Xt
U-MAX_EXC_CUR_LIMIT.MA       265.00000   :Requested CM Current Limit
U-REQ_EXC_FQ.HZ              50          :Requested CM Frequency
U-TILT_Y_OFFSET.          -2.06578       :WPTET Tilt Y Offset
U-TILT_Y_GAIN.           1.02173         :WPTET Tilt Y Gain
U-TILT_X_OFFSET.           2.30841       :WPTET Tilt X Offset
U-TILT_X_GAIN.           1.00000         :WPTET Tilt X Gain
U-TILT_OFFSET_TOL.           0.00100     :WPTET Tilt Offset Calibration Tolerance
U-MOT_CUR_LIMIT_REQ.MA        70.00000   :Requested Motor Current Limit
U-MOT_SPD_REQ_WPMS.RPM        1.00000    :Requested Motor Speed
U-STD_TOL_TILT.           0.01000        :Tilt Standard Deviation Tolerance
CWEI .LB/F      29.00000                 :Casing Weight
CSIZ .IN         7.00000                 :Current Casing Size
LCC  .               440                 :Logging Company Code
LUN  .              2134                 :Logging Unit Number
HIDE .                                   :Header Identifier
HID1 .                                   :Header Identifier Line 1
R1   .                                   :Remark Line 1
WITN .        MR. KELLY McCOY            :Witness's Name
ENGI .        MORRIS MOORE               :Engineer's Name
LUL  .        IOWA COLONY                :Logging Unit Location
DATE .        02-Aug-2018                :Date as Month-Day-Year
STAT .        TEXAS                      :State or Province
COUN .        HARRIS                     :County or Rig Name
FN   .        WILDCAT                    :Field Name
WN   .        WPP TEST 4                 :Well Name
CN   .        SHELL INTERNATIONAL EP     :Company Name
CLAB .        County                     :County/Rig Label
SLAB .        State                      :State/Province Label
RUN  .          1                        :RUN NUMBER
PDAT .        GROUND LEVEL               :Permanent Datum
EPD  .                                   :Elevation of Permanent Datum above Mean Sea Level
LMF  .          NA                       :Logging Measured From (Name of Logging Elevation Reference)
APD  .                                   :Elevation of Depth Reference (LMF) above Permanent Datum
#-----------------------------------------------------------------------------
~CURVE INFORMATION
#MNEM.UNIT   API CODE                                  DESCRIPTION
#---- -----  --------                                  -----------------------
TIME .S                                                :TIME {F10.1}
FREQ_EMF_SL.HZ                                         :Electromagnetic Field Frequency {F13.4}
PH_SH_WPPCM_SL.DEG                                     :WPPCM Phase Shift {F13.4}
RB_SL.DEG                                              :Relative Bearing {F13.4}
SDEV_SL.DEG                                            :Sonde Deviation {F13.4}
RTIX_SL.DEG                                            :Raw X-axis Tilt {F13.4}
RTIY_SL.DEG                                            :Raw Y-axis Tilt {F13.4}
TILX_SL.DEG                                            :X-axis Tilt {F13.4}
TILY_SL.DEG                                            :Y-axis Tilt {F13.4}
ROTA_SL.DEG                                            :Motor Rotation Angle {F13.4}
TOD7 .S                                                :Time of Day {I11}
TOJ  .S                                                :Time of Job {F13.4}
#-----------------------------------------------------------------------------
# 
#     TIME    FREQ_EMF_SL  PH_SH_WPPCM_    RB_SL       SDEV_SL      RTIX_SL      RTIY_SL      TILX_SL      TILY_SL      ROTA_SL        TOD7            TOJ
#                          SL
~A  
# ...
     159.0       0.0000       0.0000    -156.6024    -999.2500     -27.7953      95.9983     -25.4869      96.0183      52.4403 1533245622 9999999.9999
     160.0       0.0000       0.0000    -151.0615    -999.2500     -35.8688      89.0897     -33.5604      88.9595      58.9634 1533245623 9999999.9999
     161.0       0.0000       0.0000    -146.3047    -999.2500     -43.5005      81.2973     -41.1921      80.9979      65.0682 1533245624 9999999.9999
     162.0       0.0000       0.0000    -141.8168    -999.2500     -50.7707      72.6213     -48.4623      72.1334      71.1670 1533245625 9999999.9999
     163.0       0.0000       0.0000    -136.3457    -999.2500     -57.8400      60.5312     -55.5316      59.7806      77.2657 1533245626 9999999.9999
     164.0       0.0000       0.0000    -129.2700    -999.2500     -73.3042      51.5740     -70.9958      50.6288      83.3705 1533245627 9999999.9999
     165.0       0.0000       0.0000    -125.1166    -999.2500     -81.7392      44.8260     -79.4308      43.7342      89.4631 1533245628 9999999.9999
     166.0       0.0000       0.0000    -120.3562    -999.2500     -89.8930      37.0738     -87.5846      35.8136      95.5496 1533245629 9999999.9999
     167.0       0.0000       0.0000    -115.2167    -999.2500     -96.4000      29.4422     -94.0916      28.0161     101.6675 1533245630 9999999.9999
     168.0       0.0000       0.0000    -109.1109    -999.2500    -101.9832      21.5695     -99.6748      19.9724     107.7854 1533245631 9999999.9999
     169.0       0.0000       0.0000    -101.2662      83.3735    -105.3572      12.9738    -103.0488      11.1899     113.8972 1533245632 9999999.9999
     170.0       0.0000       0.0000     -93.4445      76.6579    -106.0802       5.3020    -103.7718       3.3514     119.9959 1533245633 9999999.9999
     171.0       0.0000       0.0000     -84.4361      77.4703    -105.9998      -3.2937    -103.6914      -5.4310     126.1007 1533245634 9999999.9999
     172.0       0.0000       0.0000     -75.8455      88.6060    -104.7948     -11.9295    -102.4864     -14.2545     132.6237 1533245635 9999999.9999
     173.0       0.0000       0.0000     -69.4890    -999.2500    -101.3405     -19.1997     -99.0321     -21.6826     138.7225 1533245636 9999999.9999
     174.0       0.0000       0.0000     -63.5001    -999.2500     -96.7213     -27.1527     -94.4129     -29.8084     144.8213 1533245637 9999999.9999
     175.0       0.0000       0.0000     -58.9955    -999.2500     -90.1340     -34.1015     -87.8256     -36.9082     150.9324 1533245638 9999999.9999
     176.0       0.0000       0.0000     -54.3469    -999.2500     -82.8237     -42.0545     -80.5153     -45.0340     157.0313 1533245639 9999999.9999
     177.0       0.0000       0.0000     -50.2177    -999.2500     -73.8665     -49.0435     -71.5581     -52.1749     163.1301 1533245640 9999999.9999
     178.0       0.0000       0.0000     -45.1406    -999.2500     -61.9772     -55.9120     -59.6688     -59.1926     169.2228 1533245641 9999999.9999
     179.0       0.0000       0.0000     -37.3917    -999.2500     -50.5297     -73.6657     -48.2213     -77.3320     175.3216 1533245642 9999999.9999
     180.0       0.0000       0.0000     -33.3489    -999.2500     -43.3800     -82.8237     -41.0716     -86.6890     181.4266 1533245643 9999999.9999
     181.0       0.0000       0.0000     -29.1957    -999.2500     -36.1902     -89.8930     -33.8818     -93.9119     187.5131 1533245644 9999999.9999
     182.0       0.0000       0.0000     -24.4769    -999.2500     -28.9602     -95.6770     -26.6518     -99.8216     193.6187 1533245645 9999999.9999
     183.0       0.0000       0.0000     -18.6825    -999.2500     -21.4892     -99.4527     -19.1808    -103.6793     199.7367 1533245646 9999999.9999
     184.0       0.0000       0.0000     -12.0305      80.7120     -14.1788    -100.8987     -11.8704    -105.1567     206.2405 1533245647 9999999.9999
     185.0       0.0000       0.0000      -3.5988      74.9713      -5.7840    -101.1798      -3.4756    -105.4440     212.3393 1533245648 9999999.9999
     186.0       0.0000       0.0000       5.3668      75.7165       2.8920    -100.9790       5.2004    -105.2388     218.4318 1533245649 9999999.9999
     187.0       0.0000       0.0000      13.3253      85.0110      10.9655     -99.9748      13.2739    -104.2128     224.5243 1533245650 9999999.9999
     188.0       0.0000       0.0000      19.7115      89.4203      18.2758     -96.9222      20.5842    -101.0938     230.6231 1533245651 9999999.9999
     189.0       0.0000       0.0000      25.2330    -999.2500      25.6263     -92.1825      27.9347     -96.2511     236.7412 1533245652 9999999.9999
     190.0       0.0000       0.0000      30.0384    -999.2500      33.0170     -85.5550      35.3254     -89.4797     242.8461 1533245653 9999999.9999
     191.0       0.0000       0.0000      34.0870    -999.2500      39.8453     -78.8472      42.1537     -82.6261     248.9450 1533245654 9999999.9999
     192.0       0.0000       0.0000      38.1452    -999.2500      46.6335     -70.1712      48.9419     -73.7616     255.0499 1533245655 9999999.9999
     193.0       0.0000       0.0000      44.0480    -999.2500      49.8067     -51.4937      52.1151     -54.6783     261.1363 1533245656 9999999.9999
     194.0       0.0000       0.0000      52.0267    -999.2500      74.8305     -46.4728      77.1389     -49.5483     267.2410 1533245657 9999999.9999
     195.0       0.0000       0.0000      55.8267    -999.2500      83.4262     -39.6847      85.7346     -42.6127     273.3396 1533245658 9999999.9999
     196.0       0.0000       0.0000      59.7477    -999.2500      90.2947     -32.8563      92.6031     -35.6360     279.8432 1533245659 9999999.9999
     197.0       0.0000       0.0000      64.4372    -999.2500      95.9983     -25.6263      98.3067     -28.2489     285.9540 1533245660 9999999.9999
     198.0       0.0000       0.0000      69.5634    -999.2500      99.4527     -18.9185     101.7611     -21.3953     292.0526 1533245661 9999999.9999
     199.0       0.0000       0.0000      77.0698      86.1273     101.1798     -10.6040     103.4882     -12.9002     298.1512 1533245662 9999999.9999
     200.0       0.0000       0.0000      85.2644      76.7991     101.7020      -2.4903     104.0104      -4.6102     304.2560 1533245663 9999999.9999
     201.0       0.0000       0.0000      94.3356      76.3689     101.9832       6.1455     104.2916       4.2132     310.3607 1533245664 9999999.9999
     202.0       0.0000       0.0000     102.9284      87.2781     100.8987      14.6608     103.2071      12.9136     316.4593 1533245665 9999999.9999
     203.0       0.0000       0.0000     109.9036    -999.2500      97.2837      22.4933      99.5921      20.9163     322.5579 1533245666 9999999.9999
     204.0       0.0000       0.0000     115.8935    -999.2500      91.7808      30.3660      94.0892      28.9600     328.6688 1533245667 9999999.9999
     205.0     848.1604       0.0000     120.7041    -999.2500      85.1132      37.6362      87.4216      36.3881     334.7807 1533245668 9999999.9999
     206.0    2432.9585       0.0000     125.2540    -999.2500      77.1602      45.1072      79.4686      44.0214     340.8085 1533245669 9999999.9999
     207.0    2475.7922       0.0000     129.7172    -999.2500      67.8013      52.2970      70.1097      51.3675     346.9202 1533245670 9999999.9999
     208.0    2493.3511       0.0000     137.6442    -999.2500      54.2652      66.8775      56.5736      66.2648     353.4360 1533245671 9999999.9999
     209.0    2484.5405       0.0000     141.8263    -999.2500      47.5573      76.9192      49.8657      76.5246     359.5346 1533245672 9999999.9999
     210.0    2484.5405       0.0000     145.7137    -999.2500      40.4880      85.3943      42.7964      85.1839       5.6333 1533245673 9999999.9999
     211.0    2475.7922       0.0000     149.9352    -999.2500      33.0170      92.7448      35.3254      92.6941      11.7382 1533245674 9999999.9999
