~VERSION INFORMATION
VERS.           2.0   :CWLS Log ASCII Standard - VERSION 2.0
WRAP.           NO    :One Line per depth step
PROD.  Schlumberger   :LAS Producer
PROG.  DLIS to ASCII 19C2-270                          :LAS Program name and version
CREA.        2018/08/03 10:59                          :LAS Creation date {YYYY/MM/DD hh:mm}
DLIS_CREA.  2018-Aug-03 08:48                          :DLIS Creation date and time {YYYY-MMM-DD hh:mm}
SOURCE.     PERFO_Perfo_061PTP.DLIS                    :DLIS File Name
FILE-ID.     PERFO_Perfo_061PTP                        :File Identification Number
#--------------------------------------------------
~WELL INFORMATION
#MNEM.UNIT      DATA             DESCRIPTION
#---- ------ --------------   -----------------------------
STRT .S            0.0       :START TIME      
STOP .S          993.0       :STOP TIME      
STEP .S            1.0       :STEP     
NULL .          -999.25      :NULL VALUE
COMP .        SHELL INTERNATIONAL EP                   :COMPANY
WELL .        WPP TEST 4                               :WELL
FLD  .        WILDCAT                                  :FIELD
LOC  .        NA                                       :LOCATION
CNTY .        HARRIS                                   :COUNTY
STAT .        TEXAS                                    :STATE
CTRY .                                                 :COUNTRY
API  .        NA                                       :API NUMBER
UWI  .                                                 :UNIQUE WELL ID
DATE .        02-Aug-2018                              :LOG DATE {DD-MMM-YYYY}
SRVC .        Schlumberger                             :SERVICE COMPANY
LATI .DEG                                              :LATITUDE
LONG .DEG                                              :LONGITUDE
GDAT .                                                 :GeoDetic Datum
SECT .        NA                                       :Section
RANG .        NA                                       :Range
TOWN .        NA                                       :Township
#-----------------------------------------------------------------------------
~PARAMETER INFORMATION
#MNEM.UNIT    VALUE                      DESCRIPTION
#---- -----   --------------------       ------------------------
U-PHASE_B_COMP_PER_YT.                 0 :Phase B Comparator Period Yt
U-PHASE_A_COMP_PER_XT.                 0 :Phase A Comparator Period Xt
U-MAX_EXC_CUR_LIMIT.MA       265.00000   :Requested CM Current Limit
U-REQ_EXC_FQ.HZ              50          :Requested CM Frequency
U-TILT_Y_OFFSET.          -2.06578       :WPTET Tilt Y Offset
U-TILT_Y_GAIN.           1.02173         :WPTET Tilt Y Gain
U-TILT_X_OFFSET.           2.30841       :WPTET Tilt X Offset
U-TILT_X_GAIN.           1.00000         :WPTET Tilt X Gain
U-TILT_OFFSET_TOL.           0.00100     :WPTET Tilt Offset Calibration Tolerance
U-MOT_CUR_LIMIT_REQ.MA        70.00000   :Requested Motor Current Limit
U-MOT_SPD_REQ_WPMS.RPM        1.00000    :Requested Motor Speed
U-STD_TOL_TILT.           0.01000        :Tilt Standard Deviation Tolerance
CWEI .LB/F      29.00000                 :Casing Weight
CSIZ .IN         7.00000                 :Current Casing Size
LCC  .               440                 :Logging Company Code
LUN  .              2134                 :Logging Unit Number
HIDE .                                   :Header Identifier
HID1 .                                   :Header Identifier Line 1
R1   .                                   :Remark Line 1
WITN .        MR. KELLY McCOY            :Witness's Name
ENGI .        MORRIS MOORE               :Engineer's Name
LUL  .        IOWA COLONY                :Logging Unit Location
DATE .        02-Aug-2018                :Date as Month-Day-Year
STAT .        TEXAS                      :State or Province
COUN .        HARRIS                     :County or Rig Name
FN   .        WILDCAT                    :Field Name
WN   .        WPP TEST 4                 :Well Name
CN   .        SHELL INTERNATIONAL EP     :Company Name
CLAB .        County                     :County/Rig Label
SLAB .        State                      :State/Province Label
RUN  .          1                        :RUN NUMBER
PDAT .        GROUND LEVEL               :Permanent Datum
EPD  .                                   :Elevation of Permanent Datum above Mean Sea Level
LMF  .          NA                       :Logging Measured From (Name of Logging Elevation Reference)
APD  .                                   :Elevation of Depth Reference (LMF) above Permanent Datum
#-----------------------------------------------------------------------------
~CURVE INFORMATION
#MNEM.UNIT   API CODE                                  DESCRIPTION
#---- -----  --------                                  -----------------------
TIME .S                                                :TIME {F10.1}
FREQ_EMF_SL.HZ                                         :Electromagnetic Field Frequency {F13.4}
PH_SH_WPPCM_SL.DEG                                     :WPPCM Phase Shift {F13.4}
RB_SL.DEG                                              :Relative Bearing {F13.4}
SDEV_SL.DEG                                            :Sonde Deviation {F13.4}
RTIX_SL.DEG                                            :Raw X-axis Tilt {F13.4}
RTIY_SL.DEG                                            :Raw Y-axis Tilt {F13.4}
TILX_SL.DEG                                            :X-axis Tilt {F13.4}
TILY_SL.DEG                                            :Y-axis Tilt {F13.4}
ROTA_SL.DEG                                            :Motor Rotation Angle {F13.4}
TOD7 .S                                                :Time of Day {I11}
TOJ  .S                                                :Time of Job {F13.4}
#-----------------------------------------------------------------------------
# 
#     TIME    FREQ_EMF_SL  PH_SH_WPPCM_    RB_SL       SDEV_SL      RTIX_SL      RTIY_SL      TILX_SL      TILY_SL      ROTA_SL        TOD7            TOJ
#                          SL
~A  
# ...
     689.0    1654.4117       0.0000     131.0560    -999.2500      63.3428      53.4217      65.6512      52.5166     279.3393 1533229529 9999999.9999
     690.0    1650.5282       0.0000     139.8080    -999.2500      50.5297      71.1352      52.8381      70.6150     285.4441 1533229530 9999999.9999
     691.0    1642.8153       0.0000     143.7632    -999.2500      43.8620      80.1727      46.1704      79.8488     291.5619 1533229531 9999999.9999
     692.0    1623.8453       0.0000     147.6698    -999.2500      36.9132      87.6838      39.2216      87.5232     297.6735 1533229532 9999999.9999
     693.0    1608.9817       0.0000     152.1191    -999.2500      29.5225      94.5122      31.8309      94.4999     303.7721 1533229533 9999999.9999
     694.0    1594.3877       0.0000     157.5206    -999.2500      21.7302     100.0150      24.0386     100.1223     309.8769 1533229534 9999999.9999
     695.0    1576.5134       0.0000     163.9076    -999.2500      13.9780     103.3890      16.2864     103.5696     315.9816 1533229535 9999999.9999
     696.0    1555.5862       0.0000     171.7531      77.5678       5.7438     104.6743       8.0522     104.8828     322.4851 1533229536 9999999.9999
     697.0    1528.5327       0.0000    -179.8114      74.7490      -2.4903     105.0358      -0.1819     105.2522     328.5837 1533229537 9999999.9999
     698.0    1512.0968       0.0000    -171.5186      78.0272     -10.6040     104.4333      -8.2956     104.6366     334.6946 1533229538 9999999.9999
     699.0    1486.5221       0.0000    -163.9352      91.4967     -18.7177     101.0593     -16.4093     101.1893     340.7932 1533229539 9999999.9999
     700.0    1455.7454       0.0000    -157.3911    -999.2500     -26.7912      95.6368     -24.4828      95.6490     346.8795 1533229540 9999999.9999
     701.0    1437.8834       0.0000    -151.8150    -999.2500     -34.7040      89.0495     -32.3956      88.9185     352.9853 1533229541 9999999.9999
     702.0    1414.7384       0.0000    -146.5388    -999.2500     -42.9783      80.7350     -40.6699      80.4234     359.1031 1533229542 9999999.9999
     703.0    1389.5751       0.0000    -142.0359    -999.2500     -50.0878      72.1393     -47.7794      71.6409       5.2018 1533229543 9999999.9999
     704.0    1362.6454       0.0000    -136.6417    -999.2500     -56.9563      60.4910     -54.6479      59.7395      11.3067 1533229544 9999999.9999
     705.0    1349.5681       0.0000    -129.0309    -999.2500     -72.9427      50.8510     -70.6343      49.8901      17.4054 1533229545 9999999.9999
     706.0    1334.2030       0.0000    -124.7914    -999.2500     -81.4982      44.1432     -79.1898      43.0365      23.5234 1533229546 9999999.9999
     707.0    1314.2523       0.0000    -120.3009    -999.2500     -89.0093      36.9533     -86.7009      35.6904      29.6221 1533229547 9999999.9999
     708.0    1299.6765       0.0000    -115.3423    -999.2500     -95.4762      29.6430     -93.1678      28.2213      36.1258 1533229548 9999999.9999
     709.0    1280.7377       0.0000    -109.1504    -999.2500    -100.6577      21.6900     -98.3493      20.0955      42.2307 1533229549 9999999.9999
     710.0    1266.8918       0.0000    -102.1518      85.3002    -103.9513      13.9378    -101.6429      12.1749      48.3356 1533229550 9999999.9999
     711.0    1257.8265       0.0000     -94.1757      78.3928    -104.6342       6.0250    -102.3258       4.0901      54.4220 1533229551 9999999.9999
     712.0    1246.6755       0.0000     -85.4638      78.5705    -104.5940      -2.3297    -102.2856      -4.4461      60.5269 1533229552 9999999.9999
     713.0    1237.8961       0.0000     -77.1275      89.3112    -103.7907     -10.6442    -101.4823     -12.9412      66.6318 1533229553 9999999.9999
     714.0    1231.9316       0.0000     -70.1837    -999.2500    -100.9187     -18.4064     -98.6103     -20.8721      72.7305 1533229554 9999999.9999
     715.0    1227.0942       0.0000     -64.1005    -999.2500     -95.8778     -26.3493     -93.5694     -28.9876      78.8292 1533229555 9999999.9999
     716.0    1220.7031       0.0000     -59.2039    -999.2500     -89.6118     -33.7400     -87.3034     -36.5389      84.9341 1533229556 9999999.9999
     717.0    1218.5875       0.0000     -54.9648    -999.2500     -82.3818     -40.7290     -80.0734     -43.6797      91.0389 1533229557 9999999.9999
     718.0    1218.5875       0.0000     -50.8518    -999.2500     -73.9067     -47.4770     -71.5983     -50.5743      96.7327 1533229558 9999999.9999
     719.0    1229.2395       0.0000     -46.0276    -999.2500     -62.9412     -53.9840     -60.6328     -57.2227     102.8314 1533229559 9999999.9999
     720.0    1227.0942       0.0000     -37.2794    -999.2500     -49.9272     -72.3803     -47.6188     -76.0187     108.9362 1533229560 9999999.9999
     721.0    1229.2395       0.0000     -33.1953    -999.2500     -42.9783     -81.0965     -40.6699     -84.9243     115.4213 1533229561 9999999.9999
     722.0    1233.5526       0.0000     -29.0311    -999.2500     -35.9893     -88.3265     -33.6809     -92.3114     121.5200 1533229562 9999999.9999
     723.0    1240.0793       0.0000     -24.2454    -999.2500     -28.7995     -93.8293     -26.4911     -97.9338     127.6249 1533229563 9999999.9999
     724.0    1260.0807       0.0000     -18.6771    -999.2500     -21.6498     -97.3640     -19.3414    -101.5452     133.7299 1533229564 9999999.9999
     725.0    1269.1787       0.0000     -11.9603      84.8104     -14.2190     -98.8100     -11.9106    -103.0226     139.8287 1533229565 9999999.9999
     726.0    1282.4897       0.0000      -3.5352      77.0748      -5.7539     -99.1715      -3.4455    -103.3920     145.9275 1533229566 9999999.9999
     727.0    1302.0834       0.0000       5.4814      77.9881       3.0527     -98.9707       5.3611    -103.1868     152.0325 1533229567 9999999.9999
     728.0    1319.1838       0.0000      13.0642      88.8960      10.8048     -97.9263      13.1132    -102.1198     158.1127 1533229568 9999999.9999
     729.0    1341.8416       0.0000      19.1693    -999.2500      17.7537     -95.1950      20.0621     -99.3291     164.1868 1533229569 9999999.9999
     730.0    1360.0098       0.0000      24.5872    -999.2500      24.8230     -90.6562      27.1314     -94.6917     170.2987 1533229570 9999999.9999
     731.0    1381.3850       0.0000      29.0409    -999.2500      31.4103     -84.8722      33.7187     -88.7820     176.4036 1533229571 9999999.9999
     732.0    1406.2500       0.0000      33.1420    -999.2500      37.9575     -78.0840      40.2659     -81.8463     182.5086 1533229572 9999999.9999
     733.0    1432.0265       0.0000      37.3623    -999.2500      44.5850     -69.4080      46.8934     -72.9818     189.0124 1533229573 9999999.9999
     734.0    1455.7454       0.0000      42.4172    -999.2500      50.1280     -56.8760      52.4364     -60.1775     195.1174 1533229574 9999999.9999
     735.0    1474.0566       0.0000      52.0558    -999.2500      72.7820     -45.8302      75.0904     -48.8917     201.2099 1533229575 9999999.9999
     736.0    1502.4038       0.0000      55.8572    -999.2500      81.2572     -39.4437      83.5656     -42.3664     207.3219 1533229576 9999999.9999
     737.0    1531.8628       0.0000      59.8473    -999.2500      88.2060     -32.7358      90.5144     -35.5129     213.4208 1533229577 9999999.9999
     738.0    1545.3296       0.0000      64.3667    -999.2500      93.8293     -25.8673      96.1377     -28.4951     219.5257 1533229578 9999999.9999
     739.0    1572.9866       0.0000      70.0922    -999.2500      97.5648     -18.4365      99.8732     -20.9029     225.6307 1533229579 9999999.9999
     740.0    1590.7806       0.0000      76.8952      88.8602      99.1715     -10.8852     101.4799     -13.1875     231.7295 1533229580 9999999.9999
     741.0    1608.9817       0.0000      85.3411      78.7525      99.8543      -2.4502     102.1627      -4.5692     237.8284 1533229581 9999999.9999
