~VERSION INFORMATION
VERS.           2.0   :CWLS Log ASCII Standard - VERSION 2.0
WRAP.           NO    :One Line per depth step
PROD.  Schlumberger   :LAS Producer
PROG.  DLIS to ASCII 19C2-270                          :LAS Program name and version
CREA.        2018/08/03 10:59                          :LAS Creation date {YYYY/MM/DD hh:mm}
DLIS_CREA.  2018-Aug-03 09:35                          :DLIS Creation date and time {YYYY-MMM-DD hh:mm}
SOURCE.     PERFO_Perfo_079PTP.DLIS                    :DLIS File Name
FILE-ID.     PERFO_Perfo_079PTP                        :File Identification Number
#--------------------------------------------------
~WELL INFORMATION
#MNEM.UNIT      DATA             DESCRIPTION
#---- ------ --------------   -----------------------------
STRT .S            0.0       :START TIME      
STOP .S          455.0       :STOP TIME      
STEP .S            1.0       :STEP     
NULL .          -999.25      :NULL VALUE
COMP .        SHELL INTERNATIONAL EP                   :COMPANY
WELL .        WPP TEST 4                               :WELL
FLD  .        WILDCAT                                  :FIELD
LOC  .        NA                                       :LOCATION
CNTY .        HARRIS                                   :COUNTY
STAT .        TEXAS                                    :STATE
CTRY .                                                 :COUNTRY
API  .        NA                                       :API NUMBER
UWI  .                                                 :UNIQUE WELL ID
DATE .        02-Aug-2018                              :LOG DATE {DD-MMM-YYYY}
SRVC .        Schlumberger                             :SERVICE COMPANY
LATI .DEG                                              :LATITUDE
LONG .DEG                                              :LONGITUDE
GDAT .                                                 :GeoDetic Datum
SECT .        NA                                       :Section
RANG .        NA                                       :Range
TOWN .        NA                                       :Township
#-----------------------------------------------------------------------------
~PARAMETER INFORMATION
#MNEM.UNIT    VALUE                      DESCRIPTION
#---- -----   --------------------       ------------------------
U-PHASE_B_COMP_PER_YT.                 0 :Phase B Comparator Period Yt
U-PHASE_A_COMP_PER_XT.                 0 :Phase A Comparator Period Xt
U-MAX_EXC_CUR_LIMIT.MA       265.00000   :Requested CM Current Limit
U-REQ_EXC_FQ.HZ              50          :Requested CM Frequency
U-TILT_Y_OFFSET.          -2.06578       :WPTET Tilt Y Offset
U-TILT_Y_GAIN.           1.02173         :WPTET Tilt Y Gain
U-TILT_X_OFFSET.           2.30841       :WPTET Tilt X Offset
U-TILT_X_GAIN.           1.00000         :WPTET Tilt X Gain
U-TILT_OFFSET_TOL.           0.00100     :WPTET Tilt Offset Calibration Tolerance
U-MOT_CUR_LIMIT_REQ.MA        70.00000   :Requested Motor Current Limit
U-MOT_SPD_REQ_WPMS.RPM        1.00000    :Requested Motor Speed
U-STD_TOL_TILT.           0.01000        :Tilt Standard Deviation Tolerance
CWEI .LB/F      29.00000                 :Casing Weight
CSIZ .IN         7.00000                 :Current Casing Size
LCC  .               440                 :Logging Company Code
LUN  .              2134                 :Logging Unit Number
HIDE .                                   :Header Identifier
HID1 .                                   :Header Identifier Line 1
R1   .                                   :Remark Line 1
WITN .        MR. KELLY McCOY            :Witness's Name
ENGI .        MORRIS MOORE               :Engineer's Name
LUL  .        IOWA COLONY                :Logging Unit Location
DATE .        02-Aug-2018                :Date as Month-Day-Year
STAT .        TEXAS                      :State or Province
COUN .        HARRIS                     :County or Rig Name
FN   .        WILDCAT                    :Field Name
WN   .        WPP TEST 4                 :Well Name
CN   .        SHELL INTERNATIONAL EP     :Company Name
CLAB .        County                     :County/Rig Label
SLAB .        State                      :State/Province Label
RUN  .          1                        :RUN NUMBER
PDAT .        GROUND LEVEL               :Permanent Datum
EPD  .                                   :Elevation of Permanent Datum above Mean Sea Level
LMF  .          NA                       :Logging Measured From (Name of Logging Elevation Reference)
APD  .                                   :Elevation of Depth Reference (LMF) above Permanent Datum
#-----------------------------------------------------------------------------
~CURVE INFORMATION
#MNEM.UNIT   API CODE                                  DESCRIPTION
#---- -----  --------                                  -----------------------
TIME .S                                                :TIME {F10.1}
FREQ_EMF_SL.HZ                                         :Electromagnetic Field Frequency {F13.4}
PH_SH_WPPCM_SL.DEG                                     :WPPCM Phase Shift {F13.4}
RB_SL.DEG                                              :Relative Bearing {F13.4}
SDEV_SL.DEG                                            :Sonde Deviation {F13.4}
RTIX_SL.DEG                                            :Raw X-axis Tilt {F13.4}
RTIY_SL.DEG                                            :Raw Y-axis Tilt {F13.4}
TILX_SL.DEG                                            :X-axis Tilt {F13.4}
TILY_SL.DEG                                            :Y-axis Tilt {F13.4}
ROTA_SL.DEG                                            :Motor Rotation Angle {F13.4}
TOD7 .S                                                :Time of Day {I11}
TOJ  .S                                                :Time of Job {F13.4}
#-----------------------------------------------------------------------------
# 
#     TIME    FREQ_EMF_SL  PH_SH_WPPCM_    RB_SL       SDEV_SL      RTIX_SL      RTIY_SL      TILX_SL      TILY_SL      ROTA_SL        TOD7            TOJ
#                          SL
~A  
# ...
     212.0    2026.2969       0.0000     117.3588    -999.2500      89.8930      32.4948      92.2014      31.1351     231.3669 1533244301 9999999.9999
     213.0    1915.8719       0.0000     122.1746    -999.2500      82.7032      40.0060      85.0116      38.8094     237.4849 1533244302 9999999.9999
     214.0    1798.2737       0.0000     126.6876    -999.2500      74.2682      47.4770      76.5766      46.4428     243.5899 1533244303 9999999.9999
     215.0    1678.1025       0.0000     131.3654    -999.2500      63.9453      54.5865      66.2537      53.7067     249.6887 1533244304 9999999.9999
     216.0    1552.1523       0.0000     139.2149    -999.2500      51.8552      70.5327      54.1636      69.9994     256.2056 1533244305 9999999.9999
     217.0    1420.4546       0.0000     143.2003    -999.2500      45.1072      80.1325      47.4156      79.8078     262.3103 1533244306 9999999.9999
     218.0    1248.8899       0.0000     147.0803    -999.2500      37.9977      87.8043      40.3061      87.6463     268.4281 1533244307 9999999.9999
     219.0    1121.4115       0.0000     151.4732    -999.2500      30.4865      94.8335      32.7949      94.8282     274.5267 1533244308 9999999.9999
     220.0    1019.0217       0.0000     156.8483    -999.2500      22.5335     100.6175      24.8419     100.7379     280.6253 1533244309 9999999.9999
     221.0     935.0067       0.0000     163.2752      86.8580      14.5805     104.5940      16.8889     104.8008     286.7300 1533244310 9999999.9999
     222.0     853.3071       0.0000     171.5725      75.9262       5.8643     106.1203       8.1727     106.3603     292.8348 1533244311 9999999.9999
     223.0     786.4933       0.0000    -179.7682      73.3540      -2.5305     106.4015      -0.2221     106.6475     298.9464 1533244312 9999999.9999
     224.0     733.1856       0.0000    -171.3483      76.6472     -10.7245     105.6383      -8.4161     105.8678     305.0512 1533244313 9999999.9999
     225.0     696.8533       0.0000    -163.7766      94.9138     -18.8382     101.9430     -16.5298     102.0922     311.1436 1533244314 9999999.9999
     226.0     658.3568       0.0000    -157.0791    -999.2500     -27.1527      96.4402     -24.8443      96.4698     317.2422 1533244315 9999999.9999
     227.0     637.4660       0.0000    -151.5039    -999.2500     -35.1860      89.6118     -32.8776      89.4931     323.3409 1533244316 9999999.9999
     228.0     619.4933       0.0000    -146.6954    -999.2500     -42.8578      81.9802     -40.5494      81.6956     329.8638 1533244317 9999999.9999
     229.0     598.9139       0.0000    -142.1915    -999.2500     -50.1682      73.3443     -47.8598      72.8721     335.9685 1533244318 9999999.9999
     230.0     592.8541       0.0000    -137.1205    -999.2500     -57.3178      62.6198     -55.0094      61.9146     342.0549 1533244319 9999999.9999
     231.0     583.9908       0.0000    -129.6592    -999.2500     -72.3803      52.1363     -70.0719      51.2033     348.1535 1533244320 9999999.9999
     232.0     587.4060       0.0000    -125.4590    -999.2500     -81.0563      45.3883     -78.7479      44.3087     354.2643 1533244321 9999999.9999
     233.0     586.4262       0.0000    -121.0688    -999.2500     -88.6880      38.1985     -86.3796      36.9627       0.3629 1533244322 9999999.9999
     234.0     594.3575       0.0000    -115.7057    -999.2500     -95.9180      30.1250     -93.6096      28.7138       6.4617 1533244323 9999999.9999
     235.0     618.9481       0.0000    -109.5807    -999.2500    -101.6618      22.1318     -99.3534      20.5469      12.5666 1533244324 9999999.9999
     236.0     647.4448       0.0000    -102.2412      86.3438    -105.0760      13.9780    -102.7676      12.2159      18.6786 1533244325 9999999.9999
     237.0     686.6455       0.0000     -94.1979      76.9986    -105.9597       6.0250    -103.6513       4.0901      24.7965 1533244326 9999999.9999
     238.0     748.8019       0.0000     -85.3979      77.1767    -105.9195      -2.3698    -103.6111      -4.4871      30.8953 1533244327 9999999.9999
     239.0     835.0654       0.0000     -76.9486      86.1686    -105.1162     -10.7647    -102.8078     -13.0643      37.0002 1533244328 9999999.9999
     240.0     903.7596       0.0000     -69.9935    -999.2500    -102.1037     -18.5570     -99.7952     -21.0260      43.5100 1533244329 9999999.9999
     241.0     971.1672       0.0000     -64.0078    -999.2500     -97.0828     -26.4297     -94.7744     -29.0697      49.6087 1533244330 9999999.9999
     242.0    1037.0575       0.0000     -59.0027    -999.2500     -90.6160     -34.1015     -88.3076     -36.9082      55.7074 1533244331 9999999.9999
     243.0    1117.8457       0.0000     -54.8174    -999.2500     -83.5868     -41.2110     -81.2784     -44.1722      61.8317 1533244332 9999999.9999
     244.0    1255.5803       0.0000     -50.8912    -999.2500     -75.3125     -47.9188     -73.0041     -51.0258      67.9304 1533244333 9999999.9999
     245.0    1429.1158       0.0000     -46.2491    -999.2500     -64.6683     -54.7472     -62.3599     -58.0024      74.0292 1533244334 9999999.9999
     246.0    1572.9866       0.0000     -37.7120    -999.2500     -51.0518     -72.8222     -48.7434     -76.4702      80.1217 1533244335 9999999.9999
     247.0    1710.7665       0.0000     -33.6898    -999.2500     -43.9825     -81.9802     -41.6741     -85.8271      86.2143 1533244336 9999999.9999
     248.0    1835.8356       0.0000     -29.5845    -999.2500     -36.8328     -89.3307     -34.5244     -93.3373      92.3130 1533244337 9999999.9999
     249.0    1947.7146       0.0000     -24.8873    -999.2500     -29.5627     -95.0745     -27.2543     -99.2060      98.4118 1533244338 9999999.9999
     250.0    2032.1531       0.0000     -19.2728    -999.2500     -22.2122     -98.9707     -19.9038    -103.1868     104.5166 1533244339 9999999.9999
     251.0    2137.1582       0.0000     -12.6926      81.5717     -14.8617    -100.9388     -12.5533    -105.1977     110.6092 1533244340 9999999.9999
     252.0    2218.0601       0.0000      -4.3015      75.1959      -6.4668    -101.1397      -4.1584    -105.4029     117.1128 1533244341 9999999.9999
     253.0    2275.4854       0.0000       4.6661      75.5202       2.2092    -100.9388       4.5176    -105.1977     123.2177 1533244342 9999999.9999
     254.0    2328.2285       0.0000      12.5238      83.0525      10.1220    -100.0552      12.4304    -104.2949     129.3226 1533244343 9999999.9999
     255.0    2375.4224       0.0000      19.0263    -999.2500      17.4323     -97.4443      19.7407    -101.6273     135.4091 1533244344 9999999.9999
     256.0    2424.5691       0.0000      24.5591    -999.2500      24.6623     -92.9457      26.9707     -97.0309     141.5079 1533244345 9999999.9999
     257.0    2441.4063       0.0000      29.1925    -999.2500      31.6513     -87.1215      33.9597     -91.0802     147.6129 1533244346 9999999.9999
     258.0    2467.1052       0.0000      33.6662    -999.2500      39.1223     -79.6505      41.4307     -83.4469     153.7179 1533244347 9999999.9999
     259.0    2467.1052       0.0000      37.6535    -999.2500      45.7498     -70.9745      48.0582     -74.5824     159.8298 1533244348 9999999.9999
     260.0    2475.7922       0.0000      42.4537    -999.2500      51.8552     -59.0450      54.1636     -62.3937     165.9347 1533244349 9999999.9999
     261.0    3700.6580       0.0000      51.5707    -999.2500      73.7862     -47.2762      76.0946     -50.3691     172.0336 1533244350 9999999.9999
     262.0       0.0000       0.0000      55.4589    -999.2500      82.4220     -40.3273      84.7304     -43.2693     178.2056 1533244351 9999999.9999
     263.0       0.0000       0.0000      59.4870    -999.2500      89.6118     -33.2982      91.9202     -36.0874     184.2919 1533244352 9999999.9999
     264.0       0.0000       0.0000      64.0233    -999.2500      95.4762     -26.2288      97.7846     -28.8645     190.7896 1533244353 9999999.9999
