~VERSION INFORMATION
VERS.           2.0   :CWLS Log ASCII Standard - VERSION 2.0
WRAP.           NO    :One Line per depth step
PROD.  Schlumberger   :LAS Producer
PROG.  DLIS to ASCII 19C2-270                          :LAS Program name and version
CREA.        2018/08/03 10:59                          :LAS Creation date {YYYY/MM/DD hh:mm}
DLIS_CREA.  2018-Aug-03 09:53                          :DLIS Creation date and time {YYYY-MMM-DD hh:mm}
SOURCE.     PERFO_Perfo_090PTP.DLIS                    :DLIS File Name
FILE-ID.     PERFO_Perfo_090PTP                        :File Identification Number
#--------------------------------------------------
~WELL INFORMATION
#MNEM.UNIT      DATA             DESCRIPTION
#---- ------ --------------   -----------------------------
STRT .S            0.0       :START TIME      
STOP .S          228.0       :STOP TIME      
STEP .S            1.0       :STEP     
NULL .          -999.25      :NULL VALUE
COMP .        SHELL INTERNATIONAL EP                   :COMPANY
WELL .        WPP TEST 4                               :WELL
FLD  .        WILDCAT                                  :FIELD
LOC  .        NA                                       :LOCATION
CNTY .        HARRIS                                   :COUNTY
STAT .        TEXAS                                    :STATE
CTRY .                                                 :COUNTRY
API  .        NA                                       :API NUMBER
UWI  .                                                 :UNIQUE WELL ID
DATE .        02-Aug-2018                              :LOG DATE {DD-MMM-YYYY}
SRVC .        Schlumberger                             :SERVICE COMPANY
LATI .DEG                                              :LATITUDE
LONG .DEG                                              :LONGITUDE
GDAT .                                                 :GeoDetic Datum
SECT .        NA                                       :Section
RANG .        NA                                       :Range
TOWN .        NA                                       :Township
#-----------------------------------------------------------------------------
~PARAMETER INFORMATION
#MNEM.UNIT    VALUE                      DESCRIPTION
#---- -----   --------------------       ------------------------
U-PHASE_B_COMP_PER_YT.                 0 :Phase B Comparator Period Yt
U-PHASE_A_COMP_PER_XT.                 0 :Phase A Comparator Period Xt
U-MAX_EXC_CUR_LIMIT.MA       265.00000   :Requested CM Current Limit
U-REQ_EXC_FQ.HZ              50          :Requested CM Frequency
U-TILT_Y_OFFSET.          -2.06578       :WPTET Tilt Y Offset
U-TILT_Y_GAIN.           1.02173         :WPTET Tilt Y Gain
U-TILT_X_OFFSET.           2.30841       :WPTET Tilt X Offset
U-TILT_X_GAIN.           1.00000         :WPTET Tilt X Gain
U-TILT_OFFSET_TOL.           0.00100     :WPTET Tilt Offset Calibration Tolerance
U-MOT_CUR_LIMIT_REQ.MA        70.00000   :Requested Motor Current Limit
U-MOT_SPD_REQ_WPMS.RPM        1.00000    :Requested Motor Speed
U-STD_TOL_TILT.           0.01000        :Tilt Standard Deviation Tolerance
CWEI .LB/F      29.00000                 :Casing Weight
CSIZ .IN         7.00000                 :Current Casing Size
LCC  .               440                 :Logging Company Code
LUN  .              2134                 :Logging Unit Number
HIDE .                                   :Header Identifier
HID1 .                                   :Header Identifier Line 1
R1   .                                   :Remark Line 1
WITN .        MR. KELLY McCOY            :Witness's Name
ENGI .        MORRIS MOORE               :Engineer's Name
LUL  .        IOWA COLONY                :Logging Unit Location
DATE .        02-Aug-2018                :Date as Month-Day-Year
STAT .        TEXAS                      :State or Province
COUN .        HARRIS                     :County or Rig Name
FN   .        WILDCAT                    :Field Name
WN   .        WPP TEST 4                 :Well Name
CN   .        SHELL INTERNATIONAL EP     :Company Name
CLAB .        County                     :County/Rig Label
SLAB .        State                      :State/Province Label
RUN  .          1                        :RUN NUMBER
PDAT .        GROUND LEVEL               :Permanent Datum
EPD  .                                   :Elevation of Permanent Datum above Mean Sea Level
LMF  .          NA                       :Logging Measured From (Name of Logging Elevation Reference)
APD  .                                   :Elevation of Depth Reference (LMF) above Permanent Datum
#-----------------------------------------------------------------------------
~CURVE INFORMATION
#MNEM.UNIT   API CODE                                  DESCRIPTION
#---- -----  --------                                  -----------------------
TIME .S                                                :TIME {F10.1}
FREQ_EMF_SL.HZ                                         :Electromagnetic Field Frequency {F13.4}
PH_SH_WPPCM_SL.DEG                                     :WPPCM Phase Shift {F13.4}
RB_SL.DEG                                              :Relative Bearing {F13.4}
SDEV_SL.DEG                                            :Sonde Deviation {F13.4}
RTIX_SL.DEG                                            :Raw X-axis Tilt {F13.4}
RTIY_SL.DEG                                            :Raw Y-axis Tilt {F13.4}
TILX_SL.DEG                                            :X-axis Tilt {F13.4}
TILY_SL.DEG                                            :Y-axis Tilt {F13.4}
ROTA_SL.DEG                                            :Motor Rotation Angle {F13.4}
TOD7 .S                                                :Time of Day {I11}
TOJ  .S                                                :Time of Job {F13.4}
#-----------------------------------------------------------------------------
# 
#     TIME    FREQ_EMF_SL  PH_SH_WPPCM_    RB_SL       SDEV_SL      RTIX_SL      RTIY_SL      TILX_SL      TILY_SL      ROTA_SL        TOD7            TOJ
#                          SL
~A  
# ...
      53.0    1812.1779       0.0000     -30.7779    -999.2500     -38.8412     -87.8847     -36.5328     -91.8599     126.8194 1533251365 9999999.9999
      54.0    1910.6658       0.0000     -26.1369    -999.2500     -31.3702     -94.0302     -29.0618     -98.1390     133.3232 1533251366 9999999.9999
      55.0    2020.4741       0.0000     -20.6723    -999.2500     -23.8992     -98.5690     -21.5908    -102.7764     139.4342 1533251367 9999999.9999
      56.0    2117.8464       0.0000     -14.1893      84.3846     -16.4282    -100.9790     -14.1198    -105.2388     145.5331 1533251368 9999999.9999
      57.0    2190.4207       0.0000      -6.0822      75.4201      -8.1940    -101.5012      -5.8856    -105.7723     151.6319 1533251369 9999999.9999
      58.0    2253.6057       0.0000       2.8521      74.6483       0.4418    -101.3405       2.7502    -105.6081     157.7307 1533251370 9999999.9999
      59.0    2312.9111       0.0000      11.3921      80.2518       8.9170    -100.6978      11.2254    -104.9515     163.8490 1533251371 9999999.9999
      60.0    2343.7500       0.0000      18.5065      83.1165      16.7796     -98.1171      19.0880    -102.3147     169.9539 1533251372 9999999.9999
      61.0    2375.4224       0.0000      24.3535    -999.2500      24.3410     -93.6285      26.6494     -97.7286     176.0528 1533251373 9999999.9999
      62.0    2416.2371       0.0000      29.0215    -999.2500      31.3702     -87.8043      33.6786     -91.7779     182.1647 1533251374 9999999.9999
      63.0    2432.9585       0.0000      33.1795    -999.2500      38.3190     -80.9358      40.6274     -84.7601     188.2758 1533251375 9999999.9999
      64.0    2441.4063       0.0000      37.2186    -999.2500      45.2277     -72.5812      47.5361     -76.2239     194.3621 1533251376 9999999.9999
      65.0    2441.4063       0.0000      41.9287    -999.2500      51.7347     -60.9328      54.0431     -64.3225     200.4610 1533251377 9999999.9999
      66.0    2424.5691       0.0000      51.0694    -999.2500      72.9025     -48.2402      75.2109     -51.3541     206.9709 1533251378 9999999.9999
      67.0    2424.5691       0.0000      54.7838    -999.2500      81.6588     -41.6127      83.9672     -44.5826     213.0636 1533251379 9999999.9999
      68.0    2407.9622       0.0000      58.6947    -999.2500      89.0897     -34.6237      91.3981     -37.4417     219.1624 1533251380 9999999.9999
      69.0    2375.4224       0.0000      63.0980    -999.2500      94.9540     -27.5543      97.2624     -30.2188     225.2618 1533251381 9999999.9999
      70.0    2335.9634       0.0000      68.3906    -999.2500      99.2920     -20.3243     101.6004     -22.8317     231.3668 1533251382 9999999.9999
      71.0    2290.3093       0.0000      74.7981      89.4025     101.1798     -12.9738     103.4882     -15.3215     237.4595 1533251383 9999999.9999
      72.0    2242.8230       0.0000      83.3410      77.4055     101.9129      -4.3380     104.2213      -6.4980     243.5460 1533251384 9999999.9999
      73.0    2163.4614       0.0000      92.6976      75.5920     102.3447       4.5790     104.6531       2.6127     249.6581 1533251385 9999999.9999
      74.0    2098.8806       0.0000     101.0634      81.6159     101.5413      12.7328     103.8497      10.9437     255.7702 1533251386 9999999.9999
      75.0    2020.4741       0.0000     108.3686      85.1172      98.6092      20.6457     100.9176      19.0285     261.8696 1533251387 9999999.9999
      76.0    1926.3699       0.0000     114.5810    -999.2500      93.4678      28.5183      95.7762      27.0722     267.9682 1533251388 9999999.9999
      77.0    1831.0547       0.0000     119.7335    -999.2500      87.0010      36.1098      89.3094      34.8286     274.0729 1533251389 9999999.9999
      78.0    1723.3456       0.0000     124.3106    -999.2500      79.2890      43.5808      81.5974      42.4619     280.1776 1533251390 9999999.9999
      79.0    1616.3793       0.0000     128.7088    -999.2500      70.0908      50.7707      72.3992      49.8080     286.6812 1533251391 9999999.9999
      80.0    1464.8438       0.0000     136.5532    -999.2500      54.9078      63.2625      57.2162      62.5712     292.7675 1533251392 9999999.9999
      81.0    1326.6509       0.0000     140.9954    -999.2500      49.0837      75.1920      51.3921      74.7599     298.8723 1533251393 9999999.9999
      82.0    1229.2395       0.0000     144.8523    -999.2500      42.0947      83.8680      44.4031      83.6244     304.9770 1533251394 9999999.9999
      83.0    1147.0228       0.0000     148.9009    -999.2500      34.7843      91.1783      37.0927      91.0936     311.0756 1533251395 9999999.9999
      84.0    1091.8090       0.0000     153.6783    -999.2500      27.0322      97.8460      29.3406      97.9061     317.1742 1533251396 9999999.9999
      85.0    1027.9606       0.0000     159.8036    -999.2500      18.6775     103.0275      20.9859     103.2002     323.2726 1533251397 9999999.9999
      86.0     961.8673       0.0000     166.7978      80.8958      10.7245     105.7588      13.0329     105.9909     329.3467 1533251398 9999999.9999
      87.0     896.8431       0.0000     175.0098      74.0978       2.4903     106.4015       4.7987     106.6475     335.4453 1533251399 9999999.9999
      88.0     848.1604       0.0000    -176.3763      73.5725      -5.7840     106.5622      -3.4756     106.8117     341.5562 1533251400 9999999.9999
      89.0     798.0988       0.0000    -168.2161      80.7769     -13.9378     104.7145     -11.6294     104.9239     347.6548 1533251401 9999999.9999
      90.0     745.6256       0.0000    -160.8823      84.9986     -22.2523     100.1355     -19.9439     100.2454     353.7534 1533251402 9999999.9999
      91.0     720.4149       0.0000    -154.7556    -999.2500     -30.3660      94.0302     -28.0576      94.0074       0.2446 1533251403 9999999.9999
      92.0     701.7216       0.0000    -149.6066    -999.2500     -38.1583      87.0412     -35.8499      86.8665       6.3248 1533251404 9999999.9999
      93.0     685.9756       0.0000    -145.0254    -999.2500     -45.6293      79.0882     -43.3209      78.7408      12.4174 1533251405 9999999.9999
      94.0     674.7841       0.0000    -140.5779    -999.2500     -52.7388      70.2113     -50.4304      69.6711      18.5161 1533251406 9999999.9999
      95.0     677.3844       0.0000    -132.5800    -999.2500     -66.0742      56.3538     -63.7658      55.5125      24.6210 1533251407 9999999.9999
      96.0     682.6456       0.0000    -128.2970    -999.2500     -75.3928      50.0477     -73.0844      49.0693      30.7390 1533251408 9999999.9999
      97.0     674.1371       0.0000    -123.7198    -999.2500     -84.5107      42.5365     -82.2023      41.3949      36.8377 1533251409 9999999.9999
      98.0     683.3090       0.0000    -119.2201    -999.2500     -91.6603      35.3065     -89.3519      34.0078      42.9495 1533251410 9999999.9999
      99.0       0.0000       0.0000    -113.9082    -999.2500     -98.1272      27.6347     -95.8187      26.1693      49.1500 1533251411 9999999.9999
     100.0       0.0000       0.0000    -107.3950    -999.2500    -103.1480      19.5612    -100.8396      17.9204      55.2549 1533251412 9999999.9999
     101.0       0.0000       0.0000    -100.1666      81.0240    -105.8392      11.8492    -103.5308      10.0408      61.3667 1533251413 9999999.9999
     102.0       0.0000       0.0000     -91.1274      76.0721    -106.2810       3.0928    -103.9726       1.0943      67.4654 1533251414 9999999.9999
     103.0       0.0000       0.0000     -82.8965      78.0772    -106.1605      -4.7798    -103.8521      -6.9495      73.9883 1533251415 9999999.9999
     104.0       0.0000       0.0000     -75.0835      94.5076    -104.7948     -12.7328    -102.4864     -15.0753      80.0931 1533251416 9999999.9999
     105.0       0.0000       0.0000     -68.1384    -999.2500    -101.0192     -20.8465     -98.7108     -23.3652      86.1926 1533251417 9999999.9999
