~VERSION INFORMATION
VERS.           2.0   :CWLS Log ASCII Standard - VERSION 2.0
WRAP.           NO    :One Line per depth step
PROD.  Schlumberger   :LAS Producer
PROG.  DLIS to ASCII 19C2-270                          :LAS Program name and version
CREA.        2018/08/03 10:59                          :LAS Creation date {YYYY/MM/DD hh:mm}
DLIS_CREA.  2018-Aug-03 08:56                          :DLIS Creation date and time {YYYY-MMM-DD hh:mm}
SOURCE.     PERFO_Perfo_063PTP.DLIS                    :DLIS File Name
FILE-ID.     PERFO_Perfo_063PTP                        :File Identification Number
#--------------------------------------------------
~WELL INFORMATION
#MNEM.UNIT      DATA             DESCRIPTION
#---- ------ --------------   -----------------------------
STRT .S            0.0       :START TIME      
STOP .S          897.0       :STOP TIME      
STEP .S            1.0       :STEP     
NULL .          -999.25      :NULL VALUE
COMP .        SHELL INTERNATIONAL EP                   :COMPANY
WELL .        WPP TEST 4                               :WELL
FLD  .        WILDCAT                                  :FIELD
LOC  .        NA                                       :LOCATION
CNTY .        HARRIS                                   :COUNTY
STAT .        TEXAS                                    :STATE
CTRY .                                                 :COUNTRY
API  .        NA                                       :API NUMBER
UWI  .                                                 :UNIQUE WELL ID
DATE .        02-Aug-2018                              :LOG DATE {DD-MMM-YYYY}
SRVC .        Schlumberger                             :SERVICE COMPANY
LATI .DEG                                              :LATITUDE
LONG .DEG                                              :LONGITUDE
GDAT .                                                 :GeoDetic Datum
SECT .        NA                                       :Section
RANG .        NA                                       :Range
TOWN .        NA                                       :Township
#-----------------------------------------------------------------------------
~PARAMETER INFORMATION
#MNEM.UNIT    VALUE                      DESCRIPTION
#---- -----   --------------------       ------------------------
U-PHASE_B_COMP_PER_YT.                 0 :Phase B Comparator Period Yt
U-PHASE_A_COMP_PER_XT.                 0 :Phase A Comparator Period Xt
U-MAX_EXC_CUR_LIMIT.MA       265.00000   :Requested CM Current Limit
U-REQ_EXC_FQ.HZ              50          :Requested CM Frequency
U-TILT_Y_OFFSET.          -2.06578       :WPTET Tilt Y Offset
U-TILT_Y_GAIN.           1.02173         :WPTET Tilt Y Gain
U-TILT_X_OFFSET.           2.30841       :WPTET Tilt X Offset
U-TILT_X_GAIN.           1.00000         :WPTET Tilt X Gain
U-TILT_OFFSET_TOL.           0.00100     :WPTET Tilt Offset Calibration Tolerance
U-MOT_CUR_LIMIT_REQ.MA        70.00000   :Requested Motor Current Limit
U-MOT_SPD_REQ_WPMS.RPM        1.00000    :Requested Motor Speed
U-STD_TOL_TILT.           0.01000        :Tilt Standard Deviation Tolerance
CWEI .LB/F      29.00000                 :Casing Weight
CSIZ .IN         7.00000                 :Current Casing Size
LCC  .               440                 :Logging Company Code
LUN  .              2134                 :Logging Unit Number
HIDE .                                   :Header Identifier
HID1 .                                   :Header Identifier Line 1
R1   .                                   :Remark Line 1
WITN .        MR. KELLY McCOY            :Witness's Name
ENGI .        MORRIS MOORE               :Engineer's Name
LUL  .        IOWA COLONY                :Logging Unit Location
DATE .        02-Aug-2018                :Date as Month-Day-Year
STAT .        TEXAS                      :State or Province
COUN .        HARRIS                     :County or Rig Name
FN   .        WILDCAT                    :Field Name
WN   .        WPP TEST 4                 :Well Name
CN   .        SHELL INTERNATIONAL EP     :Company Name
CLAB .        County                     :County/Rig Label
SLAB .        State                      :State/Province Label
RUN  .          1                        :RUN NUMBER
PDAT .        GROUND LEVEL               :Permanent Datum
EPD  .                                   :Elevation of Permanent Datum above Mean Sea Level
LMF  .          NA                       :Logging Measured From (Name of Logging Elevation Reference)
APD  .                                   :Elevation of Depth Reference (LMF) above Permanent Datum
#-----------------------------------------------------------------------------
~CURVE INFORMATION
#MNEM.UNIT   API CODE                                  DESCRIPTION
#---- -----  --------                                  -----------------------
TIME .S                                                :TIME {F10.1}
FREQ_EMF_SL.HZ                                         :Electromagnetic Field Frequency {F13.4}
PH_SH_WPPCM_SL.DEG                                     :WPPCM Phase Shift {F13.4}
RB_SL.DEG                                              :Relative Bearing {F13.4}
SDEV_SL.DEG                                            :Sonde Deviation {F13.4}
RTIX_SL.DEG                                            :Raw X-axis Tilt {F13.4}
RTIY_SL.DEG                                            :Raw Y-axis Tilt {F13.4}
TILX_SL.DEG                                            :X-axis Tilt {F13.4}
TILY_SL.DEG                                            :Y-axis Tilt {F13.4}
ROTA_SL.DEG                                            :Motor Rotation Angle {F13.4}
TOD7 .S                                                :Time of Day {I11}
TOJ  .S                                                :Time of Job {F13.4}
#-----------------------------------------------------------------------------
# 
#     TIME    FREQ_EMF_SL  PH_SH_WPPCM_    RB_SL       SDEV_SL      RTIX_SL      RTIY_SL      TILX_SL      TILY_SL      ROTA_SL        TOD7            TOJ
#                          SL
~A  
# ...
     530.0    1156.4556       0.0000     -87.7185      77.8023    -104.7145      -0.1607    -102.4061      -2.2299     188.9921 1533231485 9999999.9999
     531.0    1145.1547       0.0000     -79.3074      84.5114    -104.3128      -8.3948    -102.0044     -10.6430     195.0971 1533231486 9999999.9999
     532.0    1130.4260       0.0000     -72.1339    -999.2500    -102.0635     -16.1068     -99.7551     -18.5226     201.2021 1533231487 9999999.9999
     533.0    1121.4115       0.0000     -65.8363    -999.2500     -97.8058     -23.9393     -95.4974     -26.5252     207.3009 1533231488 9999999.9999
     534.0    1114.3027       0.0000     -60.7116    -999.2500     -91.9013     -31.3702     -89.5929     -34.1175     213.8047 1533231489 9999999.9999
     535.0    1110.7820       0.0000     -56.2523    -999.2500     -84.9927     -38.6002     -82.6842     -41.5046     219.9097 1533231490 9999999.9999
     536.0    1105.5425       0.0000     -52.1906    -999.2500     -76.9593     -45.3883     -74.6509     -48.4403     226.0146 1533231491 9999999.9999
     537.0    1112.5396       0.0000     -47.7691    -999.2500     -67.1587     -52.0560     -64.8503     -55.2528     232.1134 1533231492 9999999.9999
     538.0    1116.0714       0.0000     -38.6119    -999.2500     -52.0962     -69.4080     -49.7878     -72.9818     238.2123 1533231493 9999999.9999
     539.0    1117.8457       0.0000     -34.5683    -999.2500     -45.3883     -78.6463     -43.0799     -82.4209     244.3048 1533231494 9999999.9999
     540.0    1129.5181       0.0000     -30.3079    -999.2500     -38.0780     -86.3985     -35.7696     -90.3415     250.4097 1533231495 9999999.9999
     541.0    1145.1547       0.0000     -25.7151    -999.2500     -30.8882     -92.5440     -28.5798     -96.6205     256.5085 1533231496 9999999.9999
     542.0    1162.1901       0.0000     -20.3441    -999.2500     -23.6582     -96.7615     -21.3498    -100.9296     262.6071 1533231497 9999999.9999
     543.0    1177.7638       0.0000     -14.0528      85.7495     -16.4282     -98.7297     -14.1198    -102.9406     268.7249 1533231498 9999999.9999
     544.0    1203.9811       0.0000      -6.3463      77.9964      -8.5153     -99.3322      -6.2069    -103.5562     274.8427 1533231499 9999999.9999
     545.0    1229.2395       0.0000       2.5357      76.8459       0.1607     -99.1715       2.4691    -103.3920     280.9291 1533231500 9999999.9999
     546.0    1253.3423       0.0000      10.7448      82.9703       8.3547     -98.6092      10.6631    -102.8174     287.4388 1533231501 9999999.9999
     547.0    1287.7748       0.0000      17.2893      87.3213      15.5043     -96.4803      17.8127    -100.6424     293.5443 1533231502 9999999.9999
     548.0    1316.7135       0.0000      22.9858    -999.2500      22.6138     -92.5038      24.9222     -96.5795     299.6559 1533231503 9999999.9999
     549.0    1357.3842       0.0000      27.7841    -999.2500      29.4823     -86.9608      31.7907     -90.9160     305.7545 1533231504 9999999.9999
     550.0    1397.8628       0.0000      31.8889    -999.2500      35.9492     -80.5743      38.2576     -84.3908     311.8593 1533231505 9999999.9999
     551.0    1434.9490       0.0000      35.9969    -999.2500      42.5767     -72.6213      44.8851     -76.2650     317.9518 1533231506 9999999.9999
     552.0    1478.7067       0.0000      40.8003    -999.2500      49.2243     -61.6960      51.5327     -65.1023     324.0381 1533231507 9999999.9999
     553.0    1518.6285       0.0000      51.0754    -999.2500      70.6130     -47.4368      72.9214     -50.5333     330.1428 1533231508 9999999.9999
     554.0    1562.5000       0.0000      54.8845    -999.2500      79.6505     -41.1708      81.9589     -44.1311     336.2414 1533231509 9999999.9999
     555.0    1601.6515       0.0000      58.7471    -999.2500      86.8403     -34.5433      89.1487     -37.3596     342.3470 1533231510 9999999.9999
     556.0    1635.1744       0.0000      63.1091    -999.2500      92.7448     -27.6748      95.0532     -30.3419     348.4456 1533231511 9999999.9999
     557.0    1678.1025       0.0000      68.2439    -999.2500      96.8820     -20.6858      99.1904     -23.2011     354.5513 1533231512 9999999.9999
     558.0    1706.6141       0.0000      74.4704    -999.2500      98.9707     -13.4558     101.2791     -15.8140       0.6560 1533231513 9999999.9999
     559.0    1727.5798       0.0000      82.3310      80.5833      99.8142      -5.3823     102.1226      -7.5651       7.1483 1533231514 9999999.9999
     560.0    1757.8126       0.0000      91.3732      77.4692     100.2962       3.3338     102.6046       1.3405      13.2470 1533231515 9999999.9999
     561.0    1771.0958       0.0000      99.6753      82.3962      99.9748      11.4073     102.2832       9.5894      19.3519 1533231516 9999999.9999
     562.0    1789.1222       0.0000     106.8083      85.7153      97.7255      18.9587     100.0339      17.3048      25.4568 1533231517 9999999.9999
     563.0    1807.5192       0.0000     113.0490    -999.2500      93.1063      26.5502      95.4147      25.0612      31.5556 1533231518 9999999.9999
     564.0    1812.1779       0.0000     118.3510    -999.2500      87.0412      33.9810      89.3496      32.6535      37.6543 1533231519 9999999.9999
     565.0    1812.1779       0.0000     123.3657    -999.2500      79.3292      41.8135      81.6376      40.6562      43.7600 1533231520 9999999.9999
     566.0    1812.1779       0.0000     127.8276    -999.2500      70.6130      48.9230      72.9214      47.9202      49.8779 1533231521 9999999.9999
     567.0    1807.5192       0.0000     133.9935    -999.2500      56.6350      56.6350      58.9434      55.7997      55.9897 1533231522 9999999.9999
     568.0    1789.1222       0.0000     140.9705    -999.2500      48.6820      73.9067      50.9904      73.4467      62.0946 1533231523 9999999.9999
     569.0    1775.5682       0.0000     144.8482    -999.2500      41.9340      82.5023      44.2424      82.2291      68.2063 1533231524 9999999.9999
     570.0    1762.2180       0.0000     148.8820    -999.2500      34.8245      90.0135      37.1329      89.9035      74.2989 1533231525 9999999.9999
     571.0    1740.4083       0.0000     153.5016    -999.2500      27.3937      96.3197      29.7021      96.3466      80.8026 1533231526 9999999.9999
     572.0    1710.7665       0.0000     159.1165    -999.2500      19.6415     101.4208      21.9499     101.5586      86.9205 1533231527 9999999.9999
     573.0    1674.1072       0.0000     165.7931      87.9623      11.8893     104.1522      14.1977     104.3493      93.0131 1533231528 9999999.9999
     574.0    1642.8153       0.0000     173.8138      76.0764       3.6953     104.9957       6.0037     105.2112      99.1118 1533231529 9999999.9999
     575.0    1608.9817       0.0000    -177.5640      74.8143      -4.6593     105.1563      -2.3509     105.3753     105.2236 1533231530 9999999.9999
     576.0    1572.9866       0.0000    -169.3929      80.6518     -12.7730     103.9112     -10.4646     104.1031     111.3346 1533231531 9999999.9999
     577.0    1535.2074       0.0000    -161.7430      84.3138     -21.2883      99.5330     -18.9799      99.6298     117.4463 1533231532 9999999.9999
     578.0    1489.6716       0.0000    -155.4391    -999.2500     -29.4422      93.7088     -27.1338      93.6791     123.5581 1533231533 9999999.9999
     579.0    1446.7593       0.0000    -150.0864    -999.2500     -37.3550      86.6395     -35.0466      86.4562     129.6630 1533231534 9999999.9999
     580.0    1414.7384       0.0000    -145.4401    -999.2500     -44.7457      78.7668     -42.4373      78.4124     135.7810 1533231535 9999999.9999
     581.0    1373.2910       0.0000    -140.8159    -999.2500     -51.9757      69.8097     -49.6673      69.2607     141.8676 1533231536 9999999.9999
     582.0    1341.8416       0.0000    -132.3687    -999.2500     -65.8332      55.5907     -63.5247      54.7327     147.9664 1533231537 9999999.9999
