~VERSION INFORMATION
VERS.           2.0   :CWLS Log ASCII Standard - VERSION 2.0
WRAP.           NO    :One Line per depth step
PROD.  Schlumberger   :LAS Producer
PROG.  DLIS to ASCII 19C2-270                          :LAS Program name and version
CREA.        2018/08/03 10:59                          :LAS Creation date {YYYY/MM/DD hh:mm}
DLIS_CREA.  2018-Aug-03 09:35                          :DLIS Creation date and time {YYYY-MMM-DD hh:mm}
SOURCE.     PERFO_Perfo_079PTP.DLIS                    :DLIS File Name
FILE-ID.     PERFO_Perfo_079PTP                        :File Identification Number
#--------------------------------------------------
~WELL INFORMATION
#MNEM.UNIT      DATA             DESCRIPTION
#---- ------ --------------   -----------------------------
STRT .S            0.0       :START TIME      
STOP .S          455.0       :STOP TIME      
STEP .S            1.0       :STEP     
NULL .          -999.25      :NULL VALUE
COMP .        SHELL INTERNATIONAL EP                   :COMPANY
WELL .        WPP TEST 4                               :WELL
FLD  .        WILDCAT                                  :FIELD
LOC  .        NA                                       :LOCATION
CNTY .        HARRIS                                   :COUNTY
STAT .        TEXAS                                    :STATE
CTRY .                                                 :COUNTRY
API  .        NA                                       :API NUMBER
UWI  .                                                 :UNIQUE WELL ID
DATE .        02-Aug-2018                              :LOG DATE {DD-MMM-YYYY}
SRVC .        Schlumberger                             :SERVICE COMPANY
LATI .DEG                                              :LATITUDE
LONG .DEG                                              :LONGITUDE
GDAT .                                                 :GeoDetic Datum
SECT .        NA                                       :Section
RANG .        NA                                       :Range
TOWN .        NA                                       :Township
#-----------------------------------------------------------------------------
~PARAMETER INFORMATION
#MNEM.UNIT    VALUE                      DESCRIPTION
#---- -----   --------------------       ------------------------
U-PHASE_B_COMP_PER_YT.                 0 :Phase B Comparator Period Yt
U-PHASE_A_COMP_PER_XT.                 0 :Phase A Comparator Period Xt
U-MAX_EXC_CUR_LIMIT.MA       265.00000   :Requested CM Current Limit
U-REQ_EXC_FQ.HZ              50          :Requested CM Frequency
U-TILT_Y_OFFSET.          -2.06578       :WPTET Tilt Y Offset
U-TILT_Y_GAIN.           1.02173         :WPTET Tilt Y Gain
U-TILT_X_OFFSET.           2.30841       :WPTET Tilt X Offset
U-TILT_X_GAIN.           1.00000         :WPTET Tilt X Gain
U-TILT_OFFSET_TOL.           0.00100     :WPTET Tilt Offset Calibration Tolerance
U-MOT_CUR_LIMIT_REQ.MA        70.00000   :Requested Motor Current Limit
U-MOT_SPD_REQ_WPMS.RPM        1.00000    :Requested Motor Speed
U-STD_TOL_TILT.           0.01000        :Tilt Standard Deviation Tolerance
CWEI .LB/F      29.00000                 :Casing Weight
CSIZ .IN         7.00000                 :Current Casing Size
LCC  .               440                 :Logging Company Code
LUN  .              2134                 :Logging Unit Number
HIDE .                                   :Header Identifier
HID1 .                                   :Header Identifier Line 1
R1   .                                   :Remark Line 1
WITN .        MR. KELLY McCOY            :Witness's Name
ENGI .        MORRIS MOORE               :Engineer's Name
LUL  .        IOWA COLONY                :Logging Unit Location
DATE .        02-Aug-2018                :Date as Month-Day-Year
STAT .        TEXAS                      :State or Province
COUN .        HARRIS                     :County or Rig Name
FN   .        WILDCAT                    :Field Name
WN   .        WPP TEST 4                 :Well Name
CN   .        SHELL INTERNATIONAL EP     :Company Name
CLAB .        County                     :County/Rig Label
SLAB .        State                      :State/Province Label
RUN  .          1                        :RUN NUMBER
PDAT .        GROUND LEVEL               :Permanent Datum
EPD  .                                   :Elevation of Permanent Datum above Mean Sea Level
LMF  .          NA                       :Logging Measured From (Name of Logging Elevation Reference)
APD  .                                   :Elevation of Depth Reference (LMF) above Permanent Datum
#-----------------------------------------------------------------------------
~CURVE INFORMATION
#MNEM.UNIT   API CODE                                  DESCRIPTION
#---- -----  --------                                  -----------------------
TIME .S                                                :TIME {F10.1}
FREQ_EMF_SL.HZ                                         :Electromagnetic Field Frequency {F13.4}
PH_SH_WPPCM_SL.DEG                                     :WPPCM Phase Shift {F13.4}
RB_SL.DEG                                              :Relative Bearing {F13.4}
SDEV_SL.DEG                                            :Sonde Deviation {F13.4}
RTIX_SL.DEG                                            :Raw X-axis Tilt {F13.4}
RTIY_SL.DEG                                            :Raw Y-axis Tilt {F13.4}
TILX_SL.DEG                                            :X-axis Tilt {F13.4}
TILY_SL.DEG                                            :Y-axis Tilt {F13.4}
ROTA_SL.DEG                                            :Motor Rotation Angle {F13.4}
TOD7 .S                                                :Time of Day {I11}
TOJ  .S                                                :Time of Job {F13.4}
#-----------------------------------------------------------------------------
# 
#     TIME    FREQ_EMF_SL  PH_SH_WPPCM_    RB_SL       SDEV_SL      RTIX_SL      RTIY_SL      TILX_SL      TILY_SL      ROTA_SL        TOD7            TOJ
#                          SL
~A  
       0.0     901.4423       0.0000     -87.4969      76.6168    -105.9195      -0.3615    -103.6111      -2.4351      13.1728 1533244090 9999999.9999
       1.0     940.0067       0.0000     -81.8413      79.3209    -105.7187      -5.8242    -103.4103      -8.0165      17.6517 1533244090 9999999.9999
       2.0    1007.3424       0.0000     -73.9950      90.9569    -104.1120     -13.9378    -101.8036     -16.3064      23.7505 1533244091 9999999.9999
       3.0    1085.0695       0.0000     -67.3955    -999.2500    -100.2962     -21.8105     -97.9878     -24.3502      29.8492 1533244092 9999999.9999
       4.0    1175.7943       0.0000     -61.4883    -999.2500     -94.0302     -30.1652     -91.7218     -32.8863      35.9541 1533244093 9999999.9999
       5.0    1278.4092       0.0000     -56.9309    -999.2500     -87.2822     -37.5558     -84.9738     -40.4376      42.0720 1533244094 9999999.9999
       6.0    1395.0892       0.0000     -52.8445    -999.2500     -79.5702     -44.6252     -77.2617     -47.6605      48.1708 1533244095 9999999.9999
       7.0    1528.5327       0.0000     -48.6940    -999.2500     -70.3720     -51.4133     -68.0636     -54.5962      54.2695 1533244096 9999999.9999
       8.0    1666.1730       0.0000     -40.1501    -999.2500     -55.0283     -67.0783     -52.7199     -70.6015      60.3874 1533244097 9999999.9999
       9.0    1812.1779       0.0000     -35.8965    -999.2500     -47.9188     -77.1200     -45.6104     -80.8614      66.4923 1533244098 9999999.9999
      10.0    1953.1250       0.0000     -31.8826    -999.2500     -40.7692     -85.3943     -38.4608     -89.3155      72.9960 1533244099 9999999.9999
      11.0    2086.4243       0.0000     -27.5677    -999.2500     -33.5793     -92.0620     -31.2709     -96.1280      79.0885 1533244100 9999999.9999
      12.0    2197.2656       0.0000     -22.4875    -999.2500     -26.2690     -97.0025     -23.9606    -101.1759      85.1934 1533244101 9999999.9999
      13.0    2320.5444       0.0000     -16.3315    -999.2500     -18.7980    -100.1355     -16.4896    -104.3769      91.2921 1533244102 9999999.9999
      14.0    2424.5691       0.0000      -8.9927      77.4936     -11.0860    -101.0995      -8.7776    -105.3619      97.3908 1533244103 9999999.9999
      15.0    2475.7922       0.0000      -0.2303      74.6808      -2.5305    -101.0593      -0.2221    -105.3208     103.4957 1533244104 9999999.9999
      16.0    2475.7922       0.0000       9.0900      78.1827       6.5873    -100.6175       8.8957    -104.8694     109.5883 1533244105 9999999.9999
      17.0    2467.1052       0.0000      16.2380      93.8129      14.1788     -98.7698      16.4872    -102.9816     115.6870 1533244106 9999999.9999
      18.0    2484.5405       0.0000      22.0556    -999.2500      21.2482     -95.3155      23.5566     -99.4522     121.7734 1533244107 9999999.9999
      19.0    2467.1052       0.0000      27.1093    -999.2500      28.3978     -90.0537      30.7062     -94.0761     127.8783 1533244108 9999999.9999
      20.0    2484.5405       0.0000      31.3523    -999.2500      35.1860     -83.6270      37.4944     -87.5098     133.9832 1533244109 9999999.9999
      21.0    2493.3511       0.0000      35.4215    -999.2500      42.0947     -75.9552      44.4031     -79.6712     140.0821 1533244110 9999999.9999
      22.0    2484.5405       0.0000      39.7301    -999.2500      48.9230     -66.2348      51.2314     -69.7397     146.5920 1533244111 9999999.9999
      23.0    2475.7922       0.0000      49.2994    -999.2500      67.9620     -50.8912      70.2704     -54.0627     152.7102 1533244112 9999999.9999
      24.0    2484.5405       0.0000      53.3920    -999.2500      78.0438     -44.0628      80.3522     -47.0860     158.8091 1533244113 9999999.9999
      25.0    2475.7922       0.0000      57.1965    -999.2500      85.9567     -37.2345      88.2651     -40.1093     164.9079 1533244114 9999999.9999
      26.0    2493.3511       0.0000      61.3595    -999.2500      92.5440     -30.2455      94.8524     -32.9684     171.0006 1533244115 9999999.9999
      27.0    2493.3511       0.0000      66.3066    -999.2500      97.4845     -23.0557      99.7929     -25.6224     177.1055 1533244116 9999999.9999
      28.0    2475.7922       0.0000      72.6842    -999.2500     100.4568     -15.3035     102.7652     -17.7018     183.2044 1533244117 9999999.9999
      29.0    2475.7922       0.0000      80.2436      80.3508     101.3807      -7.3907     103.6891      -9.6170     189.3032 1533244118 9999999.9999
      30.0    2484.5405       0.0000      89.1395      75.8948     101.8225       1.2050     104.1309      -0.8346     195.4082 1533244119 9999999.9999
      31.0    2475.7922       0.0000      97.8257      78.2454     101.7823       9.5195     104.0907       7.6606     201.5131 1533244120 9999999.9999
      32.0    2467.1052       0.0000     105.5848      94.1451      99.7740      17.5127     102.0824      15.8274     207.5995 1533244121 9999999.9999
      33.0    2367.4243       0.0000     112.1485    -999.2500      95.3958      25.3050      97.7042      23.7890     213.6983 1533244122 9999999.9999
      34.0    2253.6057       0.0000     117.6834    -999.2500      89.4512      32.9768      91.7596      31.6275     220.2274 1533244123 9999999.9999
      35.0    2130.6819       0.0000     122.4915    -999.2500      82.2212      40.5282      84.5296      39.3430     226.3263 1533244124 9999999.9999
      36.0    2003.2051       0.0000     126.9858    -999.2500      73.6255      47.9590      75.9339      46.9352     232.4251 1533244125 9999999.9999
      37.0    1870.0133       0.0000     131.5824    -999.2500      63.3027      54.7873      65.6111      53.9119     238.1190 1533244126 9999999.9999
      38.0    1727.5798       0.0000     139.4753    -999.2500      51.4535      71.1753      53.7619      70.6560     244.2239 1533244127 9999999.9999
      39.0    1594.3877       0.0000     143.4097    -999.2500      44.7055      80.4940      47.0139      80.1771     250.3228 1533244128 9999999.9999
      40.0    1449.7422       0.0000     147.5743    -999.2500      37.1140      88.6478      39.4224      88.5081     256.4216 1533244129 9999999.9999
      41.0    1334.2030       0.0000     152.0552    -999.2500      29.5627      95.5163      31.8711      95.5259     262.5263 1533244130 9999999.9999
      42.0    1222.8260       0.0000     157.5338    -999.2500      21.6097     101.2200      23.9181     101.3534     268.6318 1533244131 9999999.9999
      43.0    1124.1007       0.0000     164.2546      84.2219      13.4960     104.7747      15.8044     104.9854     274.3255 1533244132 9999999.9999
      44.0    1047.8762       0.0000     172.1023      75.6735       5.3422     106.0802       7.6506     106.3192     280.4241 1533244133 9999999.9999
      45.0     979.2828       0.0000    -179.2236      73.4523      -3.0527     106.3212      -0.7443     106.5654     286.5419 1533244134 9999999.9999
      46.0     927.6055       0.0000    -170.9488      77.0125     -11.1262     105.5580      -8.8178     105.7857     293.0516 1533244135 9999999.9999
      47.0     877.8090       0.0000    -163.3279      91.4903     -19.3603     101.5815     -17.0519     101.7228     299.1502 1533244136 9999999.9999
      48.0     847.1386       0.0000    -156.6331    -999.2500     -27.7552      95.9983     -25.4468      96.0183     305.2425 1533244137 9999999.9999
      49.0     812.8613       0.0000    -151.2427    -999.2500     -35.5877      89.2503     -33.2793      89.1237     311.3472 1533244138 9999999.9999
      50.0     799.0057       0.0000    -146.3501    -999.2500     -43.4202      81.3375     -41.1118      81.0390     317.4458 1533244139 9999999.9999
      51.0     779.5178       0.0000    -141.8862    -999.2500     -50.6100      72.6213     -48.3016      72.1334     323.5444 1533244140 9999999.9999
      52.0     770.3369       0.0000    -136.1552    -999.2500     -58.4726      60.6115     -56.1642      59.8626     329.6491 1533244141 9999999.9999
