~VERSION INFORMATION
VERS.           2.0   :CWLS Log ASCII Standard - VERSION 2.0
WRAP.           NO    :One Line per depth step
PROD.  Schlumberger   :LAS Producer
PROG.  DLIS to ASCII 19C2-270                          :LAS Program name and version
CREA.        2018/08/03 10:59                          :LAS Creation date {YYYY/MM/DD hh:mm}
DLIS_CREA.  2018-Aug-03 09:54                          :DLIS Creation date and time {YYYY-MMM-DD hh:mm}
SOURCE.     PERFO_Perfo_091PTP.DLIS                    :DLIS File Name
FILE-ID.     PERFO_Perfo_091PTP                        :File Identification Number
#--------------------------------------------------
~WELL INFORMATION
#MNEM.UNIT      DATA             DESCRIPTION
#---- ------ --------------   -----------------------------
STRT .S            0.0       :START TIME      
STOP .S          220.0       :STOP TIME      
STEP .S            1.0       :STEP     
NULL .          -999.25      :NULL VALUE
COMP .        SHELL INTERNATIONAL EP                   :COMPANY
WELL .        WPP TEST 4                               :WELL
FLD  .        WILDCAT                                  :FIELD
LOC  .        NA                                       :LOCATION
CNTY .        HARRIS                                   :COUNTY
STAT .        TEXAS                                    :STATE
CTRY .                                                 :COUNTRY
API  .        NA                                       :API NUMBER
UWI  .                                                 :UNIQUE WELL ID
DATE .        02-Aug-2018                              :LOG DATE {DD-MMM-YYYY}
SRVC .        Schlumberger                             :SERVICE COMPANY
LATI .DEG                                              :LATITUDE
LONG .DEG                                              :LONGITUDE
GDAT .                                                 :GeoDetic Datum
SECT .        NA                                       :Section
RANG .        NA                                       :Range
TOWN .        NA                                       :Township
#-----------------------------------------------------------------------------
~PARAMETER INFORMATION
#MNEM.UNIT    VALUE                      DESCRIPTION
#---- -----   --------------------       ------------------------
U-PHASE_B_COMP_PER_YT.                 0 :Phase B Comparator Period Yt
U-PHASE_A_COMP_PER_XT.                 0 :Phase A Comparator Period Xt
U-MAX_EXC_CUR_LIMIT.MA       265.00000   :Requested CM Current Limit
U-REQ_EXC_FQ.HZ              50          :Requested CM Frequency
U-TILT_Y_OFFSET.          -2.06578       :WPTET Tilt Y Offset
U-TILT_Y_GAIN.           1.02173         :WPTET Tilt Y Gain
U-TILT_X_OFFSET.           2.30841       :WPTET Tilt X Offset
U-TILT_X_GAIN.           1.00000         :WPTET Tilt X Gain
U-TILT_OFFSET_TOL.           0.00100     :WPTET Tilt Offset Calibration Tolerance
U-MOT_CUR_LIMIT_REQ.MA        70.00000   :Requested Motor Current Limit
U-MOT_SPD_REQ_WPMS.RPM        1.00000    :Requested Motor Speed
U-STD_TOL_TILT.           0.01000        :Tilt Standard Deviation Tolerance
CWEI .LB/F      29.00000                 :Casing Weight
CSIZ .IN         7.00000                 :Current Casing Size
LCC  .               440                 :Logging Company Code
LUN  .              2134                 :Logging Unit Number
HIDE .                                   :Header Identifier
HID1 .                                   :Header Identifier Line 1
R1   .                                   :Remark Line 1
WITN .        MR. KELLY McCOY            :Witness's Name
ENGI .        MORRIS MOORE               :Engineer's Name
LUL  .        IOWA COLONY                :Logging Unit Location
DATE .        02-Aug-2018                :Date as Month-Day-Year
STAT .        TEXAS                      :State or Province
COUN .        HARRIS                     :County or Rig Name
FN   .        WILDCAT                    :Field Name
WN   .        WPP TEST 4                 :Well Name
CN   .        SHELL INTERNATIONAL EP     :Company Name
CLAB .        County                     :County/Rig Label
SLAB .        State                      :State/Province Label
RUN  .          1                        :RUN NUMBER
PDAT .        GROUND LEVEL               :Permanent Datum
EPD  .                                   :Elevation of Permanent Datum above Mean Sea Level
LMF  .          NA                       :Logging Measured From (Name of Logging Elevation Reference)
APD  .                                   :Elevation of Depth Reference (LMF) above Permanent Datum
#-----------------------------------------------------------------------------
~CURVE INFORMATION
#MNEM.UNIT   API CODE                                  DESCRIPTION
#---- -----  --------                                  -----------------------
TIME .S                                                :TIME {F10.1}
FREQ_EMF_SL.HZ                                         :Electromagnetic Field Frequency {F13.4}
PH_SH_WPPCM_SL.DEG                                     :WPPCM Phase Shift {F13.4}
RB_SL.DEG                                              :Relative Bearing {F13.4}
SDEV_SL.DEG                                            :Sonde Deviation {F13.4}
RTIX_SL.DEG                                            :Raw X-axis Tilt {F13.4}
RTIY_SL.DEG                                            :Raw Y-axis Tilt {F13.4}
TILX_SL.DEG                                            :X-axis Tilt {F13.4}
TILY_SL.DEG                                            :Y-axis Tilt {F13.4}
ROTA_SL.DEG                                            :Motor Rotation Angle {F13.4}
TOD7 .S                                                :Time of Day {I11}
TOJ  .S                                                :Time of Job {F13.4}
#-----------------------------------------------------------------------------
# 
#     TIME    FREQ_EMF_SL  PH_SH_WPPCM_    RB_SL       SDEV_SL      RTIX_SL      RTIY_SL      TILX_SL      TILY_SL      ROTA_SL        TOD7            TOJ
#                          SL
~A  
# ...
     106.0    2038.0435       0.0000     121.8899    -999.2500      83.5467      39.5642      85.8551      38.3580     299.5034 1533251686 9999999.9999
     107.0    2020.4741       0.0000     126.3283    -999.2500      75.3125      46.9548      77.6209      45.9092     305.6273 1533251687 9999999.9999
     108.0    1953.1250       0.0000     131.1289    -999.2500      64.6282      54.3455      66.9366      53.4605     311.7135 1533251688 9999999.9999
     109.0    1915.8719       0.0000     139.0859    -999.2500      52.1765      70.4523      54.4849      69.9173     317.8121 1533251689 9999999.9999
     110.0    1947.7146       0.0000     142.6723    -999.2500      46.0712      78.9677      48.3796      78.6176     324.3348 1533251690 9999999.9999
     111.0    1905.4878       0.0000     146.5324    -999.2500      39.0018      87.1215      41.3102      86.9486     330.4396 1533251691 9999999.9999
     112.0    1855.2111       0.0000     150.8490    -999.2500      31.4907      94.1908      33.7991      94.1716     336.5382 1533251692 9999999.9999
     113.0    1802.8846       0.0000     156.1562    -999.2500      23.4573     100.2962      25.7657     100.4095     342.6368 1533251693 9999999.9999
     114.0    1744.7272       0.0000     162.5474    -999.2500      15.4642     103.6702      17.7726     103.8568     348.7170 1533251694 9999999.9999
     115.0    1682.1173       0.0000     170.1235      76.9437       7.3103     106.0802       9.6187     106.3192     354.8093 1533251695 9999999.9999
     116.0       0.0000       0.0000     179.1413      73.2507      -1.4862     106.5220       0.8222     106.7706       1.0033 1533251696 9999999.9999
     117.0       0.0000       0.0000    -172.2612      75.5415      -9.8007     106.1203      -7.4923     106.3603       7.1098 1533251697 9999999.9999
     118.0       0.0000       0.0000    -164.5705      88.5843     -17.9143     102.7463     -15.6059     102.9129      13.2147 1533251698 9999999.9999
     119.0       0.0000       0.0000    -157.7573    -999.2500     -26.2288      97.4443     -23.9204      97.4958      19.3135 1533251699 9999999.9999
     120.0       0.0000       0.0000    -152.1358    -999.2500     -34.2220      90.7365     -31.9136      90.6422      25.3999 1533251700 9999999.9999
     121.0       0.0000       0.0000    -147.3239    -999.2500     -41.8537      83.3057     -39.5453      83.0499      31.4926 1533251701 9999999.9999
     122.0       0.0000       0.0000    -142.8699    -999.2500     -49.1640      74.9510     -46.8556      74.5137      38.0024 1533251702 9999999.9999
     123.0       0.0000       0.0000    -138.1270    -999.2500     -56.2333      65.0298     -53.9249      64.3770      44.1144 1533251703 9999999.9999
     124.0       0.0000       0.0000    -130.5606    -999.2500     -70.5327      53.5422     -68.2243      52.6397      50.2131 1533251704 9999999.9999
     125.0       0.0000       0.0000    -126.2670    -999.2500     -79.6103      46.7540     -77.3019      45.7041      56.3055 1533251705 9999999.9999
     126.0       0.0000       0.0000    -121.9866    -999.2500     -87.4027      39.6847     -85.0943      38.4811      62.4235 1533251706 9999999.9999
     127.0       0.0000       0.0000    -117.1362    -999.2500     -94.5122      32.1735     -92.2038      30.8068      68.5352 1533251707 9999999.9999
     128.0       0.0000       0.0000    -110.9943    -999.2500    -100.6978      23.8590     -98.3894      22.3116      74.6401 1533251708 9999999.9999
     129.0       0.0000       0.0000    -103.9795      87.0068    -104.8752      15.7855    -102.5667      14.0627      80.7449 1533251709 9999999.9999
     130.0       0.0000       0.0000     -96.1661      77.4820    -106.2408       7.9128    -103.9324       6.0190      86.8437 1533251710 9999999.9999
     131.0       0.0000       0.0000     -87.4930      76.2498    -106.2810      -0.3615    -103.9726      -2.4351      92.9424 1533251711 9999999.9999
     132.0    3017.7039       0.0000     -78.9679      82.2573    -105.7588      -8.6760    -103.4504     -10.9303      99.0480 1533251712 9999999.9999
     133.0     947.6078       0.0000     -71.6978      85.8873    -103.5095     -16.5085    -101.2011     -18.9330     105.0816 1533251713 9999999.9999
     134.0     932.5266       0.0000     -65.3994    -999.2500     -98.8100     -24.4615     -96.5016     -27.0588     111.5852 1533251714 9999999.9999
     135.0     933.7650       0.0000     -60.2255    -999.2500     -92.6243     -32.1333     -90.3159     -34.8973     117.6972 1533251715 9999999.9999
     136.0     936.2517       0.0000     -55.8048    -999.2500     -85.6755     -39.5240     -83.3671     -42.4485     123.8020 1533251716 9999999.9999
     137.0     954.0366       0.0000     -51.7662    -999.2500     -77.6823     -46.5933     -75.3739     -49.6715     129.9069 1533251717 9999999.9999
     138.0     971.1672       0.0000     -47.4520    -999.2500     -67.7612     -53.3815     -65.4528     -56.6071     136.0188 1533251718 9999999.9999
     139.0    1000.1779       0.0000     -38.9868    -999.2500     -53.2610     -70.0507     -50.9526     -73.6385     142.1115 1533251719 9999999.9999
     140.0    1013.1484       0.0000     -34.6549    -999.2500     -45.7498     -80.2932     -43.4414     -84.1035     148.2165 1533251720 9999999.9999
     141.0    1049.4403       0.0000     -30.5895    -999.2500     -38.5198     -88.0855     -36.2114     -92.0651     154.3153 1533251721 9999999.9999
     142.0    1086.7465       0.0000     -25.9791    -999.2500     -31.1292     -94.2712     -28.8208     -98.3852     160.4017 1533251722 9999999.9999
     143.0    1117.8457       0.0000     -20.4463    -999.2500     -23.6180     -98.6895     -21.3096    -102.8995     166.5199 1533251723 9999999.9999
     144.0    1162.1901       0.0000     -14.0753      84.1001     -16.3077    -100.9790     -13.9993    -105.2388     172.6249 1533251724 9999999.9999
     145.0    1206.0464       0.0000      -5.8780      75.2938      -7.9932    -101.5413      -5.6848    -105.8133     178.7368 1533251725 9999999.9999
     146.0    1276.0889       0.0000       3.1844      74.7122       0.7632    -101.3405       3.0716    -105.6081     185.2536 1533251726 9999999.9999
     147.0    1360.0098       0.0000      11.6595      80.7741       9.1982    -100.5773      11.5066    -104.8284     191.3647 1533251727 9999999.9999
     148.0    1470.9729       0.0000      18.4783      83.6629      16.7495     -98.0870      19.0579    -102.2839     197.4635 1533251728 9999999.9999
     149.0    1555.5862       0.0000      24.1810    -999.2500      24.1000     -93.7892      26.4084     -97.8927     203.5685 1533251729 9999999.9999
     150.0    1646.6628       0.0000      28.8717    -999.2500      31.1292     -88.0855      33.4376     -92.0651     209.6673 1533251730 9999999.9999
     151.0    1723.3456       0.0000      33.0370    -999.2500      38.0780     -81.2572      40.3864     -85.0884     215.7723 1533251731 9999999.9999
     152.0    1784.5813       0.0000      37.4516    -999.2500      45.5892     -71.9787      47.8976     -75.6083     221.8717 1533251732 9999999.9999
     153.0    1865.0531       0.0000      42.1688    -999.2500      52.0158     -60.3705      54.3242     -63.7480     227.9706 1533251733 9999999.9999
     154.0    1926.3699       0.0000      51.2383    -999.2500      73.3443     -47.9590      75.6527     -51.0668     234.0755 1533251734 9999999.9999
     155.0    1975.0703       0.0000      54.9391    -999.2500      82.0203     -41.3315      84.3287     -44.2953     240.1805 1533251735 9999999.9999
     156.0    2020.4741       0.0000      58.8356    -999.2500      89.2905     -34.3827      91.5989     -37.1955     246.2793 1533251736 9999999.9999
     157.0    2068.0146       0.0000      63.2279    -999.2500      95.1950     -27.3535      97.5034     -30.0136     252.3781 1533251737 9999999.9999
     158.0    2117.8464       0.0000      68.5857    -999.2500      99.3723     -20.0833     101.6807     -22.5855     258.8941 1533251738 9999999.9999
