~VERSION INFORMATION
VERS.           2.0   :CWLS Log ASCII Standard - VERSION 2.0
WRAP.           NO    :One Line per depth step
PROD.  Schlumberger   :LAS Producer
PROG.  DLIS to ASCII 19C2-270                          :LAS Program name and version
CREA.        2018/08/03 10:59                          :LAS Creation date {YYYY/MM/DD hh:mm}
DLIS_CREA.  2018-Aug-03 08:53                          :DLIS Creation date and time {YYYY-MMM-DD hh:mm}
SOURCE.     PERFO_Perfo_062PTP.DLIS                    :DLIS File Name
FILE-ID.     PERFO_Perfo_062PTP                        :File Identification Number
#--------------------------------------------------
~WELL INFORMATION
#MNEM.UNIT      DATA             DESCRIPTION
#---- ------ --------------   -----------------------------
STRT .S            0.0       :START TIME      
STOP .S          971.0       :STOP TIME      
STEP .S            1.0       :STEP     
NULL .          -999.25      :NULL VALUE
COMP .        SHELL INTERNATIONAL EP                   :COMPANY
WELL .        WPP TEST 4                               :WELL
FLD  .        WILDCAT                                  :FIELD
LOC  .        NA                                       :LOCATION
CNTY .        HARRIS                                   :COUNTY
STAT .        TEXAS                                    :STATE
CTRY .                                                 :COUNTRY
API  .        NA                                       :API NUMBER
UWI  .                                                 :UNIQUE WELL ID
DATE .        02-Aug-2018                              :LOG DATE {DD-MMM-YYYY}
SRVC .        Schlumberger                             :SERVICE COMPANY
LATI .DEG                                              :LATITUDE
LONG .DEG                                              :LONGITUDE
GDAT .                                                 :GeoDetic Datum
SECT .        NA                                       :Section
RANG .        NA                                       :Range
TOWN .        NA                                       :Township
#-----------------------------------------------------------------------------
~PARAMETER INFORMATION
#MNEM.UNIT    VALUE                      DESCRIPTION
#---- -----   --------------------       ------------------------
U-PHASE_B_COMP_PER_YT.                 0 :Phase B Comparator Period Yt
U-PHASE_A_COMP_PER_XT.                 0 :Phase A Comparator Period Xt
U-MAX_EXC_CUR_LIMIT.MA       265.00000   :Requested CM Current Limit
U-REQ_EXC_FQ.HZ              50          :Requested CM Frequency
U-TILT_Y_OFFSET.          -2.06578       :WPTET Tilt Y Offset
U-TILT_Y_GAIN.           1.02173         :WPTET Tilt Y Gain
U-TILT_X_OFFSET.           2.30841       :WPTET Tilt X Offset
U-TILT_X_GAIN.           1.00000         :WPTET Tilt X Gain
U-TILT_OFFSET_TOL.           0.00100     :WPTET Tilt Offset Calibration Tolerance
U-MOT_CUR_LIMIT_REQ.MA        70.00000   :Requested Motor Current Limit
U-MOT_SPD_REQ_WPMS.RPM        1.00000    :Requested Motor Speed
U-STD_TOL_TILT.           0.01000        :Tilt Standard Deviation Tolerance
CWEI .LB/F      29.00000                 :Casing Weight
CSIZ .IN         7.00000                 :Current Casing Size
LCC  .               440                 :Logging Company Code
LUN  .              2134                 :Logging Unit Number
HIDE .                                   :Header Identifier
HID1 .                                   :Header Identifier Line 1
R1   .                                   :Remark Line 1
WITN .        MR. KELLY McCOY            :Witness's Name
ENGI .        MORRIS MOORE               :Engineer's Name
LUL  .        IOWA COLONY                :Logging Unit Location
DATE .        02-Aug-2018                :Date as Month-Day-Year
STAT .        TEXAS                      :State or Province
COUN .        HARRIS                     :County or Rig Name
FN   .        WILDCAT                    :Field Name
WN   .        WPP TEST 4                 :Well Name
CN   .        SHELL INTERNATIONAL EP     :Company Name
CLAB .        County                     :County/Rig Label
SLAB .        State                      :State/Province Label
RUN  .          1                        :RUN NUMBER
PDAT .        GROUND LEVEL               :Permanent Datum
EPD  .                                   :Elevation of Permanent Datum above Mean Sea Level
LMF  .          NA                       :Logging Measured From (Name of Logging Elevation Reference)
APD  .                                   :Elevation of Depth Reference (LMF) above Permanent Datum
#-----------------------------------------------------------------------------
~CURVE INFORMATION
#MNEM.UNIT   API CODE                                  DESCRIPTION
#---- -----  --------                                  -----------------------
TIME .S                                                :TIME {F10.1}
FREQ_EMF_SL.HZ                                         :Electromagnetic Field Frequency {F13.4}
PH_SH_WPPCM_SL.DEG                                     :WPPCM Phase Shift {F13.4}
RB_SL.DEG                                              :Relative Bearing {F13.4}
SDEV_SL.DEG                                            :Sonde Deviation {F13.4}
RTIX_SL.DEG                                            :Raw X-axis Tilt {F13.4}
RTIY_SL.DEG                                            :Raw Y-axis Tilt {F13.4}
TILX_SL.DEG                                            :X-axis Tilt {F13.4}
TILY_SL.DEG                                            :Y-axis Tilt {F13.4}
ROTA_SL.DEG                                            :Motor Rotation Angle {F13.4}
TOD7 .S                                                :Time of Day {I11}
TOJ  .S                                                :Time of Job {F13.4}
#-----------------------------------------------------------------------------
# 
#     TIME    FREQ_EMF_SL  PH_SH_WPPCM_    RB_SL       SDEV_SL      RTIX_SL      RTIY_SL      TILX_SL      TILY_SL      ROTA_SL        TOD7            TOJ
#                          SL
~A  
# ...
     371.0    1339.2858       0.0000     -52.3923    -999.2500     -77.2807     -45.0268     -74.9723     -48.0709     141.3238 1533230287 9999999.9999
     372.0    1367.9475       0.0000     -48.0140    -999.2500     -67.6005     -51.6543     -65.2921     -54.8424     147.4226 1533230288 9999999.9999
     373.0    1395.0892       0.0000     -38.8202    -999.2500     -52.2970     -68.6047     -49.9886     -72.1610     153.5276 1533230289 9999999.9999
     374.0    1420.4546       0.0000     -34.7255    -999.2500     -45.6293     -78.0840     -43.3209     -81.8463     159.6325 1533230290 9999999.9999
     375.0    1446.7593       0.0000     -30.6932    -999.2500     -38.7207     -85.8362     -36.4123     -89.7669     165.7314 1533230291 9999999.9999
     376.0    1467.9019       0.0000     -26.1746    -999.2500     -31.5710     -91.9415     -29.2626     -96.0049     172.2543 1533230292 9999999.9999
     377.0    1502.4038       0.0000     -21.0061    -999.2500     -24.5017     -96.1992     -22.1933    -100.3551     178.3593 1533230293 9999999.9999
     378.0    1528.5327       0.0000     -14.8640    -999.2500     -17.3118     -98.5288     -15.0034    -102.7354     184.4581 1533230294 9999999.9999
     379.0    1559.0355       0.0000      -7.3965      78.6568      -9.5597     -99.2920      -7.2513    -103.5151     190.5570 1533230295 9999999.9999
     380.0    1580.0563       0.0000       1.3397      76.7977      -1.0042     -99.0510       1.3042    -103.2689     196.6619 1533230296 9999999.9999
     381.0    1601.6515       0.0000       9.6844      81.5632       7.2702     -98.6092       9.5786    -102.8174     202.7669 1533230297 9999999.9999
     382.0    1627.6041       0.0000      16.7154      84.3569      14.8516     -96.5807      17.1600    -100.7450     208.8412 1533230298 9999999.9999
     383.0    1646.6628       0.0000      22.6162    -999.2500      22.1318     -92.6243      24.4402     -96.7026     214.9400 1533230299 9999999.9999
     384.0    1666.1730       0.0000      27.3284    -999.2500      28.7995     -87.2420      31.1079     -91.2033     221.0450 1533230300 9999999.9999
     385.0    1686.1511       0.0000      31.6008    -999.2500      35.4672     -80.8555      37.7756     -84.6780     227.1499 1533230301 9999999.9999
     386.0    1690.2042       0.0000      35.6462    -999.2500      41.9742     -73.1435      44.2826     -76.7985     233.2363 1533230302 9999999.9999
     387.0    1702.4818       0.0000      40.0022    -999.2500      47.9188     -62.9010      50.2272     -66.3334     239.3351 1533230303 9999999.9999
     388.0    1702.4818       0.0000      50.3882    -999.2500      68.8457     -48.4410      71.1541     -51.5593     245.4276 1533230304 9999999.9999
     389.0    1706.6141       0.0000      54.4567    -999.2500      78.3652     -41.8537      80.6736     -44.8288     251.9375 1533230305 9999999.9999
     390.0    1706.6141       0.0000      58.2635    -999.2500      85.7558     -35.3467      88.0642     -38.1804     258.0363 1533230306 9999999.9999
     391.0    1694.2772       0.0000      62.4646    -999.2500      91.9415     -28.6388      94.2499     -31.3269     264.1288 1533230307 9999999.9999
     392.0    1690.2042       0.0000      67.5539    -999.2500      96.3598     -21.5695      98.6682     -24.1039     270.2468 1533230308 9999999.9999
     393.0    1674.1072       0.0000      73.3027    -999.2500      98.6493     -14.7412     100.9577     -17.1272     276.3454 1533230309 9999999.9999
     394.0    1656.3605       0.0000      81.6226      81.4308      99.6535      -6.0852     101.9619      -8.2832     282.4440 1533230310 9999999.9999
     395.0    1638.9860       0.0000      90.8262      77.6234     100.0953       2.8117     102.4037       0.8070     288.5487 1533230311 9999999.9999
     396.0    1620.1036       0.0000      99.2707      81.9681      99.9347      11.0057     102.2431       9.1790     294.6542 1533230312 9999999.9999
     397.0    1594.3877       0.0000     106.4425      84.7990      97.7255      18.5570     100.0339      16.8944     300.7528 1533230313 9999999.9999
     398.0    1569.4755       0.0000     112.7094    -999.2500      93.3875      26.1083      95.6959      24.6098     306.8514 1533230314 9999999.9999
     399.0    1541.9408       0.0000     117.9453    -999.2500      87.4428      33.3785      89.7512      32.0379     312.9562 1533230315 9999999.9999
     400.0    1518.6285       0.0000     122.6761    -999.2500      80.3735      40.6888      82.6819      39.5071     319.0742 1533230316 9999999.9999
     401.0    1486.5221       0.0000     127.2164    -999.2500      71.6975      47.9188      74.0059      46.8942     325.5777 1533230317 9999999.9999
     402.0    1464.8438       0.0000     132.3800    -999.2500      59.8483      54.6668      62.1567      53.7888     331.6957 1533230318 9999999.9999
     403.0    1440.8298       0.0000     140.3729    -999.2500      49.6862      72.5812      51.9946      72.0924     337.8005 1533230319 9999999.9999
     404.0    1411.8976       0.0000     144.2870    -999.2500      42.9382      81.3375      45.2466      81.0390     343.8991 1533230320 9999999.9999
     405.0    1386.8344       0.0000     148.2514    -999.2500      35.9090      88.9290      38.2174      88.7954     349.9977 1533230321 9999999.9999
     406.0    1360.0098       0.0000     152.8703    -999.2500      28.3577      95.4762      30.6661      95.4848     356.1024 1533230322 9999999.9999
     407.0    1336.7396       0.0000     158.7861    -999.2500      20.0833     100.9388      22.3917     101.0662       2.2072 1533230323 9999999.9999
     408.0    1319.1838       0.0000     165.3915      83.7422      12.3312     103.9513      14.6396     104.1441       8.3060 1533230324 9999999.9999
     409.0    1297.2786       0.0000     173.4102      76.4427       4.0970     104.8350       6.4054     105.0470      14.4047 1533230325 9999999.9999
     410.0    1273.7772       0.0000    -177.9792      74.7135      -4.2577     105.1965      -1.9493     105.4163      20.5096 1533230326 9999999.9999
     411.0    1262.3429       0.0000    -169.8572      79.8546     -12.2910     104.1120      -9.9826     104.3083      26.6275 1533230327 9999999.9999
     412.0    1248.8899       0.0000    -162.4550      82.8962     -20.4448      99.9748     -18.1364     100.0812      32.7263 1533230328 9999999.9999
     413.0    1237.8961       0.0000    -156.1670    -999.2500     -28.4380      94.4720     -26.1296      94.4588      38.8312 1533230329 9999999.9999
     414.0    1227.0942       0.0000    -150.7091    -999.2500     -36.3910      87.5633     -34.0826      87.4001      44.9360 1533230330 9999999.9999
     415.0    1216.4792       0.0000    -145.9449    -999.2500     -43.9423      79.7308     -41.6339      79.3974      51.0480 1533230331 9999999.9999
     416.0    1218.5875       0.0000    -141.6473    -999.2500     -50.4895      70.8942     -48.1811      70.3687      57.1468 1533230332 9999999.9999
     417.0    1212.2845       0.0000    -133.9323    -999.2500     -62.0173      57.1170     -59.7089      56.2922      63.2649 1533230333 9999999.9999
     418.0    1208.1185       0.0000    -128.4365    -999.2500     -74.1477      49.9272     -71.8393      48.9462      69.3705 1533230334 9999999.9999
     419.0    1206.0464       0.0000    -123.9456    -999.2500     -83.1048      42.7775     -80.7964      41.6412      75.4693 1533230335 9999999.9999
     420.0    1206.0464       0.0000    -119.3858    -999.2500     -90.4955      35.5475     -88.1871      34.2541      81.5810 1533230336 9999999.9999
     421.0    1216.4792       0.0000    -114.1693    -999.2500     -96.7213      28.0363     -94.4129      26.5797      87.6859 1533230337 9999999.9999
     422.0    1218.5875       0.0000    -107.7885    -999.2500    -101.7020      20.0833     -99.3936      18.4539      93.7907 1533230338 9999999.9999
     423.0    1224.9564       0.0000    -100.5861      84.3070    -104.3128      12.3312    -102.0044      10.5333      99.8895 1533230339 9999999.9999
