~VERSION INFORMATION
VERS.           2.0   :CWLS Log ASCII Standard - VERSION 2.0
WRAP.           NO    :One Line per depth step
PROD.  Schlumberger   :LAS Producer
PROG.  DLIS to ASCII 19C2-270                          :LAS Program name and version
CREA.        2018/08/03 10:59                          :LAS Creation date {YYYY/MM/DD hh:mm}
DLIS_CREA.  2018-Aug-03 09:54                          :DLIS Creation date and time {YYYY-MMM-DD hh:mm}
SOURCE.     PERFO_Perfo_091PTP.DLIS                    :DLIS File Name
FILE-ID.     PERFO_Perfo_091PTP                        :File Identification Number
#--------------------------------------------------
~WELL INFORMATION
#MNEM.UNIT      DATA             DESCRIPTION
#---- ------ --------------   -----------------------------
STRT .S            0.0       :START TIME      
STOP .S          220.0       :STOP TIME      
STEP .S            1.0       :STEP     
NULL .          -999.25      :NULL VALUE
COMP .        SHELL INTERNATIONAL EP                   :COMPANY
WELL .        WPP TEST 4                               :WELL
FLD  .        WILDCAT                                  :FIELD
LOC  .        NA                                       :LOCATION
CNTY .        HARRIS                                   :COUNTY
STAT .        TEXAS                                    :STATE
CTRY .                                                 :COUNTRY
API  .        NA                                       :API NUMBER
UWI  .                                                 :UNIQUE WELL ID
DATE .        02-Aug-2018                              :LOG DATE {DD-MMM-YYYY}
SRVC .        Schlumberger                             :SERVICE COMPANY
LATI .DEG                                              :LATITUDE
LONG .DEG                                              :LONGITUDE
GDAT .                                                 :GeoDetic Datum
SECT .        NA                                       :Section
RANG .        NA                                       :Range
TOWN .        NA                                       :Township
#-----------------------------------------------------------------------------
~PARAMETER INFORMATION
#MNEM.UNIT    VALUE                      DESCRIPTION
#---- -----   --------------------       ------------------------
U-PHASE_B_COMP_PER_YT.                 0 :Phase B Comparator Period Yt
U-PHASE_A_COMP_PER_XT.                 0 :Phase A Comparator Period Xt
U-MAX_EXC_CUR_LIMIT.MA       265.00000   :Requested CM Current Limit
U-REQ_EXC_FQ.HZ              50          :Requested CM Frequency
U-TILT_Y_OFFSET.          -2.06578       :WPTET Tilt Y Offset
U-TILT_Y_GAIN.           1.02173         :WPTET Tilt Y Gain
U-TILT_X_OFFSET.           2.30841       :WPTET Tilt X Offset
U-TILT_X_GAIN.           1.00000         :WPTET Tilt X Gain
U-TILT_OFFSET_TOL.           0.00100     :WPTET Tilt Offset Calibration Tolerance
U-MOT_CUR_LIMIT_REQ.MA        70.00000   :Requested Motor Current Limit
U-MOT_SPD_REQ_WPMS.RPM        1.00000    :Requested Motor Speed
U-STD_TOL_TILT.           0.01000        :Tilt Standard Deviation Tolerance
CWEI .LB/F      29.00000                 :Casing Weight
CSIZ .IN         7.00000                 :Current Casing Size
LCC  .               440                 :Logging Company Code
LUN  .              2134                 :Logging Unit Number
HIDE .                                   :Header Identifier
HID1 .                                   :Header Identifier Line 1
R1   .                                   :Remark Line 1
WITN .        MR. KELLY McCOY            :Witness's Name
ENGI .        MORRIS MOORE               :Engineer's Name
LUL  .        IOWA COLONY                :Logging Unit Location
DATE .        02-Aug-2018                :Date as Month-Day-Year
STAT .        TEXAS                      :State or Province
COUN .        HARRIS                     :County or Rig Name
FN   .        WILDCAT                    :Field Name
WN   .        WPP TEST 4                 :Well Name
CN   .        SHELL INTERNATIONAL EP     :Company Name
CLAB .        County                     :County/Rig Label
SLAB .        State                      :State/Province Label
RUN  .          1                        :RUN NUMBER
PDAT .        GROUND LEVEL               :Permanent Datum
EPD  .                                   :Elevation of Permanent Datum above Mean Sea Level
LMF  .          NA                       :Logging Measured From (Name of Logging Elevation Reference)
APD  .                                   :Elevation of Depth Reference (LMF) above Permanent Datum
#-----------------------------------------------------------------------------
~CURVE INFORMATION
#MNEM.UNIT   API CODE                                  DESCRIPTION
#---- -----  --------                                  -----------------------
TIME .S                                                :TIME {F10.1}
FREQ_EMF_SL.HZ                                         :Electromagnetic Field Frequency {F13.4}
PH_SH_WPPCM_SL.DEG                                     :WPPCM Phase Shift {F13.4}
RB_SL.DEG                                              :Relative Bearing {F13.4}
SDEV_SL.DEG                                            :Sonde Deviation {F13.4}
RTIX_SL.DEG                                            :Raw X-axis Tilt {F13.4}
RTIY_SL.DEG                                            :Raw Y-axis Tilt {F13.4}
TILX_SL.DEG                                            :X-axis Tilt {F13.4}
TILY_SL.DEG                                            :Y-axis Tilt {F13.4}
ROTA_SL.DEG                                            :Motor Rotation Angle {F13.4}
TOD7 .S                                                :Time of Day {I11}
TOJ  .S                                                :Time of Job {F13.4}
#-----------------------------------------------------------------------------
# 
#     TIME    FREQ_EMF_SL  PH_SH_WPPCM_    RB_SL       SDEV_SL      RTIX_SL      RTIY_SL      TILX_SL      TILY_SL      ROTA_SL        TOD7            TOJ
#                          SL
~A  
       0.0     819.4930       0.0000    -156.9255    -999.2500     -27.3535      96.4000     -25.0451      96.4287      10.6205 1533251581 9999999.9999
       1.0     818.5389       0.0000    -153.1825    -999.2500     -32.6555      91.9817     -30.3471      91.9144      15.4983 1533251581 9999999.9999
       2.0     805.4124       0.0000    -148.1597    -999.2500     -40.4880      84.7115     -38.1796      84.4863      21.5970 1533251582 9999999.9999
       3.0     803.5715       0.0000    -143.7277    -999.2500     -47.7582      76.5978     -45.4498      76.1963      27.7019 1533251583 9999999.9999
       4.0     799.0057       0.0000    -139.1230    -999.2500     -54.8275      67.0783     -52.5191      66.4700      33.7945 1533251584 9999999.9999
       5.0     796.2910       0.0000    -131.4045    -999.2500     -68.7252      54.7873     -66.4168      53.9119      39.8932 1533251585 9999999.9999
       6.0     802.6541       0.0000    -127.0467    -999.2500     -78.0438      48.0393     -75.7354      47.0173      46.0050 1533251586 9999999.9999
       7.0     801.7388       0.0000    -122.6207    -999.2500     -86.4788      40.7290     -84.1704      39.5481      52.1099 1533251587 9999999.9999
       8.0     810.9861       0.0000    -117.8153    -999.2500     -93.6285      33.1777     -91.3201      31.8327      58.2148 1533251588 9999999.9999
       9.0     827.2059       0.0000    -112.2005    -999.2500     -99.7338      25.3853     -97.4254      23.8711      64.3268 1533251589 9999999.9999
      10.0     850.2117       0.0000    -105.4658    -999.2500    -104.2727      17.3922    -101.9642      15.7043      70.4261 1533251590 9999999.9999
      11.0     874.5336       0.0000     -97.7752      78.5491    -106.1203       9.4793    -103.8119       7.6195      76.5318 1533251591 9999999.9999
      12.0     916.7209       0.0000     -89.2249      76.1290    -106.2007       1.2853    -103.8923      -0.7525      82.6366 1533251592 9999999.9999
      13.0     965.8310       0.0000     -80.5692      80.0850    -105.9597      -7.0693    -103.6513      -9.2887      89.1533 1533251593 9999999.9999
      14.0    1011.6906       0.0000     -72.9672      97.6113    -104.0317     -15.0625    -101.7233     -17.4555      95.2643 1533251594 9999999.9999
      15.0    1051.0089       0.0000     -66.4363    -999.2500     -99.7740     -23.0557     -97.4656     -25.6224     101.3630 1533251595 9999999.9999
      16.0    1125.0000       0.0000     -61.0943    -999.2500     -93.8293     -30.7677     -91.5209     -33.5019     107.4748 1533251596 9999999.9999
      17.0    1189.7208       0.0000     -56.5361    -999.2500     -86.7198     -38.2387     -84.4114     -41.1353     113.5866 1533251597 9999999.9999
      18.0    1306.9238       0.0000     -52.4353    -999.2500     -79.0882     -45.4285     -76.7798     -48.4813     119.6914 1533251598 9999999.9999
      19.0    1434.9490       0.0000     -47.9003    -999.2500     -68.9260     -52.8192     -66.6176     -56.0326     125.8102 1533251599 9999999.9999
      20.0    1545.3296       0.0000     -39.4390    -999.2500     -53.9438     -68.8457     -51.6354     -72.4073     131.9089 1533251600 9999999.9999
      21.0    1642.8153       0.0000     -35.2559    -999.2500     -46.8343     -78.9677     -44.5259     -82.7492     137.9955 1533251601 9999999.9999
      22.0    1723.3456       0.0000     -31.3573    -999.2500     -39.8453     -87.1215     -37.5369     -91.0802     144.1137 1533251602 9999999.9999
      23.0    1816.8605       0.0000     -26.6103    -999.2500     -32.1333     -92.8252     -29.8249     -96.9078     150.2187 1533251603 9999999.9999
      24.0    1921.1066       0.0000     -21.2770    -999.2500     -24.6623     -98.2075     -22.3539    -102.4071     156.3175 1533251604 9999999.9999
      25.0    2014.6848       0.0000     -15.0457      89.0556     -17.3520    -100.8183     -15.0436    -105.0746     162.8274 1533251605 9999999.9999
      26.0    2086.4243       0.0000      -7.2292      75.8982      -9.3187    -101.5413      -7.0103    -105.8133     168.9324 1533251606 9999999.9999
      27.0    2150.2292       0.0000       1.8541      74.4583      -0.5222    -101.3807       1.7862    -105.6492     175.0312 1533251607 9999999.9999
      28.0    2211.0850       0.0000      10.4489      79.1881       7.9530    -100.7380      10.2614    -104.9925     181.1301 1533251608 9999999.9999
      29.0    2260.8521       0.0000      17.4920      96.3015      15.5847     -98.6493      17.8931    -102.8585     187.2350 1533251609 9999999.9999
      30.0    2297.7942       0.0000      23.3663    -999.2500      22.9753     -94.5523      25.2837     -98.6725     193.3400 1533251610 9999999.9999
      31.0    2328.2285       0.0000      28.5176    -999.2500      30.5668     -88.5675      32.8752     -92.5576     199.4388 1533251611 9999999.9999
      32.0    2351.5886       0.0000      32.6882    -999.2500      37.4755     -81.8597      39.7839     -85.7040     205.5376 1533251612 9999999.9999
      33.0    2359.4797       0.0000      36.7530    -999.2500      44.4243     -73.5050      46.7327     -77.1678     211.6426 1533251613 9999999.9999
      34.0    2367.4243       0.0000      41.2211    -999.2500      51.0518     -62.9010      53.3602     -66.3334     217.7353 1533251614 9999999.9999
      35.0    2367.4243       0.0000      50.6046    -999.2500      71.5770     -48.9632      73.8854     -52.0928     223.8341 1533251615 9999999.9999
      36.0    2351.5886       0.0000      54.3010    -999.2500      80.6145     -42.4963      82.9229     -45.4854     229.9330 1533251616 9999999.9999
      37.0    2328.2285       0.0000      58.1149    -999.2500      88.0453     -35.6278      90.3537     -38.4677     236.4367 1533251617 9999999.9999
      38.0    2312.9111       0.0000      62.4609    -999.2500      94.1908     -28.5183      96.4992     -31.2037     242.5356 1533251618 9999999.9999
      39.0    2275.4854       0.0000      67.6638    -999.2500      98.8100     -21.2482     101.1184     -23.7756     248.6344 1533251619 9999999.9999
      40.0    2218.0601       0.0000      73.9022    -999.2500     101.0593     -13.9378     103.3677     -16.3064     254.7393 1533251620 9999999.9999
      41.0    2170.1389       0.0000      81.9382      78.3067     101.8627      -5.7037     104.1711      -7.8934     260.8572 1533251621 9999999.9999
      42.0    2105.1646       0.0000      90.9183      75.4959     102.2242       2.8920     104.5326       0.8891     266.9558 1533251622 9999999.9999
      43.0    2038.0435       0.0000     100.1116      80.0770     101.8225      11.7688     104.1309       9.9588     273.0544 1533251623 9999999.9999
      44.0    1958.5656       0.0000     107.5328     101.0646      99.0510      19.6817     101.3594      18.0435     279.1469 1533251624 9999999.9999
      45.0    1875.0000       0.0000     113.8440    -999.2500      94.2310      27.5142      96.5394      26.0462     285.2522 1533251625 9999999.9999
      46.0    1784.5813       0.0000     119.0367    -999.2500      87.9248      35.0253      90.2332      33.7206     291.3508 1533251626 9999999.9999
      47.0    1694.2772       0.0000     123.7143    -999.2500      80.3333      42.5767      82.6417      41.4360     297.4494 1533251627 9999999.9999
      48.0    1601.6515       0.0000     128.0887    -999.2500      71.4967      49.8067      73.8051      48.8230     303.5542 1533251628 9999999.9999
      49.0    1502.4038       0.0000     133.6174    -999.2500      58.1613      56.8358      60.4697      56.0049     310.0638 1533251629 9999999.9999
      50.0    1375.9785       0.0000     140.5143    -999.2500      49.8870      73.9870      52.1954      73.5287     316.1755 1533251630 9999999.9999
      51.0    1262.3429       0.0000     144.3881    -999.2500      42.9382      82.7835      45.2466      82.5164     322.2802 1533251631 9999999.9999
      52.0    1195.7908       0.0000     148.2799    -999.2500      35.8688      90.2143      38.1772      90.1087     328.3850 1533251632 9999999.9999
