~VERSION INFORMATION
VERS.           2.0   :CWLS Log ASCII Standard - VERSION 2.0
WRAP.           NO    :One Line per depth step
PROD.  Schlumberger   :LAS Producer
PROG.  DLIS to ASCII 19C2-270                          :LAS Program name and version
CREA.        2018/08/03 10:59                          :LAS Creation date {YYYY/MM/DD hh:mm}
DLIS_CREA.  2018-Aug-03 08:58                          :DLIS Creation date and time {YYYY-MMM-DD hh:mm}
SOURCE.     PERFO_Perfo_064PTP.DLIS                    :DLIS File Name
FILE-ID.     PERFO_Perfo_064PTP                        :File Identification Number
#--------------------------------------------------
~WELL INFORMATION
#MNEM.UNIT      DATA             DESCRIPTION
#---- ------ --------------   -----------------------------
STRT .S            0.0       :START TIME      
STOP .S          966.0       :STOP TIME      
STEP .S            1.0       :STEP     
NULL .          -999.25      :NULL VALUE
COMP .        SHELL INTERNATIONAL EP                   :COMPANY
WELL .        WPP TEST 4                               :WELL
FLD  .        WILDCAT                                  :FIELD
LOC  .        NA                                       :LOCATION
CNTY .        HARRIS                                   :COUNTY
STAT .        TEXAS                                    :STATE
CTRY .                                                 :COUNTRY
API  .        NA                                       :API NUMBER
UWI  .                                                 :UNIQUE WELL ID
DATE .        02-Aug-2018                              :LOG DATE {DD-MMM-YYYY}
SRVC .        Schlumberger                             :SERVICE COMPANY
LATI .DEG                                              :LATITUDE
LONG .DEG                                              :LONGITUDE
GDAT .                                                 :GeoDetic Datum
SECT .        NA                                       :Section
RANG .        NA                                       :Range
TOWN .        NA                                       :Township
#-----------------------------------------------------------------------------
~PARAMETER INFORMATION
#MNEM.UNIT    VALUE                      DESCRIPTION
#---- -----   --------------------       ------------------------
U-PHASE_B_COMP_PER_YT.                 0 :Phase B Comparator Period Yt
U-PHASE_A_COMP_PER_XT.                 0 :Phase A Comparator Period Xt
U-MAX_EXC_CUR_LIMIT.MA       265.00000   :Requested CM Current Limit
U-REQ_EXC_FQ.HZ              50          :Requested CM Frequency
U-TILT_Y_OFFSET.          -2.06578       :WPTET Tilt Y Offset
U-TILT_Y_GAIN.           1.02173         :WPTET Tilt Y Gain
U-TILT_X_OFFSET.           2.30841       :WPTET Tilt X Offset
U-TILT_X_GAIN.           1.00000         :WPTET Tilt X Gain
U-TILT_OFFSET_TOL.           0.00100     :WPTET Tilt Offset Calibration Tolerance
U-MOT_CUR_LIMIT_REQ.MA        70.00000   :Requested Motor Current Limit
U-MOT_SPD_REQ_WPMS.RPM        1.00000    :Requested Motor Speed
U-STD_TOL_TILT.           0.01000        :Tilt Standard Deviation Tolerance
CWEI .LB/F      29.00000                 :Casing Weight
CSIZ .IN         7.00000                 :Current Casing Size
LCC  .               440                 :Logging Company Code
LUN  .              2134                 :Logging Unit Number
HIDE .                                   :Header Identifier
HID1 .                                   :Header Identifier Line 1
R1   .                                   :Remark Line 1
WITN .        MR. KELLY McCOY            :Witness's Name
ENGI .        MORRIS MOORE               :Engineer's Name
LUL  .        IOWA COLONY                :Logging Unit Location
DATE .        02-Aug-2018                :Date as Month-Day-Year
STAT .        TEXAS                      :State or Province
COUN .        HARRIS                     :County or Rig Name
FN   .        WILDCAT                    :Field Name
WN   .        WPP TEST 4                 :Well Name
CN   .        SHELL INTERNATIONAL EP     :Company Name
CLAB .        County                     :County/Rig Label
SLAB .        State                      :State/Province Label
RUN  .          1                        :RUN NUMBER
PDAT .        GROUND LEVEL               :Permanent Datum
EPD  .                                   :Elevation of Permanent Datum above Mean Sea Level
LMF  .          NA                       :Logging Measured From (Name of Logging Elevation Reference)
APD  .                                   :Elevation of Depth Reference (LMF) above Permanent Datum
#-----------------------------------------------------------------------------
~CURVE INFORMATION
#MNEM.UNIT   API CODE                                  DESCRIPTION
#---- -----  --------                                  -----------------------
TIME .S                                                :TIME {F10.1}
FREQ_EMF_SL.HZ                                         :Electromagnetic Field Frequency {F13.4}
PH_SH_WPPCM_SL.DEG                                     :WPPCM Phase Shift {F13.4}
RB_SL.DEG                                              :Relative Bearing {F13.4}
SDEV_SL.DEG                                            :Sonde Deviation {F13.4}
RTIX_SL.DEG                                            :Raw X-axis Tilt {F13.4}
RTIY_SL.DEG                                            :Raw Y-axis Tilt {F13.4}
TILX_SL.DEG                                            :X-axis Tilt {F13.4}
TILY_SL.DEG                                            :Y-axis Tilt {F13.4}
ROTA_SL.DEG                                            :Motor Rotation Angle {F13.4}
TOD7 .S                                                :Time of Day {I11}
TOJ  .S                                                :Time of Job {F13.4}
#-----------------------------------------------------------------------------
# 
#     TIME    FREQ_EMF_SL  PH_SH_WPPCM_    RB_SL       SDEV_SL      RTIX_SL      RTIY_SL      TILX_SL      TILY_SL      ROTA_SL        TOD7            TOJ
#                          SL
~A  
# ...
     424.0       0.0000       0.0000    -140.4120    -999.2500     -52.5782      69.0063     -50.2698      68.4399     206.6906 1533232427 9999999.9999
     425.0       0.0000       0.0000    -132.4907    -999.2500     -65.6323      55.7915     -63.3239      54.9379     212.7771 1533232428 9999999.9999
     426.0       0.0000       0.0000    -127.3961    -999.2500     -76.4773      48.3607     -74.1689      47.3456     218.8951 1533232429 9999999.9999
     427.0       0.0000       0.0000    -123.0793    -999.2500     -84.8019      41.3918     -82.4935      40.2253     225.0001 1533232430 9999999.9999
     428.0       0.0000       0.0000    -118.4569    -999.2500     -91.9013      34.1417     -89.5929      32.8177     231.1120 1533232431 9999999.9999
     429.0       0.0000       0.0000    -112.8413    -999.2500     -98.1272      26.2690     -95.8187      24.7740     237.2047 1533232432 9999999.9999
     430.0       0.0000       0.0000    -106.1988    -999.2500    -102.6258      18.2758    -100.3174      16.6071     243.3035 1533232433 9999999.9999
     431.0       0.0000       0.0000     -99.1510      81.7676    -104.5940      10.8852    -102.2856       9.0559     249.3960 1533232434 9999999.9999
     432.0       0.0000       0.0000     -90.2800      77.5970    -104.7145       2.2895    -102.4061       0.2735     255.4948 1533232435 9999999.9999
     433.0       0.0000       0.0000     -81.9192      80.7687    -104.5538      -5.7840    -102.2454      -7.9754     261.9984 1533232436 9999999.9999
     434.0       0.0000       0.0000     -74.0912      94.2930    -102.9873     -13.8977    -100.6789     -16.2654     268.1031 1533232437 9999999.9999
     435.0       0.0000       0.0000     -67.8858    -999.2500     -99.4928     -21.2482     -97.1844     -23.7756     274.2079 1533232438 9999999.9999
     436.0       0.0000       0.0000     -62.2175    -999.2500     -93.9498     -29.0807     -91.6414     -31.7783     280.2942 1533232439 9999999.9999
     437.0       0.0000       0.0000     -57.5117    -999.2500     -87.2822     -36.5115     -84.9738     -39.3706     286.3989 1533232440 9999999.9999
     438.0       0.0000       0.0000     -53.2664    -999.2500     -79.2488     -43.6210     -76.9404     -46.6345     292.5169 1533232441 9999999.9999
     439.0       0.0000       0.0000     -49.0373    -999.2500     -69.9502     -50.2485     -67.6418     -53.4060     298.6155 1533232442 9999999.9999
     440.0       0.0000       0.0000     -40.1654    -999.2500     -54.3857     -65.6725     -52.0773     -69.1652     304.7141 1533232443 9999999.9999
     441.0       0.0000       0.0000     -35.5354    -999.2500     -47.0352     -76.4372     -44.7268     -80.1637     310.8189 1533232444 9999999.9999
     442.0       0.0000       0.0000     -31.7790    -999.2500     -40.5683     -84.3500     -38.2599     -88.2485     316.9236 1533232445 9999999.9999
     443.0       0.0000       0.0000     -27.1110    -999.2500     -32.9768     -90.8972     -30.6684     -94.9379     323.0353 1533232446 9999999.9999
     444.0       0.0000       0.0000     -22.2175    -999.2500     -26.0280     -95.8377     -23.7196     -99.9857     329.1216 1533232447 9999999.9999
     445.0       0.0000       0.0000     -16.0362    -999.2500     -18.6373     -97.8058     -16.3289    -101.9967     335.2394 1533232448 9999999.9999
     446.0       0.0000       0.0000      -8.8428      79.6296     -11.0057     -99.3723      -8.6973    -103.5972     341.7491 1533232449 9999999.9999
     447.0       0.0000       0.0000      -0.3111      76.4473      -2.6108     -99.3322      -0.3024    -103.5562     347.8354 1533232450 9999999.9999
     448.0       0.0000       0.0000       8.5452      79.9731       6.1053     -98.9305       8.4137    -103.1458     353.9532 1533232451 9999999.9999
     449.0       0.0000       0.0000      15.4594      91.6788      13.4157     -97.3238      15.7241    -101.5042       0.0710 1533232452 9999999.9999
     450.0       0.0000       0.0000      21.3975    -999.2500      20.5252     -93.8695      22.8336     -97.9748       6.1698 1533232453 9999999.9999
     451.0       0.0000       0.0000      26.4389    -999.2500      27.4740     -88.6880      29.7824     -92.6807      12.2685 1533232454 9999999.9999
     452.0       0.0000       0.0000      30.7390    -999.2500      34.1015     -82.6228      36.4099     -86.4838      18.3734 1533232455 9999999.9999
     453.0       0.0000       0.0000      34.9980    -999.2500      41.0102     -74.7903      43.3186     -78.4811      24.4783 1533232456 9999999.9999
     454.0       0.0000       0.0000      39.2483    -999.2500      47.3967     -65.5118      49.7051     -69.0010      30.5770 1533232457 9999999.9999
     455.0       0.0000       0.0000      49.5147    -999.2500      66.5963     -49.6460      68.9047     -52.7904      36.6758 1533232458 9999999.9999
     456.0       0.0000       0.0000      53.7403    -999.2500      76.9192     -43.0988      79.2276     -46.1010      42.7806 1533232459 9999999.9999
     457.0       0.0000       0.0000      57.6029    -999.2500      84.8722     -36.4713      87.1806     -39.3295      48.8855 1533232460 9999999.9999
     458.0       0.0000       0.0000      61.7254    -999.2500      91.0578     -29.7635      93.3662     -32.4760      55.3769 1533232461 9999999.9999
     459.0       0.0000       0.0000      66.5888    -999.2500      95.8778     -22.8147      98.1862     -25.3761      61.4824 1533232462 9999999.9999
     460.0       0.0000       0.0000      72.0428    -999.2500      98.4887     -16.1470     100.7971     -18.5636      67.5748 1533232463 9999999.9999
     461.0       0.0000       0.0000      79.4638      84.0525      99.7740      -8.2342     102.0824     -10.4789      73.6743 1533232464 9999999.9999
     462.0       0.0000       0.0000      88.6414      77.6293     100.1355       0.7230     102.4439      -1.3271      79.7730 1533232465 9999999.9999
     463.0       0.0000       0.0000      97.6110      80.0750     100.1757       9.3588     102.4841       7.4964      85.8909 1533232466 9999999.9999
     464.0       0.0000       0.0000     105.2520      97.1600      98.4083      17.2315     100.7167      15.5401      91.9958 1533232467 9999999.9999
     465.0       0.0000       0.0000     111.5488    -999.2500      94.3917      24.6222      96.7001      23.0914      98.0955 1533232468 9999999.9999
     466.0       0.0000       0.0000     117.1780    -999.2500      88.6478      32.2538      90.9562      30.8888     104.1942 1533232469 9999999.9999
     467.0       0.0000       0.0000     121.6553    -999.2500      82.3015      39.0822      84.6099      37.8655     110.2991 1533232470 9999999.9999
     468.0       0.0000       0.0000     126.3505    -999.2500      73.7460      46.6335      76.0544      45.5809     116.4039 1533232471 9999999.9999
     469.0       0.0000       0.0000     131.3263    -999.2500      62.7002      53.7430      65.0086      52.8449     122.4902 1533232472 9999999.9999
     470.0       0.0000       0.0000     139.5646    -999.2500      51.0117      70.7737      53.3201      70.2456     129.0008 1533232473 9999999.9999
     471.0       0.0000       0.0000     143.5120    -999.2500      44.3440      79.8112      46.6524      79.4795     135.1190 1533232474 9999999.9999
     472.0       0.0000       0.0000     147.3785    -999.2500      37.4353      87.4830      39.7437      87.3180     141.2309 1533232475 9999999.9999
     473.0       0.0000       0.0000     151.7273    -999.2500      30.1250      94.3113      32.4334      94.2947     147.3298 1533232476 9999999.9999
     474.0       0.0000       0.0000     157.4466    -999.2500      21.8105     100.1757      24.1189     100.2864     153.4347 1533232477 9999999.9999
     475.0       0.0000       0.0000     163.5316    -999.2500      14.3797     103.5497      16.6881     103.7337     159.5274 1533232478 9999999.9999
     476.0       0.0000       0.0000     171.9456      77.1506       5.5430     104.9153       7.8514     105.1291     165.6262 1533232479 9999999.9999
