~VERSION INFORMATION
VERS.           2.0   :CWLS Log ASCII Standard - VERSION 2.0
WRAP.           NO    :One Line per depth step
PROD.  Schlumberger   :LAS Producer
PROG.  DLIS to ASCII 19C2-270                          :LAS Program name and version
CREA.        2018/08/03 10:59                          :LAS Creation date {YYYY/MM/DD hh:mm}
DLIS_CREA.  2018-Aug-03 09:51                          :DLIS Creation date and time {YYYY-MMM-DD hh:mm}
SOURCE.     PERFO_Perfo_089PTP.DLIS                    :DLIS File Name
FILE-ID.     PERFO_Perfo_089PTP                        :File Identification Number
#--------------------------------------------------
~WELL INFORMATION
#MNEM.UNIT      DATA             DESCRIPTION
#---- ------ --------------   -----------------------------
STRT .S            0.0       :START TIME      
STOP .S          261.0       :STOP TIME      
STEP .S            1.0       :STEP     
NULL .          -999.25      :NULL VALUE
COMP .        SHELL INTERNATIONAL EP                   :COMPANY
WELL .        WPP TEST 4                               :WELL
FLD  .        WILDCAT                                  :FIELD
LOC  .        NA                                       :LOCATION
CNTY .        HARRIS                                   :COUNTY
STAT .        TEXAS                                    :STATE
CTRY .                                                 :COUNTRY
API  .        NA                                       :API NUMBER
UWI  .                                                 :UNIQUE WELL ID
DATE .        02-Aug-2018                              :LOG DATE {DD-MMM-YYYY}
SRVC .        Schlumberger                             :SERVICE COMPANY
LATI .DEG                                              :LATITUDE
LONG .DEG                                              :LONGITUDE
GDAT .                                                 :GeoDetic Datum
SECT .        NA                                       :Section
RANG .        NA                                       :Range
TOWN .        NA                                       :Township
#-----------------------------------------------------------------------------
~PARAMETER INFORMATION
#MNEM.UNIT    VALUE                      DESCRIPTION
#---- -----   --------------------       ------------------------
U-PHASE_B_COMP_PER_YT.                 0 :Phase B Comparator Period Yt
U-PHASE_A_COMP_PER_XT.                 0 :Phase A Comparator Period Xt
U-MAX_EXC_CUR_LIMIT.MA       265.00000   :Requested CM Current Limit
U-REQ_EXC_FQ.HZ              50          :Requested CM Frequency
U-TILT_Y_OFFSET.          -2.06578       :WPTET Tilt Y Offset
U-TILT_Y_GAIN.           1.02173         :WPTET Tilt Y Gain
U-TILT_X_OFFSET.           2.30841       :WPTET Tilt X Offset
U-TILT_X_GAIN.           1.00000         :WPTET Tilt X Gain
U-TILT_OFFSET_TOL.           0.00100     :WPTET Tilt Offset Calibration Tolerance
U-MOT_CUR_LIMIT_REQ.MA        70.00000   :Requested Motor Current Limit
U-MOT_SPD_REQ_WPMS.RPM        1.00000    :Requested Motor Speed
U-STD_TOL_TILT.           0.01000        :Tilt Standard Deviation Tolerance
CWEI .LB/F      29.00000                 :Casing Weight
CSIZ .IN         7.00000                 :Current Casing Size
LCC  .               440                 :Logging Company Code
LUN  .              2134                 :Logging Unit Number
HIDE .                                   :Header Identifier
HID1 .                                   :Header Identifier Line 1
R1   .                                   :Remark Line 1
WITN .        MR. KELLY McCOY            :Witness's Name
ENGI .        MORRIS MOORE               :Engineer's Name
LUL  .        IOWA COLONY                :Logging Unit Location
DATE .        02-Aug-2018                :Date as Month-Day-Year
STAT .        TEXAS                      :State or Province
COUN .        HARRIS                     :County or Rig Name
FN   .        WILDCAT                    :Field Name
WN   .        WPP TEST 4                 :Well Name
CN   .        SHELL INTERNATIONAL EP     :Company Name
CLAB .        County                     :County/Rig Label
SLAB .        State                      :State/Province Label
RUN  .          1                        :RUN NUMBER
PDAT .        GROUND LEVEL               :Permanent Datum
EPD  .                                   :Elevation of Permanent Datum above Mean Sea Level
LMF  .          NA                       :Logging Measured From (Name of Logging Elevation Reference)
APD  .                                   :Elevation of Depth Reference (LMF) above Permanent Datum
#-----------------------------------------------------------------------------
~CURVE INFORMATION
#MNEM.UNIT   API CODE                                  DESCRIPTION
#---- -----  --------                                  -----------------------
TIME .S                                                :TIME {F10.1}
FREQ_EMF_SL.HZ                                         :Electromagnetic Field Frequency {F13.4}
PH_SH_WPPCM_SL.DEG                                     :WPPCM Phase Shift {F13.4}
RB_SL.DEG                                              :Relative Bearing {F13.4}
SDEV_SL.DEG                                            :Sonde Deviation {F13.4}
RTIX_SL.DEG                                            :Raw X-axis Tilt {F13.4}
RTIY_SL.DEG                                            :Raw Y-axis Tilt {F13.4}
TILX_SL.DEG                                            :X-axis Tilt {F13.4}
TILY_SL.DEG                                            :Y-axis Tilt {F13.4}
ROTA_SL.DEG                                            :Motor Rotation Angle {F13.4}
TOD7 .S                                                :Time of Day {I11}
TOJ  .S                                                :Time of Job {F13.4}
#-----------------------------------------------------------------------------
# 
#     TIME    FREQ_EMF_SL  PH_SH_WPPCM_    RB_SL       SDEV_SL      RTIX_SL      RTIY_SL      TILX_SL      TILY_SL      ROTA_SL        TOD7            TOJ
#                          SL
~A  
# ...
     159.0       0.0000       0.0000     132.7092    -999.2500      60.4910      56.0325      62.7994      55.1841     274.4232 1533251154 9999999.9999
     160.0       0.0000       0.0000     140.3716    -999.2500      50.0878      73.5452      52.3962      73.0773     280.5280 1533251155 9999999.9999
     161.0       0.0000       0.0000     144.2624    -999.2500      43.1792      82.5827      45.4876      82.3112     286.6327 1533251156 9999999.9999
     162.0       0.0000       0.0000     148.1658    -999.2500      36.0697      89.8930      38.3781      89.7803     292.7188 1533251157 9999999.9999
     163.0       0.0000       0.0000     152.8109    -999.2500      28.3577      96.8017      30.6661      96.8391     298.8174 1533251158 9999999.9999
     164.0       0.0000       0.0000     158.4338    -999.2500      20.4047     102.1840      22.7131     102.3384     304.9222 1533251159 9999999.9999
     165.0       0.0000       0.0000     165.2171      84.7663      12.4115     105.4375      14.7199     105.6626     311.0269 1533251160 9999999.9999
     166.0       0.0000       0.0000     173.2392      74.8866       4.2175     106.2810       6.5259     106.5244     317.5305 1533251161 9999999.9999
     167.0       0.0000       0.0000    -178.1740      73.2436      -4.0568     106.6023      -1.7484     106.8527     323.6291 1533251162 9999999.9999
     168.0     847.1386       0.0000    -169.8718      77.9358     -12.2107     105.4777      -9.9023     105.7036     329.6805 1533251163 9999999.9999
     169.0    1403.4431       0.0000    -162.4163      97.5077     -20.4047     101.3003     -18.0963     101.4355     335.7669 1533251164 9999999.9999
     170.0    1400.6475       0.0000    -155.9283    -999.2500     -28.7192      95.3155     -26.4108      95.3207     341.8532 1533251165 9999999.9999
     171.0    1331.6761       0.0000    -150.5988    -999.2500     -36.5918      88.5675     -34.2834      88.4260     347.9579 1533251166 9999999.9999
     172.0    1269.1787       0.0000    -145.6646    -999.2500     -44.5850      80.3333     -42.2766      80.0130     354.0504 1533251167 9999999.9999
     173.0    1218.5875       0.0000    -141.3092    -999.2500     -51.5740      71.6172     -49.2656      71.1074       0.1498 1533251168 9999999.9999
     174.0    1173.8313       0.0000    -134.3955    -999.2500     -61.4952      58.0408     -59.1868      57.2361       6.2361 1533251169 9999999.9999
     175.0    1139.5867       0.0000    -128.9278    -999.2500     -74.0673      51.0518     -71.7589      50.0953      12.3410 1533251170 9999999.9999
     176.0    1095.2103       0.0000    -124.7944    -999.2500     -82.4220      44.3038     -80.1136      43.2007      18.4591 1533251171 9999999.9999
     177.0    1063.7292       0.0000    -120.3279    -999.2500     -90.0938      37.0337     -87.7854      35.7725      24.5579 1533251172 9999999.9999
     178.0    1035.5303       0.0000    -115.2532    -999.2500     -96.6410      29.4823     -94.3326      28.0571      31.0616 1533251173 9999999.9999
     179.0    1000.1779       0.0000    -108.9423    -999.2500    -102.1037      21.3687     -99.7952      19.7672      37.1542 1533251174 9999999.9999
     180.0     973.8573       0.0000    -101.7457      84.0922    -105.4375      13.4558    -103.1291      11.6824      43.2721 1533251175 9999999.9999
     181.0     954.0366       0.0000     -93.5316      76.4725    -106.2810       5.3823    -103.9726       3.4335      49.3709 1533251176 9999999.9999
     182.0     932.5266       0.0000     -84.8904      77.0643    -106.2007      -2.8518    -103.8923      -4.9796      55.4757 1533251177 9999999.9999
     183.0     921.5269       0.0000     -76.6318      86.3969    -105.2367     -11.0860    -102.9283     -13.3926      61.5937 1533251178 9999999.9999
     184.0     897.9885       0.0000     -69.1590    -999.2500    -101.8225     -19.5612     -99.5141     -22.0520      67.6799 1533251179 9999999.9999
     185.0     899.1368       0.0000     -63.2770    -999.2500     -96.5607     -27.4740     -94.2523     -30.1367      73.7917 1533251180 9999999.9999
     186.0     903.7596       0.0000     -58.4186    -999.2500     -89.8528     -35.0655     -87.5444     -37.8932      79.9027 1533251181 9999999.9999
     187.0     902.5995       0.0000     -54.2115    -999.2500     -82.5827     -42.2955     -80.2743     -45.2802      86.0147 1533251182 9999999.9999
     188.0     913.1494       0.0000     -50.0953    -999.2500     -73.7862     -49.3247     -71.4778     -52.4621      92.1134 1533251183 9999999.9999
     189.0     931.2914       0.0000     -45.1636    -999.2500     -62.0977     -55.9522     -59.7893     -59.2336      98.2121 1533251184 9999999.9999
     190.0     954.0366       0.0000     -37.2399    -999.2500     -50.3288     -74.2682     -48.0204     -77.9476     104.7280 1533251185 9999999.9999
     191.0     977.9207       0.0000     -33.2520    -999.2500     -43.1792     -82.5023     -40.8708     -86.3607     110.8268 1533251186 9999999.9999
     192.0    1008.7877       0.0000     -29.0320    -999.2500     -35.9090     -90.3750     -33.6006     -94.4044     116.9255 1533251187 9999999.9999
     193.0    1054.1604       0.0000     -24.1178    -999.2500     -28.4380     -96.1992     -26.1296    -100.3551     123.0303 1533251188 9999999.9999
     194.0    1103.8069       0.0000     -18.3582    -999.2500     -21.0875     -99.8142     -18.7791    -104.0486     129.1352 1533251189 9999999.9999
     195.0    1145.1547       0.0000     -11.3505      79.2153     -13.4558    -101.3405     -11.1474    -105.6081     135.2340 1533251190 9999999.9999
     196.0    1197.8279       0.0000      -2.1497      74.3298      -4.3782    -101.5413      -2.0698    -105.8133     141.3329 1533251191 9999999.9999
     197.0    1262.3429       0.0000       6.9695      76.1838       4.4585    -101.1798       6.7669    -105.4440     147.4378 1533251192 9999999.9999
     198.0    1362.6454       0.0000      14.5276      86.7492      12.2508     -99.8142      14.5592    -104.0486     153.5428 1533251193 9999999.9999
     199.0    1483.3861       0.0000      20.8035    -999.2500      19.6013     -96.6812      21.9097    -100.8475     159.6416 1533251194 9999999.9999
     200.0    1559.0355       0.0000      26.1896    -999.2500      26.9920     -91.6603      29.3004     -95.7176     165.7535 1533251195 9999999.9999
     201.0    1654.4117       0.0000      30.5974    -999.2500      33.9408     -85.4345      36.2492     -89.3565     171.8585 1533251196 9999999.9999
     202.0    1736.1111       0.0000      34.6644    -999.2500      40.8897     -78.0840      43.1981     -81.8463     178.3815 1533251197 9999999.9999
     203.0    1812.1779       0.0000      38.7580    -999.2500      47.6377     -68.8858      49.9461     -72.4483     184.4741 1533251198 9999999.9999
     204.0    1890.1210       0.0000      47.3744    -999.2500      60.1295     -51.4937      62.4379     -54.6783     190.5730 1533251199 9999999.9999
     205.0    1953.1250       0.0000      52.4766    -999.2500      76.3568     -45.7900      78.6652     -48.8507     196.6779 1533251200 9999999.9999
     206.0    2020.4741       0.0000      56.1940    -999.2500      84.5107     -39.0420      86.8191     -41.9561     202.7768 1533251201 9999999.9999
     207.0    2080.2515       0.0000      60.2498    -999.2500      91.4193     -32.0128      93.7277     -34.7742     208.8756 1533251202 9999999.9999
     208.0    2117.8464       0.0000      65.3611    -999.2500      97.2033     -24.3008      99.5117     -26.8946     214.9806 1533251203 9999999.9999
     209.0    2170.1389       0.0000      71.2161    -999.2500      99.7740     -16.9905     102.0824     -19.4254     221.0855 1533251204 9999999.9999
     210.0    2190.4207       0.0000      78.3082      82.3737     101.6217      -9.3187     103.9301     -11.5869     227.1721 1533251205 9999999.9999
     211.0    2204.1536       0.0000      87.1085      75.9160     102.0635      -0.7230     104.3719      -2.8045     233.2709 1533251206 9999999.9999
