~VERSION INFORMATION
VERS.           2.0   :CWLS Log ASCII Standard - VERSION 2.0
WRAP.           NO    :One Line per depth step
PROD.  Schlumberger   :LAS Producer
PROG.  DLIS to ASCII 19C2-270                          :LAS Program name and version
CREA.        2018/08/03 10:59                          :LAS Creation date {YYYY/MM/DD hh:mm}
DLIS_CREA.  2018-Aug-03 09:40                          :DLIS Creation date and time {YYYY-MMM-DD hh:mm}
SOURCE.     PERFO_Perfo_082PTP.DLIS                    :DLIS File Name
FILE-ID.     PERFO_Perfo_082PTP                        :File Identification Number
#--------------------------------------------------
~WELL INFORMATION
#MNEM.UNIT      DATA             DESCRIPTION
#---- ------ --------------   -----------------------------
STRT .S            0.0       :START TIME      
STOP .S          387.0       :STOP TIME      
STEP .S            1.0       :STEP     
NULL .          -999.25      :NULL VALUE
COMP .        SHELL INTERNATIONAL EP                   :COMPANY
WELL .        WPP TEST 4                               :WELL
FLD  .        WILDCAT                                  :FIELD
LOC  .        NA                                       :LOCATION
CNTY .        HARRIS                                   :COUNTY
STAT .        TEXAS                                    :STATE
CTRY .                                                 :COUNTRY
API  .        NA                                       :API NUMBER
UWI  .                                                 :UNIQUE WELL ID
DATE .        02-Aug-2018                              :LOG DATE {DD-MMM-YYYY}
SRVC .        Schlumberger                             :SERVICE COMPANY
LATI .DEG                                              :LATITUDE
LONG .DEG                                              :LONGITUDE
GDAT .                                                 :GeoDetic Datum
SECT .        NA                                       :Section
RANG .        NA                                       :Range
TOWN .        NA                                       :Township
#-----------------------------------------------------------------------------
~PARAMETER INFORMATION
#MNEM.UNIT    VALUE                      DESCRIPTION
#---- -----   --------------------       ------------------------
U-PHASE_B_COMP_PER_YT.                 0 :Phase B Comparator Period Yt
U-PHASE_A_COMP_PER_XT.                 0 :Phase A Comparator Period Xt
U-MAX_EXC_CUR_LIMIT.MA       265.00000   :Requested CM Current Limit
U-REQ_EXC_FQ.HZ              50          :Requested CM Frequency
U-TILT_Y_OFFSET.          -2.06578       :WPTET Tilt Y Offset
U-TILT_Y_GAIN.           1.02173         :WPTET Tilt Y Gain
U-TILT_X_OFFSET.           2.30841       :WPTET Tilt X Offset
U-TILT_X_GAIN.           1.00000         :WPTET Tilt X Gain
U-TILT_OFFSET_TOL.           0.00100     :WPTET Tilt Offset Calibration Tolerance
U-MOT_CUR_LIMIT_REQ.MA        70.00000   :Requested Motor Current Limit
U-MOT_SPD_REQ_WPMS.RPM        1.00000    :Requested Motor Speed
U-STD_TOL_TILT.           0.01000        :Tilt Standard Deviation Tolerance
CWEI .LB/F      29.00000                 :Casing Weight
CSIZ .IN         7.00000                 :Current Casing Size
LCC  .               440                 :Logging Company Code
LUN  .              2134                 :Logging Unit Number
HIDE .                                   :Header Identifier
HID1 .                                   :Header Identifier Line 1
R1   .                                   :Remark Line 1
WITN .        MR. KELLY McCOY            :Witness's Name
ENGI .        MORRIS MOORE               :Engineer's Name
LUL  .        IOWA COLONY                :Logging Unit Location
DATE .        02-Aug-2018                :Date as Month-Day-Year
STAT .        TEXAS                      :State or Province
COUN .        HARRIS                     :County or Rig Name
FN   .        WILDCAT                    :Field Name
WN   .        WPP TEST 4                 :Well Name
CN   .        SHELL INTERNATIONAL EP     :Company Name
CLAB .        County                     :County/Rig Label
SLAB .        State                      :State/Province Label
RUN  .          1                        :RUN NUMBER
PDAT .        GROUND LEVEL               :Permanent Datum
EPD  .                                   :Elevation of Permanent Datum above Mean Sea Level
LMF  .          NA                       :Logging Measured From (Name of Logging Elevation Reference)
APD  .                                   :Elevation of Depth Reference (LMF) above Permanent Datum
#-----------------------------------------------------------------------------
~CURVE INFORMATION
#MNEM.UNIT   API CODE                                  DESCRIPTION
#---- -----  --------                                  -----------------------
TIME .S                                                :TIME {F10.1}
FREQ_EMF_SL.HZ                                         :Electromagnetic Field Frequency {F13.4}
PH_SH_WPPCM_SL.DEG                                     :WPPCM Phase Shift {F13.4}
RB_SL.DEG                                              :Relative Bearing {F13.4}
SDEV_SL.DEG                                            :Sonde Deviation {F13.4}
RTIX_SL.DEG                                            :Raw X-axis Tilt {F13.4}
RTIY_SL.DEG                                            :Raw Y-axis Tilt {F13.4}
TILX_SL.DEG                                            :X-axis Tilt {F13.4}
TILY_SL.DEG                                            :Y-axis Tilt {F13.4}
ROTA_SL.DEG                                            :Motor Rotation Angle {F13.4}
TOD7 .S                                                :Time of Day {I11}
TOJ  .S                                                :Time of Job {F13.4}
#-----------------------------------------------------------------------------
# 
#     TIME    FREQ_EMF_SL  PH_SH_WPPCM_    RB_SL       SDEV_SL      RTIX_SL      RTIY_SL      TILX_SL      TILY_SL      ROTA_SL        TOD7            TOJ
#                          SL
~A  
# ...
      53.0     648.6393       0.0000     -78.4238      83.6781    -105.4777      -9.2383    -103.1693     -11.5048     122.6788 1533245516 9999999.9999
      54.0     711.6650       0.0000     -71.1678    -999.2500    -102.8668     -17.1512    -100.5584     -19.5896     128.7837 1533245517 9999999.9999
      55.0     771.8167       0.0000     -64.9145    -999.2500     -98.1272     -25.1443     -95.8187     -27.7564     134.8825 1533245518 9999999.9999
      56.0     839.0513       0.0000     -59.8223    -999.2500     -91.7808     -32.7760     -89.4724     -35.5539     140.9691 1533245519 9999999.9999
      57.0     913.1494       0.0000     -55.1911    -999.2500     -84.3500     -40.5683     -82.0416     -43.5155     147.0740 1533245520 9999999.9999
      58.0    1005.9013       0.0000     -51.1996    -999.2500     -76.1962     -47.4770     -73.8877     -50.5743     153.1665 1533245521 9999999.9999
      59.0    1187.7112       0.0000     -46.7804    -999.2500     -65.9938     -54.1447     -63.6854     -57.3869     159.2654 1533245522 9999999.9999
      60.0    1392.3268       0.0000     -38.3195    -999.2500     -52.0560     -71.3360     -49.7476     -74.9517     165.3642 1533245523 9999999.9999
      61.0    1569.4755       0.0000     -34.3578    -999.2500     -45.1875     -80.6547     -42.8791     -84.4728     171.4692 1533245524 9999999.9999
      62.0    1744.7272       0.0000     -30.2806    -999.2500     -37.9977     -88.4068     -35.6893     -92.3934     177.5741 1533245525 9999999.9999
      63.0    1915.8719       0.0000     -25.6903    -999.2500     -30.7275     -94.2712     -28.4191     -98.3852     184.0779 1533245526 9999999.9999
      64.0    2061.9502       0.0000     -20.2405    -999.2500     -23.3770     -98.6493     -21.0686    -102.8585     190.1829 1533245527 9999999.9999
      65.0    2190.4207       0.0000     -13.6765      83.9000     -15.9060    -100.6978     -13.5976    -104.9515     196.2878 1533245528 9999999.9999
      66.0    2305.3279       0.0000      -5.6622      75.6079      -7.7923    -101.1798      -5.4839    -105.4440     202.3867 1533245529 9999999.9999
      67.0    2407.9622       0.0000       3.1800      75.0051       0.7632    -101.0593       3.0716    -105.3208     208.4855 1533245530 9999999.9999
      68.0    2484.5405       0.0000      11.5296      81.0110       9.0777    -100.3363      11.3861    -104.5821     214.5782 1533245531 9999999.9999
      69.0    2475.7922       0.0000      18.5618      83.9918      16.8700     -97.7657      19.1784    -101.9556     220.6832 1533245532 9999999.9999
      70.0    2493.3511       0.0000      24.1644    -999.2500      24.1000     -93.4678      26.4084     -97.5644     226.7697 1533245533 9999999.9999
      71.0    2493.3511       0.0000      28.8146    -999.2500      31.0488     -87.6838      33.3572     -91.6547     232.8438 1533245534 9999999.9999
      72.0    2484.5405       0.0000      32.9456    -999.2500      37.8772     -80.8555      40.1856     -84.6780     238.9487 1533245535 9999999.9999
      73.0    2493.3511       0.0000      37.0827    -999.2500      44.8662     -72.3803      47.1746     -76.0187     245.0537 1533245536 9999999.9999
      74.0    2484.5405       0.0000      41.7341    -999.2500      51.3330     -61.1337      53.6414     -64.5277     251.1525 1533245537 9999999.9999
      75.0    2493.3511       0.0000      51.0329    -999.2500      72.5008     -48.2000      74.8092     -51.3130     257.6624 1533245538 9999999.9999
      76.0    2484.5405       0.0000      54.8242    -999.2500      81.2973     -41.4922      83.6057     -44.4595     263.7547 1533245539 9999999.9999
      77.0    2493.3511       0.0000      58.6756    -999.2500      88.5675     -34.6638      90.8759     -37.4828     269.8533 1533245540 9999999.9999
      78.0    2493.3511       0.0000      63.0837    -999.2500      94.6728     -27.5945      96.9812     -30.2598     275.9649 1533245541 9999999.9999
      79.0    2484.5405       0.0000      68.3185    -999.2500      98.8903     -20.4448     101.1987     -22.9548     282.0697 1533245542 9999999.9999
      80.0    2493.3511       0.0000      74.7747    -999.2500     100.9388     -13.0140     103.2472     -15.3625     288.1744 1533245543 9999999.9999
      81.0    2493.3511       0.0000      83.4750      77.7114     101.5815      -4.2175     103.8899      -6.3749     294.2730 1533245544 9999999.9999
      82.0    2484.5405       0.0000      92.4826      75.8805     102.0233       4.3782     104.3317       2.4075     300.3716 1533245545 9999999.9999
      83.0    2467.1052       0.0000     100.8124      81.6866     101.3003      12.4918     103.6087      10.6975     306.4894 1533245546 9999999.9999
      84.0    2399.7441       0.0000     108.0764      84.7522      98.4887      20.3243     100.7971      18.7001     312.5941 1533245547 9999999.9999
      85.0    2305.3279       0.0000     114.3372    -999.2500      93.4678      28.1970      95.7762      26.7439     318.7060 1533245548 9999999.9999
      86.0    2197.2656       0.0000     119.4782    -999.2500      87.0010      35.7082      89.3094      34.4182     324.8046 1533245549 9999999.9999
      87.0    2061.9502       0.0000     124.0686    -999.2500      79.4497      43.1390      81.7581      42.0105     331.3204 1533245550 9999999.9999
      88.0    1905.4878       0.0000     128.5296    -999.2500      70.3720      50.4493      72.6804      49.4797     337.4068 1533245551 9999999.9999
      89.0    1744.7272       0.0000     135.9717    -999.2500      55.3497      61.6558      57.6581      60.9297     343.5184 1533245552 9999999.9999
      90.0    1583.6149       0.0000     140.8760    -999.2500      49.2042      74.6698      51.5126      74.2264     349.6232 1533245553 9999999.9999
      91.0    1414.7384       0.0000     144.7652    -999.2500      42.2152      83.3458      44.5236      83.0909     355.7279 1533245554 9999999.9999
      92.0    1189.7208       0.0000     148.7863    -999.2500      34.9852      90.8168      37.2936      90.7243       1.8265 1533245555 9999999.9999
      93.0    1019.0217       0.0000     154.0406    -999.2500      26.5100      98.0067      28.8184      98.0703       7.9253 1533245556 9999999.9999
      94.0     933.7650       0.0000     159.8869    -999.2500      18.5972     102.8267      20.9056     102.9950      14.0432 1533245557 9999999.9999
      95.0     853.3071       0.0000     166.8828      80.9916      10.6442     105.6383      12.9526     105.8678      20.1481 1533245558 9999999.9999
      96.0     785.6145       0.0000     175.2193      74.1209       2.2895     106.3212       4.5979     106.5654      26.2469 1533245559 9999999.9999
      97.0     718.2073       0.0000    -176.0054      73.8680      -6.1455     106.3613      -3.8371     106.6065      32.3456 1533245560 9999999.9999
      98.0     660.2112       0.0000    -168.0388      81.5742     -14.1387     104.3932     -11.8303     104.5956      38.4505 1533245561 9999999.9999
      99.0     621.1351       0.0000    -160.7658      86.6846     -22.4130      99.7740     -20.1046      99.8760      44.9603 1533245562 9999999.9999
     100.0     578.7037       0.0000    -154.5324    -999.2500     -30.6873      93.7088     -28.3789      93.6791      51.0591 1533245563 9999999.9999
     101.0     542.9537       0.0000    -149.3466    -999.2500     -38.5600      86.3583     -36.2516      86.1689      57.1639 1533245564 9999999.9999
     102.0     520.0629       0.0000    -144.7153    -999.2500     -46.1113      78.3652     -43.8029      78.0020      63.2688 1533245565 9999999.9999
     103.0     501.8737       0.0000    -140.0884    -999.2500     -53.3815      69.0063     -51.0731      68.4399      69.3675 1533245566 9999999.9999
     104.0     489.6414       0.0000    -132.2830    -999.2500     -66.7168      55.9522     -64.4084      55.1021      75.4662 1533245567 9999999.9999
     105.0     476.3719       0.0000    -127.5357    -999.2500     -76.9192      48.8025     -74.6108      47.7971      81.5711 1533245568 9999999.9999
