~VERSION INFORMATION
VERS.           2.0   :CWLS Log ASCII Standard - VERSION 2.0
WRAP.           NO    :One Line per depth step
PROD.  Schlumberger   :LAS Producer
PROG.  DLIS to ASCII 19C2-270                          :LAS Program name and version
CREA.        2018/08/03 10:59                          :LAS Creation date {YYYY/MM/DD hh:mm}
DLIS_CREA.  2018-Aug-03 08:56                          :DLIS Creation date and time {YYYY-MMM-DD hh:mm}
SOURCE.     PERFO_Perfo_063PTP.DLIS                    :DLIS File Name
FILE-ID.     PERFO_Perfo_063PTP                        :File Identification Number
#--------------------------------------------------
~WELL INFORMATION
#MNEM.UNIT      DATA             DESCRIPTION
#---- ------ --------------   -----------------------------
STRT .S            0.0       :START TIME      
STOP .S          897.0       :STOP TIME      
STEP .S            1.0       :STEP     
NULL .          -999.25      :NULL VALUE
COMP .        SHELL INTERNATIONAL EP                   :COMPANY
WELL .        WPP TEST 4                               :WELL
FLD  .        WILDCAT                                  :FIELD
LOC  .        NA                                       :LOCATION
CNTY .        HARRIS                                   :COUNTY
STAT .        TEXAS                                    :STATE
CTRY .                                                 :COUNTRY
API  .        NA                                       :API NUMBER
UWI  .                                                 :UNIQUE WELL ID
DATE .        02-Aug-2018                              :LOG DATE {DD-MMM-YYYY}
SRVC .        Schlumberger                             :SERVICE COMPANY
LATI .DEG                                              :LATITUDE
LONG .DEG                                              :LONGITUDE
GDAT .                                                 :GeoDetic Datum
SECT .        NA                                       :Section
RANG .        NA                                       :Range
TOWN .        NA                                       :Township
#-----------------------------------------------------------------------------
~PARAMETER INFORMATION
#MNEM.UNIT    VALUE                      DESCRIPTION
#---- -----   --------------------       ------------------------
U-PHASE_B_COMP_PER_YT.                 0 :Phase B Comparator Period Yt
U-PHASE_A_COMP_PER_XT.                 0 :Phase A Comparator Period Xt
U-MAX_EXC_CUR_LIMIT.MA       265.00000   :Requested CM Current Limit
U-REQ_EXC_FQ.HZ              50          :Requested CM Frequency
U-TILT_Y_OFFSET.          -2.06578       :WPTET Tilt Y Offset
U-TILT_Y_GAIN.           1.02173         :WPTET Tilt Y Gain
U-TILT_X_OFFSET.           2.30841       :WPTET Tilt X Offset
U-TILT_X_GAIN.           1.00000         :WPTET Tilt X Gain
U-TILT_OFFSET_TOL.           0.00100     :WPTET Tilt Offset Calibration Tolerance
U-MOT_CUR_LIMIT_REQ.MA        70.00000   :Requested Motor Current Limit
U-MOT_SPD_REQ_WPMS.RPM        1.00000    :Requested Motor Speed
U-STD_TOL_TILT.           0.01000        :Tilt Standard Deviation Tolerance
CWEI .LB/F      29.00000                 :Casing Weight
CSIZ .IN         7.00000                 :Current Casing Size
LCC  .               440                 :Logging Company Code
LUN  .              2134                 :Logging Unit Number
HIDE .                                   :Header Identifier
HID1 .                                   :Header Identifier Line 1
R1   .                                   :Remark Line 1
WITN .        MR. KELLY McCOY            :Witness's Name
ENGI .        MORRIS MOORE               :Engineer's Name
LUL  .        IOWA COLONY                :Logging Unit Location
DATE .        02-Aug-2018                :Date as Month-Day-Year
STAT .        TEXAS                      :State or Province
COUN .        HARRIS                     :County or Rig Name
FN   .        WILDCAT                    :Field Name
WN   .        WPP TEST 4                 :Well Name
CN   .        SHELL INTERNATIONAL EP     :Company Name
CLAB .        County                     :County/Rig Label
SLAB .        State                      :State/Province Label
RUN  .          1                        :RUN NUMBER
PDAT .        GROUND LEVEL               :Permanent Datum
EPD  .                                   :Elevation of Permanent Datum above Mean Sea Level
LMF  .          NA                       :Logging Measured From (Name of Logging Elevation Reference)
APD  .                                   :Elevation of Depth Reference (LMF) above Permanent Datum
#-----------------------------------------------------------------------------
~CURVE INFORMATION
#MNEM.UNIT   API CODE                                  DESCRIPTION
#---- -----  --------                                  -----------------------
TIME .S                                                :TIME {F10.1}
FREQ_EMF_SL.HZ                                         :Electromagnetic Field Frequency {F13.4}
PH_SH_WPPCM_SL.DEG                                     :WPPCM Phase Shift {F13.4}
RB_SL.DEG                                              :Relative Bearing {F13.4}
SDEV_SL.DEG                                            :Sonde Deviation {F13.4}
RTIX_SL.DEG                                            :Raw X-axis Tilt {F13.4}
RTIY_SL.DEG                                            :Raw Y-axis Tilt {F13.4}
TILX_SL.DEG                                            :X-axis Tilt {F13.4}
TILY_SL.DEG                                            :Y-axis Tilt {F13.4}
ROTA_SL.DEG                                            :Motor Rotation Angle {F13.4}
TOD7 .S                                                :Time of Day {I11}
TOJ  .S                                                :Time of Job {F13.4}
#-----------------------------------------------------------------------------
# 
#     TIME    FREQ_EMF_SL  PH_SH_WPPCM_    RB_SL       SDEV_SL      RTIX_SL      RTIY_SL      TILX_SL      TILY_SL      ROTA_SL        TOD7            TOJ
#                          SL
~A  
# ...
     371.0    1931.6620       0.0000      28.7023    -999.2500      30.8882     -85.5550      33.1966     -89.4797     293.8151 1533231326 9999999.9999
     372.0    1953.1250       0.0000      32.8582    -999.2500      37.5157     -78.7668      39.8241     -82.5440     299.9137 1533231327 9999999.9999
     373.0    1964.0363       0.0000      37.0254    -999.2500      44.1030     -70.2113      46.4114     -73.8026     306.0255 1533231328 9999999.9999
     374.0    1969.5378       0.0000      41.9554    -999.2500      50.0477     -58.4023      52.3561     -61.7370     312.1303 1533231329 9999999.9999
     375.0    1975.0703       0.0000      51.6896    -999.2500      72.2197     -46.5130      74.5281     -49.5894     318.2227 1533231330 9999999.9999
     376.0    1969.5378       0.0000      55.5223    -999.2500      80.8153     -40.0462      83.1237     -42.9820     324.3214 1533231331 9999999.9999
     377.0    1947.7146       0.0000      59.5008    -999.2500      87.9650     -33.2982      90.2734     -36.0874     330.8310 1533231332 9999999.9999
     378.0    1936.9835       0.0000      63.9373    -999.2500      93.5883     -26.4698      95.8967     -29.1107     336.9358 1533231333 9999999.9999
     379.0    1915.8719       0.0000      69.2851    -999.2500      97.3640     -19.4005      99.6724     -21.8878     343.0344 1533231334 9999999.9999
     380.0    1885.0536       0.0000      75.8521    -999.2500      99.2920     -11.9697     101.6004     -14.2955     349.1460 1533231335 9999999.9999
     381.0    1855.2111       0.0000      84.0975      79.3466      99.8543      -3.6552     102.1627      -5.8004     355.2638 1533231336 9999999.9999
     382.0    1816.8605       0.0000      93.0505      77.8472     100.2158       4.9405     102.5242       2.9821       1.3819 1533231337 9999999.9999
     383.0    1771.0958       0.0000     101.5691      87.6548      99.4928      13.3353     101.8012      11.5593       7.4814 1533231338 9999999.9999
     384.0    1731.8351       0.0000     108.6131    -999.2500      96.5205      21.0473      98.8289      19.4389      13.5679 1533231339 9999999.9999
     385.0    1670.1307       0.0000     114.4904    -999.2500      91.5800      28.4782      93.8884      27.0311      19.6789 1533231340 9999999.9999
     386.0    1620.1036       0.0000     119.5744    -999.2500      85.3140      35.8287      87.6224      34.5413      25.7907 1533231341 9999999.9999
     387.0    1559.0355       0.0000     124.1548    -999.2500      77.7225      43.0587      80.0309      41.9284      31.8895 1533231342 9999999.9999
     388.0    1505.6210       0.0000     128.7821    -999.2500      68.4842      50.3288      70.7926      49.3566      37.9953 1533231343 9999999.9999
     389.0    1455.7454       0.0000     137.3926    -999.2500      53.9840      65.3913      56.2924      64.7463      44.5051 1533231344 9999999.9999
     390.0    1397.8628       0.0000     141.7308    -999.2500      47.4368      75.7543      49.7452      75.3345      50.6039 1533231345 9999999.9999
     391.0    1349.5681       0.0000     145.5418    -999.2500      40.6888      83.8680      42.9972      83.6244      56.7157 1533231346 9999999.9999
     392.0    1302.0834       0.0000     149.5928    -999.2500      33.6195      91.1382      35.9279      91.0526      62.8081 1533231347 9999999.9999
     393.0    1260.0807       0.0000     154.4219    -999.2500      26.0280      97.3640      28.3364      97.4137      68.9129 1533231348 9999999.9999
     394.0    1224.9564       0.0000     160.2915    -999.2500      18.1955     101.9430      20.5039     102.0922      75.0249 1533231349 9999999.9999
     395.0    1181.7228       0.0000     167.7992      81.6303       9.7605     104.5538      12.0689     104.7597      81.1236 1533231350 9999999.9999
     396.0    1154.5566       0.0000     176.2014      75.3023       1.3657     104.9555       3.6741     105.1701      87.2285 1533231351 9999999.9999
     397.0    1123.2029       0.0000    -175.2460      75.4044      -6.9087     105.1162      -4.6003     105.3343      93.3333 1533231352 9999999.9999
     398.0    1096.9188       0.0000    -167.5628      85.1841     -14.7010     103.1480     -12.3926     103.3233      99.4321 1533231353 9999999.9999
     399.0    1071.8369       0.0000    -160.3242    -999.2500     -23.0155      98.4887     -20.7071      98.5628     105.5369 1533231354 9999999.9999
     400.0    1052.5823       0.0000    -154.2728    -999.2500     -31.0890      92.3833     -28.7806      92.3248     111.6418 1533231355 9999999.9999
     401.0    1038.5894       0.0000    -149.1130    -999.2500     -38.8813      85.1533     -36.5729      84.9377     118.1454 1533231356 9999999.9999
     402.0    1029.4656       0.0000    -144.4729    -999.2500     -46.3122      77.0397     -44.0038      76.6477     124.2695 1533231357 9999999.9999
     403.0    1014.6104       0.0000    -139.7848    -999.2500     -53.5020      67.7612     -51.1936      67.1676     130.3682 1533231358 9999999.9999
     404.0    1010.2371       0.0000    -131.4986    -999.2500     -67.7612      54.4660     -65.4528      53.5836     136.4671 1533231359 9999999.9999
     405.0    1011.6906       0.0000    -127.1372    -999.2500     -77.0397      47.9590     -74.7313      46.9352     142.5667 1533231360 9999999.9999
     406.0    1011.6906       0.0000    -122.7996    -999.2500     -85.1935      40.9298     -82.8851      39.7533     148.6788 1533231361 9999999.9999
     407.0    1020.5007       0.0000    -117.7823    -999.2500     -92.7047      33.1375     -90.3963      31.7917     154.7899 1533231362 9999999.9999
     408.0    1030.9751       0.0000    -112.2179    -999.2500     -98.6092      25.4657     -96.3008      23.9532     160.8887 1533231363 9999999.9999
     409.0    1049.4403       0.0000    -105.5844    -999.2500    -102.9472      17.5930    -100.6388      15.9095     166.9875 1533231364 9999999.9999
     410.0    1063.7292       0.0000     -98.0546      80.6924    -104.5940       9.8007    -102.2856       7.9478     173.0925 1533231365 9999999.9999
     411.0    1090.1163       0.0000     -89.3976      77.6083    -104.7145       1.4460    -102.4061      -0.5884     179.1975 1533231366 9999999.9999
     412.0    1110.7820       0.0000     -80.9890      81.8536    -104.4333      -6.7078    -102.1249      -8.9194     185.2838 1533231367 9999999.9999
     413.0    1141.4368       0.0000     -73.3337      84.6780    -102.6660     -14.7412    -100.3576     -17.1272     191.7876 1533231368 9999999.9999
     414.0    1169.9252       0.0000     -67.0807    -999.2500     -98.7698     -22.2925     -96.4614     -24.8426     197.8926 1533231369 9999999.9999
     415.0    1214.3783       0.0000     -62.0612    -999.2500     -93.1465     -29.3217     -90.8381     -32.0245     203.9975 1533231370 9999999.9999
     416.0    1251.1122       0.0000     -57.0934    -999.2500     -86.4387     -37.1943     -84.1302     -40.0682     210.1094 1533231371 9999999.9999
     417.0    1302.0834       0.0000     -52.9350    -999.2500     -78.6062     -44.1833     -76.2978     -47.2091     216.2144 1533231372 9999999.9999
     418.0    1349.5681       0.0000     -48.7205    -999.2500     -69.2875     -50.7305     -66.9791     -53.8985     222.3132 1533231373 9999999.9999
     419.0    1407.6577       0.0000     -39.0751    -999.2500     -52.6886     -68.0222     -50.3802     -71.5660     228.4315 1533231374 9999999.9999
     420.0    1461.7983       0.0000     -35.0876    -999.2500     -46.2720     -77.4413     -43.9636     -81.1897     234.5303 1533231375 9999999.9999
     421.0    1521.9155       0.0000     -30.9570    -999.2500     -39.1625     -85.2738     -36.8541     -89.1924     240.6230 1533231376 9999999.9999
     422.0    1583.6149       0.0000     -26.4983    -999.2500     -32.0530     -91.5800     -29.7446     -95.6356     246.7279 1533231377 9999999.9999
     423.0    1635.1744       0.0000     -21.4599    -999.2500     -25.0640     -96.1188     -22.7556    -100.2730     252.8268 1533231378 9999999.9999
