~VERSION INFORMATION
VERS.           2.0   :CWLS Log ASCII Standard - VERSION 2.0
WRAP.           NO    :One Line per depth step
PROD.  Schlumberger   :LAS Producer
PROG.  DLIS to ASCII 19C2-270                          :LAS Program name and version
CREA.        2018/08/03 10:59                          :LAS Creation date {YYYY/MM/DD hh:mm}
DLIS_CREA.  2018-Aug-03 09:39                          :DLIS Creation date and time {YYYY-MMM-DD hh:mm}
SOURCE.     PERFO_Perfo_081PTP.DLIS                    :DLIS File Name
FILE-ID.     PERFO_Perfo_081PTP                        :File Identification Number
#--------------------------------------------------
~WELL INFORMATION
#MNEM.UNIT      DATA             DESCRIPTION
#---- ------ --------------   -----------------------------
STRT .S            0.0       :START TIME      
STOP .S          383.0       :STOP TIME      
STEP .S            1.0       :STEP     
NULL .          -999.25      :NULL VALUE
COMP .        SHELL INTERNATIONAL EP                   :COMPANY
WELL .        WPP TEST 4                               :WELL
FLD  .        WILDCAT                                  :FIELD
LOC  .        NA                                       :LOCATION
CNTY .        HARRIS                                   :COUNTY
STAT .        TEXAS                                    :STATE
CTRY .                                                 :COUNTRY
API  .        NA                                       :API NUMBER
UWI  .                                                 :UNIQUE WELL ID
DATE .        02-Aug-2018                              :LOG DATE {DD-MMM-YYYY}
SRVC .        Schlumberger                             :SERVICE COMPANY
LATI .DEG                                              :LATITUDE
LONG .DEG                                              :LONGITUDE
GDAT .                                                 :GeoDetic Datum
SECT .        NA                                       :Section
RANG .        NA                                       :Range
TOWN .        NA                                       :Township
#-----------------------------------------------------------------------------
~PARAMETER INFORMATION
#MNEM.UNIT    VALUE                      DESCRIPTION
#---- -----   --------------------       ------------------------
U-PHASE_B_COMP_PER_YT.                 0 :Phase B Comparator Period Yt
U-PHASE_A_COMP_PER_XT.                 0 :Phase A Comparator Period Xt
U-MAX_EXC_CUR_LIMIT.MA       265.00000   :Requested CM Current Limit
U-REQ_EXC_FQ.HZ              50          :Requested CM Frequency
U-TILT_Y_OFFSET.          -2.06578       :WPTET Tilt Y Offset
U-TILT_Y_GAIN.           1.02173         :WPTET Tilt Y Gain
U-TILT_X_OFFSET.           2.30841       :WPTET Tilt X Offset
U-TILT_X_GAIN.           1.00000         :WPTET Tilt X Gain
U-TILT_OFFSET_TOL.           0.00100     :WPTET Tilt Offset Calibration Tolerance
U-MOT_CUR_LIMIT_REQ.MA        70.00000   :Requested Motor Current Limit
U-MOT_SPD_REQ_WPMS.RPM        1.00000    :Requested Motor Speed
U-STD_TOL_TILT.           0.01000        :Tilt Standard Deviation Tolerance
CWEI .LB/F      29.00000                 :Casing Weight
CSIZ .IN         7.00000                 :Current Casing Size
LCC  .               440                 :Logging Company Code
LUN  .              2134                 :Logging Unit Number
HIDE .                                   :Header Identifier
HID1 .                                   :Header Identifier Line 1
R1   .                                   :Remark Line 1
WITN .        MR. KELLY McCOY            :Witness's Name
ENGI .        MORRIS MOORE               :Engineer's Name
LUL  .        IOWA COLONY                :Logging Unit Location
DATE .        02-Aug-2018                :Date as Month-Day-Year
STAT .        TEXAS                      :State or Province
COUN .        HARRIS                     :County or Rig Name
FN   .        WILDCAT                    :Field Name
WN   .        WPP TEST 4                 :Well Name
CN   .        SHELL INTERNATIONAL EP     :Company Name
CLAB .        County                     :County/Rig Label
SLAB .        State                      :State/Province Label
RUN  .          1                        :RUN NUMBER
PDAT .        GROUND LEVEL               :Permanent Datum
EPD  .                                   :Elevation of Permanent Datum above Mean Sea Level
LMF  .          NA                       :Logging Measured From (Name of Logging Elevation Reference)
APD  .                                   :Elevation of Depth Reference (LMF) above Permanent Datum
#-----------------------------------------------------------------------------
~CURVE INFORMATION
#MNEM.UNIT   API CODE                                  DESCRIPTION
#---- -----  --------                                  -----------------------
TIME .S                                                :TIME {F10.1}
FREQ_EMF_SL.HZ                                         :Electromagnetic Field Frequency {F13.4}
PH_SH_WPPCM_SL.DEG                                     :WPPCM Phase Shift {F13.4}
RB_SL.DEG                                              :Relative Bearing {F13.4}
SDEV_SL.DEG                                            :Sonde Deviation {F13.4}
RTIX_SL.DEG                                            :Raw X-axis Tilt {F13.4}
RTIY_SL.DEG                                            :Raw Y-axis Tilt {F13.4}
TILX_SL.DEG                                            :X-axis Tilt {F13.4}
TILY_SL.DEG                                            :Y-axis Tilt {F13.4}
ROTA_SL.DEG                                            :Motor Rotation Angle {F13.4}
TOD7 .S                                                :Time of Day {I11}
TOJ  .S                                                :Time of Job {F13.4}
#-----------------------------------------------------------------------------
# 
#     TIME    FREQ_EMF_SL  PH_SH_WPPCM_    RB_SL       SDEV_SL      RTIX_SL      RTIY_SL      TILX_SL      TILY_SL      ROTA_SL        TOD7            TOJ
#                          SL
~A  
# ...
     212.0       0.0000       0.0000      29.1936    -999.2500      31.6513     -87.2420      33.9597     -91.2033     211.6246 1533245236 9999999.9999
     213.0       0.0000       0.0000      33.2673    -999.2500      38.4395     -80.4137      40.7479     -84.2266     217.7296 1533245237 9999999.9999
     214.0       0.0000       0.0000      37.3820    -999.2500      45.3482     -71.6975      47.6566     -75.3211     223.8284 1533245238 9999999.9999
     215.0       0.0000       0.0000      42.2354    -999.2500      51.7748     -59.7680      54.0832     -63.1324     230.3261 1533245239 9999999.9999
     216.0       0.0000       0.0000      51.3848    -999.2500      73.3443     -47.5975      75.6527     -50.6974     236.4449 1533245240 9999999.9999
     217.0       0.0000       0.0000      55.1800    -999.2500      82.0605     -40.8495      84.3689     -43.8028     242.5437 1533245241 9999999.9999
     218.0       0.0000       0.0000      59.0527    -999.2500      89.2503     -34.0212      91.5587     -36.8261     248.6425 1533245242 9999999.9999
     219.0       0.0000       0.0000      63.4882    -999.2500      95.1548     -26.9920      97.4632     -29.6442     254.7475 1533245243 9999999.9999
     220.0       0.0000       0.0000      68.8377    -999.2500      99.1313     -19.8022     101.4397     -22.2982     260.8400 1533245244 9999999.9999
     221.0    2124.2446       0.0000      75.7636      84.8301     100.9790     -11.9697     103.2874     -14.2955     266.8659 1533245245 9999999.9999
     222.0    2484.5405       0.0000      84.0139      77.3987     101.6217      -3.6953     103.9301      -5.8414     272.9523 1533245246 9999999.9999
     223.0    2493.3511       0.0000      92.9058      75.8778     102.1037       4.7798     104.4121       2.8179     279.0570 1533245247 9999999.9999
     224.0    2484.5405       0.0000     101.3315      82.4139     101.3003      13.0140     103.6087      11.2310     285.1617 1533245248 9999999.9999
     225.0    2484.5405       0.0000     108.3526      86.4620      98.3280      20.6457     100.6364      19.0285     291.2603 1533245249 9999999.9999
     226.0    2484.5405       0.0000     114.6615    -999.2500      93.1867      28.6388      95.4951      27.1953     297.3589 1533245250 9999999.9999
     227.0    2475.7922       0.0000     119.8120    -999.2500      86.6395      36.2303      88.9479      34.9517     303.8878 1533245251 9999999.9999
     228.0    2484.5405       0.0000     124.3778    -999.2500      78.9275      43.6612      81.2359      42.5440     309.9872 1533245252 9999999.9999
     229.0    2493.3511       0.0000     128.7062    -999.2500      69.8900      50.6903      72.1984      49.7259     316.0735 1533245253 9999999.9999
     230.0    2475.7922       0.0000     136.2364    -999.2500      55.9120      63.2625      58.2204      62.5712     322.1783 1533245254 9999999.9999
     231.0    2493.3511       0.0000     140.9674    -999.2500      48.8828      74.4288      51.1912      73.9802     328.2830 1533245255 9999999.9999
     232.0    2475.7922       0.0000     144.7790    -999.2500      42.2152      83.5868      44.5236      83.3372     334.3816 1533245256 9999999.9999
     233.0    2484.5405       0.0000     149.2763    -999.2500      34.1417      91.5398      36.4501      91.4630     340.4802 1533245257 9999999.9999
     234.0    2493.3511       0.0000     154.1776    -999.2500      26.3092      98.1272      28.6176      98.1934     346.5850 1533245258 9999999.9999
     235.0    2484.5405       0.0000     160.0137    -999.2500      18.4365     102.9472      20.7449     103.1181     352.6897 1533245259 9999999.9999
     236.0    2424.5691       0.0000     167.1897      80.4868      10.3228     105.6785      12.6312     105.9088     358.7952 1533245260 9999999.9999
     237.0    2328.2285       0.0000     175.5117      74.1231       2.0083     106.2408       4.3167     106.4834       4.8878 1533245261 9999999.9999
     238.0    2211.0850       0.0000    -175.7567      73.9725      -6.3865     106.3212      -4.0781     106.5654      10.9927 1533245262 9999999.9999
     239.0    2086.4243       0.0000    -167.7371      82.3327     -14.4600     104.2325     -12.1516     104.4314      17.5025 1533245263 9999999.9999
     240.0    1947.7146       0.0000    -160.3059    -999.2500     -22.9753      99.4928     -20.6669      99.5888      23.6013 1533245264 9999999.9999
     241.0    1793.6862       0.0000    -154.3082    -999.2500     -31.0087      93.4678     -28.7003      93.4328      29.7062 1533245265 9999999.9999
     242.0    1623.8453       0.0000    -148.9972    -999.2500     -39.1223      85.8763     -36.8139      85.6764      35.8241 1533245266 9999999.9999
     243.0    1464.8438       0.0000    -144.3819    -999.2500     -46.6737      77.8028     -44.3653      77.4275      41.9228 1533245267 9999999.9999
     244.0    1235.7206       0.0000    -139.8163    -999.2500     -53.7832      68.4440     -51.4748      67.8653      48.0216 1533245268 9999999.9999
     245.0    1086.3268       0.0000    -131.7557    -999.2500     -67.9017      55.2492     -65.5933      54.3839      54.1264 1533245269 9999999.9999
     246.0     982.0181       0.0000    -127.2583    -999.2500     -77.5217      48.3607     -75.2132      47.3456      60.2313 1533245270 9999999.9999
     247.0     891.1597       0.0000    -123.1424    -999.2500     -85.4345      41.5725     -83.1261      40.4100      66.3300 1533245271 9999999.9999
     248.0     817.5872       0.0000    -118.4299    -999.2500     -92.5842      34.1015     -90.2757      32.7766      72.4165 1533245272 9999999.9999
     249.0     753.6174       0.0000    -112.7787    -999.2500     -98.9707      26.1485     -96.6623      24.6509      78.5275 1533245273 9999999.9999
     250.0     689.3383       0.0000    -106.1087    -999.2500    -103.7505      18.1152    -101.4421      16.4430      84.6393 1533245274 9999999.9999
     251.0     637.4660       0.0000     -98.5851      79.5021    -105.8392      10.2827    -103.5308       8.4403      91.1429 1533245275 9999999.9999
     252.0     604.5787       0.0000     -89.9858      76.2684    -106.0400       2.0083    -103.7316      -0.0138      97.2478 1533245276 9999999.9999
     253.0     583.5062       0.0000     -81.3073      79.6434    -105.7990      -6.3463    -103.4906      -8.5500     103.3526 1533245277 9999999.9999
     254.0     564.7590       0.0000     -73.4466      93.7727    -103.9915     -14.5403    -101.6831     -16.9220     109.4513 1533245278 9999999.9999
     255.0     544.6359       0.0000     -66.8720    -999.2500     -99.8945     -22.4933     -97.5861     -25.0478     115.5500 1533245279 9999999.9999
     256.0     535.9185       0.0000     -61.4091    -999.2500     -93.9900     -30.2857     -91.6816     -33.0095     121.6549 1533245280 9999999.9999
     257.0     534.1880       0.0000     -56.7544    -999.2500     -87.1215     -37.8671     -84.8131     -40.7556     127.7598 1533245281 9999999.9999
     258.0     537.1467       0.0000     -52.5188    -999.2500     -79.0480     -45.2277     -76.7396     -48.2761     133.8463 1533245282 9999999.9999
     259.0     545.0582       0.0000     -48.3129    -999.2500     -69.4883     -51.9757     -67.1799     -55.1707     139.9451 1533245283 9999999.9999
     260.0     564.7590       0.0000     -39.7878    -999.2500     -54.3857     -67.7612     -52.0773     -71.2992     146.0501 1533245284 9999999.9999
     261.0     586.4262       0.0000     -35.5732    -999.2500     -47.3565     -77.9233     -45.0481     -81.6822     152.1551 1533245285 9999999.9999
     262.0     616.2357       0.0000     -31.5839    -999.2500     -40.2470     -86.0772     -37.9386     -90.0132     158.2539 1533245286 9999999.9999
     263.0     655.2889       0.0000     -27.1821    -999.2500     -32.9768     -92.5842     -30.6684     -96.6615     164.3466 1533245287 9999999.9999
     264.0     705.2407       0.0000     -22.0078    -999.2500     -25.6263     -97.4845     -23.3179    -101.6683     170.8565 1533245288 9999999.9999
