~VERSION INFORMATION
VERS.           2.0   :CWLS Log ASCII Standard - VERSION 2.0
WRAP.           NO    :One Line per depth step
PROD.  Schlumberger   :LAS Producer
PROG.  DLIS to ASCII 19C2-270                          :LAS Program name and version
CREA.        2018/08/03 10:59                          :LAS Creation date {YYYY/MM/DD hh:mm}
DLIS_CREA.  2018-Aug-03 08:48                          :DLIS Creation date and time {YYYY-MMM-DD hh:mm}
SOURCE.     PERFO_Perfo_061PTP.DLIS                    :DLIS File Name
FILE-ID.     PERFO_Perfo_061PTP                        :File Identification Number
#--------------------------------------------------
~WELL INFORMATION
#MNEM.UNIT      DATA             DESCRIPTION
#---- ------ --------------   -----------------------------
STRT .S            0.0       :START TIME      
STOP .S          993.0       :STOP TIME      
STEP .S            1.0       :STEP     
NULL .          -999.25      :NULL VALUE
COMP .        SHELL INTERNATIONAL EP                   :COMPANY
WELL .        WPP TEST 4                               :WELL
FLD  .        WILDCAT                                  :FIELD
LOC  .        NA                                       :LOCATION
CNTY .        HARRIS                                   :COUNTY
STAT .        TEXAS                                    :STATE
CTRY .                                                 :COUNTRY
API  .        NA                                       :API NUMBER
UWI  .                                                 :UNIQUE WELL ID
DATE .        02-Aug-2018                              :LOG DATE {DD-MMM-YYYY}
SRVC .        Schlumberger                             :SERVICE COMPANY
LATI .DEG                                              :LATITUDE
LONG .DEG                                              :LONGITUDE
GDAT .                                                 :GeoDetic Datum
SECT .        NA                                       :Section
RANG .        NA                                       :Range
TOWN .        NA                                       :Township
#-----------------------------------------------------------------------------
~PARAMETER INFORMATION
#MNEM.UNIT    VALUE                      DESCRIPTION
#---- -----   --------------------       ------------------------
U-PHASE_B_COMP_PER_YT.                 0 :Phase B Comparator Period Yt
U-PHASE_A_COMP_PER_XT.                 0 :Phase A Comparator Period Xt
U-MAX_EXC_CUR_LIMIT.MA       265.00000   :Requested CM Current Limit
U-REQ_EXC_FQ.HZ              50          :Requested CM Frequency
U-TILT_Y_OFFSET.          -2.06578       :WPTET Tilt Y Offset
U-TILT_Y_GAIN.           1.02173         :WPTET Tilt Y Gain
U-TILT_X_OFFSET.           2.30841       :WPTET Tilt X Offset
U-TILT_X_GAIN.           1.00000         :WPTET Tilt X Gain
U-TILT_OFFSET_TOL.           0.00100     :WPTET Tilt Offset Calibration Tolerance
U-MOT_CUR_LIMIT_REQ.MA        70.00000   :Requested Motor Current Limit
U-MOT_SPD_REQ_WPMS.RPM        1.00000    :Requested Motor Speed
U-STD_TOL_TILT.           0.01000        :Tilt Standard Deviation Tolerance
CWEI .LB/F      29.00000                 :Casing Weight
CSIZ .IN         7.00000                 :Current Casing Size
LCC  .               440                 :Logging Company Code
LUN  .              2134                 :Logging Unit Number
HIDE .                                   :Header Identifier
HID1 .                                   :Header Identifier Line 1
R1   .                                   :Remark Line 1
WITN .        MR. KELLY McCOY            :Witness's Name
ENGI .        MORRIS MOORE               :Engineer's Name
LUL  .        IOWA COLONY                :Logging Unit Location
DATE .        02-Aug-2018                :Date as Month-Day-Year
STAT .        TEXAS                      :State or Province
COUN .        HARRIS                     :County or Rig Name
FN   .        WILDCAT                    :Field Name
WN   .        WPP TEST 4                 :Well Name
CN   .        SHELL INTERNATIONAL EP     :Company Name
CLAB .        County                     :County/Rig Label
SLAB .        State                      :State/Province Label
RUN  .          1                        :RUN NUMBER
PDAT .        GROUND LEVEL               :Permanent Datum
EPD  .                                   :Elevation of Permanent Datum above Mean Sea Level
LMF  .          NA                       :Logging Measured From (Name of Logging Elevation Reference)
APD  .                                   :Elevation of Depth Reference (LMF) above Permanent Datum
#-----------------------------------------------------------------------------
~CURVE INFORMATION
#MNEM.UNIT   API CODE                                  DESCRIPTION
#---- -----  --------                                  -----------------------
TIME .S                                                :TIME {F10.1}
FREQ_EMF_SL.HZ                                         :Electromagnetic Field Frequency {F13.4}
PH_SH_WPPCM_SL.DEG                                     :WPPCM Phase Shift {F13.4}
RB_SL.DEG                                              :Relative Bearing {F13.4}
SDEV_SL.DEG                                            :Sonde Deviation {F13.4}
RTIX_SL.DEG                                            :Raw X-axis Tilt {F13.4}
RTIY_SL.DEG                                            :Raw Y-axis Tilt {F13.4}
TILX_SL.DEG                                            :X-axis Tilt {F13.4}
TILY_SL.DEG                                            :Y-axis Tilt {F13.4}
ROTA_SL.DEG                                            :Motor Rotation Angle {F13.4}
TOD7 .S                                                :Time of Day {I11}
TOJ  .S                                                :Time of Job {F13.4}
#-----------------------------------------------------------------------------
# 
#     TIME    FREQ_EMF_SL  PH_SH_WPPCM_    RB_SL       SDEV_SL      RTIX_SL      RTIY_SL      TILX_SL      TILY_SL      ROTA_SL        TOD7            TOJ
#                          SL
~A  
# ...
     424.0    1420.4546       0.0000     -32.9349    -999.2500     -42.5365     -81.6990     -40.2281     -85.5399      93.6478 1533229264 9999999.9999
     425.0    1455.7454       0.0000     -28.7276    -999.2500     -35.5073     -88.6077     -33.1989     -92.5986      99.7465 1533229265 9999999.9999
     426.0    1483.3861       0.0000     -24.0096    -999.2500     -28.4782     -93.9498     -26.1698     -98.0569     105.8514 1533229266 9999999.9999
     427.0    1515.3556       0.0000     -18.3688    -999.2500     -21.2883     -97.4443     -18.9799    -101.6273     111.9572 1533229267 9999999.9999
     428.0    1545.3296       0.0000     -11.6954      83.9553     -13.9378     -98.9305     -11.6294    -103.1458     118.0560 1533229268 9999999.9999
     429.0    1580.0563       0.0000      -3.4416      77.1350      -5.6635     -99.0912      -3.3551    -103.3099     124.1608 1533229269 9999999.9999
     430.0    1608.9817       0.0000       5.3982      78.0410       2.9723     -98.8903       5.2807    -103.1047     130.6584 1533229270 9999999.9999
     431.0    1635.1744       0.0000      12.4526      88.9003      10.1622     -97.8862      12.4706    -102.0787     136.7572 1533229271 9999999.9999
     432.0    1658.3137       0.0000      19.1992    -999.2500      17.7938     -95.1147      20.1022     -99.2470     142.8560 1533229272 9999999.9999
     433.0    1686.1511       0.0000      24.5563    -999.2500      24.7828     -90.6160      27.0912     -94.6506     148.9610 1533229273 9999999.9999
     434.0    1698.3695       0.0000      29.0664    -999.2500      31.4505     -84.8722      33.7589     -88.7820     155.0660 1533229274 9999999.9999
     435.0    1710.7665       0.0000      33.1691    -999.2500      37.9977     -78.0037      40.3061     -81.7642     161.1648 1533229275 9999999.9999
     436.0    1719.1321       0.0000      37.6354    -999.2500      44.9867     -68.8055      47.2951     -72.3662     167.2636 1533229276 9999999.9999
     437.0    1727.5798       0.0000      42.8725    -999.2500      49.3648     -54.4258      51.6732     -57.6741     173.3686 1533229277 9999999.9999
     438.0    1736.1111       0.0000      52.3390    -999.2500      73.5050     -45.3883      75.8134     -48.4403     179.4736 1533229278 9999999.9999
     439.0    1731.8351       0.0000      56.1571    -999.2500      81.7793     -38.9215      84.0877     -41.8329     185.5856 1533229279 9999999.9999
     440.0    1719.1321       0.0000      60.1711    -999.2500      88.7282     -32.2137      91.0366     -34.9794     191.6906 1533229280 9999999.9999
     441.0    1710.7665       0.0000      64.7701    -999.2500      94.1105     -25.3050      96.4189     -27.9206     197.7956 1533229281 9999999.9999
     442.0    1702.4818       0.0000      70.1633    -999.2500      97.5247     -18.3562      99.8331     -20.8208     204.3124 1533229282 9999999.9999
     443.0    1682.1173       0.0000      76.8179      87.9709      99.1715     -10.9655     101.4799     -13.2695     210.4113 1533229283 9999999.9999
     444.0    1670.1307       0.0000      85.2587      78.8303      99.8142      -2.5305     102.1226      -4.6513     216.5162 1533229284 9999999.9999
     445.0    1642.8153       0.0000      94.2616      78.2550     100.1757       6.1053     102.4841       4.1722     222.6212 1533229285 9999999.9999
     446.0    1623.8453       0.0000     102.0325      87.5903      99.2920      13.8173     101.6004      12.0518     228.7200 1533229286 9999999.9999
     447.0    1598.0114       0.0000     108.9449    -999.2500      96.1188      21.4490      98.4272      19.8492     234.8188 1533229287 9999999.9999
     448.0    1569.4755       0.0000     115.1346    -999.2500      90.8570      29.3618      93.1654      27.9340     240.9238 1533229288 9999999.9999
     449.0    1531.8628       0.0000     120.2043    -999.2500      84.2697      36.7927      86.5781      35.5263     247.0288 1533229289 9999999.9999
     450.0    1499.2004       0.0000     124.7249    -999.2500      76.4773      43.9423      78.7857      42.8313     253.1276 1533229290 9999999.9999
     451.0    1467.9019       0.0000     129.3953    -999.2500      67.0382      51.1723      69.3466      50.2184     259.2335 1533229291 9999999.9999
     452.0    1449.7422       0.0000     137.9080    -999.2500      53.2610      66.5562      55.5694      65.9365     265.3268 1533229292 9999999.9999
     453.0    1411.8976       0.0000     142.2665    -999.2500      46.4327      76.6782      48.7411      76.2784     271.4254 1533229293 9999999.9999
     454.0    1384.1044       0.0000     146.0571    -999.2500      39.7650      84.8320      42.0734      84.6094     277.9289 1533229294 9999999.9999
     455.0    1357.3842       0.0000     150.3456    -999.2500      32.3743      91.9415      34.6827      91.8734     284.0467 1533229295 9999999.9999
     456.0    1329.1588       0.0000     155.3888    -999.2500      24.6623      98.0067      26.9707      98.0703     290.1514 1533229296 9999999.9999
     457.0    1311.8003       0.0000     161.2630    -999.2500      17.0307     102.3447      19.3391     102.5025     296.2384 1533229297 9999999.9999
     458.0    1285.4205       0.0000     168.5109      81.0042       9.0375     104.3530      11.3459     104.5545     301.9320 1533229298 9999999.9999
     459.0    1262.3429       0.0000     176.8650      75.2339       0.7230     104.8752       3.0314     105.0880     308.0368 1533229299 9999999.9999
     460.0    1246.6755       0.0000    -174.3981      75.9458      -7.7421     104.8952      -5.4337     105.1086     314.1415 1533229300 9999999.9999
     461.0    1235.7206       0.0000    -166.4898      88.0483     -15.8658     102.5053     -13.5574     102.6667     320.2401 1533229301 9999999.9999
     462.0    1222.8260       0.0000    -159.4342    -999.2500     -24.1402      97.5648     -21.8318      97.6189     326.3448 1533229302 9999999.9999
     463.0    1208.1185       0.0000    -153.5506    -999.2500     -32.1333      91.3792     -29.8249      91.2988     332.4496 1533229303 9999999.9999
     464.0    1193.7606       0.0000    -148.4718    -999.2500     -39.8855      83.9885     -37.5771      83.7476     338.5482 1533229304 9999999.9999
     465.0    1191.7373       0.0000    -143.8184    -999.2500     -47.3565      75.7945     -45.0481      75.3755     344.6468 1533229305 9999999.9999
     466.0       0.0000       0.0000    -139.1243    -999.2500     -54.3053      66.1947     -51.9969      65.5671     350.8468 1533229306 9999999.9999
     467.0       0.0000       0.0000    -130.7846    -999.2500     -69.2072      53.4217     -66.8988      52.5166     357.3564 1533229307 9999999.9999
     468.0       0.0000       0.0000    -126.6332    -999.2500     -77.7627      47.0753     -75.4543      46.0324       3.4429 1533229308 9999999.9999
     469.0       0.0000       0.0000    -122.2317    -999.2500     -86.0370      40.0060     -83.7286      38.8094       9.5547 1533229309 9999999.9999
     470.0       0.0000       0.0000    -117.4533    -999.2500     -92.8653      32.6555     -90.5569      31.2992      15.6657 1533229310 9999999.9999
     471.0       0.0000       0.0000    -112.0915    -999.2500     -98.6895      25.3050     -96.3811      23.7890      21.7644 1533229311 9999999.9999
     472.0       0.0000       0.0000    -104.4339    -999.2500    -103.0576      16.3579    -100.7492      14.6475      27.8632 1533229312 9999999.9999
     473.0       0.0000       0.0000     -96.6573      79.8432    -104.4333       8.4350    -102.1249       6.5525      33.9681 1533229313 9999999.9999
     474.0       0.0000       0.0000     -88.3065      77.8299    -104.5940       0.4017    -102.2856      -1.6554      40.0991 1533229314 9999999.9999
     475.0       0.0000       0.0000     -79.7922      83.9616    -104.1522      -7.9128    -101.8438     -10.1505      46.1978 1533229315 9999999.9999
     476.0       0.0000       0.0000     -72.8499      87.2268    -102.1438     -15.3035     -99.8354     -17.7018      52.2965 1533229316 9999999.9999
