~VERSION INFORMATION
VERS.           2.0   :CWLS Log ASCII Standard - VERSION 2.0
WRAP.           NO    :One Line per depth step
PROD.  Schlumberger   :LAS Producer
PROG.  DLIS to ASCII 19C2-270                          :LAS Program name and version
CREA.        2018/08/03 10:59                          :LAS Creation date {YYYY/MM/DD hh:mm}
DLIS_CREA.  2018-Aug-03 08:56                          :DLIS Creation date and time {YYYY-MMM-DD hh:mm}
SOURCE.     PERFO_Perfo_063PTP.DLIS                    :DLIS File Name
FILE-ID.     PERFO_Perfo_063PTP                        :File Identification Number
#--------------------------------------------------
~WELL INFORMATION
#MNEM.UNIT      DATA             DESCRIPTION
#---- ------ --------------   -----------------------------
STRT .S            0.0       :START TIME      
STOP .S          897.0       :STOP TIME      
STEP .S            1.0       :STEP     
NULL .          -999.25      :NULL VALUE
COMP .        SHELL INTERNATIONAL EP                   :COMPANY
WELL .        WPP TEST 4                               :WELL
FLD  .        WILDCAT                                  :FIELD
LOC  .        NA                                       :LOCATION
CNTY .        HARRIS                                   :COUNTY
STAT .        TEXAS                                    :STATE
CTRY .                                                 :COUNTRY
API  .        NA                                       :API NUMBER
UWI  .                                                 :UNIQUE WELL ID
DATE .        02-Aug-2018                              :LOG DATE {DD-MMM-YYYY}
SRVC .        Schlumberger                             :SERVICE COMPANY
LATI .DEG                                              :LATITUDE
LONG .DEG                                              :LONGITUDE
GDAT .                                                 :GeoDetic Datum
SECT .        NA                                       :Section
RANG .        NA                                       :Range
TOWN .        NA                                       :Township
#-----------------------------------------------------------------------------
~PARAMETER INFORMATION
#MNEM.UNIT    VALUE                      DESCRIPTION
#---- -----   --------------------       ------------------------
U-PHASE_B_COMP_PER_YT.                 0 :Phase B Comparator Period Yt
U-PHASE_A_COMP_PER_XT.                 0 :Phase A Comparator Period Xt
U-MAX_EXC_CUR_LIMIT.MA       265.00000   :Requested CM Current Limit
U-REQ_EXC_FQ.HZ              50          :Requested CM Frequency
U-TILT_Y_OFFSET.          -2.06578       :WPTET Tilt Y Offset
U-TILT_Y_GAIN.           1.02173         :WPTET Tilt Y Gain
U-TILT_X_OFFSET.           2.30841       :WPTET Tilt X Offset
U-TILT_X_GAIN.           1.00000         :WPTET Tilt X Gain
U-TILT_OFFSET_TOL.           0.00100     :WPTET Tilt Offset Calibration Tolerance
U-MOT_CUR_LIMIT_REQ.MA        70.00000   :Requested Motor Current Limit
U-MOT_SPD_REQ_WPMS.RPM        1.00000    :Requested Motor Speed
U-STD_TOL_TILT.           0.01000        :Tilt Standard Deviation Tolerance
CWEI .LB/F      29.00000                 :Casing Weight
CSIZ .IN         7.00000                 :Current Casing Size
LCC  .               440                 :Logging Company Code
LUN  .              2134                 :Logging Unit Number
HIDE .                                   :Header Identifier
HID1 .                                   :Header Identifier Line 1
R1   .                                   :Remark Line 1
WITN .        MR. KELLY McCOY            :Witness's Name
ENGI .        MORRIS MOORE               :Engineer's Name
LUL  .        IOWA COLONY                :Logging Unit Location
DATE .        02-Aug-2018                :Date as Month-Day-Year
STAT .        TEXAS                      :State or Province
COUN .        HARRIS                     :County or Rig Name
FN   .        WILDCAT                    :Field Name
WN   .        WPP TEST 4                 :Well Name
CN   .        SHELL INTERNATIONAL EP     :Company Name
CLAB .        County                     :County/Rig Label
SLAB .        State                      :State/Province Label
RUN  .          1                        :RUN NUMBER
PDAT .        GROUND LEVEL               :Permanent Datum
EPD  .                                   :Elevation of Permanent Datum above Mean Sea Level
LMF  .          NA                       :Logging Measured From (Name of Logging Elevation Reference)
APD  .                                   :Elevation of Depth Reference (LMF) above Permanent Datum
#-----------------------------------------------------------------------------
~CURVE INFORMATION
#MNEM.UNIT   API CODE                                  DESCRIPTION
#---- -----  --------                                  -----------------------
TIME .S                                                :TIME {F10.1}
FREQ_EMF_SL.HZ                                         :Electromagnetic Field Frequency {F13.4}
PH_SH_WPPCM_SL.DEG                                     :WPPCM Phase Shift {F13.4}
RB_SL.DEG                                              :Relative Bearing {F13.4}
SDEV_SL.DEG                                            :Sonde Deviation {F13.4}
RTIX_SL.DEG                                            :Raw X-axis Tilt {F13.4}
RTIY_SL.DEG                                            :Raw Y-axis Tilt {F13.4}
TILX_SL.DEG                                            :X-axis Tilt {F13.4}
TILY_SL.DEG                                            :Y-axis Tilt {F13.4}
ROTA_SL.DEG                                            :Motor Rotation Angle {F13.4}
TOD7 .S                                                :Time of Day {I11}
TOJ  .S                                                :Time of Job {F13.4}
#-----------------------------------------------------------------------------
# 
#     TIME    FREQ_EMF_SL  PH_SH_WPPCM_    RB_SL       SDEV_SL      RTIX_SL      RTIY_SL      TILX_SL      TILY_SL      ROTA_SL        TOD7            TOJ
#                          SL
~A  
# ...
     583.0    1309.3575       0.0000    -127.9285    -999.2500     -75.3928      49.2042     -73.0844      48.2075     154.4763 1533231538 9999999.9999
     584.0    1285.4205       0.0000    -123.7444    -999.2500     -83.5065      42.4562     -81.1981      41.3128     160.5813 1533231539 9999999.9999
     585.0    1257.8265       0.0000    -119.1481    -999.2500     -90.8972      35.1860     -88.5888      33.8847     166.6811 1533231540 9999999.9999
     586.0    1235.7206       0.0000    -113.7187    -999.2500     -97.1230      27.4338     -94.8146      25.9641     172.7991 1533231541 9999999.9999
     587.0    1206.0464       0.0000    -107.4471    -999.2500    -102.0635      19.6817     -99.7551      18.0435     178.9041 1533231542 9999999.9999
     588.0    1185.7083       0.0000    -100.0325      83.0842    -104.4735      11.7688    -102.1651       9.9588     185.0029 1533231543 9999999.9999
     589.0    1167.9817       0.0000     -91.2044      77.6112    -104.7547       3.1732    -102.4463       1.1763     191.0895 1533231544 9999999.9999
     590.0    1152.6639       0.0000     -82.5741      80.2864    -104.5137      -5.1413    -102.2053      -7.3188     197.2075 1533231545 9999999.9999
     591.0    1137.7427       0.0000     -74.6420      93.9711    -103.1480     -13.2952    -100.8396     -15.6498     203.3255 1533231546 9999999.9999
     592.0    1121.4115       0.0000     -68.1686    -999.2500     -99.7338     -20.8867     -97.4254     -23.4063     209.4243 1533231547 9999999.9999
     593.0    1119.6259       0.0000     -62.5984    -999.2500     -94.2712     -28.5183     -91.9628     -31.2037     215.5362 1533231548 9999999.9999
     594.0    1116.0714       0.0000     -57.8697    -999.2500     -87.6838     -35.9090     -85.3754     -38.7550     221.6412 1533231549 9999999.9999
     595.0    1110.7820       0.0000     -53.7180    -999.2500     -80.1325     -42.8578     -77.8241     -45.8548     228.1511 1533231550 9999999.9999
     596.0    1107.2834       0.0000     -49.5845    -999.2500     -71.2557     -49.4853     -68.9473     -52.6263     234.2500 1533231551 9999999.9999
     597.0    1114.3027       0.0000     -43.1042    -999.2500     -56.4342     -56.6752     -54.1258     -59.9723     240.3488 1533231552 9999999.9999
     598.0    1117.8457       0.0000     -36.1160    -999.2500     -48.0393     -75.2322     -45.7309     -78.9325     246.4599 1533231553 9999999.9999
     599.0    1132.2463       0.0000     -32.1107    -999.2500     -41.1307     -83.5065     -38.8223     -87.3866     252.5718 1533231554 9999999.9999
     600.0    1137.7427       0.0000     -27.8705    -999.2500     -34.1417     -90.0938     -31.8333     -94.1171     258.6705 1533231555 9999999.9999
     601.0    1158.3608       0.0000     -22.5698    -999.2500     -26.5100     -95.3557     -24.2016     -99.4932     264.7630 1533231556 9999999.9999
     602.0    1175.7943       0.0000     -16.6813    -999.2500     -19.3202     -98.2878     -17.0118    -102.4891     270.8554 1533231557 9999999.9999
     603.0    1195.7908       0.0000      -9.5125      80.4713     -11.6885     -99.2117      -9.3801    -103.4330     276.9673 1533231558 9999999.9999
     604.0    1218.5875       0.0000      -0.8068      76.4674      -3.0928     -99.3322      -0.7844    -103.5562     283.0659 1533231559 9999999.9999
     605.0    1242.2703       0.0000       7.7422      79.4454       5.3020     -98.8502       7.6104    -103.0637     289.1707 1533231560 9999999.9999
     606.0    1271.4738       0.0000      14.9484      97.1121      12.8533     -97.4042      15.1617    -101.5863     295.2754 1533231561 9999999.9999
     607.0    1306.9238       0.0000      20.8588    -999.2500      19.8423     -94.1908      22.1507     -98.3031     301.7789 1533231562 9999999.9999
     608.0    1339.2858       0.0000      26.0007    -999.2500      26.8313     -89.2905      29.1397     -93.2963     307.8906 1533231563 9999999.9999
     609.0    1378.6765       0.0000      30.3146    -999.2500      33.4187     -83.1852      35.7271     -87.0583     313.9708 1533231564 9999999.9999
     610.0    1420.4546       0.0000      34.3868    -999.2500      40.0060     -75.9150      42.3144     -79.6302     320.0755 1533231565 9999999.9999
     611.0    1461.7983       0.0000      38.6068    -999.2500      46.4728     -66.8775      48.7812     -70.3963     326.1741 1533231566 9999999.9999
     612.0    1505.6210       0.0000      48.2337    -999.2500      63.7043     -51.4937      66.0127     -54.6783     332.2666 1533231567 9999999.9999
     613.0    1548.7335       0.0000      53.4704    -999.2500      76.2363     -43.5407      78.5447     -46.5525     338.3713 1533231568 9999999.9999
     614.0    1587.1896       0.0000      57.1773    -999.2500      84.0287     -37.1943      86.3371     -40.0682     344.4830 1533231569 9999999.9999
     615.0    1627.6041       0.0000      61.3094    -999.2500      90.5758     -30.4062      92.8842     -33.1326     350.5816 1533231570 9999999.9999
     616.0    1662.2340       0.0000      66.1955    -999.2500      95.5967     -23.3368      97.9051     -25.9097     356.6863 1533231571 9999999.9999
     617.0    1702.4818       0.0000      71.9086    -999.2500      98.3280     -16.3077     100.6364     -18.7278       2.7911 1533231572 9999999.9999
     618.0    1731.8351       0.0000      79.0355      85.5004      99.5330      -8.6760     101.8414     -10.9303       8.8659 1533231573 9999999.9999
     619.0    1749.0671       0.0000      87.6759      77.7308     100.1757      -0.2008     102.4841      -2.2710      15.3888 1533231574 9999999.9999
     620.0    1780.0632       0.0000      96.5880      79.1831     100.3363       8.3547     102.6447       6.4704      21.4815 1533231575 9999999.9999
     621.0    1789.1222       0.0000     104.1012      93.3636      98.8502      15.9863     101.1586      14.2679      27.5935 1533231576 9999999.9999
     622.0    1807.5192       0.0000     110.8122    -999.2500      95.0343      23.6983      97.3427      22.1475      33.6922 1533231577 9999999.9999
     623.0    1816.8605       0.0000     116.3377    -999.2500      89.4512      31.0488      91.7596      29.6577      39.7971 1533231578 9999999.9999
     624.0    1816.8605       0.0000     121.2765    -999.2500      82.8638      38.4797      85.1722      37.2499      45.9020 1533231579 9999999.9999
     625.0    1821.5673       0.0000     126.1060    -999.2500      74.1878      46.2318      76.4962      45.1705      52.0268 1533231580 9999999.9999
     626.0    1812.1779       0.0000     130.8063    -999.2500      63.9052      53.1003      66.2136      52.1883      58.1256 1533231581 9999999.9999
     627.0    1802.8846       0.0000     139.2613    -999.2500      51.4133      69.9302      53.7217      69.3838      64.2312 1533231582 9999999.9999
     628.0    1789.1222       0.0000     143.2972    -999.2500      44.7055      79.2488      47.0139      78.9049      70.3491 1533231583 9999999.9999
     629.0    1771.0958       0.0000     147.1933    -999.2500      37.7567      87.0412      40.0651      86.8665      76.4356 1533231584 9999999.9999
     630.0    1749.0671       0.0000     151.4262    -999.2500      30.6070      93.8695      32.9154      93.8432      82.5343 1533231585 9999999.9999
     631.0    1719.1321       0.0000     156.7850    -999.2500      22.6942      99.6937      25.0026      99.7940      89.0502 1533231586 9999999.9999
     632.0    1694.2772       0.0000     163.0044    -999.2500      14.9822     103.3087      17.2906     103.4875      95.1622 1533231587 9999999.9999
     633.0    1666.1730       0.0000     170.6678      78.3019       6.8283     104.7145       9.1367     104.9239     101.2609 1533231588 9999999.9999
     634.0    1621.9723       0.0000     178.7939      74.7533      -1.1447     105.0760       1.1637     105.2932     106.9547 1533231589 9999999.9999
     635.0    1594.3877       0.0000    -172.3523      77.0504      -9.7605     104.7948      -7.4521     105.0060     113.0596 1533231590 9999999.9999
