~VERSION INFORMATION
VERS.           2.0   :CWLS Log ASCII Standard - VERSION 2.0
WRAP.           NO    :One Line per depth step
PROD.  Schlumberger   :LAS Producer
PROG.  DLIS to ASCII 19C2-270                          :LAS Program name and version
CREA.        2018/08/03 10:59                          :LAS Creation date {YYYY/MM/DD hh:mm}
DLIS_CREA.  2018-Aug-03 08:58                          :DLIS Creation date and time {YYYY-MMM-DD hh:mm}
SOURCE.     PERFO_Perfo_064PTP.DLIS                    :DLIS File Name
FILE-ID.     PERFO_Perfo_064PTP                        :File Identification Number
#--------------------------------------------------
~WELL INFORMATION
#MNEM.UNIT      DATA             DESCRIPTION
#---- ------ --------------   -----------------------------
STRT .S            0.0       :START TIME      
STOP .S          966.0       :STOP TIME      
STEP .S            1.0       :STEP     
NULL .          -999.25      :NULL VALUE
COMP .        SHELL INTERNATIONAL EP                   :COMPANY
WELL .        WPP TEST 4                               :WELL
FLD  .        WILDCAT                                  :FIELD
LOC  .        NA                                       :LOCATION
CNTY .        HARRIS                                   :COUNTY
STAT .        TEXAS                                    :STATE
CTRY .                                                 :COUNTRY
API  .        NA                                       :API NUMBER
UWI  .                                                 :UNIQUE WELL ID
DATE .        02-Aug-2018                              :LOG DATE {DD-MMM-YYYY}
SRVC .        Schlumberger                             :SERVICE COMPANY
LATI .DEG                                              :LATITUDE
LONG .DEG                                              :LONGITUDE
GDAT .                                                 :GeoDetic Datum
SECT .        NA                                       :Section
RANG .        NA                                       :Range
TOWN .        NA                                       :Township
#-----------------------------------------------------------------------------
~PARAMETER INFORMATION
#MNEM.UNIT    VALUE                      DESCRIPTION
#---- -----   --------------------       ------------------------
U-PHASE_B_COMP_PER_YT.                 0 :Phase B Comparator Period Yt
U-PHASE_A_COMP_PER_XT.                 0 :Phase A Comparator Period Xt
U-MAX_EXC_CUR_LIMIT.MA       265.00000   :Requested CM Current Limit
U-REQ_EXC_FQ.HZ              50          :Requested CM Frequency
U-TILT_Y_OFFSET.          -2.06578       :WPTET Tilt Y Offset
U-TILT_Y_GAIN.           1.02173         :WPTET Tilt Y Gain
U-TILT_X_OFFSET.           2.30841       :WPTET Tilt X Offset
U-TILT_X_GAIN.           1.00000         :WPTET Tilt X Gain
U-TILT_OFFSET_TOL.           0.00100     :WPTET Tilt Offset Calibration Tolerance
U-MOT_CUR_LIMIT_REQ.MA        70.00000   :Requested Motor Current Limit
U-MOT_SPD_REQ_WPMS.RPM        1.00000    :Requested Motor Speed
U-STD_TOL_TILT.           0.01000        :Tilt Standard Deviation Tolerance
CWEI .LB/F      29.00000                 :Casing Weight
CSIZ .IN         7.00000                 :Current Casing Size
LCC  .               440                 :Logging Company Code
LUN  .              2134                 :Logging Unit Number
HIDE .                                   :Header Identifier
HID1 .                                   :Header Identifier Line 1
R1   .                                   :Remark Line 1
WITN .        MR. KELLY McCOY            :Witness's Name
ENGI .        MORRIS MOORE               :Engineer's Name
LUL  .        IOWA COLONY                :Logging Unit Location
DATE .        02-Aug-2018                :Date as Month-Day-Year
STAT .        TEXAS                      :State or Province
COUN .        HARRIS                     :County or Rig Name
FN   .        WILDCAT                    :Field Name
WN   .        WPP TEST 4                 :Well Name
CN   .        SHELL INTERNATIONAL EP     :Company Name
CLAB .        County                     :County/Rig Label
SLAB .        State                      :State/Province Label
RUN  .          1                        :RUN NUMBER
PDAT .        GROUND LEVEL               :Permanent Datum
EPD  .                                   :Elevation of Permanent Datum above Mean Sea Level
LMF  .          NA                       :Logging Measured From (Name of Logging Elevation Reference)
APD  .                                   :Elevation of Depth Reference (LMF) above Permanent Datum
#-----------------------------------------------------------------------------
~CURVE INFORMATION
#MNEM.UNIT   API CODE                                  DESCRIPTION
#---- -----  --------                                  -----------------------
TIME .S                                                :TIME {F10.1}
FREQ_EMF_SL.HZ                                         :Electromagnetic Field Frequency {F13.4}
PH_SH_WPPCM_SL.DEG                                     :WPPCM Phase Shift {F13.4}
RB_SL.DEG                                              :Relative Bearing {F13.4}
SDEV_SL.DEG                                            :Sonde Deviation {F13.4}
RTIX_SL.DEG                                            :Raw X-axis Tilt {F13.4}
RTIY_SL.DEG                                            :Raw Y-axis Tilt {F13.4}
TILX_SL.DEG                                            :X-axis Tilt {F13.4}
TILY_SL.DEG                                            :Y-axis Tilt {F13.4}
ROTA_SL.DEG                                            :Motor Rotation Angle {F13.4}
TOD7 .S                                                :Time of Day {I11}
TOJ  .S                                                :Time of Job {F13.4}
#-----------------------------------------------------------------------------
# 
#     TIME    FREQ_EMF_SL  PH_SH_WPPCM_    RB_SL       SDEV_SL      RTIX_SL      RTIY_SL      TILX_SL      TILY_SL      ROTA_SL        TOD7            TOJ
#                          SL
~A  
# ...
     318.0    1231.9316       0.0000     -58.5547    -999.2500     -88.8386     -34.7944     -86.5302     -37.6161     276.6057 1533232321 9999999.9999
     319.0    1299.6765       0.0000     -54.2393    -999.2500     -81.3375     -42.0143     -79.0291     -44.9930     282.7043 1533232322 9999999.9999
     320.0    1360.0098       0.0000     -50.1639    -999.2500     -72.6213     -48.6418     -70.3129     -51.7645     288.8091 1533232323 9999999.9999
     321.0    1446.7593       0.0000     -44.8984    -999.2500     -60.1295     -54.8877     -57.8211     -58.1461     294.9138 1533232324 9999999.9999
     322.0    1518.6285       0.0000     -36.6789    -999.2500     -49.0033     -74.0272     -46.6949     -77.7013     300.6205 1533232325 9999999.9999
     323.0    1598.0114       0.0000     -32.6017    -999.2500     -41.9742     -82.5425     -39.6658     -86.4017     306.7191 1533232326 9999999.9999
     324.0    1682.1173       0.0000     -28.3810    -999.2500     -34.9450     -89.4110     -32.6366     -93.4194     312.8239 1533232327 9999999.9999
     325.0    1771.0958       0.0000     -23.4369    -999.2500     -27.6748     -94.6728     -25.3664     -98.7956     319.3336 1533232328 9999999.9999
     326.0    1845.4724       0.0000     -17.9156    -999.2500     -20.7260     -98.0468     -18.4176    -102.2429     325.4322 1533232329 9999999.9999
     327.0    1936.9835       0.0000     -10.8572      81.8335     -13.0542     -99.3322     -10.7458    -103.5562     331.5246 1533232330 9999999.9999
     328.0    2026.2969       0.0000      -2.5819      76.6038      -4.8200     -99.4125      -2.5116    -103.6382     337.6171 1533232331 9999999.9999
     329.0    2190.4207       0.0000       6.3790      78.2472       3.9363     -99.1313       6.2447    -103.3510     343.7157 1533232332 9999999.9999
     330.0    2383.4746       0.0000      13.8595      93.3446      11.6483     -97.9665      13.9567    -102.1608     349.8143 1533232333 9999999.9999
     331.0    2484.5405       0.0000      20.2277    -999.2500      19.0390     -94.7933      21.3474     -98.9187     355.9190 1533232334 9999999.9999
     332.0    2493.3511       0.0000      25.4141    -999.2500      25.9878     -89.8930      28.2962     -93.9119       2.0238 1533232335 9999999.9999
     333.0    2484.5405       0.0000      29.8824    -999.2500      32.7358     -83.9483      35.0442     -87.8381       8.1103 1533232336 9999999.9999
     334.0    2493.3511       0.0000      33.9544    -999.2500      39.3232     -76.8790      41.6316     -80.6151      14.2090 1533232337 9999999.9999
     335.0    2484.5405       0.0000      38.1126    -999.2500      45.7900     -68.0423      48.0984     -71.5865      20.3139 1533232338 9999999.9999
     336.0    2484.5405       0.0000      45.0820    -999.2500      53.1405     -52.0158      55.4489     -55.2118      26.4188 1533232339 9999999.9999
     337.0    2493.3511       0.0000      52.6476    -999.2500      74.6297     -44.9867      76.9381     -48.0299      32.9101 1533232340 9999999.9999
     338.0    2493.3511       0.0000      56.5017    -999.2500      82.8237     -38.3592      85.1321     -41.2584      39.0157 1533232341 9999999.9999
     339.0    2484.5405       0.0000      60.4937    -999.2500      89.5315     -31.6915      91.8399     -34.4458      45.1206 1533232342 9999999.9999
     340.0    2493.3511       0.0000      65.1599    -999.2500      94.7933     -24.7427      97.1017     -27.3460      51.2201 1533232343 9999999.9999
     341.0    2484.5405       0.0000      70.6212    -999.2500      98.0067     -17.7938     100.3151     -20.2462      57.3066 1533232344 9999999.9999
     342.0    2351.5886       0.0000      77.5379      84.3264      99.5732     -10.2023     101.8816     -12.4898      63.4115 1533232345 9999999.9999
     343.0    2183.6179       0.0000      86.8386      77.9582     100.1355      -1.0042     102.4439      -3.0918      69.5163 1533232346 9999999.9999
     344.0    2038.0435       0.0000      95.6792      78.6388     100.3765       7.4710     102.6849       5.5675      75.6158 1533232347 9999999.9999
     345.0    1947.7146       0.0000     103.3491      88.8068      99.1715      15.1830     101.4799      13.4471      81.7145 1533232348 9999999.9999
     346.0    1865.0531       0.0000     110.1261    -999.2500      95.5565      22.8548      97.8649      21.2856      87.8194 1533232349 9999999.9999
     347.0    1793.6862       0.0000     115.7421    -999.2500      90.2545      30.2053      92.5629      28.7958      93.9242 1533232350 9999999.9999
     348.0    1723.3456       0.0000     120.7138    -999.2500      83.7475      37.5960      86.0559      36.3471     100.0230 1533232351 9999999.9999
     349.0    1638.9860       0.0000     125.2412    -999.2500      75.9953      44.8662      78.3037      43.7752     106.5328 1533232352 9999999.9999
     350.0    1569.4755       0.0000     129.8844    -999.2500      66.0340      51.8953      68.3424      50.9571     112.6376 1533232353 9999999.9999
     351.0    1483.3861       0.0000     138.4351    -999.2500      52.6987      68.0825      55.0071      67.4960     118.7425 1533232354 9999999.9999
     352.0    1406.2500       0.0000     142.6111    -999.2500      45.9507      77.8832      48.2591      77.5096     124.8481 1533232355 9999999.9999
     353.0    1336.7396       0.0000     146.3988    -999.2500      39.1625      85.5550      41.4709      85.3481     130.9406 1533232356 9999999.9999
     354.0    1271.4738       0.0000     150.6360    -999.2500      31.8923      92.5842      34.2007      92.5300     137.0586 1533232357 9999999.9999
     355.0    1218.5875       0.0000     156.0509    -999.2500      23.6983      99.0912      26.0067      99.1784     143.1451 1533232358 9999999.9999
     356.0    1169.9252       0.0000     162.1621    -999.2500      15.9462     103.0677      18.2546     103.2413     149.2440 1533232359 9999999.9999
     357.0    1125.0000       0.0000     169.6316      79.1494       7.8727     104.7547      10.1811     104.9649     155.3489 1533232360 9999999.9999
     358.0    1090.1163       0.0000     178.1068      74.7389      -0.4820     105.1563       1.8264     105.3753     161.4539 1533232361 9999999.9999
     359.0    1054.1604       0.0000    -173.4040      76.3085      -8.7162     104.9555      -6.4078     105.1701     167.5527 1533232362 9999999.9999
     360.0    1027.9606       0.0000    -165.7433      92.4782     -16.6692     102.3848     -14.3608     102.5436     173.6516 1533232363 9999999.9999
     361.0    1003.0314       0.0000    -158.7939    -999.2500     -24.9435      97.2435     -22.6351      97.2906     180.1676 1533232364 9999999.9999
     362.0     979.2828       0.0000    -153.0833    -999.2500     -32.8162      90.8168     -30.5078      90.7243     186.2795 1533232365 9999999.9999
     363.0     960.5533       0.0000    -148.0295    -999.2500     -40.6085      83.4663     -38.3001      83.2140     192.3783 1533232366 9999999.9999
     364.0     952.7439       0.0000    -143.4451    -999.2500     -47.9590      75.1117     -45.6506      74.6778     198.4833 1533232367 9999999.9999
     365.0     945.0605       0.0000    -138.5662    -999.2500     -55.1488      65.1905     -52.8404      64.5411     204.5883 1533232368 9999999.9999
     366.0     940.0067       0.0000    -130.4933    -999.2500     -70.0105      53.1003     -67.7021      52.1883     210.6748 1533232369 9999999.9999
     367.0     940.0067       0.0000    -125.8718    -999.2500     -79.6907      45.9507     -77.3823      44.8833     216.7869 1533232370 9999999.9999
     368.0     950.1689       0.0000    -121.4227    -999.2500     -87.4027      38.7207     -85.0943      37.4962     222.8919 1533232371 9999999.9999
     369.0     957.9360       0.0000    -116.5967    -999.2500     -94.2310      31.4103     -91.9226      30.0270     228.9968 1533232372 9999999.9999
     370.0     972.5104       0.0000    -110.7222    -999.2500     -99.8945      23.5778     -97.5861      22.0243     235.0957 1533232373 9999999.9999
