~VERSION INFORMATION
VERS.           2.0   :CWLS Log ASCII Standard - VERSION 2.0
WRAP.           NO    :One Line per depth step
PROD.  Schlumberger   :LAS Producer
PROG.  DLIS to ASCII 19C2-270                          :LAS Program name and version
CREA.        2018/08/03 10:59                          :LAS Creation date {YYYY/MM/DD hh:mm}
DLIS_CREA.  2018-Aug-03 08:56                          :DLIS Creation date and time {YYYY-MMM-DD hh:mm}
SOURCE.     PERFO_Perfo_063PTP.DLIS                    :DLIS File Name
FILE-ID.     PERFO_Perfo_063PTP                        :File Identification Number
#--------------------------------------------------
~WELL INFORMATION
#MNEM.UNIT      DATA             DESCRIPTION
#---- ------ --------------   -----------------------------
STRT .S            0.0       :START TIME      
STOP .S          897.0       :STOP TIME      
STEP .S            1.0       :STEP     
NULL .          -999.25      :NULL VALUE
COMP .        SHELL INTERNATIONAL EP                   :COMPANY
WELL .        WPP TEST 4                               :WELL
FLD  .        WILDCAT                                  :FIELD
LOC  .        NA                                       :LOCATION
CNTY .        HARRIS                                   :COUNTY
STAT .        TEXAS                                    :STATE
CTRY .                                                 :COUNTRY
API  .        NA                                       :API NUMBER
UWI  .                                                 :UNIQUE WELL ID
DATE .        02-Aug-2018                              :LOG DATE {DD-MMM-YYYY}
SRVC .        Schlumberger                             :SERVICE COMPANY
LATI .DEG                                              :LATITUDE
LONG .DEG                                              :LONGITUDE
GDAT .                                                 :GeoDetic Datum
SECT .        NA                                       :Section
RANG .        NA                                       :Range
TOWN .        NA                                       :Township
#-----------------------------------------------------------------------------
~PARAMETER INFORMATION
#MNEM.UNIT    VALUE                      DESCRIPTION
#---- -----   --------------------       ------------------------
U-PHASE_B_COMP_PER_YT.                 0 :Phase B Comparator Period Yt
U-PHASE_A_COMP_PER_XT.                 0 :Phase A Comparator Period Xt
U-MAX_EXC_CUR_LIMIT.MA       265.00000   :Requested CM Current Limit
U-REQ_EXC_FQ.HZ              50          :Requested CM Frequency
U-TILT_Y_OFFSET.          -2.06578       :WPTET Tilt Y Offset
U-TILT_Y_GAIN.           1.02173         :WPTET Tilt Y Gain
U-TILT_X_OFFSET.           2.30841       :WPTET Tilt X Offset
U-TILT_X_GAIN.           1.00000         :WPTET Tilt X Gain
U-TILT_OFFSET_TOL.           0.00100     :WPTET Tilt Offset Calibration Tolerance
U-MOT_CUR_LIMIT_REQ.MA        70.00000   :Requested Motor Current Limit
U-MOT_SPD_REQ_WPMS.RPM        1.00000    :Requested Motor Speed
U-STD_TOL_TILT.           0.01000        :Tilt Standard Deviation Tolerance
CWEI .LB/F      29.00000                 :Casing Weight
CSIZ .IN         7.00000                 :Current Casing Size
LCC  .               440                 :Logging Company Code
LUN  .              2134                 :Logging Unit Number
HIDE .                                   :Header Identifier
HID1 .                                   :Header Identifier Line 1
R1   .                                   :Remark Line 1
WITN .        MR. KELLY McCOY            :Witness's Name
ENGI .        MORRIS MOORE               :Engineer's Name
LUL  .        IOWA COLONY                :Logging Unit Location
DATE .        02-Aug-2018                :Date as Month-Day-Year
STAT .        TEXAS                      :State or Province
COUN .        HARRIS                     :County or Rig Name
FN   .        WILDCAT                    :Field Name
WN   .        WPP TEST 4                 :Well Name
CN   .        SHELL INTERNATIONAL EP     :Company Name
CLAB .        County                     :County/Rig Label
SLAB .        State                      :State/Province Label
RUN  .          1                        :RUN NUMBER
PDAT .        GROUND LEVEL               :Permanent Datum
EPD  .                                   :Elevation of Permanent Datum above Mean Sea Level
LMF  .          NA                       :Logging Measured From (Name of Logging Elevation Reference)
APD  .                                   :Elevation of Depth Reference (LMF) above Permanent Datum
#-----------------------------------------------------------------------------
~CURVE INFORMATION
#MNEM.UNIT   API CODE                                  DESCRIPTION
#---- -----  --------                                  -----------------------
TIME .S                                                :TIME {F10.1}
FREQ_EMF_SL.HZ                                         :Electromagnetic Field Frequency {F13.4}
PH_SH_WPPCM_SL.DEG                                     :WPPCM Phase Shift {F13.4}
RB_SL.DEG                                              :Relative Bearing {F13.4}
SDEV_SL.DEG                                            :Sonde Deviation {F13.4}
RTIX_SL.DEG                                            :Raw X-axis Tilt {F13.4}
RTIY_SL.DEG                                            :Raw Y-axis Tilt {F13.4}
TILX_SL.DEG                                            :X-axis Tilt {F13.4}
TILY_SL.DEG                                            :Y-axis Tilt {F13.4}
ROTA_SL.DEG                                            :Motor Rotation Angle {F13.4}
TOD7 .S                                                :Time of Day {I11}
TOJ  .S                                                :Time of Job {F13.4}
#-----------------------------------------------------------------------------
# 
#     TIME    FREQ_EMF_SL  PH_SH_WPPCM_    RB_SL       SDEV_SL      RTIX_SL      RTIY_SL      TILX_SL      TILY_SL      ROTA_SL        TOD7            TOJ
#                          SL
~A  
# ...
     318.0    1947.7146       0.0000      61.1582    -999.2500      90.2143     -30.6472      92.5227     -33.3788     328.7266 1533231273 9999999.9999
     319.0    1931.6620       0.0000      65.9611    -999.2500      95.3155     -23.6582      97.6239     -26.2380     334.8444 1533231274 9999999.9999
     320.0    1905.4878       0.0000      71.6679    -999.2500      98.1673     -16.5888     100.4757     -19.0150     340.9430 1533231275 9999999.9999
     321.0    1880.0134       0.0000      78.7565      86.1337      99.5732      -8.9572     101.8816     -11.2176     347.0416 1533231276 9999999.9999
     322.0    1845.4724       0.0000      87.5094      77.8861     100.0552      -0.3615     102.3636      -2.4351     353.1463 1533231277 9999999.9999
     323.0    1798.2737       0.0000      96.9165      79.4368     100.2962       8.6760     102.6046       6.7987     359.2517 1533231278 9999999.9999
     324.0    1749.0671       0.0000     104.4360      94.3940      98.6895      16.3478     100.9979      14.6372       5.3504 1533231279 9999999.9999
     325.0    1702.4818       0.0000     111.0025    -999.2500      94.7933      23.9393      97.1017      22.3937      11.4622 1533231280 9999999.9999
     326.0    1654.4117       0.0000     116.4807    -999.2500      89.4512      31.2497      91.7596      29.8629      17.5671 1533231281 9999999.9999
     327.0    1601.6515       0.0000     121.3814    -999.2500      82.6228      38.6403      84.9312      37.4141      23.6595 1533231282 9999999.9999
     328.0    1545.3296       0.0000     125.8458    -999.2500      74.5895      45.7900      76.8979      44.7191      29.7583 1533231283 9999999.9999
     329.0    1489.6716       0.0000     130.6636    -999.2500      64.3470      52.9798      66.6554      52.0652      36.2681 1533231284 9999999.9999
     330.0    1432.0265       0.0000     139.1259    -999.2500      51.5740      69.5285      53.8824      68.9734      42.3860 1533231285 9999999.9999
     331.0    1378.6765       0.0000     143.1665    -999.2500      44.9465      79.0078      47.2549      78.6587      48.4848 1533231286 9999999.9999
     332.0    1339.2858       0.0000     147.0785    -999.2500      37.9575      86.8002      40.2659      86.6203      54.5835 1533231287 9999999.9999
     333.0    1287.7748       0.0000     151.3808    -999.2500      30.6873      93.6285      32.9957      93.5970      60.7015 1533231288 9999999.9999
     334.0    1246.6755       0.0000     156.5565    -999.2500      23.0155      99.3723      25.3239      99.4656      66.8063 1533231289 9999999.9999
     335.0    1203.9811       0.0000     163.2882    -999.2500      14.6608     103.3890      16.9692     103.5696      72.9050 1533231290 9999999.9999
     336.0    1173.8313       0.0000     171.0246      77.9245       6.4668     104.7948       8.7752     105.0060      79.0038 1533231291 9999999.9999
     337.0    1139.5867       0.0000     179.4389      74.6347      -1.7673     105.1563       0.5411     105.3753      85.1086 1533231292 9999999.9999
     338.0    1109.0300       0.0000    -172.1125      77.2904     -10.0015     104.7145      -7.6931     104.9239      91.2135 1533231293 9999999.9999
     339.0    1086.7465       0.0000    -164.5269      92.7323     -18.0348     101.5815     -15.7264     101.7228      97.3130 1533231294 9999999.9999
     340.0    1068.5791       0.0000    -157.7761    -999.2500     -26.2690      96.2795     -23.9606      96.3056     103.4117 1533231295 9999999.9999
     341.0    1047.8762       0.0000    -152.1100    -999.2500     -34.2622      89.6922     -31.9538      89.5751     109.9276 1533231296 9999999.9999
     342.0    1029.4656       0.0000    -147.2717    -999.2500     -41.8135      82.1007     -39.5051      81.8187     116.0263 1533231297 9999999.9999
     343.0    1019.0217       0.0000    -142.7354    -999.2500     -49.0435      73.6255     -46.7351      73.1594     122.1250 1533231298 9999999.9999
     344.0    1010.2371       0.0000    -137.7078    -999.2500     -56.1530      63.2625     -53.8446      62.5712     128.2430 1533231299 9999999.9999
     345.0    1011.6906       0.0000    -129.7330    -999.2500     -71.6172      51.9757     -69.3088      51.0392     134.3485 1533231300 9999999.9999
     346.0    1008.7877       0.0000    -125.4935    -999.2500     -80.2932      45.3080     -77.9847      44.2266     140.4474 1533231301 9999999.9999
     347.0    1014.6104       0.0000    -120.7579    -999.2500     -88.5273      37.6763     -86.2189      36.4292     146.5462 1533231302 9999999.9999
     348.0    1020.5007       0.0000    -115.7481    -999.2500     -95.1950      30.2053     -92.8866      28.7958     152.6512 1533231303 9999999.9999
     349.0    1038.5894       0.0000    -109.7991    -999.2500    -100.4970      22.4532     -98.1886      20.8752     158.7561 1533231304 9999999.9999
     350.0    1051.0089       0.0000    -102.7722      86.2601    -103.8710      14.5805    -101.5626      12.8315     164.8549 1533231305 9999999.9999
     351.0    1073.4733       0.0000     -94.8015      78.5473    -104.7145       6.6275    -102.4061       4.7057     170.9538 1533231306 9999999.9999
     352.0    1093.5071       0.0000     -86.1299      78.2887    -104.6342      -1.6870    -102.3258      -3.7894     177.0587 1533231307 9999999.9999
     353.0    1123.2029       0.0000     -77.8542      87.6518    -104.1120      -9.8810    -101.8036     -12.1615     183.5687 1533231308 9999999.9999
     354.0    1152.6639       0.0000     -70.7530    -999.2500    -101.4610     -17.7135     -99.1526     -20.1641     189.6806 1533231309 9999999.9999
     355.0    1187.7112       0.0000     -64.9030    -999.2500     -96.7213     -25.2247     -94.4129     -27.8385     195.7855 1533231310 9999999.9999
     356.0    1227.0942       0.0000     -59.7870    -999.2500     -90.5758     -32.8162     -88.2674     -35.5949     201.8905 1533231311 9999999.9999
     357.0    1266.8918       0.0000     -55.4368    -999.2500     -83.4663     -39.9658     -81.1579     -42.9000     208.0026 1533231312 9999999.9999
     358.0    1324.1526       0.0000     -51.4455    -999.2500     -75.3527     -46.5933     -73.0443     -49.6715     214.1014 1533231313 9999999.9999
     359.0    1375.9785       0.0000     -46.4320    -999.2500     -64.0257     -53.6627     -61.7173     -56.8944     220.2064 1533231314 9999999.9999
     360.0    1426.2170       0.0000     -37.6611    -999.2500     -50.5698     -71.5770     -48.2614     -75.1979     226.2991 1533231315 9999999.9999
     361.0    1483.3861       0.0000     -33.5351    -999.2500     -43.5808     -80.6145     -41.2724     -84.4318     232.3979 1533231316 9999999.9999
     362.0    1545.3296       0.0000     -29.4295    -999.2500     -36.6320     -87.8445     -34.3236     -91.8189     238.4967 1533231317 9999999.9999
     363.0    1598.0114       0.0000     -24.7971    -999.2500     -29.5627     -93.5080     -27.2543     -97.6054     244.6017 1533231318 9999999.9999
     364.0    1654.4117       0.0000     -19.3326    -999.2500     -22.4130     -97.3640     -20.1046    -101.5452     250.7066 1533231319 9999999.9999
     365.0    1706.6141       0.0000     -12.7393      86.4087     -15.0223     -99.0108     -12.7139    -103.2278     257.2165 1533231320 9999999.9999
     366.0    1757.8126       0.0000      -4.8407      77.2345      -7.0292     -99.4125      -4.7208    -103.6382     263.3029 1533231321 9999999.9999
     367.0    1802.8846       0.0000       4.0148      77.2135       1.6067     -99.1715       3.9151    -103.3920     269.3953 1533231322 9999999.9999
     368.0    1845.4724       0.0000      12.0510      86.5424       9.7203     -98.3280      12.0287    -102.5302     275.5070 1533231323 9999999.9999
     369.0    1885.0536       0.0000      18.4447    -999.2500      16.8700     -95.7975      19.1784     -99.9447     281.6056 1533231324 9999999.9999
     370.0    1905.4878       0.0000      23.8349    -999.2500      23.7787     -91.4595      26.0871     -95.5124     287.7103 1533231325 9999999.9999
