~VERSION INFORMATION
VERS.           2.0   :CWLS Log ASCII Standard - VERSION 2.0
WRAP.           NO    :One Line per depth step
PROD.  Schlumberger   :LAS Producer
PROG.  DLIS to ASCII 19C2-270                          :LAS Program name and version
CREA.        2018/08/03 10:59                          :LAS Creation date {YYYY/MM/DD hh:mm}
DLIS_CREA.  2018-Aug-03 08:48                          :DLIS Creation date and time {YYYY-MMM-DD hh:mm}
SOURCE.     PERFO_Perfo_061PTP.DLIS                    :DLIS File Name
FILE-ID.     PERFO_Perfo_061PTP                        :File Identification Number
#--------------------------------------------------
~WELL INFORMATION
#MNEM.UNIT      DATA             DESCRIPTION
#---- ------ --------------   -----------------------------
STRT .S            0.0       :START TIME      
STOP .S          993.0       :STOP TIME      
STEP .S            1.0       :STEP     
NULL .          -999.25      :NULL VALUE
COMP .        SHELL INTERNATIONAL EP                   :COMPANY
WELL .        WPP TEST 4                               :WELL
FLD  .        WILDCAT                                  :FIELD
LOC  .        NA                                       :LOCATION
CNTY .        HARRIS                                   :COUNTY
STAT .        TEXAS                                    :STATE
CTRY .                                                 :COUNTRY
API  .        NA                                       :API NUMBER
UWI  .                                                 :UNIQUE WELL ID
DATE .        02-Aug-2018                              :LOG DATE {DD-MMM-YYYY}
SRVC .        Schlumberger                             :SERVICE COMPANY
LATI .DEG                                              :LATITUDE
LONG .DEG                                              :LONGITUDE
GDAT .                                                 :GeoDetic Datum
SECT .        NA                                       :Section
RANG .        NA                                       :Range
TOWN .        NA                                       :Township
#-----------------------------------------------------------------------------
~PARAMETER INFORMATION
#MNEM.UNIT    VALUE                      DESCRIPTION
#---- -----   --------------------       ------------------------
U-PHASE_B_COMP_PER_YT.                 0 :Phase B Comparator Period Yt
U-PHASE_A_COMP_PER_XT.                 0 :Phase A Comparator Period Xt
U-MAX_EXC_CUR_LIMIT.MA       265.00000   :Requested CM Current Limit
U-REQ_EXC_FQ.HZ              50          :Requested CM Frequency
U-TILT_Y_OFFSET.          -2.06578       :WPTET Tilt Y Offset
U-TILT_Y_GAIN.           1.02173         :WPTET Tilt Y Gain
U-TILT_X_OFFSET.           2.30841       :WPTET Tilt X Offset
U-TILT_X_GAIN.           1.00000         :WPTET Tilt X Gain
U-TILT_OFFSET_TOL.           0.00100     :WPTET Tilt Offset Calibration Tolerance
U-MOT_CUR_LIMIT_REQ.MA        70.00000   :Requested Motor Current Limit
U-MOT_SPD_REQ_WPMS.RPM        1.00000    :Requested Motor Speed
U-STD_TOL_TILT.           0.01000        :Tilt Standard Deviation Tolerance
CWEI .LB/F      29.00000                 :Casing Weight
CSIZ .IN         7.00000                 :Current Casing Size
LCC  .               440                 :Logging Company Code
LUN  .              2134                 :Logging Unit Number
HIDE .                                   :Header Identifier
HID1 .                                   :Header Identifier Line 1
R1   .                                   :Remark Line 1
WITN .        MR. KELLY McCOY            :Witness's Name
ENGI .        MORRIS MOORE               :Engineer's Name
LUL  .        IOWA COLONY                :Logging Unit Location
DATE .        02-Aug-2018                :Date as Month-Day-Year
STAT .        TEXAS                      :State or Province
COUN .        HARRIS                     :County or Rig Name
FN   .        WILDCAT                    :Field Name
WN   .        WPP TEST 4                 :Well Name
CN   .        SHELL INTERNATIONAL EP     :Company Name
CLAB .        County                     :County/Rig Label
SLAB .        State                      :State/Province Label
RUN  .          1                        :RUN NUMBER
PDAT .        GROUND LEVEL               :Permanent Datum
EPD  .                                   :Elevation of Permanent Datum above Mean Sea Level
LMF  .          NA                       :Logging Measured From (Name of Logging Elevation Reference)
APD  .                                   :Elevation of Depth Reference (LMF) above Permanent Datum
#-----------------------------------------------------------------------------
~CURVE INFORMATION
#MNEM.UNIT   API CODE                                  DESCRIPTION
#---- -----  --------                                  -----------------------
TIME .S                                                :TIME {F10.1}
FREQ_EMF_SL.HZ                                         :Electromagnetic Field Frequency {F13.4}
PH_SH_WPPCM_SL.DEG                                     :WPPCM Phase Shift {F13.4}
RB_SL.DEG                                              :Relative Bearing {F13.4}
SDEV_SL.DEG                                            :Sonde Deviation {F13.4}
RTIX_SL.DEG                                            :Raw X-axis Tilt {F13.4}
RTIY_SL.DEG                                            :Raw Y-axis Tilt {F13.4}
TILX_SL.DEG                                            :X-axis Tilt {F13.4}
TILY_SL.DEG                                            :Y-axis Tilt {F13.4}
ROTA_SL.DEG                                            :Motor Rotation Angle {F13.4}
TOD7 .S                                                :Time of Day {I11}
TOJ  .S                                                :Time of Job {F13.4}
#-----------------------------------------------------------------------------
# 
#     TIME    FREQ_EMF_SL  PH_SH_WPPCM_    RB_SL       SDEV_SL      RTIX_SL      RTIY_SL      TILX_SL      TILY_SL      ROTA_SL        TOD7            TOJ
#                          SL
~A  
# ...
      53.0    1242.2703       0.0000    -123.6551    -999.2500     -83.5467      42.2955     -81.2383      41.1487     337.4406 1533228893 9999999.9999
      54.0    1257.8265       0.0000    -119.1243    -999.2500     -90.6963      35.1458     -88.3879      33.8437     343.5206 1533228894 9999999.9999
      55.0    1287.7748       0.0000    -113.7782    -999.2500     -97.0427      27.5142     -94.7343      26.0462     350.0303 1533228895 9999999.9999
      56.0    1306.9238       0.0000    -107.3994    -999.2500    -101.8225      19.6415     -99.5141      18.0025     356.1166 1533228896 9999999.9999
      57.0    1334.2030       0.0000    -100.1423      83.7737    -104.1923      11.8893    -101.8839      10.0819       2.2214 1533228897 9999999.9999
      58.0    1357.3842       0.0000     -91.7491      77.8377    -104.5940       3.6953    -102.2856       1.7098       8.3263 1533228898 9999999.9999
      59.0    1375.9785       0.0000     -83.1115      80.0957    -104.3530      -4.6192    -102.0446      -6.7853      14.4250 1533228899 9999999.9999
      60.0    1411.8976       0.0000     -75.1358      91.7508    -103.0275     -12.7730    -100.7191     -15.1163      20.5368 1533228900 9999999.9999
      61.0    1443.7886       0.0000     -68.1465    -999.2500     -99.4928     -20.9268     -97.1844     -23.4473      26.6417 1533228901 9999999.9999
      62.0    1477.1533       0.0000     -62.6010    -999.2500     -94.0703     -28.5183     -91.7619     -31.2037      32.7466 1533228902 9999999.9999
      63.0    1502.4038       0.0000     -57.9099    -999.2500     -87.5232     -35.8287     -85.2148     -38.6729      38.8454 1533228903 9999999.9999
      64.0    1535.2074       0.0000     -53.7626    -999.2500     -80.0120     -42.7373     -77.7036     -45.7317      44.9441 1533228904 9999999.9999
      65.0    1572.9866       0.0000     -49.5772    -999.2500     -70.9745     -49.3648     -68.6661     -52.5032      51.0551 1533228905 9999999.9999
      66.0    1598.0114       0.0000     -42.1657    -999.2500     -55.1890     -58.3622     -52.8806     -61.6960      57.1538 1533228906 9999999.9999
      67.0    1623.8453       0.0000     -36.0263    -999.2500     -47.8385     -75.1920     -45.5301     -78.8915      63.6575 1533228907 9999999.9999
      68.0    1650.5282       0.0000     -31.9327    -999.2500     -40.8093     -83.3860     -38.5009     -87.2635      69.7562 1533228908 9999999.9999
      69.0    1670.1307       0.0000     -27.7049    -999.2500     -33.9007     -89.9332     -31.5923     -93.9529      75.8549 1533228909 9999999.9999
      70.0    1690.2042       0.0000     -22.7937    -999.2500     -26.8313     -94.8737     -24.5229     -99.0008      81.9414 1533228910 9999999.9999
      71.0    1702.4818       0.0000     -17.0186    -999.2500     -19.7218     -97.9263     -17.4134    -102.1198      88.0401 1533228911 9999999.9999
      72.0    1714.9390       0.0000     -10.0199      81.2566     -12.2107     -99.0510      -9.9023    -103.2689      94.1450 1533228912 9999999.9999
      73.0    1719.1321       0.0000      -1.0120      76.8102      -3.2937     -99.0108      -0.9853    -103.2278     100.2498 1533228913 9999999.9999
      74.0    1731.8351       0.0000       7.6970      79.6171       5.2618     -98.6895       7.5702    -102.8995     106.3485 1533228914 9999999.9999
      75.0    1731.8351       0.0000      14.7943      97.3633      12.6927     -97.2837      15.0011    -101.4631     112.4473 1533228915 9999999.9999
      76.0    1723.3456       0.0000      20.7543    -999.2500      19.7218     -94.0703      22.0302     -98.1800     118.5784 1533228916 9999999.9999
      77.0    1719.1321       0.0000      25.8540    -999.2500      26.6305     -89.0897      28.9389     -93.0911     124.6833 1533228917 9999999.9999
      78.0    1706.6141       0.0000      30.2228    -999.2500      33.2580     -82.9442      35.5664     -86.8121     130.7820 1533228918 9999999.9999
      79.0    1690.2042       0.0000      34.3391    -999.2500      39.8855     -75.7543      42.1939     -79.4660     137.2743 1533228919 9999999.9999
      80.0    1674.1072       0.0000      38.6544    -999.2500      46.4327     -66.5160      48.7411     -70.0270     143.3854 1533228920 9999999.9999
      81.0    1650.5282       0.0000      48.8644    -999.2500      65.5118     -50.8108      67.8202     -53.9806     149.4720 1533228921 9999999.9999
      82.0    1627.6041       0.0000      53.1371    -999.2500      75.3125     -44.0628      77.6209     -47.0860     155.5714 1533228922 9999999.9999
      83.0    1605.3082       0.0000      57.0239    -999.2500      83.3860     -37.4353      85.6944     -40.3145     161.6773 1533228923 9999999.9999
      84.0    1576.5134       0.0000      61.0587    -999.2500      89.8930     -30.8078      92.2014     -33.5430     167.7698 1533228924 9999999.9999
      85.0    1544.4811       0.0000      66.0222    -999.2500      94.6829     -23.6180      96.9913     -26.1969     173.8817 1533228925 9999999.9999
      86.0    1512.0968       0.0000      71.9196    -999.2500      98.1272     -16.3077     100.4356     -18.7278     179.9806 1533228926 9999999.9999
      87.0    1480.2632       0.0000      79.1180      85.5113      99.4527      -8.5957     101.7611     -10.8482     186.0861 1533228927 9999999.9999
      88.0    1452.7377       0.0000      87.9292      77.8899      99.9748       0.0402     102.2832      -2.0247     192.1911 1533228928 9999999.9999
      89.0    1423.3300       0.0000      96.3767      79.2919     100.1355       8.1538     102.4439       6.2652     198.2905 1533228929 9999999.9999
      90.0    1395.0892       0.0000     104.1663      95.7117      98.6092      16.0667     100.9176      14.3500     204.3893 1533228930 9999999.9999
      91.0    1370.6140       0.0000     110.8322    -999.2500      94.7130      23.7385      97.0214      22.1885     210.4943 1533228931 9999999.9999
      92.0    1339.2858       0.0000     116.3354    -999.2500      89.2503      31.0488      91.5587      29.6577     217.0042 1533228932 9999999.9999
      93.0    1314.2523       0.0000     121.2634    -999.2500      82.5827      38.4395      84.8911      37.2089     223.1031 1533228933 9999999.9999
      94.0    1294.8895       0.0000     125.8395    -999.2500      74.4690      45.7498      76.7774      44.6781     229.2080 1533228934 9999999.9999
      95.0    1271.4738       0.0000     130.5023    -999.2500      64.5077      52.6585      66.8161      51.7368     235.3130 1533228935 9999999.9999
      96.0    1251.1122       0.0000     139.1472    -999.2500      51.4937      69.4883      53.8021      68.9323     241.4118 1533228936 9999999.9999
      97.0    1235.1779       0.0000     143.2883    -999.2500      44.6754      79.0179      46.9838      78.6689     247.5239 1533228937 9999999.9999
      98.0    1222.8260       0.0000     147.2566    -999.2500      37.6362      86.9608      39.9446      86.7845     253.6166 1533228938 9999999.9999
      99.0    1210.1979       0.0000     151.6618    -999.2500      30.2455      93.8695      32.5539      93.8432     259.7214 1533228939 9999999.9999
     100.0    1197.8279       0.0000     156.9227    -999.2500      22.5335      99.4928      24.8419      99.5888     265.8200 1533228940 9999999.9999
     101.0    1185.7083       0.0000     163.1488    -999.2500      14.8215     103.3087      17.1299     103.4875     271.9186 1533228941 9999999.9999
     102.0    1183.7122       0.0000     170.8294      78.2277       6.6677     104.6743       8.9761     104.8828     278.0233 1533228942 9999999.9999
     103.0    1173.8313       0.0000     179.3147      74.8861      -1.6468     104.9153       0.6616     105.1291     284.1281 1533228943 9999999.9999
     104.0    1177.7638       0.0000    -172.2771      77.2870      -9.8408     104.6342      -7.5324     104.8418     290.6316 1533228944 9999999.9999
     105.0    1171.8750       0.0000    -164.6478      93.1828     -17.9143     101.3807     -15.6059     101.5176     296.7364 1533228945 9999999.9999
