~VERSION INFORMATION
VERS.           2.0   :CWLS Log ASCII Standard - VERSION 2.0
WRAP.           NO    :One Line per depth step
PROD.  Schlumberger   :LAS Producer
PROG.  DLIS to ASCII 19C2-270                          :LAS Program name and version
CREA.        2018/08/03 10:59                          :LAS Creation date {YYYY/MM/DD hh:mm}
DLIS_CREA.  2018-Aug-03 08:58                          :DLIS Creation date and time {YYYY-MMM-DD hh:mm}
SOURCE.     PERFO_Perfo_064PTP.DLIS                    :DLIS File Name
FILE-ID.     PERFO_Perfo_064PTP                        :File Identification Number
#--------------------------------------------------
~WELL INFORMATION
#MNEM.UNIT      DATA             DESCRIPTION
#---- ------ --------------   -----------------------------
STRT .S            0.0       :START TIME      
STOP .S          966.0       :STOP TIME      
STEP .S            1.0       :STEP     
NULL .          -999.25      :NULL VALUE
COMP .        SHELL INTERNATIONAL EP                   :COMPANY
WELL .        WPP TEST 4                               :WELL
FLD  .        WILDCAT                                  :FIELD
LOC  .        NA                                       :LOCATION
CNTY .        HARRIS                                   :COUNTY
STAT .        TEXAS                                    :STATE
CTRY .                                                 :COUNTRY
API  .        NA                                       :API NUMBER
UWI  .                                                 :UNIQUE WELL ID
DATE .        02-Aug-2018                              :LOG DATE {DD-MMM-YYYY}
SRVC .        Schlumberger                             :SERVICE COMPANY
LATI .DEG                                              :LATITUDE
LONG .DEG                                              :LONGITUDE
GDAT .                                                 :GeoDetic Datum
SECT .        NA                                       :Section
RANG .        NA                                       :Range
TOWN .        NA                                       :Township
#-----------------------------------------------------------------------------
~PARAMETER INFORMATION
#MNEM.UNIT    VALUE                      DESCRIPTION
#---- -----   --------------------       ------------------------
U-PHASE_B_COMP_PER_YT.                 0 :Phase B Comparator Period Yt
U-PHASE_A_COMP_PER_XT.                 0 :Phase A Comparator Period Xt
U-MAX_EXC_CUR_LIMIT.MA       265.00000   :Requested CM Current Limit
U-REQ_EXC_FQ.HZ              50          :Requested CM Frequency
U-TILT_Y_OFFSET.          -2.06578       :WPTET Tilt Y Offset
U-TILT_Y_GAIN.           1.02173         :WPTET Tilt Y Gain
U-TILT_X_OFFSET.           2.30841       :WPTET Tilt X Offset
U-TILT_X_GAIN.           1.00000         :WPTET Tilt X Gain
U-TILT_OFFSET_TOL.           0.00100     :WPTET Tilt Offset Calibration Tolerance
U-MOT_CUR_LIMIT_REQ.MA        70.00000   :Requested Motor Current Limit
U-MOT_SPD_REQ_WPMS.RPM        1.00000    :Requested Motor Speed
U-STD_TOL_TILT.           0.01000        :Tilt Standard Deviation Tolerance
CWEI .LB/F      29.00000                 :Casing Weight
CSIZ .IN         7.00000                 :Current Casing Size
LCC  .               440                 :Logging Company Code
LUN  .              2134                 :Logging Unit Number
HIDE .                                   :Header Identifier
HID1 .                                   :Header Identifier Line 1
R1   .                                   :Remark Line 1
WITN .        MR. KELLY McCOY            :Witness's Name
ENGI .        MORRIS MOORE               :Engineer's Name
LUL  .        IOWA COLONY                :Logging Unit Location
DATE .        02-Aug-2018                :Date as Month-Day-Year
STAT .        TEXAS                      :State or Province
COUN .        HARRIS                     :County or Rig Name
FN   .        WILDCAT                    :Field Name
WN   .        WPP TEST 4                 :Well Name
CN   .        SHELL INTERNATIONAL EP     :Company Name
CLAB .        County                     :County/Rig Label
SLAB .        State                      :State/Province Label
RUN  .          1                        :RUN NUMBER
PDAT .        GROUND LEVEL               :Permanent Datum
EPD  .                                   :Elevation of Permanent Datum above Mean Sea Level
LMF  .          NA                       :Logging Measured From (Name of Logging Elevation Reference)
APD  .                                   :Elevation of Depth Reference (LMF) above Permanent Datum
#-----------------------------------------------------------------------------
~CURVE INFORMATION
#MNEM.UNIT   API CODE                                  DESCRIPTION
#---- -----  --------                                  -----------------------
TIME .S                                                :TIME {F10.1}
FREQ_EMF_SL.HZ                                         :Electromagnetic Field Frequency {F13.4}
PH_SH_WPPCM_SL.DEG                                     :WPPCM Phase Shift {F13.4}
RB_SL.DEG                                              :Relative Bearing {F13.4}
SDEV_SL.DEG                                            :Sonde Deviation {F13.4}
RTIX_SL.DEG                                            :Raw X-axis Tilt {F13.4}
RTIY_SL.DEG                                            :Raw Y-axis Tilt {F13.4}
TILX_SL.DEG                                            :X-axis Tilt {F13.4}
TILY_SL.DEG                                            :Y-axis Tilt {F13.4}
ROTA_SL.DEG                                            :Motor Rotation Angle {F13.4}
TOD7 .S                                                :Time of Day {I11}
TOJ  .S                                                :Time of Job {F13.4}
#-----------------------------------------------------------------------------
# 
#     TIME    FREQ_EMF_SL  PH_SH_WPPCM_    RB_SL       SDEV_SL      RTIX_SL      RTIY_SL      TILX_SL      TILY_SL      ROTA_SL        TOD7            TOJ
#                          SL
~A  
       0.0    1065.3409       0.0000     166.7698      83.8791      10.8450     104.3530      13.1534     104.5545     127.7554 1533232004 9999999.9999
       1.0     964.5062       0.0000     172.3517      76.9551       5.1413     104.8752       7.4497     105.0880     132.2345 1533232004 9999999.9999
       2.0     930.0595       0.0000    -179.1449      74.6479      -3.1330     105.1563      -0.8246     105.3753     138.3333 1533232005 9999999.9999
       3.0     926.3834       0.0000    -171.3949      78.0135     -10.7245     104.5137      -8.4161     104.7187     144.4321 1533232006 9999999.9999
       4.0     931.2914       0.0000    -162.8833      94.2950     -19.9227     100.5773     -17.6143     100.6968     150.5371 1533232007 9999999.9999
       5.0     945.0605       0.0000    -156.4853    -999.2500     -27.9962      94.9942     -25.6878      94.9923     156.6421 1533232008 9999999.9999
       6.0     961.8673       0.0000    -151.0515    -999.2500     -35.8688      88.2060     -33.5604      88.0567     162.7409 1533232009 9999999.9999
       7.0     984.7689       0.0000    -146.1929    -999.2500     -43.5808      80.4137     -41.2724      80.0950     168.8397 1533232010 9999999.9999
       8.0    1007.3424       0.0000    -141.6994    -999.2500     -50.6903      71.6975     -48.3819      71.1895     174.9447 1533232011 9999999.9999
       9.0    1040.1257       0.0000    -134.7476    -999.2500     -60.1295      57.8400     -57.8211      57.0309     181.0497 1533232012 9999999.9999
      10.0    1070.2054       0.0000    -128.7495    -999.2500     -73.7058      50.4895     -71.3974      49.5207     187.5542 1533232013 9999999.9999
      11.0    1116.0714       0.0000    -124.5494    -999.2500     -82.1408      43.7817     -79.8324      42.6671     193.6592 1533232014 9999999.9999
      12.0    1160.2722       0.0000    -120.0890    -999.2500     -89.5315      36.6320     -87.2231      35.3621     199.7649 1533232015 9999999.9999
      13.0    1210.1979       0.0000    -114.8517    -999.2500     -96.1590      28.9602     -93.8506      27.5236     205.8638 1533232016 9999999.9999
      14.0    1262.3429       0.0000    -108.7926    -999.2500    -101.2200      21.2482     -98.9116      19.6440     211.9626 1533232017 9999999.9999
      15.0    1321.6636       0.0000    -101.6086      87.8488    -104.1120      13.3755    -101.8036      11.6003     218.0808 1533232018 9999999.9999
      16.0    1406.2500       0.0000     -92.7574      77.7759    -104.8350       4.6593    -102.5266       2.6948     224.1991 1533232019 9999999.9999
      17.0    1489.6716       0.0000     -84.1344      79.0946    -104.6743      -3.6150    -102.3659      -5.7593     230.2979 1533232020 9999999.9999
      18.0    1580.0563       0.0000     -76.0965      90.8847    -103.5898     -11.7287    -101.2814     -14.0493     236.3967 1533232021 9999999.9999
      19.0    1666.1730       0.0000     -69.3284    -999.2500    -100.4970     -19.4407     -98.1886     -21.9288     242.5017 1533232022 9999999.9999
      20.0    1740.4083       0.0000     -63.5053    -999.2500     -95.4360     -27.1928     -93.1276     -29.8494     248.6072 1533232023 9999999.9999
      21.0    1835.8356       0.0000     -58.6094    -999.2500     -88.8888     -34.7040     -86.5804     -37.5238     254.7061 1533232024 9999999.9999
      22.0    1910.6658       0.0000     -54.4444    -999.2500     -81.6588     -41.6528     -79.3504     -44.6236     261.2289 1533232025 9999999.9999
      23.0    1980.6338       0.0000     -50.3915    -999.2500     -73.1033     -48.2803     -70.7949     -51.3951     267.3469 1533232026 9999999.9999
      24.0    2130.6819       0.0000     -45.3992    -999.2500     -61.5353     -54.6668     -59.2269     -57.9204     273.4455 1533232027 9999999.9999
      25.0    2328.2285       0.0000     -36.8714    -999.2500     -49.3247     -73.5853     -47.0163     -77.2499     279.5441 1533232028 9999999.9999
      26.0    2458.4790       0.0000     -32.8803    -999.2500     -42.4562     -82.0203     -40.1478     -85.8682     285.6488 1533232029 9999999.9999
      27.0    2475.7922       0.0000     -28.5031    -999.2500     -35.1458     -89.0495     -32.8374     -93.0501     291.7668 1533232030 9999999.9999
      28.0    2493.3511       0.0000     -23.4416    -999.2500     -27.6748     -94.7532     -25.3664     -98.8777     297.8654 1533232031 9999999.9999
      29.0    2475.7922       0.0000     -17.7691    -999.2500     -20.5653     -97.9665     -18.2569    -102.1608     303.9640 1533232032 9999999.9999
      30.0    2493.3511       0.0000     -10.9281      82.2116     -13.1345     -99.1715     -10.8261    -103.3920     310.0688 1533232033 9999999.9999
      31.0    2475.7922       0.0000      -2.5402      76.6378      -4.7798     -99.3723      -2.4714    -103.5972     316.1488 1533232034 9999999.9999
      32.0    2484.5405       0.0000       6.3790      78.2472       3.9363     -99.1313       6.2447    -103.3510     322.2474 1533232035 9999999.9999
      33.0    2493.3511       0.0000      13.7823      88.4790      11.5680     -97.9263      13.8764    -102.1198     328.3460 1533232036 9999999.9999
      34.0    2484.5405       0.0000      19.9350    -999.2500      18.6775     -94.9540      20.9859     -99.0829     334.8618 1533232037 9999999.9999
      35.0    2493.3511       0.0000      25.0779    -999.2500      25.5058     -90.3348      27.8142     -94.3633     340.9604 1533232038 9999999.9999
      36.0    2475.7922       0.0000      29.5005    -999.2500      32.1333     -84.5107      34.4417     -88.4126     347.0590 1533232039 9999999.9999
      37.0    2441.4063       0.0000      33.6590    -999.2500      38.8412     -77.4413      41.1496     -81.1897     353.1637 1533232040 9999999.9999
      38.0    2290.3093       0.0000      37.8212    -999.2500      45.3482     -68.6448      47.6566     -72.2021     359.2685 1533232041 9999999.9999
      39.0    2156.8252       0.0000      43.5424    -999.2500      48.9632     -51.9757      51.2716     -55.1707       5.3672 1533232042 9999999.9999
      40.0    2008.9286       0.0000      52.7279    -999.2500      74.5493     -44.7858      76.8577     -47.8247      11.4659 1533232043 9999999.9999
      41.0    1921.1066       0.0000      56.5017    -999.2500      82.8237     -38.3592      85.1321     -41.2584      17.5708 1533232044 9999999.9999
      42.0    1850.3290       0.0000      60.5444    -999.2500      89.5717     -31.6112      91.8801     -34.3638      23.6767 1533232045 9999999.9999
      43.0    1766.6456       0.0000      65.2185    -999.2500      94.8335     -24.6623      97.1419     -27.2640      29.7755 1533232046 9999999.9999
      44.0    1694.2772       0.0000      70.7607    -999.2500      98.0067     -17.6332     100.3151     -20.0821      35.8742 1533232047 9999999.9999
      45.0    1616.3793       0.0000      77.6178      84.9239      99.5330     -10.1220     101.8414     -12.4077      41.9921 1533232048 9999999.9999
      46.0    1525.2169       0.0000      86.2128      78.2222     100.0552      -1.6067     102.3636      -3.7074      48.5019 1533232049 9999999.9999
      47.0    1446.7593       0.0000      95.1387      78.4309     100.3363       6.9488     102.6447       5.0340      54.5884 1533232050 9999999.9999
      48.0    1367.9475       0.0000     102.8128      89.6645      99.2920      14.6207     101.6004      12.8726      60.6939 1533232051 9999999.9999
      49.0    1297.2786       0.0000     109.5965    -999.2500      95.9582      22.2122      98.2666      20.6290      66.7988 1533232052 9999999.9999
      50.0    1242.2703       0.0000     115.4005    -999.2500      90.8168      29.7233      93.1252      28.3034      72.9105 1533232053 9999999.9999
      51.0    1187.7112       0.0000     120.3248    -999.2500      84.4303      36.9935      86.7387      35.7315      79.0092 1533232054 9999999.9999
      52.0    1139.5867       0.0000     125.1806    -999.2500      75.9953      44.7457      78.3037      43.6521      85.1141 1533232055 9999999.9999
