~VERSION INFORMATION
VERS.           2.0   :CWLS Log ASCII Standard - VERSION 2.0
WRAP.           NO    :One Line per depth step
PROD.  Schlumberger   :LAS Producer
PROG.  DLIS to ASCII 19C2-270                          :LAS Program name and version
CREA.        2018/08/03 10:59                          :LAS Creation date {YYYY/MM/DD hh:mm}
DLIS_CREA.  2018-Aug-03 09:40                          :DLIS Creation date and time {YYYY-MMM-DD hh:mm}
SOURCE.     PERFO_Perfo_082PTP.DLIS                    :DLIS File Name
FILE-ID.     PERFO_Perfo_082PTP                        :File Identification Number
#--------------------------------------------------
~WELL INFORMATION
#MNEM.UNIT      DATA             DESCRIPTION
#---- ------ --------------   -----------------------------
STRT .S            0.0       :START TIME      
STOP .S          387.0       :STOP TIME      
STEP .S            1.0       :STEP     
NULL .          -999.25      :NULL VALUE
COMP .        SHELL INTERNATIONAL EP                   :COMPANY
WELL .        WPP TEST 4                               :WELL
FLD  .        WILDCAT                                  :FIELD
LOC  .        NA                                       :LOCATION
CNTY .        HARRIS                                   :COUNTY
STAT .        TEXAS                                    :STATE
CTRY .                                                 :COUNTRY
API  .        NA                                       :API NUMBER
UWI  .                                                 :UNIQUE WELL ID
DATE .        02-Aug-2018                              :LOG DATE {DD-MMM-YYYY}
SRVC .        Schlumberger                             :SERVICE COMPANY
LATI .DEG                                              :LATITUDE
LONG .DEG                                              :LONGITUDE
GDAT .                                                 :GeoDetic Datum
SECT .        NA                                       :Section
RANG .        NA                                       :Range
TOWN .        NA                                       :Township
#-----------------------------------------------------------------------------
~PARAMETER INFORMATION
#MNEM.UNIT    VALUE                      DESCRIPTION
#---- -----   --------------------       ------------------------
U-PHASE_B_COMP_PER_YT.                 0 :Phase B Comparator Period Yt
U-PHASE_A_COMP_PER_XT.                 0 :Phase A Comparator Period Xt
U-MAX_EXC_CUR_LIMIT.MA       265.00000   :Requested CM Current Limit
U-REQ_EXC_FQ.HZ              50          :Requested CM Frequency
U-TILT_Y_OFFSET.          -2.06578       :WPTET Tilt Y Offset
U-TILT_Y_GAIN.           1.02173         :WPTET Tilt Y Gain
U-TILT_X_OFFSET.           2.30841       :WPTET Tilt X Offset
U-TILT_X_GAIN.           1.00000         :WPTET Tilt X Gain
U-TILT_OFFSET_TOL.           0.00100     :WPTET Tilt Offset Calibration Tolerance
U-MOT_CUR_LIMIT_REQ.MA        70.00000   :Requested Motor Current Limit
U-MOT_SPD_REQ_WPMS.RPM        1.00000    :Requested Motor Speed
U-STD_TOL_TILT.           0.01000        :Tilt Standard Deviation Tolerance
CWEI .LB/F      29.00000                 :Casing Weight
CSIZ .IN         7.00000                 :Current Casing Size
LCC  .               440                 :Logging Company Code
LUN  .              2134                 :Logging Unit Number
HIDE .                                   :Header Identifier
HID1 .                                   :Header Identifier Line 1
R1   .                                   :Remark Line 1
WITN .        MR. KELLY McCOY            :Witness's Name
ENGI .        MORRIS MOORE               :Engineer's Name
LUL  .        IOWA COLONY                :Logging Unit Location
DATE .        02-Aug-2018                :Date as Month-Day-Year
STAT .        TEXAS                      :State or Province
COUN .        HARRIS                     :County or Rig Name
FN   .        WILDCAT                    :Field Name
WN   .        WPP TEST 4                 :Well Name
CN   .        SHELL INTERNATIONAL EP     :Company Name
CLAB .        County                     :County/Rig Label
SLAB .        State                      :State/Province Label
RUN  .          1                        :RUN NUMBER
PDAT .        GROUND LEVEL               :Permanent Datum
EPD  .                                   :Elevation of Permanent Datum above Mean Sea Level
LMF  .          NA                       :Logging Measured From (Name of Logging Elevation Reference)
APD  .                                   :Elevation of Depth Reference (LMF) above Permanent Datum
#-----------------------------------------------------------------------------
~CURVE INFORMATION
#MNEM.UNIT   API CODE                                  DESCRIPTION
#---- -----  --------                                  -----------------------
TIME .S                                                :TIME {F10.1}
FREQ_EMF_SL.HZ                                         :Electromagnetic Field Frequency {F13.4}
PH_SH_WPPCM_SL.DEG                                     :WPPCM Phase Shift {F13.4}
RB_SL.DEG                                              :Relative Bearing {F13.4}
SDEV_SL.DEG                                            :Sonde Deviation {F13.4}
RTIX_SL.DEG                                            :Raw X-axis Tilt {F13.4}
RTIY_SL.DEG                                            :Raw Y-axis Tilt {F13.4}
TILX_SL.DEG                                            :X-axis Tilt {F13.4}
TILY_SL.DEG                                            :Y-axis Tilt {F13.4}
ROTA_SL.DEG                                            :Motor Rotation Angle {F13.4}
TOD7 .S                                                :Time of Day {I11}
TOJ  .S                                                :Time of Job {F13.4}
#-----------------------------------------------------------------------------
# 
#     TIME    FREQ_EMF_SL  PH_SH_WPPCM_    RB_SL       SDEV_SL      RTIX_SL      RTIY_SL      TILX_SL      TILY_SL      ROTA_SL        TOD7            TOJ
#                          SL
~A  
       0.0       0.0000       0.0000     -39.7070    -999.2500     -54.1045     -67.6005     -51.7961     -71.1350     158.9008 1533245464 9999999.9999
       1.0       0.0000       0.0000     -36.8457    -999.2500     -49.6058     -75.0313     -47.2974     -78.7273     163.3614 1533245464 9999999.9999
       2.0       0.0000       0.0000     -32.8114    -999.2500     -42.4160     -83.8278     -40.1076     -87.7150     169.4664 1533245465 9999999.9999
       3.0       0.0000       0.0000     -28.5758    -999.2500     -35.1860     -90.6562     -32.8776     -94.6917     175.9763 1533245466 9999999.9999
       4.0       0.0000       0.0000     -23.6569    -999.2500     -27.8355     -96.1992     -25.5271    -100.3551     182.0751 1533245467 9999999.9999
       5.0    2416.2371       0.0000     -17.8141    -999.2500     -20.4850     -99.6535     -18.1766    -103.8845     188.1256 1533245468 9999999.9999
       6.0    2156.8252       0.0000     -10.9810      79.2497     -13.0943    -101.0593     -10.7859    -105.3208     194.2305 1533245469 9999999.9999
       7.0    2320.5444       0.0000      -2.4368      74.7449      -4.6593    -101.1798      -2.3509    -105.4440     200.3355 1533245470 9999999.9999
       8.0    2432.9585       0.0000       6.5536      76.2578       4.0568    -100.9388       6.3652    -105.1977     206.4343 1533245471 9999999.9999
       9.0    2493.3511       0.0000      14.5079      87.6385      12.2508     -99.4928      14.5592    -103.7203     212.5332 1533245472 9999999.9999
      10.0    2484.5405       0.0000      20.7243    -999.2500      19.5210     -96.4803      21.8294    -100.6424     218.6258 1533245473 9999999.9999
      11.0    2493.3511       0.0000      25.9795    -999.2500      26.7108     -91.3792      29.0192     -95.4304     224.7308 1533245474 9999999.9999
      12.0    2493.3511       0.0000      30.3808    -999.2500      33.5793     -85.3542      35.8877     -89.2745     230.8296 1533245475 9999999.9999
      13.0    2475.7922       0.0000      34.4631    -999.2500      40.4880     -78.0840      42.7964     -81.8463     236.9477 1533245476 9999999.9999
      14.0    2493.3511       0.0000      38.5544    -999.2500      47.2360     -69.1268      49.5444     -72.6945     243.0526 1533245477 9999999.9999
      15.0    2484.5405       0.0000      46.9606    -999.2500      58.1212     -51.1322      60.4296     -54.3089     249.5564 1533245478 9999999.9999
      16.0    2493.3511       0.0000      52.4381    -999.2500      75.7945     -45.7498      78.1029     -48.8096     255.6614 1533245479 9999999.9999
      17.0    2475.7922       0.0000      56.2042    -999.2500      84.1090     -39.0018      86.4174     -41.9150     261.7477 1533245480 9999999.9999
      18.0    2484.5405       0.0000      60.1832    -999.2500      91.0578     -32.1333      93.3662     -34.8973     267.8524 1533245481 9999999.9999
      19.0    2484.5405       0.0000      64.8631    -999.2500      96.4000     -25.0238      98.7084     -27.6333     273.9510 1533245482 9999999.9999
      20.0    2475.7922       0.0000      70.5114    -999.2500      99.7740     -17.7938     102.0824     -20.2462     280.0497 1533245483 9999999.9999
      21.0    2493.3511       0.0000      77.8845      83.5795     101.3807      -9.7605     103.6891     -12.0383     286.1544 1533245484 9999999.9999
      22.0    2475.7922       0.0000      86.7323      76.2446     101.8225      -1.0845     104.1309      -3.1738     292.2591 1533245485 9999999.9999
      23.0    2493.3511       0.0000      95.5493      76.8527     101.9430       7.3103     104.2514       5.4034     298.3577 1533245486 9999999.9999
      24.0    2458.4790       0.0000     103.5399      86.6755     100.6978      15.3035     103.0062      13.5702     304.4625 1533245487 9999999.9999
      25.0    2367.4243       0.0000     110.4265    -999.2500      96.8418      23.1360      99.1502      21.5729     310.5672 1533245488 9999999.9999
      26.0    2268.1450       0.0000     115.7933    -999.2500      91.2988      30.2455      93.6072      28.8369     316.6658 1533245489 9999999.9999
      27.0    2150.2292       0.0000     121.2254    -999.2500      84.5107      38.4797      86.8191      37.2499     323.1755 1533245490 9999999.9999
      28.0    2008.9286       0.0000     125.6567    -999.2500      76.4372      45.7900      78.7456      44.7191     329.2741 1533245491 9999999.9999
      29.0    1850.3290       0.0000     130.2023    -999.2500      66.6365      52.9798      68.9449      52.0652     335.3788 1533245492 9999999.9999
      30.0    1694.2772       0.0000     138.2039    -999.2500      53.4217      68.1628      55.7301      67.5780     341.4774 1533245493 9999999.9999
      31.0    1521.9155       0.0000     142.3931    -999.2500      46.5532      78.2447      48.8616      77.8789     347.5952 1533245494 9999999.9999
      32.0    1341.8416       0.0000     146.1514    -999.2500      39.6847      86.1977      41.9931      86.0047     353.7000 1533245495 9999999.9999
      33.0    1102.0768       0.0000     150.8552    -999.2500      31.4907      93.9900      33.7991      93.9664     359.7986 1533245496 9999999.9999
      34.0     986.1500       0.0000     156.0220    -999.2500      23.6582     100.0150      25.9666     100.1223       5.8973 1533245497 9999999.9999
      35.0     897.9885       0.0000     162.3235    -999.2500      15.6650     104.2727      17.9734     104.4724      12.0022 1533245498 9999999.9999
      36.0     828.1802       0.0000     169.9255      77.1472       7.5112     106.0400       9.8196     106.2782      18.1071 1533245499 9999999.9999
      37.0     758.4951       0.0000     178.3878      73.4285      -0.7632     106.4015       1.5452     106.6475      24.2058 1533245500 9999999.9999
      38.0     696.1634       0.0000    -173.0404      75.2481      -9.0375     106.0400      -6.7291     106.2782      30.3178 1533245501 9999999.9999
      39.0     645.0688       0.0000    -165.1887      89.6164     -17.2315     102.9472     -14.9231     103.1181      36.8276 1533245502 9999999.9999
      40.0     605.0989       0.0000    -158.3191    -999.2500     -25.5058      97.7255     -23.1974      97.7830      42.9202 1533245503 9999999.9999
      41.0     564.7590       0.0000    -152.5091    -999.2500     -33.6597      91.0980     -31.3513      91.0115      49.0190 1533245504 9999999.9999
      42.0     529.4616       0.0000    -147.5060    -999.2500     -41.5323      83.3860     -39.2239      83.1320      55.1369 1533245505 9999999.9999
      43.0     510.9920       0.0000    -143.0717    -999.2500     -48.8025      75.2322     -46.4941      74.8010      61.2418 1533245506 9999999.9999
      44.0     497.2595       0.0000    -138.2780    -999.2500     -55.9522      65.2307     -53.6438      64.5822      67.3284 1533245507 9999999.9999
      45.0     480.6049       0.0000    -130.2717    -999.2500     -71.0548      53.0602     -68.7464      52.1472      73.4271 1533245508 9999999.9999
      46.0     474.4433       0.0000    -125.9896    -999.2500     -80.0522      46.2720     -77.7438      45.2116      79.5320 1533245509 9999999.9999
      47.0     474.7637       0.0000    -121.7195    -999.2500     -87.6838      39.2428     -85.3754      38.0297      85.6368 1533245510 9999999.9999
      48.0     482.2531       0.0000    -116.7755    -999.2500     -94.7933      31.6513     -92.4849      30.2732      91.7356 1533245511 9999999.9999
      49.0     491.6958       0.0000    -110.7615    -999.2500    -100.7380      23.5778     -98.4296      22.0243      97.8343 1533245512 9999999.9999
      50.0     507.3052       0.0000    -103.6614      85.9454    -104.6743      15.4642    -102.3659      13.7344     103.9522 1533245513 9999999.9999
      51.0     543.3732       0.0000     -95.5340      77.5452    -105.9195       7.3103    -103.6111       5.4034     110.4620 1533245514 9999999.9999
      52.0     591.8561       0.0000     -86.9903      76.5961    -106.0400      -0.8435    -103.7316      -2.9276     116.5607 1533245515 9999999.9999
