~VERSION INFORMATION
VERS.           2.0   :CWLS Log ASCII Standard - VERSION 2.0
WRAP.           NO    :One Line per depth step
PROD.  Schlumberger   :LAS Producer
PROG.  DLIS to ASCII 19C2-270                          :LAS Program name and version
CREA.        2018/08/03 10:59                          :LAS Creation date {YYYY/MM/DD hh:mm}
DLIS_CREA.  2018-Aug-03 08:56                          :DLIS Creation date and time {YYYY-MMM-DD hh:mm}
SOURCE.     PERFO_Perfo_063PTP.DLIS                    :DLIS File Name
FILE-ID.     PERFO_Perfo_063PTP                        :File Identification Number
#--------------------------------------------------
~WELL INFORMATION
#MNEM.UNIT      DATA             DESCRIPTION
#---- ------ --------------   -----------------------------
STRT .S            0.0       :START TIME      
STOP .S          897.0       :STOP TIME      
STEP .S            1.0       :STEP     
NULL .          -999.25      :NULL VALUE
COMP .        SHELL INTERNATIONAL EP                   :COMPANY
WELL .        WPP TEST 4                               :WELL
FLD  .        WILDCAT                                  :FIELD
LOC  .        NA                                       :LOCATION
CNTY .        HARRIS                                   :COUNTY
STAT .        TEXAS                                    :STATE
CTRY .                                                 :COUNTRY
API  .        NA                                       :API NUMBER
UWI  .                                                 :UNIQUE WELL ID
DATE .        02-Aug-2018                              :LOG DATE {DD-MMM-YYYY}
SRVC .        Schlumberger                             :SERVICE COMPANY
LATI .DEG                                              :LATITUDE
LONG .DEG                                              :LONGITUDE
GDAT .                                                 :GeoDetic Datum
SECT .        NA                                       :Section
RANG .        NA                                       :Range
TOWN .        NA                                       :Township
#-----------------------------------------------------------------------------
~PARAMETER INFORMATION
#MNEM.UNIT    VALUE                      DESCRIPTION
#---- -----   --------------------       ------------------------
U-PHASE_B_COMP_PER_YT.                 0 :Phase B Comparator Period Yt
U-PHASE_A_COMP_PER_XT.                 0 :Phase A Comparator Period Xt
U-MAX_EXC_CUR_LIMIT.MA       265.00000   :Requested CM Current Limit
U-REQ_EXC_FQ.HZ              50          :Requested CM Frequency
U-TILT_Y_OFFSET.          -2.06578       :WPTET Tilt Y Offset
U-TILT_Y_GAIN.           1.02173         :WPTET Tilt Y Gain
U-TILT_X_OFFSET.           2.30841       :WPTET Tilt X Offset
U-TILT_X_GAIN.           1.00000         :WPTET Tilt X Gain
U-TILT_OFFSET_TOL.           0.00100     :WPTET Tilt Offset Calibration Tolerance
U-MOT_CUR_LIMIT_REQ.MA        70.00000   :Requested Motor Current Limit
U-MOT_SPD_REQ_WPMS.RPM        1.00000    :Requested Motor Speed
U-STD_TOL_TILT.           0.01000        :Tilt Standard Deviation Tolerance
CWEI .LB/F      29.00000                 :Casing Weight
CSIZ .IN         7.00000                 :Current Casing Size
LCC  .               440                 :Logging Company Code
LUN  .              2134                 :Logging Unit Number
HIDE .                                   :Header Identifier
HID1 .                                   :Header Identifier Line 1
R1   .                                   :Remark Line 1
WITN .        MR. KELLY McCOY            :Witness's Name
ENGI .        MORRIS MOORE               :Engineer's Name
LUL  .        IOWA COLONY                :Logging Unit Location
DATE .        02-Aug-2018                :Date as Month-Day-Year
STAT .        TEXAS                      :State or Province
COUN .        HARRIS                     :County or Rig Name
FN   .        WILDCAT                    :Field Name
WN   .        WPP TEST 4                 :Well Name
CN   .        SHELL INTERNATIONAL EP     :Company Name
CLAB .        County                     :County/Rig Label
SLAB .        State                      :State/Province Label
RUN  .          1                        :RUN NUMBER
PDAT .        GROUND LEVEL               :Permanent Datum
EPD  .                                   :Elevation of Permanent Datum above Mean Sea Level
LMF  .          NA                       :Logging Measured From (Name of Logging Elevation Reference)
APD  .                                   :Elevation of Depth Reference (LMF) above Permanent Datum
#-----------------------------------------------------------------------------
~CURVE INFORMATION
#MNEM.UNIT   API CODE                                  DESCRIPTION
#---- -----  --------                                  -----------------------
TIME .S                                                :TIME {F10.1}
FREQ_EMF_SL.HZ                                         :Electromagnetic Field Frequency {F13.4}
PH_SH_WPPCM_SL.DEG                                     :WPPCM Phase Shift {F13.4}
RB_SL.DEG                                              :Relative Bearing {F13.4}
SDEV_SL.DEG                                            :Sonde Deviation {F13.4}
RTIX_SL.DEG                                            :Raw X-axis Tilt {F13.4}
RTIY_SL.DEG                                            :Raw Y-axis Tilt {F13.4}
TILX_SL.DEG                                            :X-axis Tilt {F13.4}
TILY_SL.DEG                                            :Y-axis Tilt {F13.4}
ROTA_SL.DEG                                            :Motor Rotation Angle {F13.4}
TOD7 .S                                                :Time of Day {I11}
TOJ  .S                                                :Time of Job {F13.4}
#-----------------------------------------------------------------------------
# 
#     TIME    FREQ_EMF_SL  PH_SH_WPPCM_    RB_SL       SDEV_SL      RTIX_SL      RTIY_SL      TILX_SL      TILY_SL      ROTA_SL        TOD7            TOJ
#                          SL
~A  
# ...
     848.0    1199.8721       0.0000      35.9682    -999.2500      42.5365     -72.7017      44.8449     -76.3470     338.9025 1533231803 9999999.9999
     849.0    1214.3783       0.0000      40.6040    -999.2500      48.9632     -62.0977      51.2716     -65.5126     344.9948 1533231804 9999999.9999
     850.0    1229.2395       0.0000      50.7765    -999.2500      70.0507     -47.9590      72.3591     -51.0668     351.0934 1533231805 9999999.9999
     851.0    1251.1122       0.0000      54.7209    -999.2500      79.0078     -41.4118      81.3162     -44.3774     357.1982 1533231806 9999999.9999
     852.0    1273.7772       0.0000      58.5063    -999.2500      86.3985     -34.9450      88.7069     -37.7700       3.3160 1533231807 9999999.9999
     853.0    1299.6765       0.0000      62.8094    -999.2500      92.4637     -28.1167      94.7721     -30.7933       9.4025 1533231808 9999999.9999
     854.0    1321.6636       0.0000      67.8963    -999.2500      96.6410     -21.1277      98.9494     -23.6525      15.5013 1533231809 9999999.9999
     855.0    1357.3842       0.0000      74.5452    -999.2500      98.9707     -13.3755     101.2791     -15.7319      21.6123 1533231810 9999999.9999
     856.0    1381.3850       0.0000      82.4116      80.4668      99.8543      -5.3020     102.1627      -7.4830      27.7110 1533231811 9999999.9999
     857.0    1411.8976       0.0000      91.3308      77.5455     100.2158       3.2937     102.5242       1.2994      33.8098 1533231812 9999999.9999
     858.0    1446.7593       0.0000      99.7930      82.6836      99.8945      11.5278     102.2029       9.7125      39.9085 1533231813 9999999.9999
     859.0    1480.2632       0.0000     106.8063      85.6119      97.6853      18.9587      99.9937      17.3048      46.0264 1533231814 9999999.9999
     860.0    1508.8519       0.0000     113.1095    -999.2500      93.0260      26.6305      95.3344      25.1433      52.1313 1533231815 9999999.9999
     861.0    1541.9408       0.0000     118.3777    -999.2500      87.0412      34.0212      89.3496      32.6946      58.6350 1533231816 9999999.9999
     862.0    1572.9866       0.0000     123.0888    -999.2500      79.8513      41.3717      82.1597      40.2048      64.7399 1533231817 9999999.9999
     863.0    1598.0114       0.0000     127.5706    -999.2500      71.1352      48.5213      73.4436      47.5098      70.8447 1533231818 9999999.9999
     864.0    1631.3805       0.0000     132.7798    -999.2500      58.1613      54.5062      60.4697      53.6247      76.9442 1533231819 9999999.9999
     865.0    1650.5282       0.0000     140.7147    -999.2500      49.0837      73.2640      51.3921      72.7900      83.0560 1533231820 9999999.9999
     866.0    1682.1173       0.0000     144.4715    -999.2500      42.6168      81.7793      44.9252      81.4904      89.1739 1533231821 9999999.9999
     867.0    1694.2772       0.0000     148.7413    -999.2500      35.0655      89.8127      37.3739      89.6983      95.3053 1533231822 9999999.9999
     868.0    1710.7665       0.0000     153.3073    -999.2500      27.6748      96.2795      29.9832      96.3056     101.3795 1533231823 9999999.9999
     869.0    1723.3456       0.0000     159.0557    -999.2500      19.7218     101.3405      22.0302     101.4766     107.4974 1533231824 9999999.9999
     870.0    1731.8351       0.0000     165.6748      88.2338      12.0098     104.2325      14.3182     104.4314     113.5900 1533231825 9999999.9999
     871.0    1740.4083       0.0000     173.8945      75.9965       3.6150     105.0358       5.9234     105.2522     119.6887 1533231826 9999999.9999
     872.0    1731.8351       0.0000    -177.5224      74.8209      -4.6995     105.1563      -2.3911     105.3753     125.7751 1533231827 9999999.9999
     873.0    1731.8351       0.0000    -169.5844      80.2558     -12.5722     104.0317     -10.2638     104.2262     132.2850 1533231828 9999999.9999
     874.0    1723.3456       0.0000    -162.0994      83.6661     -20.8465     100.0552     -18.5381     100.1633     138.3900 1533231829 9999999.9999
     875.0    1714.9390       0.0000    -155.8403    -999.2500     -28.8798      94.3113     -26.5714      94.2947     144.4888 1533231830 9999999.9999
     876.0    1702.4818       0.0000    -150.4762    -999.2500     -36.7525      87.2822     -34.4441      87.1128     150.6007 1533231831 9999999.9999
     877.0    1682.1173       0.0000    -145.7697    -999.2500     -44.2235      79.4095     -41.9151      79.0691     156.6932 1533231832 9999999.9999
     878.0    1662.2340       0.0000    -141.1447    -999.2500     -51.4937      70.4925     -49.1853      69.9583     162.7982 1533231833 9999999.9999
     879.0    1635.1744       0.0000    -132.3976    -999.2500     -65.8332      55.6710     -63.5247      54.8148     168.9101 1533231834 9999999.9999
     880.0    1601.6515       0.0000    -127.9700    -999.2500     -75.3527      49.2845     -73.0443      48.2895     175.0089 1533231835 9999999.9999
     881.0    1583.6149       0.0000    -123.7387    -999.2500     -83.5868      42.4562     -81.2784      41.3128     181.1139 1533231836 9999999.9999
     882.0    1552.1523       0.0000    -119.1217    -999.2500     -90.9373      35.1458     -88.6289      33.8437     187.2188 1533231837 9999999.9999
     883.0    1512.0968       0.0000    -113.8155    -999.2500     -97.2435      27.5543     -94.9351      26.0872     193.3177 1533231838 9999999.9999
     884.0    1480.2632       0.0000    -107.4110    -999.2500    -102.0635      19.6415     -99.7551      18.0025     199.4226 1533231839 9999999.9999
     885.0    1452.7377       0.0000    -100.7517      84.2750    -104.4735      12.4918    -102.1651      10.6975     205.9325 1533231840 9999999.9999
     886.0    1420.4546       0.0000     -91.7085      77.6292    -104.7948       3.6552    -102.4864       1.6688     212.0314 1533231841 9999999.9999
     887.0    1392.3268       0.0000     -83.1043      79.7588    -104.6342      -4.6192    -102.3258      -6.7853     218.1179 1533231842 9999999.9999
     888.0    1362.6454       0.0000     -75.1621      90.3926    -103.2685     -12.7328    -100.9601     -15.0753     224.2361 1533231843 9999999.9999
     889.0    1331.6761       0.0000     -68.5448    -999.2500    -100.1355     -20.4047     -97.8271     -22.9138     230.3411 1533231844 9999999.9999
     890.0    1309.3575       0.0000     -62.8962    -999.2500     -94.7933     -28.0765     -92.4849     -30.7523     236.4399 1533231845 9999999.9999
     891.0    1287.7748       0.0000     -57.8985    -999.2500     -87.8445     -35.8688     -85.5361     -38.7139     242.5388 1533231846 9999999.9999
     892.0    1262.3429       0.0000     -53.8528    -999.2500     -80.3333     -42.6168     -78.0249     -45.6086     248.6443 1533231847 9999999.9999
     893.0    1240.0793       0.0000     -49.6845    -999.2500     -71.4565     -49.3247     -69.1481     -52.4621     254.7493 1533231848 9999999.9999
     894.0    1229.2395       0.0000     -43.7591    -999.2500     -57.3580     -55.5907     -55.0496     -58.8643     260.8480 1533231849 9999999.9999
     895.0       0.0000       0.0000     -36.1911    -999.2500     -48.1598     -75.0313     -45.8514     -78.7273     267.0486 1533231850 9999999.9999
     896.0       0.0000       0.0000     -32.0423    -999.2500     -41.0102     -83.5467     -38.7018     -87.4277     273.1533 1533231851 9999999.9999
     897.0       0.0000       0.0000     -27.7402    -999.2500     -33.9408     -90.2143     -31.6324     -94.2402     279.6446 1533231852 9999999.9999
