~VERSION INFORMATION
VERS.           2.0   :CWLS Log ASCII Standard - VERSION 2.0
WRAP.           NO    :One Line per depth step
PROD.  Schlumberger   :LAS Producer
PROG.  DLIS to ASCII 19C2-270                          :LAS Program name and version
CREA.        2018/08/03 10:59                          :LAS Creation date {YYYY/MM/DD hh:mm}
DLIS_CREA.  2018-Aug-03 08:58                          :DLIS Creation date and time {YYYY-MMM-DD hh:mm}
SOURCE.     PERFO_Perfo_064PTP.DLIS                    :DLIS File Name
FILE-ID.     PERFO_Perfo_064PTP                        :File Identification Number
#--------------------------------------------------
~WELL INFORMATION
#MNEM.UNIT      DATA             DESCRIPTION
#---- ------ --------------   -----------------------------
STRT .S            0.0       :START TIME      
STOP .S          966.0       :STOP TIME      
STEP .S            1.0       :STEP     
NULL .          -999.25      :NULL VALUE
COMP .        SHELL INTERNATIONAL EP                   :COMPANY
WELL .        WPP TEST 4                               :WELL
FLD  .        WILDCAT                                  :FIELD
LOC  .        NA                                       :LOCATION
CNTY .        HARRIS                                   :COUNTY
STAT .        TEXAS                                    :STATE
CTRY .                                                 :COUNTRY
API  .        NA                                       :API NUMBER
UWI  .                                                 :UNIQUE WELL ID
DATE .        02-Aug-2018                              :LOG DATE {DD-MMM-YYYY}
SRVC .        Schlumberger                             :SERVICE COMPANY
LATI .DEG                                              :LATITUDE
LONG .DEG                                              :LONGITUDE
GDAT .                                                 :GeoDetic Datum
SECT .        NA                                       :Section
RANG .        NA                                       :Range
TOWN .        NA                                       :Township
#-----------------------------------------------------------------------------
~PARAMETER INFORMATION
#MNEM.UNIT    VALUE                      DESCRIPTION
#---- -----   --------------------       ------------------------
U-PHASE_B_COMP_PER_YT.                 0 :Phase B Comparator Period Yt
U-PHASE_A_COMP_PER_XT.                 0 :Phase A Comparator Period Xt
U-MAX_EXC_CUR_LIMIT.MA       265.00000   :Requested CM Current Limit
U-REQ_EXC_FQ.HZ              50          :Requested CM Frequency
U-TILT_Y_OFFSET.          -2.06578       :WPTET Tilt Y Offset
U-TILT_Y_GAIN.           1.02173         :WPTET Tilt Y Gain
U-TILT_X_OFFSET.           2.30841       :WPTET Tilt X Offset
U-TILT_X_GAIN.           1.00000         :WPTET Tilt X Gain
U-TILT_OFFSET_TOL.           0.00100     :WPTET Tilt Offset Calibration Tolerance
U-MOT_CUR_LIMIT_REQ.MA        70.00000   :Requested Motor Current Limit
U-MOT_SPD_REQ_WPMS.RPM        1.00000    :Requested Motor Speed
U-STD_TOL_TILT.           0.01000        :Tilt Standard Deviation Tolerance
CWEI .LB/F      29.00000                 :Casing Weight
CSIZ .IN         7.00000                 :Current Casing Size
LCC  .               440                 :Logging Company Code
LUN  .              2134                 :Logging Unit Number
HIDE .                                   :Header Identifier
HID1 .                                   :Header Identifier Line 1
R1   .                                   :Remark Line 1
WITN .        MR. KELLY McCOY            :Witness's Name
ENGI .        MORRIS MOORE               :Engineer's Name
LUL  .        IOWA COLONY                :Logging Unit Location
DATE .        02-Aug-2018                :Date as Month-Day-Year
STAT .        TEXAS                      :State or Province
COUN .        HARRIS                     :County or Rig Name
FN   .        WILDCAT                    :Field Name
WN   .        WPP TEST 4                 :Well Name
CN   .        SHELL INTERNATIONAL EP     :Company Name
CLAB .        County                     :County/Rig Label
SLAB .        State                      :State/Province Label
RUN  .          1                        :RUN NUMBER
PDAT .        GROUND LEVEL               :Permanent Datum
EPD  .                                   :Elevation of Permanent Datum above Mean Sea Level
LMF  .          NA                       :Logging Measured From (Name of Logging Elevation Reference)
APD  .                                   :Elevation of Depth Reference (LMF) above Permanent Datum
#-----------------------------------------------------------------------------
~CURVE INFORMATION
#MNEM.UNIT   API CODE                                  DESCRIPTION
#---- -----  --------                                  -----------------------
TIME .S                                                :TIME {F10.1}
FREQ_EMF_SL.HZ                                         :Electromagnetic Field Frequency {F13.4}
PH_SH_WPPCM_SL.DEG                                     :WPPCM Phase Shift {F13.4}
RB_SL.DEG                                              :Relative Bearing {F13.4}
SDEV_SL.DEG                                            :Sonde Deviation {F13.4}
RTIX_SL.DEG                                            :Raw X-axis Tilt {F13.4}
RTIY_SL.DEG                                            :Raw Y-axis Tilt {F13.4}
TILX_SL.DEG                                            :X-axis Tilt {F13.4}
TILY_SL.DEG                                            :Y-axis Tilt {F13.4}
ROTA_SL.DEG                                            :Motor Rotation Angle {F13.4}
TOD7 .S                                                :Time of Day {I11}
TOJ  .S                                                :Time of Job {F13.4}
#-----------------------------------------------------------------------------
# 
#     TIME    FREQ_EMF_SL  PH_SH_WPPCM_    RB_SL       SDEV_SL      RTIX_SL      RTIY_SL      TILX_SL      TILY_SL      ROTA_SL        TOD7            TOJ
#                          SL
~A  
# ...
     583.0    2484.5405       0.0000     105.5098      97.0345      98.3280      17.5127     100.6364      15.8274     102.0976 1533232586 9999999.9999
     584.0    2493.3511       0.0000     112.0019    -999.2500      94.2712      25.1845      96.5796      23.6659     108.2032 1533232587 9999999.9999
     585.0    2493.3511       0.0000     117.7003    -999.2500      88.0855      33.0170      90.3939      31.6686     114.3081 1533232588 9999999.9999
     586.0    2493.3511       0.0000     122.4857    -999.2500      80.9358      40.4077      83.2442      39.2198     120.4068 1533232589 9999999.9999
     587.0    2493.3511       0.0000     126.9891    -999.2500      72.4205      47.6377      74.7289      46.6069     126.5186 1533232590 9999999.9999
     588.0    2493.3511       0.0000     131.8871    -999.2500      61.4952      54.4660      63.8036      53.5836     132.6235 1533232591 9999999.9999
     589.0    2493.3511       0.0000     140.0625    -999.2500      50.1682      71.8180      52.4766      71.3126     138.7285 1533232592 9999999.9999
     590.0    2484.5405       0.0000     143.8845    -999.2500      43.7013      80.7350      46.0097      80.4234     144.8404 1533232593 9999999.9999
     591.0    2383.4746       0.0000     147.8135    -999.2500      36.6722      88.2462      38.9806      88.0977     151.3442 1533232594 9999999.9999
     592.0    2253.6057       0.0000     152.2647    -999.2500      29.2815      94.9540      31.5899      94.9513     157.4553 1533232595 9999999.9999
     593.0    2130.6819       0.0000     157.7470    -999.2500      21.4088     100.4568      23.7172     100.5737     163.5672 1533232596 9999999.9999
     594.0    2014.6848       0.0000     164.2404      89.0264      13.5763     103.9112      15.8847     104.1031     169.6660 1533232597 9999999.9999
     595.0    1931.6620       0.0000     172.0265      77.1008       5.4627     104.9153       7.7711     105.1291     175.7710 1533232598 9999999.9999
     596.0    1865.0531       0.0000    -179.4361      74.5116      -2.8518     105.2768      -0.5434     105.4984     181.8767 1533232599 9999999.9999
     597.0    1798.2737       0.0000    -170.6359      78.6466     -11.4877     104.4735      -9.1793     104.6776     187.9756 1533232600 9999999.9999
     598.0    1723.3456       0.0000    -163.2251      96.9423     -19.5210     100.8585     -17.2126     100.9841     194.0744 1533232601 9999999.9999
     599.0    1646.6628       0.0000    -156.6610    -999.2500     -27.7552      95.2352     -25.4468      95.2386     200.1794 1533232602 9999999.9999
     600.0    1572.9866       0.0000    -151.1576    -999.2500     -35.7082      88.4470     -33.3998      88.3029     206.2720 1533232603 9999999.9999
     601.0    1496.0106       0.0000    -146.4039    -999.2500     -43.2193      80.6547     -40.9109      80.3413     212.3709 1533232604 9999999.9999
     602.0    1423.3300       0.0000    -141.8484    -999.2500     -50.4092      71.8582     -48.1008      71.3537     218.4697 1533232605 9999999.9999
     603.0    1360.0098       0.0000    -136.0109    -999.2500     -58.0007      59.6073     -55.6923      58.8367     224.9988 1533232606 9999999.9999
     604.0    1292.5093       0.0000    -128.8273    -999.2500     -73.5452      50.6100     -71.2368      49.6438     231.0976 1533232607 9999999.9999
     605.0    1246.6755       0.0000    -124.6321    -999.2500     -81.8998      43.9022     -79.5914      42.7903     237.2095 1533232608 9999999.9999
     606.0    1195.7908       0.0000    -120.1417    -999.2500     -89.4110      36.7123     -87.1026      35.4442     243.3278 1533232609 9999999.9999
     607.0    1152.6639       0.0000    -115.0273    -999.2500     -95.9983      29.2012     -93.6899      27.7698     249.4327 1533232610 9999999.9999
     608.0    1116.0714       0.0000    -108.9647    -999.2500    -101.1598      21.4490     -98.8513      19.8492     255.1205 1533232611 9999999.9999
     609.0    1085.0695       0.0000    -101.3389      86.1573    -104.2727      13.0943    -101.9642      11.3131     261.2191 1533232612 9999999.9999
     610.0    1051.0089       0.0000     -92.9677      77.7419    -104.9153       4.8602    -102.6069       2.9000     267.3239 1533232613 9999999.9999
     611.0    1023.4716       0.0000     -84.2999      79.0080    -104.6743      -3.4543    -102.3659      -5.5952     273.4286 1533232614 9999999.9999
     612.0    1008.7877       0.0000     -76.3574      88.9141    -103.7505     -11.4475    -101.4421     -13.7620     279.5272 1533232615 9999999.9999
     613.0     990.3169       0.0000     -69.4836    -999.2500    -100.7782     -19.2398     -98.4697     -21.7236     285.6258 1533232616 9999999.9999
     614.0     976.5625       0.0000     -63.7570    -999.2500     -95.7172     -26.8313     -93.4088     -29.4801     291.7313 1533232617 9999999.9999
     615.0     968.4918       0.0000     -58.8813    -999.2500     -89.2503     -34.2622     -86.9419     -37.0724     298.2410 1533232618 9999999.9999
     616.0     964.5062       0.0000     -54.6738    -999.2500     -82.0203     -41.2512     -79.7119     -44.2132     304.3402 1533232619 9999999.9999
     617.0     961.8673       0.0000     -50.6185    -999.2500     -73.5853     -47.9188     -71.2769     -51.0258     310.4449 1533232620 9999999.9999
     618.0     971.1672       0.0000     -45.7250    -999.2500     -62.3387     -54.3857     -60.0303     -57.6331     316.5497 1533232621 9999999.9999
     619.0     975.2081       0.0000     -37.0869    -999.2500     -49.6862     -73.1033     -47.3778     -76.7574     322.6483 1533232622 9999999.9999
     620.0     986.1500       0.0000     -33.0185    -999.2500     -42.6972     -81.7793     -40.3888     -85.6219     328.7599 1533232623 9999999.9999
     621.0    1003.0314       0.0000     -28.5571    -999.2500     -35.2262     -89.1298     -32.9178     -93.1322     334.8522 1533232624 9999999.9999
     622.0    1027.9606       0.0000     -23.7639    -999.2500     -28.1167     -94.4720     -25.8083     -98.5904     340.9570 1533232625 9999999.9999
     623.0    1054.1604       0.0000     -18.1869    -999.2500     -21.0473     -97.8862     -18.7389    -102.0787     347.0433 1533232626 9999999.9999
     624.0    1081.7307       0.0000     -11.2869      82.4425     -13.4960     -99.3322     -11.1876    -103.5562     353.1296 1533232627 9999999.9999
     625.0    1125.0000       0.0000      -2.8702      76.6616      -5.1012     -99.4125      -2.7928    -103.6382     359.2344 1533232628 9999999.9999
     626.0    1166.0448       0.0000       6.0149      78.0126       3.5748     -99.1715       5.8832    -103.3920       5.3392 1533232629 9999999.9999
     627.0    1210.1979       0.0000      13.4092      89.3591      11.1663     -98.0067      13.4747    -102.2019      11.8429 1533232630 9999999.9999
     628.0    1266.8918       0.0000      19.6468    -999.2500      18.3160     -95.2352      20.6244     -99.3701      17.9478 1533232631 9999999.9999
     629.0    1326.6509       0.0000      24.8224    -999.2500      25.1443     -90.6160      27.4527     -94.6506      24.0527 1533232632 9999999.9999
     630.0    1392.3268       0.0000      29.2690    -999.2500      31.7718     -84.9525      34.0802     -88.8641      30.1515 1533232633 9999999.9999
     631.0    1470.9729       0.0000      33.3446    -999.2500      38.3190     -77.9635      40.6274     -81.7232      36.2563 1533232634 9999999.9999
     632.0    1548.7335       0.0000      37.5731    -999.2500      44.9867     -69.2072      47.2951     -72.7766      42.3551 1533232635 9999999.9999
     633.0    1635.1744       0.0000      43.5515    -999.2500      49.1640     -52.1765      51.4724     -55.3759      48.4477 1533232636 9999999.9999
     634.0    1702.4818       0.0000      52.4908    -999.2500      74.1878     -45.2277      76.4962     -48.2761      54.5349 1533232637 9999999.9999
     635.0    1780.0632       0.0000      56.2958    -999.2500      82.5023     -38.7207      84.8107     -41.6277      60.6337 1533232638 9999999.9999
