~VERSION INFORMATION
VERS.           2.0   :CWLS Log ASCII Standard - VERSION 2.0
WRAP.           NO    :One Line per depth step
PROD.  Schlumberger   :LAS Producer
PROG.  DLIS to ASCII 19C2-270                          :LAS Program name and version
CREA.        2018/08/03 10:59                          :LAS Creation date {YYYY/MM/DD hh:mm}
DLIS_CREA.  2018-Aug-03 08:56                          :DLIS Creation date and time {YYYY-MMM-DD hh:mm}
SOURCE.     PERFO_Perfo_063PTP.DLIS                    :DLIS File Name
FILE-ID.     PERFO_Perfo_063PTP                        :File Identification Number
#--------------------------------------------------
~WELL INFORMATION
#MNEM.UNIT      DATA             DESCRIPTION
#---- ------ --------------   -----------------------------
STRT .S            0.0       :START TIME      
STOP .S          897.0       :STOP TIME      
STEP .S            1.0       :STEP     
NULL .          -999.25      :NULL VALUE
COMP .        SHELL INTERNATIONAL EP                   :COMPANY
WELL .        WPP TEST 4                               :WELL
FLD  .        WILDCAT                                  :FIELD
LOC  .        NA                                       :LOCATION
CNTY .        HARRIS                                   :COUNTY
STAT .        TEXAS                                    :STATE
CTRY .                                                 :COUNTRY
API  .        NA                                       :API NUMBER
UWI  .                                                 :UNIQUE WELL ID
DATE .        02-Aug-2018                              :LOG DATE {DD-MMM-YYYY}
SRVC .        Schlumberger                             :SERVICE COMPANY
LATI .DEG                                              :LATITUDE
LONG .DEG                                              :LONGITUDE
GDAT .                                                 :GeoDetic Datum
SECT .        NA                                       :Section
RANG .        NA                                       :Range
TOWN .        NA                                       :Township
#-----------------------------------------------------------------------------
~PARAMETER INFORMATION
#MNEM.UNIT    VALUE                      DESCRIPTION
#---- -----   --------------------       ------------------------
U-PHASE_B_COMP_PER_YT.                 0 :Phase B Comparator Period Yt
U-PHASE_A_COMP_PER_XT.                 0 :Phase A Comparator Period Xt
U-MAX_EXC_CUR_LIMIT.MA       265.00000   :Requested CM Current Limit
U-REQ_EXC_FQ.HZ              50          :Requested CM Frequency
U-TILT_Y_OFFSET.          -2.06578       :WPTET Tilt Y Offset
U-TILT_Y_GAIN.           1.02173         :WPTET Tilt Y Gain
U-TILT_X_OFFSET.           2.30841       :WPTET Tilt X Offset
U-TILT_X_GAIN.           1.00000         :WPTET Tilt X Gain
U-TILT_OFFSET_TOL.           0.00100     :WPTET Tilt Offset Calibration Tolerance
U-MOT_CUR_LIMIT_REQ.MA        70.00000   :Requested Motor Current Limit
U-MOT_SPD_REQ_WPMS.RPM        1.00000    :Requested Motor Speed
U-STD_TOL_TILT.           0.01000        :Tilt Standard Deviation Tolerance
CWEI .LB/F      29.00000                 :Casing Weight
CSIZ .IN         7.00000                 :Current Casing Size
LCC  .               440                 :Logging Company Code
LUN  .              2134                 :Logging Unit Number
HIDE .                                   :Header Identifier
HID1 .                                   :Header Identifier Line 1
R1   .                                   :Remark Line 1
WITN .        MR. KELLY McCOY            :Witness's Name
ENGI .        MORRIS MOORE               :Engineer's Name
LUL  .        IOWA COLONY                :Logging Unit Location
DATE .        02-Aug-2018                :Date as Month-Day-Year
STAT .        TEXAS                      :State or Province
COUN .        HARRIS                     :County or Rig Name
FN   .        WILDCAT                    :Field Name
WN   .        WPP TEST 4                 :Well Name
CN   .        SHELL INTERNATIONAL EP     :Company Name
CLAB .        County                     :County/Rig Label
SLAB .        State                      :State/Province Label
RUN  .          1                        :RUN NUMBER
PDAT .        GROUND LEVEL               :Permanent Datum
EPD  .                                   :Elevation of Permanent Datum above Mean Sea Level
LMF  .          NA                       :Logging Measured From (Name of Logging Elevation Reference)
APD  .                                   :Elevation of Depth Reference (LMF) above Permanent Datum
#-----------------------------------------------------------------------------
~CURVE INFORMATION
#MNEM.UNIT   API CODE                                  DESCRIPTION
#---- -----  --------                                  -----------------------
TIME .S                                                :TIME {F10.1}
FREQ_EMF_SL.HZ                                         :Electromagnetic Field Frequency {F13.4}
PH_SH_WPPCM_SL.DEG                                     :WPPCM Phase Shift {F13.4}
RB_SL.DEG                                              :Relative Bearing {F13.4}
SDEV_SL.DEG                                            :Sonde Deviation {F13.4}
RTIX_SL.DEG                                            :Raw X-axis Tilt {F13.4}
RTIY_SL.DEG                                            :Raw Y-axis Tilt {F13.4}
TILX_SL.DEG                                            :X-axis Tilt {F13.4}
TILY_SL.DEG                                            :Y-axis Tilt {F13.4}
ROTA_SL.DEG                                            :Motor Rotation Angle {F13.4}
TOD7 .S                                                :Time of Day {I11}
TOJ  .S                                                :Time of Job {F13.4}
#-----------------------------------------------------------------------------
# 
#     TIME    FREQ_EMF_SL  PH_SH_WPPCM_    RB_SL       SDEV_SL      RTIX_SL      RTIY_SL      TILX_SL      TILY_SL      ROTA_SL        TOD7            TOJ
#                          SL
~A  
       0.0    2020.4741       0.0000     -25.4427    -999.2500     -30.4865     -92.9055     -28.1781     -96.9899     217.0083 1533230956 9999999.9999
       1.0    2003.2051       0.0000     -25.5299    -999.2500     -30.6070     -92.9055     -28.2986     -96.9899     217.0083 1533230956 9999999.9999
       2.0    2003.2051       0.0000     -25.5009    -999.2500     -30.5668     -92.9055     -28.2584     -96.9899     217.0083 1533230957 9999999.9999
       3.0    1991.8556       0.0000     -25.4699    -999.2500     -30.5267     -92.8653     -28.2183     -96.9488     217.0083 1533230958 9999999.9999
       4.0    3004.8076       0.0000     -25.4389    -999.2500     -30.4865     -92.8252     -28.1781     -96.9078     217.0083 1533230959 9999999.9999
       5.0    2003.2051       0.0000     -25.4680    -999.2500     -30.5267     -92.8252     -28.2183     -96.9078     217.0083 1533230960 9999999.9999
       6.0    2003.2051       0.0000     -25.4951    -999.2500     -30.5668     -92.7850     -28.2584     -96.8667     217.4882 1533230961 9999999.9999
       7.0    2008.9286       0.0000     -22.3572    -999.2500     -26.2288     -95.5163     -23.9204     -99.6574     221.4300 1533230962 9999999.9999
       8.0    2026.2969       0.0000     -16.3580    -999.2500     -18.9587     -98.3280     -16.6503    -102.5302     227.1509 1533230963 9999999.9999
       9.0    2049.9270       0.0000      -9.3142      80.2775     -11.4877     -99.2117      -9.1793    -103.4330     233.2497 1533230964 9999999.9999
      10.0    2043.9680       0.0000      -0.5589      76.4962      -2.8518     -99.2920      -0.5434    -103.5151     239.3556 1533230965 9999999.9999
      11.0    2055.9211       0.0000       8.1816      79.8336       5.7438     -98.8100       8.0522    -103.0226     245.4606 1533230966 9999999.9999
      12.0    2043.9680       0.0000      15.1655      92.0497      13.0943     -97.3238      15.4027    -101.5042     251.5594 1533230967 9999999.9999
      13.0    2032.1531       0.0000      21.1088    -999.2500      20.1637     -93.9498      22.4721     -98.0569     257.6582 1533230968 9999999.9999
      14.0    2014.6848       0.0000      26.0529    -999.2500      26.9117     -89.0897      29.2201     -93.0911     264.1740 1533230969 9999999.9999
      15.0    1980.6338       0.0000      30.3670    -999.2500      33.4990     -83.0245      35.8074     -86.8942     270.2726 1533230970 9999999.9999
      16.0    1953.1250       0.0000      34.4697    -999.2500      40.1265     -75.6740      42.4349     -79.3840     276.3712 1533230971 9999999.9999
      17.0    1921.1066       0.0000      38.7669    -999.2500      46.7138     -66.5562      49.0222     -70.0680     282.4760 1533230972 9999999.9999
      18.0    1885.0536       0.0000      49.1732    -999.2500      66.4758     -50.4895      68.7842     -53.6523     288.5684 1533230973 9999999.9999
      19.0    1831.0547       0.0000      53.2521    -999.2500      75.7142     -43.9022      78.0226     -46.9218     294.6670 1533230974 9999999.9999
      20.0    1775.5682       0.0000      57.2264    -999.2500      84.1893     -37.1140      86.4977     -39.9862     300.7656 1533230975 9999999.9999
      21.0    1719.1321       0.0000      61.3641    -999.2500      90.4955     -30.3258      92.8039     -33.0505     306.8704 1533230976 9999999.9999
      22.0    1658.3137       0.0000      66.2600    -999.2500      95.5565     -23.2565      97.8649     -25.8276     312.9761 1533230977 9999999.9999
      23.0    1598.0114       0.0000      71.9823    -999.2500      98.2878     -16.2273     100.5962     -18.6457     319.0624 1533230978 9999999.9999
      24.0    1538.5668       0.0000      79.3090      84.6028      99.6535      -8.3948     101.9619     -10.6430     325.1741 1533230979 9999999.9999
      25.0    1467.9019       0.0000      87.9705      77.8016     100.0552       0.0803     102.3636      -1.9837     331.2798 1533230980 9999999.9999
      26.0    1417.5908       0.0000      96.7930      79.3575     100.2962       8.5555     102.6046       6.6756     337.7905 1533230981 9999999.9999
      27.0    1357.3842       0.0000     104.3962      94.9191      98.6493      16.3077     100.9577      14.5962     343.8899 1533230982 9999999.9999
      28.0    1306.9238       0.0000     111.0358    -999.2500      94.7933      23.9795      97.1017      22.4347     349.9955 1533230983 9999999.9999
      29.0    1260.0807       0.0000     116.5073    -999.2500      89.2905      31.2898      91.5989      29.9039     356.0880 1533230984 9999999.9999
      30.0    1212.2845       0.0000     121.3830    -999.2500      82.5827      38.6403      84.8911      37.4141       2.1997 1533230985 9999999.9999
      31.0    1175.7943       0.0000     125.9092    -999.2500      74.5493      45.9105      76.8577      44.8422       8.3107 1533230986 9999999.9999
      32.0    1132.2463       0.0000     130.9465    -999.2500      63.6240      53.3012      65.9324      52.3935      14.4033 1533230987 9999999.9999
      33.0    1103.8069       0.0000     139.4021    -999.2500      51.1723      70.2113      53.4807      69.6711      20.5212 1533230988 9999999.9999
      34.0    1073.4733       0.0000     143.4499    -999.2500      44.4243      79.5300      46.7327      79.1922      26.6208 1533230989 9999999.9999
      35.0    1049.4403       0.0000     147.2845    -999.2500      37.5960      87.2018      39.9044      87.0307      32.7195 1533230990 9999999.9999
      36.0    1029.4656       0.0000     151.6594    -999.2500      30.2455      93.9498      32.5539      93.9253      38.8244 1533230991 9999999.9999
      37.0    1008.7877       0.0000     156.8838    -999.2500      22.5737      99.6133      24.8821      99.7119      44.9170 1533230992 9999999.9999
      38.0     994.5190       0.0000     163.2130    -999.2500      14.7412     103.4292      17.0496     103.6106      51.4338 1533230993 9999999.9999
      39.0     986.1500       0.0000     170.8660      78.0952       6.6275     104.7547       8.9359     104.9649      57.5386 1533230994 9999999.9999
      40.0     977.9207       0.0000     179.1891      74.6867      -1.5263     105.1162       0.7821     105.3343      63.6435 1533230995 9999999.9999
      41.0     975.2081       0.0000    -172.1529      77.2657      -9.9613     104.7145      -7.6529     104.9239      69.7422 1533230996 9999999.9999
      42.0     977.9207       0.0000    -164.7084      91.7674     -17.8340     101.6217     -15.5256     101.7638      75.8542 1533230997 9999999.9999
      43.0     982.0181       0.0000    -157.9616    -999.2500     -26.0280      96.4000     -23.7196      96.4287      81.9591 1533230998 9999999.9999
      44.0     997.3405       0.0000    -152.1967    -999.2500     -34.1316      89.7122     -31.8232      89.5957      88.0639 1533230999 9999999.9999
      45.0    1011.6906       0.0000    -147.0540    -999.2500     -42.1750      81.8195     -39.8666      81.5314      93.7452 1533231000 9999999.9999
      46.0    1032.4890       0.0000    -142.5177    -999.2500     -49.4050      73.2640     -47.0966      72.7900      99.8501 1533231001 9999999.9999
      47.0    1054.1604       0.0000    -137.4339    -999.2500     -56.4342      62.6198     -54.1258      61.9146     105.9549 1533231002 9999999.9999
      48.0    1081.7307       0.0000    -129.5665    -999.2500     -71.8983      51.6945     -69.5899      50.7519     112.0412 1533231003 9999999.9999
      49.0    1119.6259       0.0000    -125.2534    -999.2500     -80.6948      44.9063     -78.3864      43.8162     118.1530 1533231004 9999999.9999
      50.0    1150.7773       0.0000    -120.7639    -999.2500     -88.3265      37.6763     -86.0181      36.4292     124.6628 1533231005 9999999.9999
      51.0    1191.7373       0.0000    -115.8900    -999.2500     -94.9942      30.4062     -92.6858      29.0010     130.7677 1533231006 9999999.9999
      52.0    1235.7206       0.0000    -109.9684    -999.2500    -100.4568      22.6540     -98.1484      21.0804     136.8665 1533231007 9999999.9999
