~VERSION INFORMATION
VERS.           2.0   :CWLS Log ASCII Standard - VERSION 2.0
WRAP.           NO    :One Line per depth step
PROD.  Schlumberger   :LAS Producer
PROG.  DLIS to ASCII 19C2-270                          :LAS Program name and version
CREA.        2018/08/03 10:59                          :LAS Creation date {YYYY/MM/DD hh:mm}
DLIS_CREA.  2018-Aug-03 08:48                          :DLIS Creation date and time {YYYY-MMM-DD hh:mm}
SOURCE.     PERFO_Perfo_061PTP.DLIS                    :DLIS File Name
FILE-ID.     PERFO_Perfo_061PTP                        :File Identification Number
#--------------------------------------------------
~WELL INFORMATION
#MNEM.UNIT      DATA             DESCRIPTION
#---- ------ --------------   -----------------------------
STRT .S            0.0       :START TIME      
STOP .S          993.0       :STOP TIME      
STEP .S            1.0       :STEP     
NULL .          -999.25      :NULL VALUE
COMP .        SHELL INTERNATIONAL EP                   :COMPANY
WELL .        WPP TEST 4                               :WELL
FLD  .        WILDCAT                                  :FIELD
LOC  .        NA                                       :LOCATION
CNTY .        HARRIS                                   :COUNTY
STAT .        TEXAS                                    :STATE
CTRY .                                                 :COUNTRY
API  .        NA                                       :API NUMBER
UWI  .                                                 :UNIQUE WELL ID
DATE .        02-Aug-2018                              :LOG DATE {DD-MMM-YYYY}
SRVC .        Schlumberger                             :SERVICE COMPANY
LATI .DEG                                              :LATITUDE
LONG .DEG                                              :LONGITUDE
GDAT .                                                 :GeoDetic Datum
SECT .        NA                                       :Section
RANG .        NA                                       :Range
TOWN .        NA                                       :Township
#-----------------------------------------------------------------------------
~PARAMETER INFORMATION
#MNEM.UNIT    VALUE                      DESCRIPTION
#---- -----   --------------------       ------------------------
U-PHASE_B_COMP_PER_YT.                 0 :Phase B Comparator Period Yt
U-PHASE_A_COMP_PER_XT.                 0 :Phase A Comparator Period Xt
U-MAX_EXC_CUR_LIMIT.MA       265.00000   :Requested CM Current Limit
U-REQ_EXC_FQ.HZ              50          :Requested CM Frequency
U-TILT_Y_OFFSET.          -2.06578       :WPTET Tilt Y Offset
U-TILT_Y_GAIN.           1.02173         :WPTET Tilt Y Gain
U-TILT_X_OFFSET.           2.30841       :WPTET Tilt X Offset
U-TILT_X_GAIN.           1.00000         :WPTET Tilt X Gain
U-TILT_OFFSET_TOL.           0.00100     :WPTET Tilt Offset Calibration Tolerance
U-MOT_CUR_LIMIT_REQ.MA        70.00000   :Requested Motor Current Limit
U-MOT_SPD_REQ_WPMS.RPM        1.00000    :Requested Motor Speed
U-STD_TOL_TILT.           0.01000        :Tilt Standard Deviation Tolerance
CWEI .LB/F      29.00000                 :Casing Weight
CSIZ .IN         7.00000                 :Current Casing Size
LCC  .               440                 :Logging Company Code
LUN  .              2134                 :Logging Unit Number
HIDE .                                   :Header Identifier
HID1 .                                   :Header Identifier Line 1
R1   .                                   :Remark Line 1
WITN .        MR. KELLY McCOY            :Witness's Name
ENGI .        MORRIS MOORE               :Engineer's Name
LUL  .        IOWA COLONY                :Logging Unit Location
DATE .        02-Aug-2018                :Date as Month-Day-Year
STAT .        TEXAS                      :State or Province
COUN .        HARRIS                     :County or Rig Name
FN   .        WILDCAT                    :Field Name
WN   .        WPP TEST 4                 :Well Name
CN   .        SHELL INTERNATIONAL EP     :Company Name
CLAB .        County                     :County/Rig Label
SLAB .        State                      :State/Province Label
RUN  .          1                        :RUN NUMBER
PDAT .        GROUND LEVEL               :Permanent Datum
EPD  .                                   :Elevation of Permanent Datum above Mean Sea Level
LMF  .          NA                       :Logging Measured From (Name of Logging Elevation Reference)
APD  .                                   :Elevation of Depth Reference (LMF) above Permanent Datum
#-----------------------------------------------------------------------------
~CURVE INFORMATION
#MNEM.UNIT   API CODE                                  DESCRIPTION
#---- -----  --------                                  -----------------------
TIME .S                                                :TIME {F10.1}
FREQ_EMF_SL.HZ                                         :Electromagnetic Field Frequency {F13.4}
PH_SH_WPPCM_SL.DEG                                     :WPPCM Phase Shift {F13.4}
RB_SL.DEG                                              :Relative Bearing {F13.4}
SDEV_SL.DEG                                            :Sonde Deviation {F13.4}
RTIX_SL.DEG                                            :Raw X-axis Tilt {F13.4}
RTIY_SL.DEG                                            :Raw Y-axis Tilt {F13.4}
TILX_SL.DEG                                            :X-axis Tilt {F13.4}
TILY_SL.DEG                                            :Y-axis Tilt {F13.4}
ROTA_SL.DEG                                            :Motor Rotation Angle {F13.4}
TOD7 .S                                                :Time of Day {I11}
TOJ  .S                                                :Time of Job {F13.4}
#-----------------------------------------------------------------------------
# 
#     TIME    FREQ_EMF_SL  PH_SH_WPPCM_    RB_SL       SDEV_SL      RTIX_SL      RTIY_SL      TILX_SL      TILY_SL      ROTA_SL        TOD7            TOJ
#                          SL
~A  
# ...
     742.0    1616.3793       0.0000      94.3456      78.2425     100.2158       6.1857     102.5242       4.2543     243.9333 1533229582 9999999.9999
     743.0    1638.9860       0.0000     102.1500      87.3929      99.2920      13.9378     101.6004      12.1749     250.0260 1533229583 9999999.9999
     744.0    1638.9860       0.0000     109.0184    -999.2500      96.1992      21.5293      98.5076      19.9313     256.1248 1533229584 9999999.9999
     745.0    1658.3137       0.0000     114.6961    -999.2500      91.3390      28.7593      93.6474      27.3184     262.6345 1533229585 9999999.9999
     746.0    1654.4117       0.0000     119.9415    -999.2500      84.7517      36.3910      87.0601      35.1159     268.7393 1533229586 9999999.9999
     747.0    1654.4117       0.0000     124.4307    -999.2500      77.2003      43.5005      79.5087      42.3799     274.8256 1533229587 9999999.9999
     748.0       0.0000       0.0000     129.2451    -999.2500      67.3997      50.9715      69.7081      50.0132     281.0070 1533229588 9999999.9999
     749.0       0.0000       0.0000     137.9308    -999.2500      53.2208      66.5963      55.5292      65.9775     287.1118 1533229589 9999999.9999
     750.0       0.0000       0.0000     141.9922    -999.2500      46.9548      76.2363      49.2632      75.8270     293.2296 1533229590 9999999.9999
     751.0       0.0000       0.0000     146.0347    -999.2500      39.8052      84.7918      42.1136      84.5683     299.3282 1533229591 9999999.9999
     752.0       0.0000       0.0000     150.1742    -999.2500      32.6555      91.7407      34.9639      91.6682     305.4153 1533229592 9999999.9999
     753.0       0.0000       0.0000     155.2650    -999.2500      24.8230      98.0870      27.1314      98.1524     311.5333 1533229593 9999999.9999
     754.0       0.0000       0.0000     161.1906    -999.2500      17.1110     102.3848      19.4194     102.5436     317.6258 1533229594 9999999.9999
     755.0       0.0000       0.0000     168.5416      80.6993       8.9973     104.5137      11.3057     104.7187     323.7244 1533229595 9999999.9999
     756.0       0.0000       0.0000     176.4910      75.2320       1.0845     104.9555       3.3929     105.1701     329.8230 1533229596 9999999.9999
     757.0       0.0000       0.0000    -174.8381      75.7157      -7.3103     104.9555      -5.0019     105.1701     336.3388 1533229597 9999999.9999
     758.0       0.0000       0.0000    -167.1555      87.7542     -15.1428     102.8668     -12.8344     103.0361     342.4504 1533229598 9999999.9999
     759.0       0.0000       0.0000    -159.7487    -999.2500     -23.7385      97.9263     -21.4301      97.9882     348.5490 1533229599 9999999.9999
     760.0       0.0000       0.0000    -153.8007    -999.2500     -31.7718      91.6202     -29.4634      91.5450     354.6538 1533229600 9999999.9999
     761.0       0.0000       0.0000    -148.8519    -999.2500     -39.2830      84.5910     -36.9746      84.3631       0.7585 1533229601 9999999.9999
     762.0       0.0000       0.0000    -144.2599    -999.2500     -46.6335      76.5577     -44.3251      76.1553       6.8337 1533229602 9999999.9999
     763.0       0.0000       0.0000    -138.7703    -999.2500     -54.7873      65.4717     -52.4789      64.8284      12.9386 1533229603 9999999.9999
     764.0       0.0000       0.0000    -131.0268    -999.2500     -68.7252      53.7832     -66.4168      52.8859      19.0504 1533229604 9999999.9999
     765.0       0.0000       0.0000    -126.5705    -999.2500     -77.9635      46.9950     -75.6551      45.9503      25.1553 1533229605 9999999.9999
     766.0       0.0000       0.0000    -122.2837    -999.2500     -85.9165      40.0863     -83.6081      38.8915      31.2541 1533229606 9999999.9999
     767.0       0.0000       0.0000    -117.2883    -999.2500     -93.1063      32.4145     -90.7979      31.0530      37.3528 1533229607 9999999.9999
     768.0       0.0000       0.0000    -111.7098    -999.2500     -98.9305      24.8230     -96.6221      23.2966      43.4577 1533229608 9999999.9999
     769.0       0.0000       0.0000    -105.2070    -999.2500    -102.8668      17.1913    -100.5584      15.4991      49.9675 1533229609 9999999.9999
     770.0       0.0000       0.0000     -97.6030      80.4238    -104.5137       9.3588    -102.2053       7.4964      56.0793 1533229610 9999999.9999
     771.0       0.0000       0.0000     -88.8521      77.7673    -104.5940       0.9238    -102.2856      -1.1219      62.1842 1533229611 9999999.9999
     772.0       0.0000       0.0000     -80.2301      83.1304    -104.2325      -7.4710    -101.9241      -9.6991      68.2890 1533229612 9999999.9999
     773.0       0.0000       0.0000     -72.8762      86.3773    -102.3447     -15.2633    -100.0363     -17.6607      74.3877 1533229613 9999999.9999
     774.0       0.0000       0.0000     -66.5615    -999.2500     -98.3280     -22.9753     -96.0196     -25.5403      80.4864 1533229614 9999999.9999
     775.0       0.0000       0.0000     -60.9980    -999.2500     -92.1825     -30.9283     -89.8741     -33.6661      86.6174 1533229615 9999999.9999
     776.0       0.0000       0.0000     -56.6781    -999.2500     -85.6353     -37.8772     -83.3269     -40.7659      92.7353 1533229616 9999999.9999
     777.0       0.0000       0.0000     -52.6026    -999.2500     -77.5217     -44.6252     -75.2132     -47.6605      98.8341 1533229617 9999999.9999
     778.0       0.0000       0.0000     -48.2823    -999.2500     -68.0825     -51.2125     -65.7741     -54.3910     104.9328 1533229618 9999999.9999
     779.0       0.0000       0.0000     -39.1055    -999.2500     -52.7388     -67.9620     -50.4304     -71.5044     111.0507 1533229619 9999999.9999
     780.0       0.0000       0.0000     -34.9500    -999.2500     -45.9908     -77.4413     -43.6824     -81.1897     117.1688 1533229620 9999999.9999
     781.0       0.0000       0.0000     -30.7894    -999.2500     -38.8813     -85.5550     -36.5729     -89.4797     123.6725 1533229621 9999999.9999
     782.0       0.0000       0.0000     -26.5760    -999.2500     -32.1735     -91.4193     -29.8651     -95.4714     129.7773 1533229622 9999999.9999
     783.0       0.0000       0.0000     -20.9756    -999.2500     -24.4615     -96.2393     -22.1531    -100.3961     135.8823 1533229623 9999999.9999
     784.0       0.0000       0.0000     -14.9057    -999.2500     -17.3520     -98.6092     -15.0436    -102.8174     141.9954 1533229624 9999999.9999
     785.0       0.0000       0.0000      -7.3940      78.7537      -9.5597     -99.2117      -7.2513    -103.4330     148.0817 1533229625 9999999.9999
     786.0       0.0000       0.0000       1.4639      76.7281      -0.8837     -99.1313       1.4247    -103.3510     154.2000 1533229626 9999999.9999
     787.0       0.0000       0.0000      10.4251      82.7890       8.0333     -98.4485      10.3417    -102.6533     160.3049 1533229627 9999999.9999
     788.0       0.0000       0.0000      17.0761      86.3068      15.2633     -96.4803      17.5717    -100.6424     166.4037 1533229628 9999999.9999
     789.0       0.0000       0.0000      22.7938    -999.2500      22.3728     -92.3833      24.6812     -96.4563     172.4903 1533229629 9999999.9999
     790.0       0.0000       0.0000      27.4631    -999.2500      29.0003     -87.1617      31.3087     -91.1212     178.6083 1533229630 9999999.9999
     791.0       0.0000       0.0000      31.5347    -999.2500      35.3467     -80.7752      37.6551     -84.5960     184.7133 1533229631 9999999.9999
     792.0       0.0000       0.0000      35.7851    -999.2500      42.1750     -72.7820      44.4834     -76.4291     190.8121 1533229632 9999999.9999
     793.0       0.0000       0.0000      40.2321    -999.2500      48.4410     -62.8207      50.7494     -66.2514     197.3282 1533229633 9999999.9999
     794.0       0.0000       0.0000      50.3587    -999.2500      68.7653     -48.4812      71.0737     -51.6003     203.4023 1533229634 9999999.9999
