~VERSION INFORMATION
VERS.           2.0   :CWLS Log ASCII Standard - VERSION 2.0
WRAP.           NO    :One Line per depth step
PROD.  Schlumberger   :LAS Producer
PROG.  DLIS to ASCII 19C2-270                          :LAS Program name and version
CREA.        2018/08/03 10:59                          :LAS Creation date {YYYY/MM/DD hh:mm}
DLIS_CREA.  2018-Aug-03 09:35                          :DLIS Creation date and time {YYYY-MMM-DD hh:mm}
SOURCE.     PERFO_Perfo_079PTP.DLIS                    :DLIS File Name
FILE-ID.     PERFO_Perfo_079PTP                        :File Identification Number
#--------------------------------------------------
~WELL INFORMATION
#MNEM.UNIT      DATA             DESCRIPTION
#---- ------ --------------   -----------------------------
STRT .S            0.0       :START TIME      
STOP .S          455.0       :STOP TIME      
STEP .S            1.0       :STEP     
NULL .          -999.25      :NULL VALUE
COMP .        SHELL INTERNATIONAL EP                   :COMPANY
WELL .        WPP TEST 4                               :WELL
FLD  .        WILDCAT                                  :FIELD
LOC  .        NA                                       :LOCATION
CNTY .        HARRIS                                   :COUNTY
STAT .        TEXAS                                    :STATE
CTRY .                                                 :COUNTRY
API  .        NA                                       :API NUMBER
UWI  .                                                 :UNIQUE WELL ID
DATE .        02-Aug-2018                              :LOG DATE {DD-MMM-YYYY}
SRVC .        Schlumberger                             :SERVICE COMPANY
LATI .DEG                                              :LATITUDE
LONG .DEG                                              :LONGITUDE
GDAT .                                                 :GeoDetic Datum
SECT .        NA                                       :Section
RANG .        NA                                       :Range
TOWN .        NA                                       :Township
#-----------------------------------------------------------------------------
~PARAMETER INFORMATION
#MNEM.UNIT    VALUE                      DESCRIPTION
#---- -----   --------------------       ------------------------
U-PHASE_B_COMP_PER_YT.                 0 :Phase B Comparator Period Yt
U-PHASE_A_COMP_PER_XT.                 0 :Phase A Comparator Period Xt
U-MAX_EXC_CUR_LIMIT.MA       265.00000   :Requested CM Current Limit
U-REQ_EXC_FQ.HZ              50          :Requested CM Frequency
U-TILT_Y_OFFSET.          -2.06578       :WPTET Tilt Y Offset
U-TILT_Y_GAIN.           1.02173         :WPTET Tilt Y Gain
U-TILT_X_OFFSET.           2.30841       :WPTET Tilt X Offset
U-TILT_X_GAIN.           1.00000         :WPTET Tilt X Gain
U-TILT_OFFSET_TOL.           0.00100     :WPTET Tilt Offset Calibration Tolerance
U-MOT_CUR_LIMIT_REQ.MA        70.00000   :Requested Motor Current Limit
U-MOT_SPD_REQ_WPMS.RPM        1.00000    :Requested Motor Speed
U-STD_TOL_TILT.           0.01000        :Tilt Standard Deviation Tolerance
CWEI .LB/F      29.00000                 :Casing Weight
CSIZ .IN         7.00000                 :Current Casing Size
LCC  .               440                 :Logging Company Code
LUN  .              2134                 :Logging Unit Number
HIDE .                                   :Header Identifier
HID1 .                                   :Header Identifier Line 1
R1   .                                   :Remark Line 1
WITN .        MR. KELLY McCOY            :Witness's Name
ENGI .        MORRIS MOORE               :Engineer's Name
LUL  .        IOWA COLONY                :Logging Unit Location
DATE .        02-Aug-2018                :Date as Month-Day-Year
STAT .        TEXAS                      :State or Province
COUN .        HARRIS                     :County or Rig Name
FN   .        WILDCAT                    :Field Name
WN   .        WPP TEST 4                 :Well Name
CN   .        SHELL INTERNATIONAL EP     :Company Name
CLAB .        County                     :County/Rig Label
SLAB .        State                      :State/Province Label
RUN  .          1                        :RUN NUMBER
PDAT .        GROUND LEVEL               :Permanent Datum
EPD  .                                   :Elevation of Permanent Datum above Mean Sea Level
LMF  .          NA                       :Logging Measured From (Name of Logging Elevation Reference)
APD  .                                   :Elevation of Depth Reference (LMF) above Permanent Datum
#-----------------------------------------------------------------------------
~CURVE INFORMATION
#MNEM.UNIT   API CODE                                  DESCRIPTION
#---- -----  --------                                  -----------------------
TIME .S                                                :TIME {F10.1}
FREQ_EMF_SL.HZ                                         :Electromagnetic Field Frequency {F13.4}
PH_SH_WPPCM_SL.DEG                                     :WPPCM Phase Shift {F13.4}
RB_SL.DEG                                              :Relative Bearing {F13.4}
SDEV_SL.DEG                                            :Sonde Deviation {F13.4}
RTIX_SL.DEG                                            :Raw X-axis Tilt {F13.4}
RTIY_SL.DEG                                            :Raw Y-axis Tilt {F13.4}
TILX_SL.DEG                                            :X-axis Tilt {F13.4}
TILY_SL.DEG                                            :Y-axis Tilt {F13.4}
ROTA_SL.DEG                                            :Motor Rotation Angle {F13.4}
TOD7 .S                                                :Time of Day {I11}
TOJ  .S                                                :Time of Job {F13.4}
#-----------------------------------------------------------------------------
# 
#     TIME    FREQ_EMF_SL  PH_SH_WPPCM_    RB_SL       SDEV_SL      RTIX_SL      RTIY_SL      TILX_SL      TILY_SL      ROTA_SL        TOD7            TOJ
#                          SL
~A  
# ...
     106.0       0.0000       0.0000    -166.1010      86.0529     -16.2273     103.3890     -13.9189     103.5696     300.9284 1533244195 9999999.9999
     107.0       0.0000       0.0000    -159.0055    -999.2500     -24.6222      98.2878     -22.3138      98.3576     307.4380 1533244196 9999999.9999
     108.0       0.0000       0.0000    -153.1003    -999.2500     -32.7760      91.9415     -30.4676      91.8734     313.5367 1533244197 9999999.9999
     109.0       0.0000       0.0000    -148.0745    -999.2500     -40.6085      84.3500     -38.3001      84.1169     319.6353 1533244198 9999999.9999
     110.0       0.0000       0.0000    -143.5172    -999.2500     -48.0393      75.9552     -45.7309      75.5397     325.7400 1533244199 9999999.9999
     111.0       0.0000       0.0000    -138.8062    -999.2500     -55.1890      66.2750     -52.8806      65.6492     331.8447 1533244200 9999999.9999
     112.0       0.0000       0.0000    -130.9939    -999.2500     -69.5285      54.1447     -67.2201      53.2553     337.9433 1533244201 9999999.9999
     113.0       0.0000       0.0000    -126.4207    -999.2500     -79.2488      46.9950     -76.9404      45.9503     344.0419 1533244202 9999999.9999
     114.0       0.0000       0.0000    -122.1185    -999.2500     -87.0010      39.8855     -84.6926      38.6863     350.1344 1533244203 9999999.9999
     115.0       0.0000       0.0000    -117.2961    -999.2500     -93.9900      32.4145     -91.6816      31.0530     356.2269 1533244204 9999999.9999
     116.0     570.7184       0.0000    -111.4934    -999.2500    -100.0150      24.5017     -97.7066      22.9682       2.2546 1533244205 9999999.9999
     117.0     625.0000       0.0000    -104.6355    -999.2500    -104.2727      16.5085    -101.9642      14.8014       8.3533 1533244206 9999999.9999
     118.0     668.3698       0.0000     -96.8194      78.2390    -105.8793       8.5555    -103.5709       6.6756      14.4582 1533244207 9999999.9999
     119.0     721.1539       0.0000     -88.1285      76.4752    -105.9597       0.2410    -103.6513      -1.8195      20.9680 1533244208 9999999.9999
     120.0     806.3361       0.0000     -79.4933      81.7501    -105.6383      -8.1538    -103.3299     -10.3968      27.0668 1533244209 9999999.9999
     121.0     874.5336       0.0000     -72.0336      85.4564    -103.2685     -16.1470    -100.9601     -18.5636      33.1717 1533244210 9999999.9999
     122.0     943.7920       0.0000     -65.6469    -999.2500     -98.7297     -24.1402     -96.4212     -26.7304      39.2771 1533244211 9999999.9999
     123.0    1011.6906       0.0000     -60.4800    -999.2500     -92.7448     -31.7317     -90.4364     -34.4869      45.3759 1533244212 9999999.9999
     124.0    1090.1163       0.0000     -56.0654    -999.2500     -85.8362     -39.0420     -83.5278     -41.9561      51.4746 1533244213 9999999.9999
     125.0    1201.9231       0.0000     -51.7759    -999.2500     -77.3610     -46.4728     -75.0526     -49.5483      57.5795 1533244214 9999999.9999
     126.0    1378.6765       0.0000     -47.4238    -999.2500     -67.5202     -53.3012     -65.2118     -56.5250      63.6843 1533244215 9999999.9999
     127.0    1531.8628       0.0000     -38.9526    -999.2500     -53.1003     -69.8498     -50.7919     -73.4333      69.7831 1533244216 9999999.9999
     128.0    1674.1072       0.0000     -34.8358    -999.2500     -46.0310     -79.4898     -43.7226     -83.2827      75.9010 1533244217 9999999.9999
     129.0    1798.2737       0.0000     -30.7947    -999.2500     -38.8813     -87.3223     -36.5729     -91.2854      81.9997 1533244218 9999999.9999
     130.0    1910.6658       0.0000     -26.2787    -999.2500     -31.6112     -93.5080     -29.3028     -97.6054      88.0923 1533244219 9999999.9999
     131.0    2014.6848       0.0000     -20.9758    -999.2500     -24.3008     -98.1673     -21.9924    -102.3660      94.5959 1533244220 9999999.9999
     132.0    2117.8464       0.0000     -14.6486      88.2866     -16.9503    -100.4970     -14.6419    -104.7463     100.7008 1533244221 9999999.9999
     133.0    2190.4207       0.0000      -6.8087      76.1050      -8.9170    -101.1798      -6.6086    -105.4440     106.8056 1533244222 9999999.9999
     134.0    2260.8521       0.0000       2.1006      74.8204      -0.2812    -101.0593       2.0272    -105.3208     112.9052 1533244223 9999999.9999
     135.0    2320.5444       0.0000      10.5558      79.6440       8.0735    -100.4970      10.3819    -104.7463     119.0039 1533244224 9999999.9999
     136.0    2375.4224       0.0000      17.2872      98.6358      15.3838     -98.2477      17.6922    -102.4481     125.0963 1533244225 9999999.9999
     137.0    2416.2371       0.0000      23.5758    -999.2500      23.2967     -93.8695      25.6051     -97.9748     131.2012 1533244226 9999999.9999
     138.0    2441.4063       0.0000      28.4080    -999.2500      30.4062     -88.2863      32.7146     -92.2703     137.3000 1533244227 9999999.9999
     139.0    2475.7922       0.0000      32.5914    -999.2500      37.2747     -81.4982      39.5831     -85.3347     143.3988 1533244228 9999999.9999
     140.0    2484.5405       0.0000      36.5841    -999.2500      44.0227     -73.3845      46.3311     -77.0447     149.5169 1533244229 9999999.9999
     141.0    2475.7922       0.0000      41.1558    -999.2500      50.7305     -62.6600      53.0389     -66.0872     155.6094 1533244230 9999999.9999
     142.0    2484.5405       0.0000      50.6876    -999.2500      71.4967     -48.7222      73.8051     -51.8465     161.7082 1533244231 9999999.9999
     143.0    2484.5405       0.0000      54.4645    -999.2500      80.4538     -42.1348      82.7622     -45.1161     168.2181 1533244232 9999999.9999
     144.0    2475.7922       0.0000      58.3012    -999.2500      87.9650     -35.3065      90.2734     -38.1394     174.3231 1533244233 9999999.9999
     145.0    2458.4790       0.0000      62.6057    -999.2500      94.0703     -28.3175      96.3787     -30.9985     180.4219 1533244234 9999999.9999
     146.0    2441.4063       0.0000      67.7211    -999.2500      98.4485     -21.2080     100.7569     -23.7346     186.5207 1533244235 9999999.9999
     147.0    2407.9622       0.0000      74.0368    -999.2500     100.6978     -13.8173     103.0062     -16.1833     192.6390 1533244236 9999999.9999
     148.0    2359.4797       0.0000      81.9097      78.7709     101.5012      -5.7438     103.8096      -7.9344     198.7439 1533244237 9999999.9999
     149.0    2305.3279       0.0000      91.6325      76.4068     101.3807       3.5748     103.6891       1.5867     204.8428 1533244238 9999999.9999
     150.0    2239.2517       0.0000     100.0944      80.6456     101.4208      11.7688     103.7292       9.9588     210.9547 1533244239 9999999.9999
     151.0    2170.1389       0.0000     107.4829     108.8556      98.8100      19.6415     101.1184      18.0025     217.0596 1533244240 9999999.9999
     152.0    2086.4243       0.0000     113.7997    -999.2500      93.9097      27.4740      96.2181      26.0052     223.1776 1533244241 9999999.9999
     153.0    1980.6338       0.0000     119.0627    -999.2500      87.5633      35.0655      89.8717      33.7616     229.2895 1533244242 9999999.9999
     154.0    1875.0000       0.0000     123.6694    -999.2500      80.0120      42.4562      82.3204      41.3128     235.3891 1533244243 9999999.9999
     155.0    1762.2180       0.0000     128.1113    -999.2500      71.2155      49.7665      73.5239      48.7820     241.9052 1533244244 9999999.9999
     156.0    1631.3805       0.0000     133.6474    -999.2500      58.2015      56.9563      60.5099      56.1281     248.0040 1533244245 9999999.9999
     157.0    1505.6210       0.0000     140.5517    -999.2500      49.7263      73.8263      52.0347      73.3646     254.1029 1533244246 9999999.9999
     158.0    1370.6140       0.0000     144.4637    -999.2500      42.7775      82.7835      45.0859      82.5164     260.2077 1533244247 9999999.9999
