~VERSION INFORMATION
VERS.           2.0   :CWLS Log ASCII Standard - VERSION 2.0
WRAP.           NO    :One Line per depth step
PROD.  Schlumberger   :LAS Producer
PROG.  DLIS to ASCII 19C2-270                          :LAS Program name and version
CREA.        2018/08/03 10:59                          :LAS Creation date {YYYY/MM/DD hh:mm}
DLIS_CREA.  2018-Aug-03 08:56                          :DLIS Creation date and time {YYYY-MMM-DD hh:mm}
SOURCE.     PERFO_Perfo_063PTP.DLIS                    :DLIS File Name
FILE-ID.     PERFO_Perfo_063PTP                        :File Identification Number
#--------------------------------------------------
~WELL INFORMATION
#MNEM.UNIT      DATA             DESCRIPTION
#---- ------ --------------   -----------------------------
STRT .S            0.0       :START TIME      
STOP .S          897.0       :STOP TIME      
STEP .S            1.0       :STEP     
NULL .          -999.25      :NULL VALUE
COMP .        SHELL INTERNATIONAL EP                   :COMPANY
WELL .        WPP TEST 4                               :WELL
FLD  .        WILDCAT                                  :FIELD
LOC  .        NA                                       :LOCATION
CNTY .        HARRIS                                   :COUNTY
STAT .        TEXAS                                    :STATE
CTRY .                                                 :COUNTRY
API  .        NA                                       :API NUMBER
UWI  .                                                 :UNIQUE WELL ID
DATE .        02-Aug-2018                              :LOG DATE {DD-MMM-YYYY}
SRVC .        Schlumberger                             :SERVICE COMPANY
LATI .DEG                                              :LATITUDE
LONG .DEG                                              :LONGITUDE
GDAT .                                                 :GeoDetic Datum
SECT .        NA                                       :Section
RANG .        NA                                       :Range
TOWN .        NA                                       :Township
#-----------------------------------------------------------------------------
~PARAMETER INFORMATION
#MNEM.UNIT    VALUE                      DESCRIPTION
#---- -----   --------------------       ------------------------
U-PHASE_B_COMP_PER_YT.                 0 :Phase B Comparator Period Yt
U-PHASE_A_COMP_PER_XT.                 0 :Phase A Comparator Period Xt
U-MAX_EXC_CUR_LIMIT.MA       265.00000   :Requested CM Current Limit
U-REQ_EXC_FQ.HZ              50          :Requested CM Frequency
U-TILT_Y_OFFSET.          -2.06578       :WPTET Tilt Y Offset
U-TILT_Y_GAIN.           1.02173         :WPTET Tilt Y Gain
U-TILT_X_OFFSET.           2.30841       :WPTET Tilt X Offset
U-TILT_X_GAIN.           1.00000         :WPTET Tilt X Gain
U-TILT_OFFSET_TOL.           0.00100     :WPTET Tilt Offset Calibration Tolerance
U-MOT_CUR_LIMIT_REQ.MA        70.00000   :Requested Motor Current Limit
U-MOT_SPD_REQ_WPMS.RPM        1.00000    :Requested Motor Speed
U-STD_TOL_TILT.           0.01000        :Tilt Standard Deviation Tolerance
CWEI .LB/F      29.00000                 :Casing Weight
CSIZ .IN         7.00000                 :Current Casing Size
LCC  .               440                 :Logging Company Code
LUN  .              2134                 :Logging Unit Number
HIDE .                                   :Header Identifier
HID1 .                                   :Header Identifier Line 1
R1   .                                   :Remark Line 1
WITN .        MR. KELLY McCOY            :Witness's Name
ENGI .        MORRIS MOORE               :Engineer's Name
LUL  .        IOWA COLONY                :Logging Unit Location
DATE .        02-Aug-2018                :Date as Month-Day-Year
STAT .        TEXAS                      :State or Province
COUN .        HARRIS                     :County or Rig Name
FN   .        WILDCAT                    :Field Name
WN   .        WPP TEST 4                 :Well Name
CN   .        SHELL INTERNATIONAL EP     :Company Name
CLAB .        County                     :County/Rig Label
SLAB .        State                      :State/Province Label
RUN  .          1                        :RUN NUMBER
PDAT .        GROUND LEVEL               :Permanent Datum
EPD  .                                   :Elevation of Permanent Datum above Mean Sea Level
LMF  .          NA                       :Logging Measured From (Name of Logging Elevation Reference)
APD  .                                   :Elevation of Depth Reference (LMF) above Permanent Datum
#-----------------------------------------------------------------------------
~CURVE INFORMATION
#MNEM.UNIT   API CODE                                  DESCRIPTION
#---- -----  --------                                  -----------------------
TIME .S                                                :TIME {F10.1}
FREQ_EMF_SL.HZ                                         :Electromagnetic Field Frequency {F13.4}
PH_SH_WPPCM_SL.DEG                                     :WPPCM Phase Shift {F13.4}
RB_SL.DEG                                              :Relative Bearing {F13.4}
SDEV_SL.DEG                                            :Sonde Deviation {F13.4}
RTIX_SL.DEG                                            :Raw X-axis Tilt {F13.4}
RTIY_SL.DEG                                            :Raw Y-axis Tilt {F13.4}
TILX_SL.DEG                                            :X-axis Tilt {F13.4}
TILY_SL.DEG                                            :Y-axis Tilt {F13.4}
ROTA_SL.DEG                                            :Motor Rotation Angle {F13.4}
TOD7 .S                                                :Time of Day {I11}
TOJ  .S                                                :Time of Job {F13.4}
#-----------------------------------------------------------------------------
# 
#     TIME    FREQ_EMF_SL  PH_SH_WPPCM_    RB_SL       SDEV_SL      RTIX_SL      RTIY_SL      TILX_SL      TILY_SL      ROTA_SL        TOD7            TOJ
#                          SL
~A  
# ...
     106.0    1046.3170       0.0000    -139.5352    -999.2500     -53.7832      67.1185     -51.4748      66.5110     108.0354 1533231061 9999999.9999
     107.0    1073.4733       0.0000    -131.3600    -999.2500     -68.0423      54.2652     -65.7339      53.3784     114.1342 1533231062 9999999.9999
     108.0    1105.5425       0.0000    -126.8893    -999.2500     -77.5217      47.5573     -75.2132      46.5248     120.2206 1533231063 9999999.9999
     109.0    1137.7427       0.0000    -122.6013    -999.2500     -85.5148      40.6085     -83.2064      39.4250     126.3255 1533231064 9999999.9999
     110.0    1175.7943       0.0000    -117.8093    -999.2500     -92.5842      33.1777     -90.2757      31.8327     132.4304 1533231065 9999999.9999
     111.0    1216.4792       0.0000    -112.3117    -999.2500     -98.5288      25.5862     -96.2204      24.0763     138.9342 1533231066 9999999.9999
     112.0    1262.3429       0.0000    -105.6197    -999.2500    -102.9070      17.6332    -100.5986      15.9505     145.0522 1533231067 9999999.9999
     113.0    1304.4990       0.0000     -98.1756      80.8524    -104.5538       9.9212    -102.2454       8.0709     151.1572 1533231068 9999999.9999
     114.0    1362.6454       0.0000     -89.5659      77.7220    -104.5940       1.6067    -102.2856      -0.4242     157.2560 1533231069 9999999.9999
     115.0    1420.4546       0.0000     -81.0334      81.9855    -104.3128      -6.6677    -102.0044      -8.8783     163.3548 1533231070 9999999.9999
     116.0    1486.5221       0.0000     -73.4803      84.4416    -102.6660     -14.5805    -100.3576     -16.9631     169.4598 1533231071 9999999.9999
     117.0    1552.1523       0.0000     -66.7737    -999.2500     -98.5288     -22.6942     -96.2204     -25.2530     175.5525 1533231072 9999999.9999
     118.0    1623.8453       0.0000     -61.4452    -999.2500     -92.7850     -30.2455     -90.4766     -32.9684     181.6644 1533231073 9999999.9999
     119.0    1686.1511       0.0000     -56.9006    -999.2500     -86.1173     -37.5157     -83.8089     -40.3966     187.7632 1533231074 9999999.9999
     120.0    1744.7272       0.0000     -52.8469    -999.2500     -78.3250     -44.3038     -76.0166     -47.3322     193.8751 1533231075 9999999.9999
     121.0    1807.5192       0.0000     -48.5117    -999.2500     -68.7252     -50.9715     -66.4168     -54.1447     199.9739 1533231076 9999999.9999
     122.0    1855.2111       0.0000     -39.2476    -999.2500     -52.9397     -67.6005     -50.6313     -71.1350     206.0727 1533231077 9999999.9999
     123.0    1900.3378       0.0000     -35.1676    -999.2500     -46.3925     -77.1602     -44.0841     -80.9024     212.5827 1533231078 9999999.9999
     124.0    1942.3344       0.0000     -31.1224    -999.2500     -39.4437     -85.1935     -37.1353     -89.1103     218.6752 1533231079 9999999.9999
     125.0    1980.6338       0.0000     -26.7109    -999.2500     -32.3743     -91.2988     -30.0659     -95.3483     224.7740 1533231080 9999999.9999
     126.0    2003.2051       0.0000     -21.6075    -999.2500     -25.2648     -95.8778     -22.9564    -100.0268     230.8605 1533231081 9999999.9999
     127.0    2026.2969       0.0000     -15.5616    -999.2500     -18.0750     -98.4485     -15.7666    -102.6533     236.9786 1533231082 9999999.9999
     128.0    2043.9680       0.0000      -8.0814      79.0796     -10.2425     -99.3322      -7.9341    -103.5562     243.0835 1533231083 9999999.9999
     129.0    2043.9680       0.0000       1.3000      76.5052      -1.0443     -99.3322       1.2641    -103.5562     249.1824 1533231084 9999999.9999
     130.0    2043.9680       0.0000       9.5690      81.3088       7.1497     -98.6895       9.4581    -102.8995     255.2883 1533231085 9999999.9999
     131.0    2043.9680       0.0000      16.4848      83.8669      14.5805     -96.8017      16.8889    -100.9707     261.3869 1533231086 9999999.9999
     132.0    2020.4741       0.0000      22.1955    -999.2500      21.5695     -93.1063      23.8779     -97.1951     267.4917 1533231087 9999999.9999
     133.0    2003.2051       0.0000      27.0353    -999.2500      28.3577     -87.8847      30.6661     -91.8599     273.5780 1533231088 9999999.9999
     134.0    1969.5378       0.0000      31.2462    -999.2500      34.9048     -81.5785      37.2132     -85.4167     279.6774 1533231089 9999999.9999
     135.0    1947.7146       0.0000      35.2985    -999.2500      41.4520     -73.9870      43.7604     -77.6603     286.1932 1533231090 9999999.9999
     136.0    1905.4878       0.0000      39.7523    -999.2500      47.9992     -64.2265      50.3076     -67.6877     292.2795 1533231091 9999999.9999
     137.0    1865.0531       0.0000      50.3223    -999.2500      68.6448     -48.5213      70.9532     -51.6413     298.3781 1533231092 9999999.9999
     138.0    1821.5673       0.0000      54.0175    -999.2500      77.4815     -42.6168      79.7899     -45.6086     304.4706 1533231093 9999999.9999
     139.0    1762.2180       0.0000      57.8596    -999.2500      85.1533     -36.0295      87.4617     -38.8781     310.5884 1533231094 9999999.9999
     140.0    1719.1321       0.0000      61.9864    -999.2500      91.4193     -29.3618      93.7277     -32.0656     316.6746 1533231095 9999999.9999
     141.0    1646.6628       0.0000      67.3623    -999.2500      96.3197     -21.8105      98.6281     -24.3502     322.7864 1533231096 9999999.9999
     142.0    1580.0563       0.0000      73.4473    -999.2500      98.6895     -14.5805     100.9979     -16.9631     328.9042 1533231097 9999999.9999
     143.0    1518.6285       0.0000      81.1144      81.8992      99.6937      -6.5873     102.0021      -8.7962     335.0090 1533231098 9999999.9999
     144.0    1461.7983       0.0000      89.9438      77.5562     100.1355       1.9682     102.4439      -0.0549     341.1076 1533231099 9999999.9999
     145.0    1406.2500       0.0000      98.3460      80.6827     100.1757      10.0818     102.4841       8.2351     347.2070 1533231100 9999999.9999
     146.0    1346.9828       0.0000     105.7977      97.7839      98.1272      17.8340     100.4356      16.1557     353.3117 1533231101 9999999.9999
     147.0    1292.5093       0.0000     112.0528    -999.2500      93.9097      25.2648      96.2181      23.7480     359.8214 1533231102 9999999.9999
     148.0    1255.5803       0.0000     117.5905    -999.2500      88.0855      32.8563      90.3939      31.5044       5.9201 1533231103 9999999.9999
     149.0    1210.1979       0.0000     122.3464    -999.2500      80.9760      40.1667      83.2844      38.9736      12.0311 1533231104 9999999.9999
     150.0    1167.9817       0.0000     126.8903    -999.2500      72.4607      47.4368      74.7691      46.4017      18.1299 1533231105 9999999.9999
     151.0    1132.2463       0.0000     131.7475    -999.2500      61.6960      54.2250      64.0044      53.3374      24.2417 1533231106 9999999.9999
     152.0    1098.6328       0.0000     139.9675    -999.2500      50.3288      71.6172      52.6372      71.1074      30.3280 1533231107 9999999.9999
     153.0    1073.4733       0.0000     144.2243    -999.2500      43.0587      81.2572      45.3671      80.9569      36.4329 1533231108 9999999.9999
     154.0    1043.2122       0.0000     148.1591    -999.2500      36.0697      88.8085      38.3781      88.6723      42.5508 1533231109 9999999.9999
     155.0    1024.9635       0.0000     152.7864    -999.2500      28.4782      95.5163      30.7866      95.5259      48.6496 1533231110 9999999.9999
     156.0    1004.4643       0.0000     158.2171    -999.2500      20.8063     100.6577      23.1147     100.7789      54.7614 1533231111 9999999.9999
     157.0     994.5190       0.0000     164.7616      85.7473      13.0140     103.8710      15.3224     104.0620      60.8540 1533231112 9999999.9999
     158.0     987.5352       0.0000     172.7995      76.7526       4.6995     104.8350       7.0079     105.0470      66.9721 1533231113 9999999.9999
