~VERSION INFORMATION
VERS.           2.0   :CWLS Log ASCII Standard - VERSION 2.0
WRAP.           NO    :One Line per depth step
PROD.  Schlumberger   :LAS Producer
PROG.  DLIS to ASCII 19C2-270                          :LAS Program name and version
CREA.        2018/08/03 10:59                          :LAS Creation date {YYYY/MM/DD hh:mm}
DLIS_CREA.  2018-Aug-03 09:55                          :DLIS Creation date and time {YYYY-MMM-DD hh:mm}
SOURCE.     PERFO_Perfo_092PTP.DLIS                    :DLIS File Name
FILE-ID.     PERFO_Perfo_092PTP                        :File Identification Number
#--------------------------------------------------
~WELL INFORMATION
#MNEM.UNIT      DATA             DESCRIPTION
#---- ------ --------------   -----------------------------
STRT .S            0.0       :START TIME      
STOP .S          161.0       :STOP TIME      
STEP .S            1.0       :STEP     
NULL .          -999.25      :NULL VALUE
COMP .        SHELL INTERNATIONAL EP                   :COMPANY
WELL .        WPP TEST 4                               :WELL
FLD  .        WILDCAT                                  :FIELD
LOC  .        NA                                       :LOCATION
CNTY .        HARRIS                                   :COUNTY
STAT .        TEXAS                                    :STATE
CTRY .                                                 :COUNTRY
API  .        NA                                       :API NUMBER
UWI  .                                                 :UNIQUE WELL ID
DATE .        02-Aug-2018                              :LOG DATE {DD-MMM-YYYY}
SRVC .        Schlumberger                             :SERVICE COMPANY
LATI .DEG                                              :LATITUDE
LONG .DEG                                              :LONGITUDE
GDAT .                                                 :GeoDetic Datum
SECT .        NA                                       :Section
RANG .        NA                                       :Range
TOWN .        NA                                       :Township
#-----------------------------------------------------------------------------
~PARAMETER INFORMATION
#MNEM.UNIT    VALUE                      DESCRIPTION
#---- -----   --------------------       ------------------------
U-PHASE_B_COMP_PER_YT.                 0 :Phase B Comparator Period Yt
U-PHASE_A_COMP_PER_XT.                 0 :Phase A Comparator Period Xt
U-MAX_EXC_CUR_LIMIT.MA       265.00000   :Requested CM Current Limit
U-REQ_EXC_FQ.HZ              50          :Requested CM Frequency
U-TILT_Y_OFFSET.          -2.06578       :WPTET Tilt Y Offset
U-TILT_Y_GAIN.           1.02173         :WPTET Tilt Y Gain
U-TILT_X_OFFSET.           2.30841       :WPTET Tilt X Offset
U-TILT_X_GAIN.           1.00000         :WPTET Tilt X Gain
U-TILT_OFFSET_TOL.           0.00100     :WPTET Tilt Offset Calibration Tolerance
U-MOT_CUR_LIMIT_REQ.MA        70.00000   :Requested Motor Current Limit
U-MOT_SPD_REQ_WPMS.RPM        1.00000    :Requested Motor Speed
U-STD_TOL_TILT.           0.01000        :Tilt Standard Deviation Tolerance
CWEI .LB/F      29.00000                 :Casing Weight
CSIZ .IN         7.00000                 :Current Casing Size
LCC  .               440                 :Logging Company Code
LUN  .              2134                 :Logging Unit Number
HIDE .                                   :Header Identifier
HID1 .                                   :Header Identifier Line 1
R1   .                                   :Remark Line 1
WITN .        MR. KELLY McCOY            :Witness's Name
ENGI .        MORRIS MOORE               :Engineer's Name
LUL  .        IOWA COLONY                :Logging Unit Location
DATE .        02-Aug-2018                :Date as Month-Day-Year
STAT .        TEXAS                      :State or Province
COUN .        HARRIS                     :County or Rig Name
FN   .        WILDCAT                    :Field Name
WN   .        WPP TEST 4                 :Well Name
CN   .        SHELL INTERNATIONAL EP     :Company Name
CLAB .        County                     :County/Rig Label
SLAB .        State                      :State/Province Label
RUN  .          1                        :RUN NUMBER
PDAT .        GROUND LEVEL               :Permanent Datum
EPD  .                                   :Elevation of Permanent Datum above Mean Sea Level
LMF  .          NA                       :Logging Measured From (Name of Logging Elevation Reference)
APD  .                                   :Elevation of Depth Reference (LMF) above Permanent Datum
#-----------------------------------------------------------------------------
~CURVE INFORMATION
#MNEM.UNIT   API CODE                                  DESCRIPTION
#---- -----  --------                                  -----------------------
TIME .S                                                :TIME {F10.1}
FREQ_EMF_SL.HZ                                         :Electromagnetic Field Frequency {F13.4}
PH_SH_WPPCM_SL.DEG                                     :WPPCM Phase Shift {F13.4}
RB_SL.DEG                                              :Relative Bearing {F13.4}
SDEV_SL.DEG                                            :Sonde Deviation {F13.4}
RTIX_SL.DEG                                            :Raw X-axis Tilt {F13.4}
RTIY_SL.DEG                                            :Raw Y-axis Tilt {F13.4}
TILX_SL.DEG                                            :X-axis Tilt {F13.4}
TILY_SL.DEG                                            :Y-axis Tilt {F13.4}
ROTA_SL.DEG                                            :Motor Rotation Angle {F13.4}
TOD7 .S                                                :Time of Day {I11}
TOJ  .S                                                :Time of Job {F13.4}
#-----------------------------------------------------------------------------
# 
#     TIME    FREQ_EMF_SL  PH_SH_WPPCM_    RB_SL       SDEV_SL      RTIX_SL      RTIY_SL      TILX_SL      TILY_SL      ROTA_SL        TOD7            TOJ
#                          SL
~A  
# ...
     106.0    1046.3170       0.0000     -54.6590    -999.2500     -83.5868     -41.5323     -81.2784     -44.5005     142.5424 1533251954 9999999.9999
     107.0    1143.2927       0.0000     -50.9297    -999.2500     -75.7945     -47.9992     -73.4861     -51.1078     148.6543 1533251955 9999999.9999
     108.0    1290.1376       0.0000     -46.1981    -999.2500     -64.6683     -54.9078     -62.3599     -58.1666     154.7724 1533251956 9999999.9999
     109.0       0.0000       0.0000     -37.8118    -999.2500     -51.3330     -72.9828     -49.0246     -76.6343     160.9535 1533251957 9999999.9999
     110.0       0.0000       0.0000     -33.7882    -999.2500     -44.1833     -82.1408     -41.8749     -85.9913     167.0585 1533251958 9999999.9999
     111.0       0.0000       0.0000     -29.8051    -999.2500     -37.1943     -89.1700     -34.8859     -93.1732     173.1573 1533251959 9999999.9999
     112.0       0.0000       0.0000     -25.0810    -999.2500     -29.8037     -95.3155     -27.4953     -99.4522     179.6805 1533251960 9999999.9999
     113.0       0.0000       0.0000     -19.2401    -999.2500     -22.1318     -99.4527     -19.8234    -103.6793     185.7855 1533251961 9999999.9999
     114.0       0.0000       0.0000     -12.4697      80.9562     -14.6207    -101.0995     -12.3123    -105.3619     191.8843 1533251962 9999999.9999
     115.0       0.0000       0.0000      -3.9770      74.7675      -6.1455    -101.4610      -3.8371    -105.7312     197.9831 1533251963 9999999.9999
     116.0       0.0000       0.0000       5.2939      75.2960       2.8117    -101.3405       5.1201    -105.6081     204.0881 1533251964 9999999.9999
     117.0       0.0000       0.0000      13.1168      83.5725      10.7245    -100.3363      13.0329    -104.5821     210.1808 1533251965 9999999.9999
     118.0       0.0000       0.0000      20.1493    -999.2500      18.7578     -97.4042      21.0662    -101.5863     216.2796 1533251966 9999999.9999
     119.0       0.0000       0.0000      25.5111    -999.2500      25.9878     -92.5440      28.2962     -96.6205     222.3846 1533251967 9999999.9999
     120.0       0.0000       0.0000      30.0131    -999.2500      32.9768     -86.3583      35.2852     -90.3004     228.4773 1533251968 9999999.9999
     121.0       0.0000       0.0000      33.7623    -999.2500      39.3232     -79.8112      41.6316     -83.6110     234.5761 1533251969 9999999.9999
     122.0       0.0000       0.0000      37.8946    -999.2500      46.2318     -70.7335      48.5402     -74.3361     240.6749 1533251970 9999999.9999
     123.0       0.0000       0.0000      43.8279    -999.2500      51.5740     -54.0643      53.8824     -57.3048     246.7799 1533251971 9999999.9999
     124.0       0.0000       0.0000      52.0197    -999.2500      75.2322     -46.5933      77.5406     -49.6715     253.2898 1533251972 9999999.9999
     125.0       0.0000       0.0000      55.5768    -999.2500      83.3458     -40.1667      85.6542     -43.1052     259.3885 1533251973 9999999.9999
     126.0       0.0000       0.0000      59.3491    -999.2500      90.4553     -33.4990      92.7637     -36.2926     265.4871 1533251974 9999999.9999
     127.0       0.0000       0.0000      63.9942    -999.2500      95.9983     -26.2288      98.3067     -28.8645     271.5980 1533251975 9999999.9999
     128.0       0.0000       0.0000      69.8052    -999.2500      99.9347     -18.5972     102.2431     -21.0670     277.7107 1533251976 9999999.9999
     129.0       0.0000       0.0000      76.1989      82.7133     101.4610     -11.4877     103.7694     -13.8030     283.8093 1533251977 9999999.9999
     130.0       0.0000       0.0000      86.0136      76.2227     102.0233      -1.7673     104.3317      -3.8715     289.9017 1533251978 9999999.9999
     131.0       0.0000       0.0000      94.3006      75.9790     102.3447       6.1053     104.6531       4.1722     296.0065 1533251979 9999999.9999
     132.0       0.0000       0.0000     102.7515      85.3238     101.2602      14.4600     103.5686      12.7084     302.1051 1533251980 9999999.9999
     133.0       0.0000       0.0000     109.8457    -999.2500      97.4845      22.4130      99.7929      20.8342     308.2167 1533251981 9999999.9999
     134.0       0.0000       0.0000     115.8483    -999.2500      92.2227      30.2857      94.5311      28.8779     314.3215 1533251982 9999999.9999
     135.0       0.0000       0.0000     120.8222    -999.2500      85.3140      37.8370      87.6224      36.5933     320.4262 1533251983 9999999.9999
     136.0       0.0000       0.0000     125.2395    -999.2500      77.5618      45.1473      79.8702      44.0625     326.9297 1533251984 9999999.9999
     137.0       0.0000       0.0000     129.7048    -999.2500      67.9620      52.3372      70.2704      51.4085     333.0284 1533251985 9999999.9999
     138.0       0.0000       0.0000     137.5785    -999.2500      54.4660      66.8775      56.7744      66.2648     339.1208 1533251986 9999999.9999
     139.0       0.0000       0.0000     141.8124    -999.2500      47.6377      77.0798      49.9461      76.6888     345.2386 1533251987 9999999.9999
     140.0       0.0000       0.0000     145.6565    -999.2500      40.6085      85.4747      42.9169      85.2660     351.3250 1533251988 9999999.9999
     141.0       0.0000       0.0000     149.7898    -999.2500      33.2580      92.6645      35.5664      92.6121     357.4297 1533251989 9999999.9999
     142.0       0.0000       0.0000     155.1007    -999.2500      24.9435      99.3322      27.2519      99.4246       3.5345 1533251990 9999999.9999
     143.0    1991.8556       0.0000     161.0807    -999.2500      17.1110     103.8710      19.4194     104.0620       9.5493 1533251991 9999999.9999
     144.0    1771.0958       0.0000     168.4571      78.4433       8.9973     106.0400      11.3057     106.2782      15.6358 1533251992 9999999.9999
     145.0    1762.2180       0.0000     176.7982      73.6129       0.7632     106.4417       3.0716     106.6886      21.7345 1533251993 9999999.9999
     146.0    1702.4818       0.0000    -174.5081      74.1731      -7.5915     106.4818      -5.2831     106.7296      27.8586 1533251994 9999999.9999
     147.0    1612.6721       0.0000    -166.6786      85.3274     -15.5847     103.9112     -13.2763     104.1031      33.9574 1533251995 9999999.9999
     148.0    1531.8628       0.0000    -159.4310    -999.2500     -24.0598      98.9707     -21.7514      99.0552      40.4484 1533251996 9999999.9999
     149.0    1464.8438       0.0000    -153.5894    -999.2500     -32.0530      92.6243     -29.7446      92.5710      46.5471 1533251997 9999999.9999
     150.0    1357.3842       0.0000    -148.5788    -999.2500     -39.8052      85.3542     -37.4968      85.1429      52.6589 1533251998 9999999.9999
     151.0    1269.1787       0.0000    -144.0250    -999.2500     -47.3163      77.3610     -45.0079      76.9761      58.7454 1533251999 9999999.9999
     152.0    1214.3783       0.0000    -139.4961    -999.2500     -54.3053      67.8817     -51.9969      67.2908      64.8441 1533252000 9999999.9999
     153.0    1156.4556       0.0000    -131.7731    -999.2500     -67.9218      55.3095     -65.6134      54.4454      70.9551 1533252001 9999999.9999
     154.0    1118.7351       0.0000    -127.3079    -999.2500     -77.6321      48.5013     -75.3237      47.4893      77.0538 1533252002 9999999.9999
     155.0    1080.0691       0.0000    -122.9151    -999.2500     -85.9567      41.2110     -83.6483      40.0406      83.1526 1533252003 9999999.9999
     156.0    1034.0073       0.0000    -118.2184    -999.2500     -93.2268      33.7802     -90.9184      32.4483      89.2636 1533252004 9999999.9999
     157.0     997.3405       0.0000    -112.7000    -999.2500     -99.3723      26.0280     -97.0639      24.5277      95.3631 1533252005 9999999.9999
     158.0     961.8673       0.0000    -105.9362    -999.2500    -103.9915      17.9143    -101.6831      16.2378     101.4496 1533252006 9999999.9999
