~VERSION INFORMATION
VERS.           2.0   :CWLS Log ASCII Standard - VERSION 2.0
WRAP.           NO    :One Line per depth step
PROD.  Schlumberger   :LAS Producer
PROG.  DLIS to ASCII 19C2-270                          :LAS Program name and version
CREA.        2018/08/03 10:59                          :LAS Creation date {YYYY/MM/DD hh:mm}
DLIS_CREA.  2018-Aug-03 08:53                          :DLIS Creation date and time {YYYY-MMM-DD hh:mm}
SOURCE.     PERFO_Perfo_062PTP.DLIS                    :DLIS File Name
FILE-ID.     PERFO_Perfo_062PTP                        :File Identification Number
#--------------------------------------------------
~WELL INFORMATION
#MNEM.UNIT      DATA             DESCRIPTION
#---- ------ --------------   -----------------------------
STRT .S            0.0       :START TIME      
STOP .S          971.0       :STOP TIME      
STEP .S            1.0       :STEP     
NULL .          -999.25      :NULL VALUE
COMP .        SHELL INTERNATIONAL EP                   :COMPANY
WELL .        WPP TEST 4                               :WELL
FLD  .        WILDCAT                                  :FIELD
LOC  .        NA                                       :LOCATION
CNTY .        HARRIS                                   :COUNTY
STAT .        TEXAS                                    :STATE
CTRY .                                                 :COUNTRY
API  .        NA                                       :API NUMBER
UWI  .                                                 :UNIQUE WELL ID
DATE .        02-Aug-2018                              :LOG DATE {DD-MMM-YYYY}
SRVC .        Schlumberger                             :SERVICE COMPANY
LATI .DEG                                              :LATITUDE
LONG .DEG                                              :LONGITUDE
GDAT .                                                 :GeoDetic Datum
SECT .        NA                                       :Section
RANG .        NA                                       :Range
TOWN .        NA                                       :Township
#-----------------------------------------------------------------------------
~PARAMETER INFORMATION
#MNEM.UNIT    VALUE                      DESCRIPTION
#---- -----   --------------------       ------------------------
U-PHASE_B_COMP_PER_YT.                 0 :Phase B Comparator Period Yt
U-PHASE_A_COMP_PER_XT.                 0 :Phase A Comparator Period Xt
U-MAX_EXC_CUR_LIMIT.MA       265.00000   :Requested CM Current Limit
U-REQ_EXC_FQ.HZ              50          :Requested CM Frequency
U-TILT_Y_OFFSET.          -2.06578       :WPTET Tilt Y Offset
U-TILT_Y_GAIN.           1.02173         :WPTET Tilt Y Gain
U-TILT_X_OFFSET.           2.30841       :WPTET Tilt X Offset
U-TILT_X_GAIN.           1.00000         :WPTET Tilt X Gain
U-TILT_OFFSET_TOL.           0.00100     :WPTET Tilt Offset Calibration Tolerance
U-MOT_CUR_LIMIT_REQ.MA        70.00000   :Requested Motor Current Limit
U-MOT_SPD_REQ_WPMS.RPM        1.00000    :Requested Motor Speed
U-STD_TOL_TILT.           0.01000        :Tilt Standard Deviation Tolerance
CWEI .LB/F      29.00000                 :Casing Weight
CSIZ .IN         7.00000                 :Current Casing Size
LCC  .               440                 :Logging Company Code
LUN  .              2134                 :Logging Unit Number
HIDE .                                   :Header Identifier
HID1 .                                   :Header Identifier Line 1
R1   .                                   :Remark Line 1
WITN .        MR. KELLY McCOY            :Witness's Name
ENGI .        MORRIS MOORE               :Engineer's Name
LUL  .        IOWA COLONY                :Logging Unit Location
DATE .        02-Aug-2018                :Date as Month-Day-Year
STAT .        TEXAS                      :State or Province
COUN .        HARRIS                     :County or Rig Name
FN   .        WILDCAT                    :Field Name
WN   .        WPP TEST 4                 :Well Name
CN   .        SHELL INTERNATIONAL EP     :Company Name
CLAB .        County                     :County/Rig Label
SLAB .        State                      :State/Province Label
RUN  .          1                        :RUN NUMBER
PDAT .        GROUND LEVEL               :Permanent Datum
EPD  .                                   :Elevation of Permanent Datum above Mean Sea Level
LMF  .          NA                       :Logging Measured From (Name of Logging Elevation Reference)
APD  .                                   :Elevation of Depth Reference (LMF) above Permanent Datum
#-----------------------------------------------------------------------------
~CURVE INFORMATION
#MNEM.UNIT   API CODE                                  DESCRIPTION
#---- -----  --------                                  -----------------------
TIME .S                                                :TIME {F10.1}
FREQ_EMF_SL.HZ                                         :Electromagnetic Field Frequency {F13.4}
PH_SH_WPPCM_SL.DEG                                     :WPPCM Phase Shift {F13.4}
RB_SL.DEG                                              :Relative Bearing {F13.4}
SDEV_SL.DEG                                            :Sonde Deviation {F13.4}
RTIX_SL.DEG                                            :Raw X-axis Tilt {F13.4}
RTIY_SL.DEG                                            :Raw Y-axis Tilt {F13.4}
TILX_SL.DEG                                            :X-axis Tilt {F13.4}
TILY_SL.DEG                                            :Y-axis Tilt {F13.4}
ROTA_SL.DEG                                            :Motor Rotation Angle {F13.4}
TOD7 .S                                                :Time of Day {I11}
TOJ  .S                                                :Time of Job {F13.4}
#-----------------------------------------------------------------------------
# 
#     TIME    FREQ_EMF_SL  PH_SH_WPPCM_    RB_SL       SDEV_SL      RTIX_SL      RTIY_SL      TILX_SL      TILY_SL      ROTA_SL        TOD7            TOJ
#                          SL
~A  
# ...
      53.0    1195.7908       0.0000     175.9129      75.4210       1.6468     104.9153       3.9552     105.1291     350.7560 1533229969 9999999.9999
      54.0    1193.7606       0.0000    -175.5769      75.3457      -6.5873     105.0760      -4.2789     105.2932     356.8607 1533229970 9999999.9999
      55.0    1183.7122       0.0000    -167.6397      84.9874     -14.6207     103.1480     -12.3123     103.3233       2.9594 1533229971 9999999.9999
      56.0    1185.7083       0.0000    -160.1322    -999.2500     -23.2565      98.2878     -20.9481      98.3576       9.0581 1533229972 9999999.9999
      57.0    1181.7228       0.0000    -154.1617    -999.2500     -31.2497      92.1825     -28.9413      92.1196      15.1630 1533229973 9999999.9999
      58.0    1189.7208       0.0000    -149.0046    -999.2500     -39.0420      84.8320     -36.7336      84.6094      21.2940 1533229974 9999999.9999
      59.0    1191.7373       0.0000    -144.4694    -999.2500     -46.2720      76.8388     -43.9636      76.4426      27.4060 1533229975 9999999.9999
      60.0    1199.8721       0.0000    -139.6756    -999.2500     -53.5823      67.3997     -51.2739      66.7983      33.5048 1533229976 9999999.9999
      61.0    1208.1185       0.0000    -131.4535    -999.2500     -67.7612      54.3455     -65.4528      53.4605      39.6229 1533229977 9999999.9999
      62.0    1218.5875       0.0000    -127.0555    -999.2500     -77.2405      47.8385     -74.9321      46.8121      46.1327 1533229978 9999999.9999
      63.0    1237.8961       0.0000    -122.7794    -999.2500     -85.1533      40.8897     -82.8449      39.7123      52.2314 1533229979 9999999.9999
      64.0    1251.1122       0.0000    -118.0535    -999.2500     -92.1825      33.5392     -89.8741      32.2021      58.3363 1533229980 9999999.9999
      65.0    1271.4738       0.0000    -112.6529    -999.2500     -98.2075      26.0280     -95.8991      24.5277      64.4412 1533229981 9999999.9999
      66.0    1290.1376       0.0000    -106.1561    -999.2500    -102.5053      18.2357    -100.1969      16.5661      70.5530 1533229982 9999999.9999
      67.0    1316.7135       0.0000     -98.7015      81.4657    -104.4735      10.4433    -102.1651       8.6045      76.6517 1533229983 9999999.9999
      68.0    1341.8416       0.0000     -89.6078      77.7206    -104.5940       1.6468    -102.2856      -0.3832      82.7627 1533229984 9999999.9999
      69.0    1365.2913       0.0000     -80.9512      82.0173    -104.3530      -6.7480    -102.0446      -8.9604      88.8744 1533229985 9999999.9999
      70.0    1395.0892       0.0000     -73.4129      84.6707    -102.5455     -14.6608    -100.2371     -17.0452      94.9732 1533229986 9999999.9999
      71.0    1426.2170       0.0000     -66.9966    -999.2500     -98.4887     -22.4130     -96.1803     -24.9658     101.0851 1533229987 9999999.9999
      72.0    1455.7454       0.0000     -61.6042    -999.2500     -92.9858     -30.0045     -90.6774     -32.7222     107.1900 1533229988 9999999.9999
      73.0    1489.6716       0.0000     -57.0838    -999.2500     -86.2378     -37.1943     -83.9294     -40.0682     113.3079 1533229989 9999999.9999
      74.0    1525.2169       0.0000     -52.9574    -999.2500     -78.4857     -44.1030     -76.1773     -47.1270     119.8116 1533229990 9999999.9999
      75.0    1559.0355       0.0000     -48.7077    -999.2500     -69.0867     -50.6502     -66.7783     -53.8164     125.9164 1533229991 9999999.9999
      76.0    1590.7806       0.0000     -39.3010    -999.2500     -52.8995     -67.1988     -50.5911     -70.7247     132.0213 1533229992 9999999.9999
      77.0    1612.6721       0.0000     -35.2386    -999.2500     -46.5130     -76.9995     -44.2046     -80.7383     138.1332 1533229993 9999999.9999
      78.0    1642.8153       0.0000     -31.1716    -999.2500     -39.5240     -84.9123     -37.2156     -88.8230     144.2321 1533229994 9999999.9999
      79.0    1666.1730       0.0000     -26.8453    -999.2500     -32.5752     -91.1783     -30.2668     -95.2252     150.3370 1533229995 9999999.9999
      80.0    1686.1511       0.0000     -21.3570    -999.2500     -24.9435     -96.0385     -22.6351    -100.1909     156.4420 1533229996 9999999.9999
      81.0    1710.7665       0.0000     -15.2668    -999.2500     -17.7537     -98.4485     -15.4453    -102.6533     162.5408 1533229997 9999999.9999
      82.0    1727.5798       0.0000      -7.9168      79.1129     -10.0818     -99.2117      -7.7734    -103.4330     168.6397 1533229998 9999999.9999
      83.0    1731.8351       0.0000       0.8450      76.6753      -1.4862     -99.1313       0.8222    -103.3510     174.7446 1533229999 9999999.9999
      84.0    1740.4083       0.0000       9.0497      80.9433       6.6275     -98.5690       8.9359    -102.7764     180.8496 1533230000 9999999.9999
      85.0    1749.0671       0.0000      16.0535     100.5369      14.0985     -96.8418      16.4069    -101.0117     186.9484 1533230001 9999999.9999
      86.0    1740.4083       0.0000      21.8522    -999.2500      21.1277     -93.2670      23.4361     -97.3592     193.4583 1533230002 9999999.9999
      87.0    1740.4083       0.0000      26.7362    -999.2500      27.9158     -88.1658      30.2242     -92.1472     199.5633 1533230003 9999999.9999
      88.0    1731.8351       0.0000      31.0256    -999.2500      34.5433     -81.8195      36.8517     -85.6630     205.6621 1533230004 9999999.9999
      89.0    1723.3456       0.0000      35.0621    -999.2500      41.0503     -74.3485      43.3587     -78.0297     211.7732 1533230005 9999999.9999
      90.0    1714.9390       0.0000      39.4486    -999.2500      47.5573     -64.8290      49.8657     -68.3033     217.8659 1533230006 9999999.9999
      91.0    1694.2772       0.0000      49.6572    -999.2500      67.3595     -49.6460      69.6679     -52.7904     223.9709 1533230007 9999999.9999
      92.0    1678.1025       0.0000      54.1168    -999.2500      77.5217     -42.4160      79.8301     -45.4034     230.0452 1533230008 9999999.9999
      93.0    1650.5282       0.0000      57.9546    -999.2500      85.3140     -35.8688      87.6224     -38.7139     236.1440 1533230009 9999999.9999
      94.0    1623.8453       0.0000      62.2045    -999.2500      91.4193     -29.0405      93.7277     -31.7372     242.2551 1533230010 9999999.9999
      95.0    1594.3877       0.0000      67.2102    -999.2500      96.1590     -22.0113      98.4674     -24.5554     248.3539 1533230011 9999999.9999
      96.0    1562.5000       0.0000      73.0875    -999.2500      98.5690     -14.9822     100.8774     -17.3735     254.4535 1533230012 9999999.9999
      97.0    1528.5327       0.0000      80.7547      82.5043      99.5732      -6.9488     101.8816      -9.1656     260.5716 1533230013 9999999.9999
      98.0    1496.0106       0.0000      89.6077      77.6426     100.0552       1.6468     102.3636      -0.3832     267.0813 1533230014 9999999.9999
      99.0    1467.9019       0.0000      98.3002      80.8589     100.0150      10.0417     102.3234       8.1941     273.1931 1533230015 9999999.9999
     100.0    1434.9490       0.0000     105.3528      97.2336      98.1673      17.3520     100.4757      15.6632     279.2917 1533230016 9999999.9999
     101.0    1400.6475       0.0000     111.8591    -999.2500      93.9498      25.0238      96.2582      23.5018     285.3965 1533230017 9999999.9999
     102.0    1378.6765       0.0000     117.2599    -999.2500      88.3667      32.3743      90.6751      31.0120     291.5012 1533230018 9999999.9999
     103.0    1354.7688       0.0000     122.0700    -999.2500      81.4178      39.7248      83.7262      38.5222     297.6131 1533230019 9999999.9999
     104.0    1326.6509       0.0000     126.9676    -999.2500      72.3000      47.5573      74.6084      46.5248     303.7248 1533230020 9999999.9999
     105.0    1302.0834       0.0000     131.8161    -999.2500      61.4148      54.2250      63.7232      53.3374     309.8295 1533230021 9999999.9999
