~VERSION INFORMATION
VERS.           2.0   :CWLS Log ASCII Standard - VERSION 2.0
WRAP.           NO    :One Line per depth step
PROD.  Schlumberger   :LAS Producer
PROG.  DLIS to ASCII 19C2-270                          :LAS Program name and version
CREA.        2018/08/03 10:59                          :LAS Creation date {YYYY/MM/DD hh:mm}
DLIS_CREA.  2018-Aug-03 08:56                          :DLIS Creation date and time {YYYY-MMM-DD hh:mm}
SOURCE.     PERFO_Perfo_063PTP.DLIS                    :DLIS File Name
FILE-ID.     PERFO_Perfo_063PTP                        :File Identification Number
#--------------------------------------------------
~WELL INFORMATION
#MNEM.UNIT      DATA             DESCRIPTION
#---- ------ --------------   -----------------------------
STRT .S            0.0       :START TIME      
STOP .S          897.0       :STOP TIME      
STEP .S            1.0       :STEP     
NULL .          -999.25      :NULL VALUE
COMP .        SHELL INTERNATIONAL EP                   :COMPANY
WELL .        WPP TEST 4                               :WELL
FLD  .        WILDCAT                                  :FIELD
LOC  .        NA                                       :LOCATION
CNTY .        HARRIS                                   :COUNTY
STAT .        TEXAS                                    :STATE
CTRY .                                                 :COUNTRY
API  .        NA                                       :API NUMBER
UWI  .                                                 :UNIQUE WELL ID
DATE .        02-Aug-2018                              :LOG DATE {DD-MMM-YYYY}
SRVC .        Schlumberger                             :SERVICE COMPANY
LATI .DEG                                              :LATITUDE
LONG .DEG                                              :LONGITUDE
GDAT .                                                 :GeoDetic Datum
SECT .        NA                                       :Section
RANG .        NA                                       :Range
TOWN .        NA                                       :Township
#-----------------------------------------------------------------------------
~PARAMETER INFORMATION
#MNEM.UNIT    VALUE                      DESCRIPTION
#---- -----   --------------------       ------------------------
U-PHASE_B_COMP_PER_YT.                 0 :Phase B Comparator Period Yt
U-PHASE_A_COMP_PER_XT.                 0 :Phase A Comparator Period Xt
U-MAX_EXC_CUR_LIMIT.MA       265.00000   :Requested CM Current Limit
U-REQ_EXC_FQ.HZ              50          :Requested CM Frequency
U-TILT_Y_OFFSET.          -2.06578       :WPTET Tilt Y Offset
U-TILT_Y_GAIN.           1.02173         :WPTET Tilt Y Gain
U-TILT_X_OFFSET.           2.30841       :WPTET Tilt X Offset
U-TILT_X_GAIN.           1.00000         :WPTET Tilt X Gain
U-TILT_OFFSET_TOL.           0.00100     :WPTET Tilt Offset Calibration Tolerance
U-MOT_CUR_LIMIT_REQ.MA        70.00000   :Requested Motor Current Limit
U-MOT_SPD_REQ_WPMS.RPM        1.00000    :Requested Motor Speed
U-STD_TOL_TILT.           0.01000        :Tilt Standard Deviation Tolerance
CWEI .LB/F      29.00000                 :Casing Weight
CSIZ .IN         7.00000                 :Current Casing Size
LCC  .               440                 :Logging Company Code
LUN  .              2134                 :Logging Unit Number
HIDE .                                   :Header Identifier
HID1 .                                   :Header Identifier Line 1
R1   .                                   :Remark Line 1
WITN .        MR. KELLY McCOY            :Witness's Name
ENGI .        MORRIS MOORE               :Engineer's Name
LUL  .        IOWA COLONY                :Logging Unit Location
DATE .        02-Aug-2018                :Date as Month-Day-Year
STAT .        TEXAS                      :State or Province
COUN .        HARRIS                     :County or Rig Name
FN   .        WILDCAT                    :Field Name
WN   .        WPP TEST 4                 :Well Name
CN   .        SHELL INTERNATIONAL EP     :Company Name
CLAB .        County                     :County/Rig Label
SLAB .        State                      :State/Province Label
RUN  .          1                        :RUN NUMBER
PDAT .        GROUND LEVEL               :Permanent Datum
EPD  .                                   :Elevation of Permanent Datum above Mean Sea Level
LMF  .          NA                       :Logging Measured From (Name of Logging Elevation Reference)
APD  .                                   :Elevation of Depth Reference (LMF) above Permanent Datum
#-----------------------------------------------------------------------------
~CURVE INFORMATION
#MNEM.UNIT   API CODE                                  DESCRIPTION
#---- -----  --------                                  -----------------------
TIME .S                                                :TIME {F10.1}
FREQ_EMF_SL.HZ                                         :Electromagnetic Field Frequency {F13.4}
PH_SH_WPPCM_SL.DEG                                     :WPPCM Phase Shift {F13.4}
RB_SL.DEG                                              :Relative Bearing {F13.4}
SDEV_SL.DEG                                            :Sonde Deviation {F13.4}
RTIX_SL.DEG                                            :Raw X-axis Tilt {F13.4}
RTIY_SL.DEG                                            :Raw Y-axis Tilt {F13.4}
TILX_SL.DEG                                            :X-axis Tilt {F13.4}
TILY_SL.DEG                                            :Y-axis Tilt {F13.4}
ROTA_SL.DEG                                            :Motor Rotation Angle {F13.4}
TOD7 .S                                                :Time of Day {I11}
TOJ  .S                                                :Time of Job {F13.4}
#-----------------------------------------------------------------------------
# 
#     TIME    FREQ_EMF_SL  PH_SH_WPPCM_    RB_SL       SDEV_SL      RTIX_SL      RTIY_SL      TILX_SL      TILY_SL      ROTA_SL        TOD7            TOJ
#                          SL
~A  
# ...
     742.0       0.0000       0.0000     117.3168    -999.2500      88.6077      32.4547      90.9161      31.0940      49.6708 1533231697 9999999.9999
     743.0       0.0000       0.0000     122.1857    -999.2500      81.4178      39.9257      83.7262      38.7274      55.7704 1533231698 9999999.9999
     744.0       0.0000       0.0000     126.7154    -999.2500      72.9427      47.1958      75.2511      46.1555      61.8822 1533231699 9999999.9999
     745.0       0.0000       0.0000     131.3079    -999.2500      62.9813      53.8635      65.2897      52.9680      67.9938 1533231700 9999999.9999
     746.0       0.0000       0.0000     140.2873    -999.2500      49.8067      72.3402      52.1151      71.8461      73.6753 1533231701 9999999.9999
     747.0       0.0000       0.0000     143.9869    -999.2500      43.5005      80.8555      45.8089      80.5465      79.7740 1533231702 9999999.9999
     748.0       0.0000       0.0000     147.8371    -999.2500      36.6320      88.3265      38.9404      88.1798      85.8788 1533231703 9999999.9999
     749.0       0.0000       0.0000     152.4477    -999.2500      29.0003      95.1147      31.3087      95.1155      91.9837 1533231704 9999999.9999
     750.0       0.0000       0.0000     157.7791    -999.2500      21.3687     100.4568      23.6771     100.5737      98.0701 1533231705 9999999.9999
     751.0       0.0000       0.0000     164.3223      87.2425      13.4960     103.7907      15.8044     103.9800     104.1821 1533231706 9999999.9999
     752.0       0.0000       0.0000     172.3488      76.8614       5.1413     104.9555       7.4497     105.1701     110.6981 1533231707 9999999.9999
     753.0       0.0000       0.0000    -179.0612      74.5705      -3.2133     105.2367      -0.9049     105.4574     116.7968 1533231708 9999999.9999
     754.0       0.0000       0.0000    -170.9122      78.3205     -11.2065     104.5538      -8.8981     104.7597     122.9085 1533231709 9999999.9999
     755.0       0.0000       0.0000    -163.3348      93.3408     -19.4005     100.8183     -17.0921     100.9431     129.0134 1533231710 9999999.9999
     756.0       0.0000       0.0000    -156.8107    -999.2500     -27.5543      95.3557     -25.2459      95.3617     135.1184 1533231711 9999999.9999
     757.0       0.0000       0.0000    -151.3653    -999.2500     -35.3868      88.5273     -33.0784      88.3850     141.2172 1533231712 9999999.9999
     758.0       0.0000       0.0000    -146.2465    -999.2500     -43.4603      80.2932     -41.1519      79.9719     147.3297 1533231713 9999999.9999
     759.0       0.0000       0.0000    -141.6132    -999.2500     -50.8108      71.4967     -48.5024      70.9843     153.4347 1533231714 9999999.9999
     760.0    1690.2042       0.0000    -135.8292    -999.2500     -58.2417      59.2860     -55.9333      58.5083     159.4802 1533231715 9999999.9999
     761.0    1635.1744       0.0000    -128.7495    -999.2500     -73.7058      50.4895     -71.3974      49.5207     165.5921 1533231716 9999999.9999
     762.0    1598.0114       0.0000    -124.5354    -999.2500     -82.0605      43.7415     -79.7521      42.6261     171.6786 1533231717 9999999.9999
     763.0    1562.5000       0.0000    -120.1408    -999.2500     -89.4512      36.7123     -87.1428      35.4442     177.7968 1533231718 9999999.9999
     764.0    1531.8628       0.0000    -114.9656    -999.2500     -95.9180      29.1208     -93.6096      27.6878     184.3198 1533231719 9999999.9999
     765.0    1505.6210       0.0000    -108.8607    -999.2500    -101.1798      21.3285     -98.8714      19.7261     190.4186 1533231720 9999999.9999
     766.0    1467.9019       0.0000    -101.9216      83.7966    -104.0718      13.6968    -101.7634      11.9286     196.5236 1533231721 9999999.9999
     767.0    1429.1158       0.0000     -93.6762      78.1429    -104.7145       5.5430    -102.4061       3.5977     202.6161 1533231722 9999999.9999
     768.0    1403.4431       0.0000     -85.0480      78.7425    -104.5940      -2.7313    -102.2856      -4.8565     208.7149 1533231723 9999999.9999
     769.0    1370.6140       0.0000     -76.8879      91.7650    -103.9513     -10.8852    -101.6429     -13.1875     214.8138 1533231724 9999999.9999
     770.0    1339.2858       0.0000     -69.5890    -999.2500    -100.6978     -19.1193     -98.3894     -21.6005     220.9187 1533231725 9999999.9999
     771.0    1311.8003       0.0000     -63.7292    -999.2500     -95.6770     -26.8715     -93.3686     -29.5211     227.0245 1533231726 9999999.9999
     772.0    1294.8895       0.0000     -58.9073    -999.2500     -89.3307     -34.2220     -87.0223     -37.0313     233.1233 1533231727 9999999.9999
     773.0    1269.1787       0.0000     -54.6177    -999.2500     -82.0605     -41.3717     -79.7521     -44.3363     239.2483 1533231728 9999999.9999
     774.0    1246.6755       0.0000     -50.5793    -999.2500     -73.5452     -47.9992     -71.2368     -51.1078     245.3532 1533231729 9999999.9999
     775.0    1229.2395       0.0000     -45.6566    -999.2500     -62.0575     -54.3455     -59.7491     -57.5921     251.4582 1533231730 9999999.9999
     776.0    1212.2845       0.0000     -37.0428    -999.2500     -49.5657     -73.0230     -47.2573     -76.6754     257.9750 1533231731 9999999.9999
     777.0    1197.8279       0.0000     -33.0214    -999.2500     -42.6972     -81.6990     -40.3888     -85.5399     264.0673 1533231732 9999999.9999
     778.0    1187.7112       0.0000     -28.7843    -999.2500     -35.5877     -88.8487     -33.2793     -92.8449     270.1853 1533231733 9999999.9999
     779.0    1177.7638       0.0000     -24.0272    -999.2500     -28.4782     -94.2712     -26.1698     -98.3852     276.2839 1533231734 9999999.9999
     780.0    1162.1901       0.0000     -18.3141    -999.2500     -21.2080     -97.6853     -18.8996    -101.8735     282.3958 1533231735 9999999.9999
     781.0    1158.3608       0.0000     -11.6293      83.3126     -13.8575     -99.1715     -11.5491    -103.3920     288.5135 1533231736 9999999.9999
     782.0    1152.6639       0.0000      -2.8271      76.8205      -5.0610     -99.2518      -2.7526    -103.4741     294.6183 1533231737 9999999.9999
     783.0    1152.6639       0.0000       6.0139      78.0582       3.5748     -99.1313       5.8832    -103.3510     300.7179 1533231738 9999999.9999
     784.0    1150.7773       0.0000      13.5940      91.6908      11.3672     -97.9263      13.6756    -102.1198     306.8165 1533231739 9999999.9999
     785.0    1162.1901       0.0000      19.6383    -999.2500      18.3160     -95.0745      20.6244     -99.2060     312.9345 1533231740 9999999.9999
     786.0    1166.0448       0.0000      24.9069    -999.2500      25.2648     -90.4955      27.5732     -94.5275     319.0270 1533231741 9999999.9999
     787.0    1179.7399       0.0000      29.3724    -999.2500      31.9325     -84.7115      34.2409     -88.6178     325.1256 1533231742 9999999.9999
     788.0    1185.7083       0.0000      33.4685    -999.2500      38.5198     -77.7225      40.8282     -81.4770     331.6230 1533231743 9999999.9999
     789.0    1203.9811       0.0000      37.6274    -999.2500      45.0670     -69.0867      47.3754     -72.6535     337.7153 1533231744 9999999.9999
     790.0    1220.7031       0.0000      42.8526    -999.2500      49.9673     -55.2292      52.2757     -58.4949     343.8139 1533231745 9999999.9999
     791.0    1237.8961       0.0000      52.2736    -999.2500      73.5452     -45.5490      75.8536     -48.6044     349.9125 1533231746 9999999.9999
     792.0    1262.3429       0.0000      56.0360    -999.2500      81.8998     -39.1625      84.2082     -42.0792     356.0172 1533231747 9999999.9999
     793.0    1280.7377       0.0000      59.9946    -999.2500      88.7282     -32.4948      91.0366     -35.2666       2.1220 1533231748 9999999.9999
     794.0    1311.1888       0.0000      64.7988    -999.2500      94.4720     -25.2447      96.7804     -27.8590       8.2083 1533231749 9999999.9999
