~VERSION INFORMATION
VERS.           2.0   :CWLS Log ASCII Standard - VERSION 2.0
WRAP.           NO    :One Line per depth step
PROD.  Schlumberger   :LAS Producer
PROG.  DLIS to ASCII 19C2-270                          :LAS Program name and version
CREA.        2018/08/03 10:59                          :LAS Creation date {YYYY/MM/DD hh:mm}
DLIS_CREA.  2018-Aug-03 08:48                          :DLIS Creation date and time {YYYY-MMM-DD hh:mm}
SOURCE.     PERFO_Perfo_061PTP.DLIS                    :DLIS File Name
FILE-ID.     PERFO_Perfo_061PTP                        :File Identification Number
#--------------------------------------------------
~WELL INFORMATION
#MNEM.UNIT      DATA             DESCRIPTION
#---- ------ --------------   -----------------------------
STRT .S            0.0       :START TIME      
STOP .S          993.0       :STOP TIME      
STEP .S            1.0       :STEP     
NULL .          -999.25      :NULL VALUE
COMP .        SHELL INTERNATIONAL EP                   :COMPANY
WELL .        WPP TEST 4                               :WELL
FLD  .        WILDCAT                                  :FIELD
LOC  .        NA                                       :LOCATION
CNTY .        HARRIS                                   :COUNTY
STAT .        TEXAS                                    :STATE
CTRY .                                                 :COUNTRY
API  .        NA                                       :API NUMBER
UWI  .                                                 :UNIQUE WELL ID
DATE .        02-Aug-2018                              :LOG DATE {DD-MMM-YYYY}
SRVC .        Schlumberger                             :SERVICE COMPANY
LATI .DEG                                              :LATITUDE
LONG .DEG                                              :LONGITUDE
GDAT .                                                 :GeoDetic Datum
SECT .        NA                                       :Section
RANG .        NA                                       :Range
TOWN .        NA                                       :Township
#-----------------------------------------------------------------------------
~PARAMETER INFORMATION
#MNEM.UNIT    VALUE                      DESCRIPTION
#---- -----   --------------------       ------------------------
U-PHASE_B_COMP_PER_YT.                 0 :Phase B Comparator Period Yt
U-PHASE_A_COMP_PER_XT.                 0 :Phase A Comparator Period Xt
U-MAX_EXC_CUR_LIMIT.MA       265.00000   :Requested CM Current Limit
U-REQ_EXC_FQ.HZ              50          :Requested CM Frequency
U-TILT_Y_OFFSET.          -2.06578       :WPTET Tilt Y Offset
U-TILT_Y_GAIN.           1.02173         :WPTET Tilt Y Gain
U-TILT_X_OFFSET.           2.30841       :WPTET Tilt X Offset
U-TILT_X_GAIN.           1.00000         :WPTET Tilt X Gain
U-TILT_OFFSET_TOL.           0.00100     :WPTET Tilt Offset Calibration Tolerance
U-MOT_CUR_LIMIT_REQ.MA        70.00000   :Requested Motor Current Limit
U-MOT_SPD_REQ_WPMS.RPM        1.00000    :Requested Motor Speed
U-STD_TOL_TILT.           0.01000        :Tilt Standard Deviation Tolerance
CWEI .LB/F      29.00000                 :Casing Weight
CSIZ .IN         7.00000                 :Current Casing Size
LCC  .               440                 :Logging Company Code
LUN  .              2134                 :Logging Unit Number
HIDE .                                   :Header Identifier
HID1 .                                   :Header Identifier Line 1
R1   .                                   :Remark Line 1
WITN .        MR. KELLY McCOY            :Witness's Name
ENGI .        MORRIS MOORE               :Engineer's Name
LUL  .        IOWA COLONY                :Logging Unit Location
DATE .        02-Aug-2018                :Date as Month-Day-Year
STAT .        TEXAS                      :State or Province
COUN .        HARRIS                     :County or Rig Name
FN   .        WILDCAT                    :Field Name
WN   .        WPP TEST 4                 :Well Name
CN   .        SHELL INTERNATIONAL EP     :Company Name
CLAB .        County                     :County/Rig Label
SLAB .        State                      :State/Province Label
RUN  .          1                        :RUN NUMBER
PDAT .        GROUND LEVEL               :Permanent Datum
EPD  .                                   :Elevation of Permanent Datum above Mean Sea Level
LMF  .          NA                       :Logging Measured From (Name of Logging Elevation Reference)
APD  .                                   :Elevation of Depth Reference (LMF) above Permanent Datum
#-----------------------------------------------------------------------------
~CURVE INFORMATION
#MNEM.UNIT   API CODE                                  DESCRIPTION
#---- -----  --------                                  -----------------------
TIME .S                                                :TIME {F10.1}
FREQ_EMF_SL.HZ                                         :Electromagnetic Field Frequency {F13.4}
PH_SH_WPPCM_SL.DEG                                     :WPPCM Phase Shift {F13.4}
RB_SL.DEG                                              :Relative Bearing {F13.4}
SDEV_SL.DEG                                            :Sonde Deviation {F13.4}
RTIX_SL.DEG                                            :Raw X-axis Tilt {F13.4}
RTIY_SL.DEG                                            :Raw Y-axis Tilt {F13.4}
TILX_SL.DEG                                            :X-axis Tilt {F13.4}
TILY_SL.DEG                                            :Y-axis Tilt {F13.4}
ROTA_SL.DEG                                            :Motor Rotation Angle {F13.4}
TOD7 .S                                                :Time of Day {I11}
TOJ  .S                                                :Time of Job {F13.4}
#-----------------------------------------------------------------------------
# 
#     TIME    FREQ_EMF_SL  PH_SH_WPPCM_    RB_SL       SDEV_SL      RTIX_SL      RTIY_SL      TILX_SL      TILY_SL      ROTA_SL        TOD7            TOJ
#                          SL
~A  
# ...
     583.0       0.0000       0.0000    -147.4182    -999.2500     -41.5725      82.3015     -39.2641      82.0239     348.9653 1533229423 9999999.9999
     584.0       0.0000       0.0000    -142.8629    -999.2500     -48.8025      73.7460     -46.4941      73.2825     355.0639 1533229424 9999999.9999
     585.0       0.0000       0.0000    -137.8128    -999.2500     -55.9522      63.3830     -53.6438      62.6944       1.1686 1533229425 9999999.9999
     586.0       0.0000       0.0000    -129.8345    -999.2500     -71.3360      52.0962     -69.0276      51.1623       7.2804 1533229426 9999999.9999
     587.0       0.0000       0.0000    -125.6017    -999.2500     -80.0120      45.4687     -77.7036      44.3908      13.7903 1533229427 9999999.9999
     588.0       0.0000       0.0000    -121.1702    -999.2500     -87.7642      38.3190     -85.4557      37.0858      19.9082 1533229428 9999999.9999
     589.0       0.0000       0.0000    -116.2847    -999.2500     -94.3917      30.9685     -92.0833      29.5756      26.0070 1533229429 9999999.9999
     590.0       0.0000       0.0000    -110.3852    -999.2500     -99.8945      23.1762     -97.5861      21.6139      32.0873 1533229430 9999999.9999
     591.0       0.0000       0.0000    -103.5655    -999.2500    -103.4693      15.4240    -101.1609      13.6933      38.1861 1533229431 9999999.9999
     592.0       0.0000       0.0000     -95.5868      79.0860    -104.5538       7.3907    -102.2454       5.4855      44.2909 1533229432 9999999.9999
     593.0       0.0000       0.0000     -86.5383      78.2679    -104.5337      -1.2954    -102.2253      -3.3893      50.4027 1533229433 9999999.9999
     594.0       0.0000       0.0000     -78.0536      86.7347    -104.0317      -9.6802    -101.7233     -11.9563      56.5015 1533229434 9999999.9999
     595.0       0.0000       0.0000     -71.0650    -999.2500    -101.5012     -17.3520     -99.1927     -19.7948      62.6063 1533229435 9999999.9999
     596.0       0.0000       0.0000     -65.1138    -999.2500     -96.6812     -24.9435     -94.3727     -27.5512      68.7112 1533229436 9999999.9999
     597.0       0.0000       0.0000     -59.8889    -999.2500     -90.7365     -32.6555     -88.4281     -35.4308      74.8099 1533229437 9999999.9999
     598.0       0.0000       0.0000     -55.6824    -999.2500     -83.7073     -39.5240     -81.3989     -42.4485      80.9219 1533229438 9999999.9999
     599.0       0.0000       0.0000     -51.5485    -999.2500     -75.4732     -46.3925     -73.1647     -49.4663      87.0267 1533229439 9999999.9999
     600.0       0.0000       0.0000     -46.9640    -999.2500     -65.0700     -52.8995     -62.7616     -56.1146      93.5365 1533229440 9999999.9999
     601.0       0.0000       0.0000     -37.9526    -999.2500     -50.9715     -70.6933     -48.6631     -74.2951      99.6360 1533229441 9999999.9999
     602.0       0.0000       0.0000     -33.8884    -999.2500     -44.1833     -79.8112     -41.8749     -83.6110     105.7409 1533229442 9999999.9999
     603.0       0.0000       0.0000     -29.7222    -999.2500     -37.1140     -87.1617     -34.8056     -91.1212     111.8457 1533229443 9999999.9999
     604.0       0.0000       0.0000     -25.1838    -999.2500     -30.1250     -92.9858     -27.8166     -97.0719     117.9445 1533229444 9999999.9999
     605.0       0.0000       0.0000     -19.5125    -999.2500     -22.6540     -96.9724     -20.3456    -101.1451     124.0564 1533229445 9999999.9999
     606.0       0.0000       0.0000     -12.8820      88.0748     -15.1830     -98.8100     -12.8746    -103.0226     130.1613 1533229446 9999999.9999
     607.0       0.0000       0.0000      -4.8774      77.4685      -7.0693     -99.2117      -4.7609    -103.4330     136.2663 1533229447 9999999.9999
     608.0       0.0000       0.0000       3.8892      77.3471       1.4862     -99.0108       3.7946    -103.2278     142.3528 1533229448 9999999.9999
     609.0    1311.8003       0.0000      11.6581      85.8472       9.3187     -98.1673      11.6271    -102.3660     148.3677 1533229449 9999999.9999
     610.0    1349.5681       0.0000      18.0970    -999.2500      16.4683     -95.7975      18.7767     -99.9447     154.4788 1533229450 9999999.9999
     611.0    1367.9475       0.0000      23.6859    -999.2500      23.5778     -91.5398      25.8862     -95.5945     160.5776 1533229451 9999999.9999
     612.0    1386.8344       0.0000      28.3106    -999.2500      30.2857     -86.0370      32.5941     -89.9721     167.0822 1533229452 9999999.9999
     613.0    1411.8976       0.0000      32.3794    -999.2500      36.7123     -79.3693      39.0207     -83.1596     173.1871 1533229453 9999999.9999
     614.0    1432.0265       0.0000      36.6172    -999.2500      43.4603     -71.0147      45.7687     -74.6234     179.2921 1533229454 9999999.9999
     615.0    1461.7983       0.0000      41.3555    -999.2500      49.4853     -59.8483      51.7937     -63.2144     185.3909 1533229455 9999999.9999
     616.0    1486.5221       0.0000      51.3638    -999.2500      71.2155     -46.9548      73.5239     -50.0408     191.4898 1533229456 9999999.9999
     617.0    1508.8519       0.0000      55.2420    -999.2500      79.8915     -40.4880      82.1999     -43.4335     197.5825 1533229457 9999999.9999
     618.0    1531.8628       0.0000      59.4272    -999.2500      87.5232     -33.4187      89.8316     -36.2105     203.6874 1533229458 9999999.9999
     619.0    1559.0355       0.0000      63.8920    -999.2500      93.2670     -26.5502      95.5754     -29.1928     209.7863 1533229459 9999999.9999
     620.0    1576.5134       0.0000      69.1951    -999.2500      97.1632     -19.5210      99.4716     -22.0109     215.8851 1533229460 9999999.9999
     621.0    1598.0114       0.0000      75.6790    -999.2500      98.9305     -12.1705     101.2389     -14.5007     221.9906 1533229461 9999999.9999
     622.0    1608.9817       0.0000      83.8956      79.6934      99.6535      -3.8560     101.9619      -6.0056     228.1087 1533229462 9999999.9999
     623.0    1631.3805       0.0000      92.8407      77.8384     100.1757       4.7397     102.4841       2.7769     234.2075 1533229463 9999999.9999
     624.0    1642.8153       0.0000     100.8599      85.1506      99.5732      12.6123     101.8816      10.8206     240.7050 1533229464 9999999.9999
     625.0    1654.4117       0.0000     107.8804    -999.2500      96.7615      20.2038      99.0699      18.5770     246.8107 1533229465 9999999.9999
     626.0    1662.2340       0.0000     113.9815    -999.2500      91.9817      27.7953      94.2901      26.3335     252.8850 1533229466 9999999.9999
     627.0    1658.3137       0.0000     119.0754    -999.2500      85.8362      35.0655      88.1446      33.7616     258.9837 1533229467 9999999.9999
     628.0    1662.2340       0.0000     123.7615    -999.2500      78.3652      42.4160      80.6736      41.2718     265.0884 1533229468 9999999.9999
     629.0    1658.3137       0.0000     128.2616    -999.2500      69.5285      49.5255      71.8369      48.5358     271.1931 1533229469 9999999.9999
     630.0    1650.5282       0.0000     137.1134    -999.2500      54.5062      64.9495      56.8146      64.2949     277.2793 1533229470 9999999.9999
     631.0    1650.5282       0.0000     141.5956    -999.2500      47.5975      75.2322      49.9059      74.8010     283.3779 1533229471 9999999.9999
     632.0    1638.9860       0.0000     145.4285    -999.2500      40.8897      83.6270      43.1981      83.3782     289.4957 1533229472 9999999.9999
     633.0    1631.3805       0.0000     149.5486    -999.2500      33.6998      90.1742      36.0082      90.0676     295.6004 1533229473 9999999.9999
     634.0    1608.9817       0.0000     154.3224    -999.2500      26.1887      97.0427      28.4971      97.0854     301.6990 1533229474 9999999.9999
     635.0    1590.7806       0.0000     160.1609    -999.2500      18.3562     101.8627      20.6646     102.0101     307.8117 1533229475 9999999.9999
