~VERSION INFORMATION
VERS.           2.0   :CWLS Log ASCII Standard - VERSION 2.0
WRAP.           NO    :One Line per depth step
PROD.  Schlumberger   :LAS Producer
PROG.  DLIS to ASCII 19C2-270                          :LAS Program name and version
CREA.        2018/08/03 10:59                          :LAS Creation date {YYYY/MM/DD hh:mm}
DLIS_CREA.  2018-Aug-03 08:48                          :DLIS Creation date and time {YYYY-MMM-DD hh:mm}
SOURCE.     PERFO_Perfo_061PTP.DLIS                    :DLIS File Name
FILE-ID.     PERFO_Perfo_061PTP                        :File Identification Number
#--------------------------------------------------
~WELL INFORMATION
#MNEM.UNIT      DATA             DESCRIPTION
#---- ------ --------------   -----------------------------
STRT .S            0.0       :START TIME      
STOP .S          993.0       :STOP TIME      
STEP .S            1.0       :STEP     
NULL .          -999.25      :NULL VALUE
COMP .        SHELL INTERNATIONAL EP                   :COMPANY
WELL .        WPP TEST 4                               :WELL
FLD  .        WILDCAT                                  :FIELD
LOC  .        NA                                       :LOCATION
CNTY .        HARRIS                                   :COUNTY
STAT .        TEXAS                                    :STATE
CTRY .                                                 :COUNTRY
API  .        NA                                       :API NUMBER
UWI  .                                                 :UNIQUE WELL ID
DATE .        02-Aug-2018                              :LOG DATE {DD-MMM-YYYY}
SRVC .        Schlumberger                             :SERVICE COMPANY
LATI .DEG                                              :LATITUDE
LONG .DEG                                              :LONGITUDE
GDAT .                                                 :GeoDetic Datum
SECT .        NA                                       :Section
RANG .        NA                                       :Range
TOWN .        NA                                       :Township
#-----------------------------------------------------------------------------
~PARAMETER INFORMATION
#MNEM.UNIT    VALUE                      DESCRIPTION
#---- -----   --------------------       ------------------------
U-PHASE_B_COMP_PER_YT.                 0 :Phase B Comparator Period Yt
U-PHASE_A_COMP_PER_XT.                 0 :Phase A Comparator Period Xt
U-MAX_EXC_CUR_LIMIT.MA       265.00000   :Requested CM Current Limit
U-REQ_EXC_FQ.HZ              50          :Requested CM Frequency
U-TILT_Y_OFFSET.          -2.06578       :WPTET Tilt Y Offset
U-TILT_Y_GAIN.           1.02173         :WPTET Tilt Y Gain
U-TILT_X_OFFSET.           2.30841       :WPTET Tilt X Offset
U-TILT_X_GAIN.           1.00000         :WPTET Tilt X Gain
U-TILT_OFFSET_TOL.           0.00100     :WPTET Tilt Offset Calibration Tolerance
U-MOT_CUR_LIMIT_REQ.MA        70.00000   :Requested Motor Current Limit
U-MOT_SPD_REQ_WPMS.RPM        1.00000    :Requested Motor Speed
U-STD_TOL_TILT.           0.01000        :Tilt Standard Deviation Tolerance
CWEI .LB/F      29.00000                 :Casing Weight
CSIZ .IN         7.00000                 :Current Casing Size
LCC  .               440                 :Logging Company Code
LUN  .              2134                 :Logging Unit Number
HIDE .                                   :Header Identifier
HID1 .                                   :Header Identifier Line 1
R1   .                                   :Remark Line 1
WITN .        MR. KELLY McCOY            :Witness's Name
ENGI .        MORRIS MOORE               :Engineer's Name
LUL  .        IOWA COLONY                :Logging Unit Location
DATE .        02-Aug-2018                :Date as Month-Day-Year
STAT .        TEXAS                      :State or Province
COUN .        HARRIS                     :County or Rig Name
FN   .        WILDCAT                    :Field Name
WN   .        WPP TEST 4                 :Well Name
CN   .        SHELL INTERNATIONAL EP     :Company Name
CLAB .        County                     :County/Rig Label
SLAB .        State                      :State/Province Label
RUN  .          1                        :RUN NUMBER
PDAT .        GROUND LEVEL               :Permanent Datum
EPD  .                                   :Elevation of Permanent Datum above Mean Sea Level
LMF  .          NA                       :Logging Measured From (Name of Logging Elevation Reference)
APD  .                                   :Elevation of Depth Reference (LMF) above Permanent Datum
#-----------------------------------------------------------------------------
~CURVE INFORMATION
#MNEM.UNIT   API CODE                                  DESCRIPTION
#---- -----  --------                                  -----------------------
TIME .S                                                :TIME {F10.1}
FREQ_EMF_SL.HZ                                         :Electromagnetic Field Frequency {F13.4}
PH_SH_WPPCM_SL.DEG                                     :WPPCM Phase Shift {F13.4}
RB_SL.DEG                                              :Relative Bearing {F13.4}
SDEV_SL.DEG                                            :Sonde Deviation {F13.4}
RTIX_SL.DEG                                            :Raw X-axis Tilt {F13.4}
RTIY_SL.DEG                                            :Raw Y-axis Tilt {F13.4}
TILX_SL.DEG                                            :X-axis Tilt {F13.4}
TILY_SL.DEG                                            :Y-axis Tilt {F13.4}
ROTA_SL.DEG                                            :Motor Rotation Angle {F13.4}
TOD7 .S                                                :Time of Day {I11}
TOJ  .S                                                :Time of Job {F13.4}
#-----------------------------------------------------------------------------
# 
#     TIME    FREQ_EMF_SL  PH_SH_WPPCM_    RB_SL       SDEV_SL      RTIX_SL      RTIY_SL      TILX_SL      TILY_SL      ROTA_SL        TOD7            TOJ
#                          SL
~A  
# ...
     106.0    1173.8313       0.0000    -157.9679    -999.2500     -26.0280      96.2393     -23.7196      96.2646     302.8411 1533228946 9999999.9999
     107.0    1181.7228       0.0000    -152.3240    -999.2500     -33.9408      89.7725     -31.6324      89.6572     308.9397 1533228947 9999999.9999
     108.0    1185.7083       0.0000    -147.3382    -999.2500     -41.6930      82.1007     -39.3846      81.8187     314.6334 1533228948 9999999.9999
     109.0    1197.8279       0.0000    -142.8748    -999.2500     -48.8025      73.8263     -46.4941      73.3646     320.7381 1533228949 9999999.9999
     110.0    1201.9231       0.0000    -137.4520    -999.2500     -56.3538      62.5797     -54.0454      61.8736     326.8428 1533228950 9999999.9999
     111.0    1216.4792       0.0000    -129.5427    -999.2500     -71.9385      51.6543     -69.6301      50.7109     332.9547 1533228951 9999999.9999
     112.0    1235.7206       0.0000    -125.2247    -999.2500     -80.5743      44.8260     -78.2659      43.7342     339.0594 1533228952 9999999.9999
     113.0    1253.3423       0.0000    -120.8627    -999.2500     -88.2863      37.8370     -85.9779      36.5933     345.1581 1533228953 9999999.9999
     114.0    1278.4092       0.0000    -115.8779    -999.2500     -94.2310      30.4062     -91.9226      29.0010     351.2628 1533228954 9999999.9999
     115.0    1294.8895       0.0000    -109.8261    -999.2500    -100.3363      22.4933     -98.0279      20.9163     357.3614 1533228955 9999999.9999
     116.0    1316.7135       0.0000    -102.8781      86.7883    -103.6300      14.7010    -101.3216      12.9546       3.8712 1533228956 9999999.9999
     117.0    1346.9828       0.0000     -94.8817      78.7561    -104.5538       6.7078    -102.2454       4.7878       9.9891 1533228957 9999999.9999
     118.0    1370.6140       0.0000     -86.1733      78.4015    -104.5137      -1.6468    -102.2053      -3.7484      16.0878 1533228958 9999999.9999
     119.0    1395.0892       0.0000     -77.8644      87.3089    -103.8710      -9.8810    -101.5626     -12.1615      22.1866 1533228959 9999999.9999
     120.0    1426.2170       0.0000     -70.9003    -999.2500    -101.3003     -17.5528     -98.9919     -20.0000      28.3046 1533228960 9999999.9999
     121.0    1455.7454       0.0000     -64.8790    -999.2500     -96.5205     -25.2648     -94.2121     -27.8795      34.4094 1533228961 9999999.9999
     122.0    1489.6716       0.0000     -59.4289    -999.2500     -89.8528     -33.3785     -87.5444     -36.1695      40.5214 1533228962 9999999.9999
     123.0    1521.9155       0.0000     -55.2035    -999.2500     -82.8237     -40.3273     -80.5153     -43.2693      46.6202 1533228963 9999999.9999
     124.0    1555.5862       0.0000     -51.1416    -999.2500     -74.4690     -46.9950     -72.1606     -50.0818      52.7250 1533228964 9999999.9999
     125.0    1594.3877       0.0000     -46.4640    -999.2500     -63.9453     -53.5020     -61.6369     -56.7302      58.8299 1533228965 9999999.9999
     126.0    1612.6721       0.0000     -37.5410    -999.2500     -50.3288     -71.6975     -48.0204     -75.3211      64.9164 1533228966 9999999.9999
     127.0    1642.8153       0.0000     -33.4258    -999.2500     -43.3800     -80.6948     -41.0716     -84.5139      71.0151 1533228967 9999999.9999
     128.0    1662.2340       0.0000     -29.2521    -999.2500     -36.3508     -87.8043     -34.0424     -91.7779      77.5443 1533228968 9999999.9999
     129.0    1682.1173       0.0000     -24.5866    -999.2500     -29.2815     -93.4678     -26.9731     -97.5644      83.6430 1533228969 9999999.9999
     130.0    1698.3695       0.0000     -19.1111    -999.2500     -22.1720     -97.1230     -19.8636    -101.2990      89.7417 1533228970 9999999.9999
     131.0    1710.7665       0.0000     -12.6505      87.0627     -14.9420     -98.7698     -12.6336    -102.9816      95.8466 1533228971 9999999.9999
     132.0    1719.1321       0.0000      -4.6714      77.4790      -6.8685     -99.1313      -4.5601    -103.3510     101.9514 1533228972 9999999.9999
     133.0    1727.5798       0.0000       4.2147      77.5803       1.8075     -98.8903       4.1159    -103.1047     108.0511 1533228973 9999999.9999
     134.0    1727.5798       0.0000      12.4144      86.5610      10.1220     -97.8862      12.4304    -102.0787     114.1498 1533228974 9999999.9999
     135.0    1727.5798       0.0000      18.8353    -999.2500      17.3520     -95.3557      19.6604     -99.4932     120.2547 1533228975 9999999.9999
     136.0    1719.1321       0.0000      24.1173    -999.2500      24.1803     -90.8972      26.4887     -94.9379     126.3473 1533228976 9999999.9999
     137.0    1706.6141       0.0000      28.7312    -999.2500      30.9283     -85.0328      33.2367     -88.9461     132.4461 1533228977 9999999.9999
     138.0    1702.4818       0.0000      32.8511    -999.2500      37.4755     -78.5258      39.7839     -82.2978     138.5449 1533228978 9999999.9999
     139.0    1678.1025       0.0000      37.1143    -999.2500      44.1833     -69.8498      46.4917     -73.4333     144.6760 1533228979 9999999.9999
     140.0    1666.1730       0.0000      42.1293    -999.2500      50.0075     -57.7195      52.3159     -61.0394     151.1859 1533228980 9999999.9999
     141.0    1638.9860       0.0000      51.8606    -999.2500      72.2197     -46.1113      74.5281     -49.1790     157.2723 1533228981 9999999.9999
     142.0    1612.6721       0.0000      55.6874    -999.2500      80.8153     -39.7248      83.1237     -42.6537     163.3778 1533228982 9999999.9999
     143.0    1590.7806       0.0000      59.6491    -999.2500      87.9248     -33.0572      90.2332     -35.8412     169.4961 1533228983 9999999.9999
     144.0    1559.0355       0.0000      64.1416    -999.2500      93.5883     -26.1887      95.8967     -28.8235     175.5949 1533228984 9999999.9999
     145.0    1525.2169       0.0000      69.4294    -999.2500      97.2033     -19.2398      99.5117     -21.7236     181.6937 1533228985 9999999.9999
     146.0    1486.5221       0.0000      76.5479    -999.2500      99.1715     -11.2467     101.4799     -13.5568     187.7987 1533228986 9999999.9999
     147.0    1464.8438       0.0000      84.8021      79.0332      99.8142      -2.9723     102.1226      -5.1027     193.8912 1533228987 9999999.9999
     148.0    1432.0265       0.0000      93.7603      78.1293     100.1355       5.6233     102.4439       3.6797     199.9777 1533228988 9999999.9999
     149.0    1403.4431       0.0000     101.6430      89.0549      99.3723      13.4157     101.6807      11.6414     206.0773 1533228989 9999999.9999
     150.0    1373.2910       0.0000     108.6038    -999.2500      96.3197      21.0473      98.6281      19.4389     212.1823 1533228990 9999999.9999
     151.0    1354.7688       0.0000     114.5753    -999.2500      91.3390      28.5987      93.6474      27.1543     218.2873 1533228991 9999999.9999
     152.0    1329.1588       0.0000     119.6285    -999.2500      85.1533      35.9090      87.4617      34.6234     224.7911 1533228992 9999999.9999
     153.0    1302.0834       0.0000     124.1926    -999.2500      77.5217      43.0988      79.8301      41.9695     230.8836 1533228993 9999999.9999
     154.0    1278.4092       0.0000     128.8095    -999.2500      68.3235      50.3288      70.6319      49.3566     237.0016 1533228994 9999999.9999
     155.0    1255.5803       0.0000     137.6769    -999.2500      53.4217      65.7930      55.7301      65.1567     243.1004 1533228995 9999999.9999
     156.0    1246.6755       0.0000     141.8690    -999.2500      47.1155      75.7945      49.4239      75.3755     249.2125 1533228996 9999999.9999
     157.0    1229.2395       0.0000     145.6022    -999.2500      40.5683      83.8680      42.8767      83.6244     255.3175 1533228997 9999999.9999
     158.0    1208.1185       0.0000     150.0028    -999.2500      32.9367      91.6202      35.2451      91.5450     261.4222 1533228998 9999999.9999
