~VERSION INFORMATION
VERS.           2.0   :CWLS Log ASCII Standard - VERSION 2.0
WRAP.           NO    :One Line per depth step
PROD.  Schlumberger   :LAS Producer
PROG.  DLIS to ASCII 19C2-270                          :LAS Program name and version
CREA.        2018/08/03 10:59                          :LAS Creation date {YYYY/MM/DD hh:mm}
DLIS_CREA.  2018-Aug-03 09:54                          :DLIS Creation date and time {YYYY-MMM-DD hh:mm}
SOURCE.     PERFO_Perfo_091PTP.DLIS                    :DLIS File Name
FILE-ID.     PERFO_Perfo_091PTP                        :File Identification Number
#--------------------------------------------------
~WELL INFORMATION
#MNEM.UNIT      DATA             DESCRIPTION
#---- ------ --------------   -----------------------------
STRT .S            0.0       :START TIME      
STOP .S          220.0       :STOP TIME      
STEP .S            1.0       :STEP     
NULL .          -999.25      :NULL VALUE
COMP .        SHELL INTERNATIONAL EP                   :COMPANY
WELL .        WPP TEST 4                               :WELL
FLD  .        WILDCAT                                  :FIELD
LOC  .        NA                                       :LOCATION
CNTY .        HARRIS                                   :COUNTY
STAT .        TEXAS                                    :STATE
CTRY .                                                 :COUNTRY
API  .        NA                                       :API NUMBER
UWI  .                                                 :UNIQUE WELL ID
DATE .        02-Aug-2018                              :LOG DATE {DD-MMM-YYYY}
SRVC .        Schlumberger                             :SERVICE COMPANY
LATI .DEG                                              :LATITUDE
LONG .DEG                                              :LONGITUDE
GDAT .                                                 :GeoDetic Datum
SECT .        NA                                       :Section
RANG .        NA                                       :Range
TOWN .        NA                                       :Township
#-----------------------------------------------------------------------------
~PARAMETER INFORMATION
#MNEM.UNIT    VALUE                      DESCRIPTION
#---- -----   --------------------       ------------------------
U-PHASE_B_COMP_PER_YT.                 0 :Phase B Comparator Period Yt
U-PHASE_A_COMP_PER_XT.                 0 :Phase A Comparator Period Xt
U-MAX_EXC_CUR_LIMIT.MA       265.00000   :Requested CM Current Limit
U-REQ_EXC_FQ.HZ              50          :Requested CM Frequency
U-TILT_Y_OFFSET.          -2.06578       :WPTET Tilt Y Offset
U-TILT_Y_GAIN.           1.02173         :WPTET Tilt Y Gain
U-TILT_X_OFFSET.           2.30841       :WPTET Tilt X Offset
U-TILT_X_GAIN.           1.00000         :WPTET Tilt X Gain
U-TILT_OFFSET_TOL.           0.00100     :WPTET Tilt Offset Calibration Tolerance
U-MOT_CUR_LIMIT_REQ.MA        70.00000   :Requested Motor Current Limit
U-MOT_SPD_REQ_WPMS.RPM        1.00000    :Requested Motor Speed
U-STD_TOL_TILT.           0.01000        :Tilt Standard Deviation Tolerance
CWEI .LB/F      29.00000                 :Casing Weight
CSIZ .IN         7.00000                 :Current Casing Size
LCC  .               440                 :Logging Company Code
LUN  .              2134                 :Logging Unit Number
HIDE .                                   :Header Identifier
HID1 .                                   :Header Identifier Line 1
R1   .                                   :Remark Line 1
WITN .        MR. KELLY McCOY            :Witness's Name
ENGI .        MORRIS MOORE               :Engineer's Name
LUL  .        IOWA COLONY                :Logging Unit Location
DATE .        02-Aug-2018                :Date as Month-Day-Year
STAT .        TEXAS                      :State or Province
COUN .        HARRIS                     :County or Rig Name
FN   .        WILDCAT                    :Field Name
WN   .        WPP TEST 4                 :Well Name
CN   .        SHELL INTERNATIONAL EP     :Company Name
CLAB .        County                     :County/Rig Label
SLAB .        State                      :State/Province Label
RUN  .          1                        :RUN NUMBER
PDAT .        GROUND LEVEL               :Permanent Datum
EPD  .                                   :Elevation of Permanent Datum above Mean Sea Level
LMF  .          NA                       :Logging Measured From (Name of Logging Elevation Reference)
APD  .                                   :Elevation of Depth Reference (LMF) above Permanent Datum
#-----------------------------------------------------------------------------
~CURVE INFORMATION
#MNEM.UNIT   API CODE                                  DESCRIPTION
#---- -----  --------                                  -----------------------
TIME .S                                                :TIME {F10.1}
FREQ_EMF_SL.HZ                                         :Electromagnetic Field Frequency {F13.4}
PH_SH_WPPCM_SL.DEG                                     :WPPCM Phase Shift {F13.4}
RB_SL.DEG                                              :Relative Bearing {F13.4}
SDEV_SL.DEG                                            :Sonde Deviation {F13.4}
RTIX_SL.DEG                                            :Raw X-axis Tilt {F13.4}
RTIY_SL.DEG                                            :Raw Y-axis Tilt {F13.4}
TILX_SL.DEG                                            :X-axis Tilt {F13.4}
TILY_SL.DEG                                            :Y-axis Tilt {F13.4}
ROTA_SL.DEG                                            :Motor Rotation Angle {F13.4}
TOD7 .S                                                :Time of Day {I11}
TOJ  .S                                                :Time of Job {F13.4}
#-----------------------------------------------------------------------------
# 
#     TIME    FREQ_EMF_SL  PH_SH_WPPCM_    RB_SL       SDEV_SL      RTIX_SL      RTIY_SL      TILX_SL      TILY_SL      ROTA_SL        TOD7            TOJ
#                          SL
~A  
# ...
     159.0    2130.6819       0.0000      75.1734      86.3439     101.2602     -12.5722     103.5686     -14.9111     264.9802 1533251739 9999999.9999
     160.0    2156.8252       0.0000      83.4647      77.3077     101.9430      -4.2175     104.2514      -6.3749     271.0788 1533251740 9999999.9999
     161.0    2183.6179       0.0000      92.3584      75.6153     102.2643       4.2577     104.5727       2.2844     277.1897 1533251741 9999999.9999
     162.0    2170.1389       0.0000     100.8306      81.0588     101.7020      12.4918     104.0104      10.6975     283.2883 1533251742 9999999.9999
     163.0    2176.8577       0.0000     108.1258      84.0046      98.7297      20.3645     101.0381      18.7412     289.3869 1533251743 9999999.9999
     164.0    2170.1389       0.0000     114.7567    -999.2500      93.3072      28.7593      95.6156      27.3184     295.4916 1533251744 9999999.9999
     165.0    2156.8252       0.0000     119.8361    -999.2500      86.8002      36.2705      89.1086      34.9928     301.5902 1533251745 9999999.9999
     166.0    2130.6819       0.0000     124.4904    -999.2500      78.8070      43.8620      81.1154      42.7492     307.7083 1533251746 9999999.9999
     167.0    2111.4866       0.0000     128.9041    -999.2500      69.8097      51.1322      72.1181      50.1773     313.8069 1533251747 9999999.9999
     168.0    2061.9502       0.0000     136.7094    -999.2500      55.7112      64.8692      58.0196      64.2128     319.9055 1533251748 9999999.9999
     169.0    2026.2969       0.0000     141.1648    -999.2500      48.7623      75.5133      51.0707      75.0882     326.0102 1533251749 9999999.9999
     170.0    1980.6338       0.0000     145.0007    -999.2500      41.8135      84.1090      44.1219      83.8707     332.5199 1533251750 9999999.9999
     171.0    1926.3699       0.0000     148.9688    -999.2500      34.6638      91.4595      36.9722      91.3809     338.6062 1533251751 9999999.9999
     172.0    1870.0133       0.0000     153.8115    -999.2500      26.8313      98.0067      29.1397      98.0703     344.7109 1533251752 9999999.9999
     173.0    1807.5192       0.0000     159.7050    -999.2500      18.7980     102.9873      21.1064     103.1592     350.8034 1533251753 9999999.9999
     174.0    1736.1111       0.0000     166.6107      82.5416      10.9655     105.0760      13.2739     105.2932     356.8897 1533251754 9999999.9999
     175.0    1654.4117       0.0000     174.8855      74.1364       2.6108     106.4015       4.9192     106.6475       2.9884 1533251755 9999999.9999
     176.0    1590.7806       0.0000    -176.0020      73.6996      -6.1455     106.5220      -3.8371     106.7706       9.0933 1533251756 9999999.9999
     177.0    1512.0968       0.0000    -167.8768      81.5901     -14.2993     104.5137     -11.9909     104.7187      15.1857 1533251757 9999999.9999
     178.0    1458.7655       0.0000    -160.6568      86.9997     -22.5335      99.8945     -20.2251      99.9991      21.2845 1533251758 9999999.9999
     179.0    1360.0098       0.0000    -154.5014    -999.2500     -30.7275      93.7892     -28.4191      93.7612      27.3585 1533251759 9999999.9999
     180.0    1294.8895       0.0000    -149.3056    -999.2500     -38.6403      86.5993     -36.3319      86.4151      33.4387 1533251760 9999999.9999
     181.0    1242.2703       0.0000    -144.8824    -999.2500     -45.8703      78.8472     -43.5619      78.4945      39.5435 1533251761 9999999.9999
     182.0    1203.9811       0.0000    -140.3100    -999.2500     -53.1405      69.6490     -50.8321      69.0965      46.0472 1533251762 9999999.9999
     183.0    1166.0448       0.0000    -132.5687    -999.2500     -66.2348      56.4342     -63.9264      55.5945      52.1521 1533251763 9999999.9999
     184.0    1132.2463       0.0000    -128.1399    -999.2500     -75.7543      49.8067     -73.4459      48.8230      58.2702 1533251764 9999999.9999
     185.0    1096.9188       0.0000    -123.9624    -999.2500     -84.0688      42.9382     -81.7604      41.8053      64.3820 1533251765 9999999.9999
     186.0    1068.5791       0.0000    -119.4283    -999.2500     -91.3792      35.6278     -89.0708      34.3361      70.4807 1533251766 9999999.9999
     187.0    1044.7623       0.0000    -113.9934    -999.2500     -97.9263      27.7552     -95.6179      26.2924      76.6048 1533251767 9999999.9999
     188.0    1011.3268       0.0000    -107.3588    -999.2500    -103.1480      19.5210    -100.8396      17.8794      82.7035 1533251768 9999999.9999
     189.0     991.7137       0.0000     -99.8036      80.6282    -105.8392      11.4877    -103.5308       9.6715      88.8022 1533251769 9999999.9999
     190.0     986.1500       0.0000     -91.2962      76.1268    -106.2408       3.2535    -103.9324       1.2584      94.9009 1533251770 9999999.9999
     191.0     957.9360       0.0000     -82.6089      78.2995    -106.1203      -5.0610    -103.8119      -7.2367     101.0058 1533251771 9999999.9999
     192.0     951.4547       0.0000     -74.6701      90.9685    -104.7547     -13.1747    -102.4463     -15.5267     107.1237 1533251772 9999999.9999
     193.0     933.7650       0.0000     -67.9135    -999.2500    -100.9388     -21.1277     -98.6304     -23.6525     113.2224 1533251773 9999999.9999
     194.0     937.5000       0.0000     -62.3024    -999.2500     -95.3958     -28.9200     -93.0874     -31.6141     119.3211 1533251774 9999999.9999
     195.0     943.7920       0.0000     -57.5599    -999.2500     -88.6880     -36.5115     -86.3796     -39.3706     125.8503 1533251775 9999999.9999
     196.0     947.6078       0.0000     -53.4865    -999.2500     -81.2170     -43.5808     -78.9086     -46.5935     131.9491 1533251776 9999999.9999
     197.0     961.8673       0.0000     -49.3535    -999.2500     -72.2197     -50.5698     -69.9113     -53.7344     138.0612 1533251777 9999999.9999
     198.0     991.7137       0.0000     -43.0664    -999.2500     -57.8802     -58.6032     -55.5718     -61.9422     144.1792 1533251778 9999999.9999
     199.0    1013.1484       0.0000     -36.5661    -999.2500     -49.1640     -75.9150     -46.8556     -79.6302     150.2842 1533251779 9999999.9999
     200.0    1034.7682       0.0000     -32.4189    -999.2500     -41.7231     -84.8320     -39.4147     -88.7409     156.3961 1533251780 9999999.9999
     201.0    1066.9575       0.0000     -27.9646    -999.2500     -34.1818     -91.9013     -31.8734     -95.9639     162.4949 1533251781 9999999.9999
     202.0    1091.8090       0.0000     -22.9124    -999.2500     -26.7912     -97.1632     -24.4828    -101.3400     168.5999 1533251782 9999999.9999
     203.0    1150.7773       0.0000     -16.8204    -999.2500     -19.3202    -100.3363     -17.0118    -104.5821     174.7048 1533251783 9999999.9999
     204.0    1201.9231       0.0000      -9.4120      77.2863     -11.4877    -101.5012      -9.1793    -105.7723     180.8037 1533251784 9999999.9999
     205.0    1244.4691       0.0000      -0.4392      74.3568      -2.7313    -101.3807      -0.4229    -105.6492     186.9025 1533251785 9999999.9999
     206.0    1304.4990       0.0000       8.4268      77.1089       5.9045    -101.0995       8.2129    -105.3619     193.0075 1533251786 9999999.9999
     207.0    1414.7384       0.0000      15.7664      89.4980      13.6165     -99.4125      15.9249    -103.6382     199.5174 1533251787 9999999.9999
     208.0    1515.3556       0.0000      21.8646    -999.2500      20.9670     -95.8778      23.2754    -100.0268     205.6162 1533251788 9999999.9999
     209.0    1608.9817       0.0000      27.1271    -999.2500      28.3978     -90.6160      30.7062     -94.6506     211.7212 1533251789 9999999.9999
     210.0    1690.2042       0.0000      31.3669    -999.2500      35.2262     -84.1090      37.5346     -88.0022     217.8261 1533251790 9999999.9999
     211.0    1762.2180       0.0000      35.3995    -999.2500      42.1348     -76.4372      44.4432     -80.1637     223.9250 1533251791 9999999.9999
