~VERSION INFORMATION
VERS.           2.0   :CWLS Log ASCII Standard - VERSION 2.0
WRAP.           NO    :One Line per depth step
PROD.  Schlumberger   :LAS Producer
PROG.  DLIS to ASCII 19C2-270                          :LAS Program name and version
CREA.        2018/08/03 10:59                          :LAS Creation date {YYYY/MM/DD hh:mm}
DLIS_CREA.  2018-Aug-03 08:53                          :DLIS Creation date and time {YYYY-MMM-DD hh:mm}
SOURCE.     PERFO_Perfo_062PTP.DLIS                    :DLIS File Name
FILE-ID.     PERFO_Perfo_062PTP                        :File Identification Number
#--------------------------------------------------
~WELL INFORMATION
#MNEM.UNIT      DATA             DESCRIPTION
#---- ------ --------------   -----------------------------
STRT .S            0.0       :START TIME      
STOP .S          971.0       :STOP TIME      
STEP .S            1.0       :STEP     
NULL .          -999.25      :NULL VALUE
COMP .        SHELL INTERNATIONAL EP                   :COMPANY
WELL .        WPP TEST 4                               :WELL
FLD  .        WILDCAT                                  :FIELD
LOC  .        NA                                       :LOCATION
CNTY .        HARRIS                                   :COUNTY
STAT .        TEXAS                                    :STATE
CTRY .                                                 :COUNTRY
API  .        NA                                       :API NUMBER
UWI  .                                                 :UNIQUE WELL ID
DATE .        02-Aug-2018                              :LOG DATE {DD-MMM-YYYY}
SRVC .        Schlumberger                             :SERVICE COMPANY
LATI .DEG                                              :LATITUDE
LONG .DEG                                              :LONGITUDE
GDAT .                                                 :GeoDetic Datum
SECT .        NA                                       :Section
RANG .        NA                                       :Range
TOWN .        NA                                       :Township
#-----------------------------------------------------------------------------
~PARAMETER INFORMATION
#MNEM.UNIT    VALUE                      DESCRIPTION
#---- -----   --------------------       ------------------------
U-PHASE_B_COMP_PER_YT.                 0 :Phase B Comparator Period Yt
U-PHASE_A_COMP_PER_XT.                 0 :Phase A Comparator Period Xt
U-MAX_EXC_CUR_LIMIT.MA       265.00000   :Requested CM Current Limit
U-REQ_EXC_FQ.HZ              50          :Requested CM Frequency
U-TILT_Y_OFFSET.          -2.06578       :WPTET Tilt Y Offset
U-TILT_Y_GAIN.           1.02173         :WPTET Tilt Y Gain
U-TILT_X_OFFSET.           2.30841       :WPTET Tilt X Offset
U-TILT_X_GAIN.           1.00000         :WPTET Tilt X Gain
U-TILT_OFFSET_TOL.           0.00100     :WPTET Tilt Offset Calibration Tolerance
U-MOT_CUR_LIMIT_REQ.MA        70.00000   :Requested Motor Current Limit
U-MOT_SPD_REQ_WPMS.RPM        1.00000    :Requested Motor Speed
U-STD_TOL_TILT.           0.01000        :Tilt Standard Deviation Tolerance
CWEI .LB/F      29.00000                 :Casing Weight
CSIZ .IN         7.00000                 :Current Casing Size
LCC  .               440                 :Logging Company Code
LUN  .              2134                 :Logging Unit Number
HIDE .                                   :Header Identifier
HID1 .                                   :Header Identifier Line 1
R1   .                                   :Remark Line 1
WITN .        MR. KELLY McCOY            :Witness's Name
ENGI .        MORRIS MOORE               :Engineer's Name
LUL  .        IOWA COLONY                :Logging Unit Location
DATE .        02-Aug-2018                :Date as Month-Day-Year
STAT .        TEXAS                      :State or Province
COUN .        HARRIS                     :County or Rig Name
FN   .        WILDCAT                    :Field Name
WN   .        WPP TEST 4                 :Well Name
CN   .        SHELL INTERNATIONAL EP     :Company Name
CLAB .        County                     :County/Rig Label
SLAB .        State                      :State/Province Label
RUN  .          1                        :RUN NUMBER
PDAT .        GROUND LEVEL               :Permanent Datum
EPD  .                                   :Elevation of Permanent Datum above Mean Sea Level
LMF  .          NA                       :Logging Measured From (Name of Logging Elevation Reference)
APD  .                                   :Elevation of Depth Reference (LMF) above Permanent Datum
#-----------------------------------------------------------------------------
~CURVE INFORMATION
#MNEM.UNIT   API CODE                                  DESCRIPTION
#---- -----  --------                                  -----------------------
TIME .S                                                :TIME {F10.1}
FREQ_EMF_SL.HZ                                         :Electromagnetic Field Frequency {F13.4}
PH_SH_WPPCM_SL.DEG                                     :WPPCM Phase Shift {F13.4}
RB_SL.DEG                                              :Relative Bearing {F13.4}
SDEV_SL.DEG                                            :Sonde Deviation {F13.4}
RTIX_SL.DEG                                            :Raw X-axis Tilt {F13.4}
RTIY_SL.DEG                                            :Raw Y-axis Tilt {F13.4}
TILX_SL.DEG                                            :X-axis Tilt {F13.4}
TILY_SL.DEG                                            :Y-axis Tilt {F13.4}
ROTA_SL.DEG                                            :Motor Rotation Angle {F13.4}
TOD7 .S                                                :Time of Day {I11}
TOJ  .S                                                :Time of Job {F13.4}
#-----------------------------------------------------------------------------
# 
#     TIME    FREQ_EMF_SL  PH_SH_WPPCM_    RB_SL       SDEV_SL      RTIX_SL      RTIY_SL      TILX_SL      TILY_SL      ROTA_SL        TOD7            TOJ
#                          SL
~A  
# ...
     583.0    1686.1511       0.0000     147.3311    -999.2500      37.5157      87.3223      39.8241      87.1538       1.9696 1533230499 9999999.9999
     584.0    1670.1307       0.0000     151.7324    -999.2500      30.1250      94.1507      32.4334      94.1305       8.0814 1533230500 9999999.9999
     585.0    1650.5282       0.0000     157.1272    -999.2500      22.2523      99.7338      24.5607      99.8350      14.1802 1533230501 9999999.9999
     586.0    1623.8453       0.0000     163.3943    -999.2500      14.5403     103.4292      16.8487     103.6106      20.2912 1533230502 9999999.9999
     587.0    1605.3082       0.0000     171.0680      77.9952       6.4267     104.7145       8.7351     104.9239      26.3900 1533230503 9999999.9999
     588.0    1583.6149       0.0000    -179.8113      74.6258      -2.4903     105.1563      -0.1819     105.3753      32.4887 1533230504 9999999.9999
     589.0    1548.7335       0.0000    -171.5959      77.8728     -10.5237     104.5137      -8.2153     104.7187      38.5874 1533230505 9999999.9999
     590.0    1528.5327       0.0000    -163.8946      90.8981     -18.7578     101.1397     -16.4494     101.2714      44.6923 1533230506 9999999.9999
     591.0    1496.0106       0.0000    -157.3882    -999.2500     -26.7912      95.7172     -24.4828      95.7310      50.7972 1533230507 9999999.9999
     592.0    1467.9019       0.0000    -151.7893    -999.2500     -34.7442      89.1298     -32.4358      89.0006      56.8965 1533230508 9999999.9999
     593.0    1440.8298       0.0000    -146.9655    -999.2500     -42.2955      81.4982     -39.9871      81.2031      62.9952 1533230509 9999999.9999
     594.0    1411.8976       0.0000    -142.3603    -999.2500     -49.6460      72.9427     -47.3376      72.4617      69.4989 1533230510 9999999.9999
     595.0    1395.0892       0.0000    -137.1959    -999.2500     -56.6350      62.0173     -54.3266      61.2990      75.6109 1533230511 9999999.9999
     596.0    1365.2913       0.0000    -129.3544    -999.2500     -72.3402      51.3732     -70.0318      50.4236      81.7096 1533230512 9999999.9999
     597.0    1341.8416       0.0000    -125.1495    -999.2500     -80.9358      44.7457     -78.6274      43.6521      87.8145 1533230513 9999999.9999
     598.0    1321.6636       0.0000    -120.7101    -999.2500     -88.4872      37.5960     -86.1787      36.3471      93.9193 1533230514 9999999.9999
     599.0    1299.6765       0.0000    -115.6904    -999.2500     -95.2352      30.1250     -92.9268      28.7138     100.0311 1533230515 9999999.9999
     600.0    1290.1376       0.0000    -109.2291    -999.2500    -100.8585      21.7703     -98.5501      20.1776     106.1298 1533230516 9999999.9999
     601.0    1269.1787       0.0000    -102.0735      84.4258    -103.9513      13.8575    -101.6429      12.0928     112.2479 1533230517 9999999.9999
     602.0    1251.1122       0.0000     -94.1346      78.3356    -104.6743       5.9848    -102.3659       4.0491     118.3528 1533230518 9999999.9999
     603.0    1242.2703       0.0000     -85.4222      78.5870    -104.5940      -2.3698    -102.2856      -4.4871     124.4525 1533230519 9999999.9999
     604.0    1231.3923       0.0000     -77.1646      89.3816    -103.8308     -10.6040    -101.5224     -12.9002     130.5643 1533230520 9999999.9999
     605.0    1224.9564       0.0000     -70.2866    -999.2500    -101.0995     -18.2758     -98.7911     -20.7387     136.6693 1533230521 9999999.9999
     606.0    1212.2845       0.0000     -64.4152    -999.2500     -96.1590     -25.9075     -93.8506     -28.5362     143.1669 1533230522 9999999.9999
     607.0    1208.1185       0.0000     -59.4311    -999.2500     -89.9733     -33.3785     -87.6649     -36.1695     149.2788 1533230523 9999999.9999
     608.0    1212.2845       0.0000     -55.1689    -999.2500     -82.9040     -40.4077     -80.5956     -43.3514     155.3838 1533230524 9999999.9999
     609.0    1208.1185       0.0000     -51.0769    -999.2500     -74.5895     -47.1958     -72.2811     -50.2870     161.4887 1533230525 9999999.9999
     610.0    1210.1979       0.0000     -46.3620    -999.2500     -63.8650     -53.7430     -61.5566     -56.9765     167.5753 1533230526 9999999.9999
     611.0    1212.2845       0.0000     -37.5604    -999.2500     -50.4092     -71.8180     -48.1008     -75.4442     173.6741 1533230527 9999999.9999
     612.0    1216.4792       0.0000     -33.1856    -999.2500     -42.9783     -81.3375     -40.6699     -85.1705     179.7668 1533230528 9999999.9999
     613.0    1224.9564       0.0000     -29.0829    -999.2500     -36.0697     -88.3667     -33.7613     -92.3524     185.8718 1533230529 9999999.9999
     614.0    1231.3923       0.0000     -24.2776    -999.2500     -28.8397     -93.8695     -26.5313     -97.9748     191.9839 1533230530 9999999.9999
     615.0    1240.0793       0.0000     -18.7144    -999.2500     -21.6900     -97.4042     -19.3816    -101.5863     198.0833 1533230531 9999999.9999
     616.0    1257.8265       0.0000     -12.1225      84.7706     -14.3797     -98.9707     -12.0713    -103.1868     204.1882 1533230532 9999999.9999
     617.0    1276.0889       0.0000      -3.9762      77.2016      -6.1857     -99.1715      -3.8773    -103.3920     210.2932 1533230533 9999999.9999
     618.0    1292.5093       0.0000       4.8709      77.6867       2.4502     -99.0108       4.7586    -103.2278     216.7908 1533230534 9999999.9999
     619.0    1316.7135       0.0000      12.6149      86.8211      10.3228     -98.0870      12.6312    -102.2839     222.8897 1533230535 9999999.9999
     620.0    1331.6761       0.0000      18.9104    -999.2500      17.4323     -95.4762      19.7407     -99.6164     228.9824 1533230536 9999999.9999
     621.0    1360.0098       0.0000      24.1827    -999.2500      24.2607     -91.0578      26.5691     -95.1020     235.0812 1533230537 9999999.9999
     622.0    1381.3850       0.0000      28.8063    -999.2500      31.0488     -85.3943      33.3572     -89.3155     241.1800 1533230538 9999999.9999
     623.0    1411.8976       0.0000      32.8411    -999.2500      37.4755     -78.6865      39.7839     -82.4619     247.2850 1533230539 9999999.9999
     624.0    1433.4862       0.0000      37.2134    -999.2500      44.4043     -69.8599      46.7127     -73.4435     253.3900 1533230540 9999999.9999
     625.0    1458.7655       0.0000      42.4479    -999.2500      50.2083     -56.8760      52.5167     -60.1775     259.4886 1533230541 9999999.9999
     626.0    1496.0106       0.0000      52.0488    -999.2500      72.8623     -45.8703      75.1707     -48.9327     265.5750 1533230542 9999999.9999
     627.0    1521.9155       0.0000      55.8384    -999.2500      81.2973     -39.4838      83.6057     -42.4075     271.6930 1533230543 9999999.9999
     628.0    1548.7335       0.0000      59.7477    -999.2500      88.1658     -32.8965      90.4742     -35.6770     277.7977 1533230544 9999999.9999
     629.0    1580.0563       0.0000      64.2784    -999.2500      93.8293     -25.9878      96.1377     -28.6183     283.8969 1533230545 9999999.9999
     630.0    1601.6515       0.0000      69.6221    -999.2500      97.4042     -18.9988      99.7126     -21.4774     290.4066 1533230546 9999999.9999
     631.0    1627.6041       0.0000      76.2329    -999.2500      99.3322     -11.5680     101.6406     -13.8851     296.5114 1533230547 9999999.9999
     632.0    1650.5282       0.0000      84.5104      79.0848      99.8945      -3.2535     102.2029      -5.3900     302.6100 1533230548 9999999.9999
     633.0    1670.1307       0.0000      93.5530      77.9407     100.2560       5.4225     102.5644       3.4745     308.6963 1533230549 9999999.9999
     634.0    1686.1511       0.0000     101.5264      87.8591      99.4125      13.2952     101.7209      11.5183     314.8010 1533230550 9999999.9999
     635.0    1702.4818       0.0000     108.5093    -999.2500      96.5607      20.9268      98.8691      19.3157     320.9058 1533230551 9999999.9999
