~VERSION INFORMATION
VERS.           2.0   :CWLS Log ASCII Standard - VERSION 2.0
WRAP.           NO    :One Line per depth step
PROD.  Schlumberger   :LAS Producer
PROG.  DLIS to ASCII 19C2-270                          :LAS Program name and version
CREA.        2018/08/03 10:59                          :LAS Creation date {YYYY/MM/DD hh:mm}
DLIS_CREA.  2018-Aug-03 08:53                          :DLIS Creation date and time {YYYY-MMM-DD hh:mm}
SOURCE.     PERFO_Perfo_062PTP.DLIS                    :DLIS File Name
FILE-ID.     PERFO_Perfo_062PTP                        :File Identification Number
#--------------------------------------------------
~WELL INFORMATION
#MNEM.UNIT      DATA             DESCRIPTION
#---- ------ --------------   -----------------------------
STRT .S            0.0       :START TIME      
STOP .S          971.0       :STOP TIME      
STEP .S            1.0       :STEP     
NULL .          -999.25      :NULL VALUE
COMP .        SHELL INTERNATIONAL EP                   :COMPANY
WELL .        WPP TEST 4                               :WELL
FLD  .        WILDCAT                                  :FIELD
LOC  .        NA                                       :LOCATION
CNTY .        HARRIS                                   :COUNTY
STAT .        TEXAS                                    :STATE
CTRY .                                                 :COUNTRY
API  .        NA                                       :API NUMBER
UWI  .                                                 :UNIQUE WELL ID
DATE .        02-Aug-2018                              :LOG DATE {DD-MMM-YYYY}
SRVC .        Schlumberger                             :SERVICE COMPANY
LATI .DEG                                              :LATITUDE
LONG .DEG                                              :LONGITUDE
GDAT .                                                 :GeoDetic Datum
SECT .        NA                                       :Section
RANG .        NA                                       :Range
TOWN .        NA                                       :Township
#-----------------------------------------------------------------------------
~PARAMETER INFORMATION
#MNEM.UNIT    VALUE                      DESCRIPTION
#---- -----   --------------------       ------------------------
U-PHASE_B_COMP_PER_YT.                 0 :Phase B Comparator Period Yt
U-PHASE_A_COMP_PER_XT.                 0 :Phase A Comparator Period Xt
U-MAX_EXC_CUR_LIMIT.MA       265.00000   :Requested CM Current Limit
U-REQ_EXC_FQ.HZ              50          :Requested CM Frequency
U-TILT_Y_OFFSET.          -2.06578       :WPTET Tilt Y Offset
U-TILT_Y_GAIN.           1.02173         :WPTET Tilt Y Gain
U-TILT_X_OFFSET.           2.30841       :WPTET Tilt X Offset
U-TILT_X_GAIN.           1.00000         :WPTET Tilt X Gain
U-TILT_OFFSET_TOL.           0.00100     :WPTET Tilt Offset Calibration Tolerance
U-MOT_CUR_LIMIT_REQ.MA        70.00000   :Requested Motor Current Limit
U-MOT_SPD_REQ_WPMS.RPM        1.00000    :Requested Motor Speed
U-STD_TOL_TILT.           0.01000        :Tilt Standard Deviation Tolerance
CWEI .LB/F      29.00000                 :Casing Weight
CSIZ .IN         7.00000                 :Current Casing Size
LCC  .               440                 :Logging Company Code
LUN  .              2134                 :Logging Unit Number
HIDE .                                   :Header Identifier
HID1 .                                   :Header Identifier Line 1
R1   .                                   :Remark Line 1
WITN .        MR. KELLY McCOY            :Witness's Name
ENGI .        MORRIS MOORE               :Engineer's Name
LUL  .        IOWA COLONY                :Logging Unit Location
DATE .        02-Aug-2018                :Date as Month-Day-Year
STAT .        TEXAS                      :State or Province
COUN .        HARRIS                     :County or Rig Name
FN   .        WILDCAT                    :Field Name
WN   .        WPP TEST 4                 :Well Name
CN   .        SHELL INTERNATIONAL EP     :Company Name
CLAB .        County                     :County/Rig Label
SLAB .        State                      :State/Province Label
RUN  .          1                        :RUN NUMBER
PDAT .        GROUND LEVEL               :Permanent Datum
EPD  .                                   :Elevation of Permanent Datum above Mean Sea Level
LMF  .          NA                       :Logging Measured From (Name of Logging Elevation Reference)
APD  .                                   :Elevation of Depth Reference (LMF) above Permanent Datum
#-----------------------------------------------------------------------------
~CURVE INFORMATION
#MNEM.UNIT   API CODE                                  DESCRIPTION
#---- -----  --------                                  -----------------------
TIME .S                                                :TIME {F10.1}
FREQ_EMF_SL.HZ                                         :Electromagnetic Field Frequency {F13.4}
PH_SH_WPPCM_SL.DEG                                     :WPPCM Phase Shift {F13.4}
RB_SL.DEG                                              :Relative Bearing {F13.4}
SDEV_SL.DEG                                            :Sonde Deviation {F13.4}
RTIX_SL.DEG                                            :Raw X-axis Tilt {F13.4}
RTIY_SL.DEG                                            :Raw Y-axis Tilt {F13.4}
TILX_SL.DEG                                            :X-axis Tilt {F13.4}
TILY_SL.DEG                                            :Y-axis Tilt {F13.4}
ROTA_SL.DEG                                            :Motor Rotation Angle {F13.4}
TOD7 .S                                                :Time of Day {I11}
TOJ  .S                                                :Time of Job {F13.4}
#-----------------------------------------------------------------------------
# 
#     TIME    FREQ_EMF_SL  PH_SH_WPPCM_    RB_SL       SDEV_SL      RTIX_SL      RTIY_SL      TILX_SL      TILY_SL      ROTA_SL        TOD7            TOJ
#                          SL
~A  
# ...
     795.0    1206.0464       0.0000      -5.8170      77.7797      -7.9932     -99.2920      -5.6848    -103.5151     222.5897 1533230711 9999999.9999
     796.0    1201.9231       0.0000       3.0700      77.0006       0.6828     -99.1313       2.9912    -103.3510     228.6947 1533230712 9999999.9999
     797.0    1203.9811       0.0000      11.1666      84.0110       8.7965     -98.4485      11.1049    -102.6533     234.7997 1533230713 9999999.9999
     798.0    1208.1185       0.0000      17.8299    -999.2500      16.1470     -96.0385      18.4554    -100.1909     240.9115 1533230714 9999999.9999
     799.0    1210.1979       0.0000      23.3031    -999.2500      23.0557     -91.9415      25.3641     -96.0049     247.0365 1533230715 9999999.9999
     800.0    1224.9564       0.0000      28.0214    -999.2500      29.8438     -86.5190      32.1522     -90.4646     253.5526 1533230716 9999999.9999
     801.0    1231.3923       0.0000      32.1716    -999.2500      36.3910     -79.8915      38.6994     -83.6931     259.6512 1533230717 9999999.9999
     802.0    1244.4691       0.0000      36.2520    -999.2500      42.9382     -71.9385      45.2466     -75.5673     265.7376 1533230718 9999999.9999
     803.0    1257.8265       0.0000      40.9674    -999.2500      49.2845     -61.0935      51.5929     -64.4867     271.8423 1533230719 9999999.9999
     804.0    1269.1787       0.0000      51.0139    -999.2500      70.5327     -47.5573      72.8411     -50.6564     277.9471 1533230720 9999999.9999
     805.0    1292.5093       0.0000      54.9762    -999.2500      79.5300     -40.9700      81.8384     -43.9259     284.0334 1533230721 9999999.9999
     806.0    1306.9238       0.0000      59.1093    -999.2500      87.1617     -33.9408      89.4701     -36.7440     290.1195 1533230722 9999999.9999
     807.0    1326.6509       0.0000      63.5230    -999.2500      93.1063     -27.0723      95.4147     -29.7263     296.2243 1533230723 9999999.9999
     808.0    1354.7688       0.0000      68.7012    -999.2500      97.0025     -20.1235      99.3109     -22.6265     302.3166 1533230724 9999999.9999
     809.0    1378.6765       0.0000      75.0314    -999.2500      99.0108     -12.8533     101.3192     -15.1984     308.4029 1533230725 9999999.9999
     810.0    1406.2500       0.0000      83.1085      79.9537      99.8543      -4.6192     102.1627      -6.7853     314.5276 1533230726 9999999.9999
     811.0    1429.1158       0.0000      92.0029      77.5937     100.2560       3.9363     102.5644       1.9561     320.6456 1533230727 9999999.9999
     812.0    1458.7655       0.0000     100.2652      83.8257      99.6535      12.0098     101.9619      10.2050     327.1563 1533230728 9999999.9999
     813.0    1492.8344       0.0000     107.3690    -999.2500      97.3238      19.6013      99.6322      17.9614     333.2549 1533230729 9999999.9999
     814.0    1521.9155       0.0000     113.5032    -999.2500      92.5842      27.1527      94.8926      25.6768     339.3596 1533230730 9999999.9999
     815.0    1548.7335       0.0000     118.5681    -999.2500      86.4788      34.3023      88.7872      32.9818     345.4521 1533230731 9999999.9999
     816.0    1580.0563       0.0000     123.3575    -999.2500      79.1283      41.7733      81.4367      40.6152     351.5507 1533230732 9999999.9999
     817.0    1605.3082       0.0000     127.8878    -999.2500      70.3318      48.9632      72.6402      47.9612     357.6499 1533230733 9999999.9999
     818.0    1635.1744       0.0000     135.8367    -999.2500      54.7873      60.5713      57.0957      59.8216       3.7556 1533230734 9999999.9999
     819.0    1658.3137       0.0000     141.1689    -999.2500      48.3607      74.3887      50.6691      73.9391       9.8604 1533230735 9999999.9999
     820.0    1686.1511       0.0000     145.0078    -999.2500      41.6528      82.8638      43.9612      82.5985      15.9592 1533230736 9999999.9999
     821.0    1694.2772       0.0000     149.0942    -999.2500      34.4630      90.2545      36.7714      90.1497      22.0455 1533230737 9999999.9999
     822.0    1714.9390       0.0000     153.8279    -999.2500      26.9117      96.6008      29.2201      96.6339      28.1504 1533230738 9999999.9999
     823.0    1731.8351       0.0000     159.6116    -999.2500      19.0390     101.5012      21.3474     101.6407      34.2430 1533230739 9999999.9999
     824.0    1736.1111       0.0000     166.3975      85.2589      11.2467     104.1923      13.5551     104.3904      40.7467 1533230740 9999999.9999
     825.0    1736.1111       0.0000     174.6349      75.7894       2.8920     104.9555       5.2004     105.1701      46.8523 1533230741 9999999.9999
     826.0    1740.4083       0.0000    -176.6509      74.9853      -5.5430     105.1563      -3.2346     105.3753      52.9705 1533230742 9999999.9999
     827.0    1731.8351       0.0000    -168.8533      81.6462     -13.3353     103.7103     -11.0269     103.8979      59.0569 1533230743 9999999.9999
     828.0    1719.1321       0.0000    -161.5779      86.3778     -21.4892      99.3723     -19.1808      99.4656      65.1557 1533230744 9999999.9999
     829.0    1710.7665       0.0000    -155.3247    -999.2500     -29.6028      93.5482     -27.2944      93.5149      71.2736 1533230745 9999999.9999
     830.0    1698.3695       0.0000    -149.6523    -999.2500     -38.0378      86.0772     -35.7294      85.8816      77.3784 1533230746 9999999.9999
     831.0    1678.1025       0.0000    -145.0538    -999.2500     -45.3883      78.1643     -43.0799      77.7969      83.4771 1533230747 9999999.9999
     832.0    1658.3137       0.0000    -140.3636    -999.2500     -52.6183      68.8457     -50.3099      68.2757      89.5889 1533230748 9999999.9999
     833.0    1631.3805       0.0000    -132.2171    -999.2500     -66.1545      55.3898     -63.8461      54.5275      95.6999 1533230749 9999999.9999
     834.0    1605.3082       0.0000    -127.6559    -999.2500     -75.9150      48.7623     -73.6066      47.7560     101.7986 1533230750 9999999.9999
     835.0    1576.5134       0.0000    -123.3575    -999.2500     -84.0688      41.8135     -81.7604      40.6562     107.8973 1533230751 9999999.9999
     836.0    1555.5862       0.0000    -118.7256    -999.2500     -91.2587      34.5433     -88.9502      33.2281     114.4071 1533230752 9999999.9999
     837.0    1521.9155       0.0000    -113.4212    -999.2500     -97.5648      27.0322     -95.2564      25.5537     120.5120 1533230753 9999999.9999
     838.0    1489.6716       0.0000    -106.9825    -999.2500    -102.1840      19.1595     -99.8756      17.5100     126.6107 1533230754 9999999.9999
     839.0    1461.7983       0.0000     -99.5489      82.4929    -104.4333      11.2868    -102.1249       9.4663     132.7095 1533230755 9999999.9999
     840.0    1434.9490       0.0000     -91.0782      77.6401    -104.7145       3.0527    -102.4061       1.0532     138.8145 1533230756 9999999.9999
     841.0    1406.2500       0.0000     -82.5332      80.3177    -104.5137      -5.1815    -102.2053      -7.3599     144.9325 1533230757 9999999.9999
     842.0    1378.6765       0.0000     -74.3160      94.8287    -102.9472     -13.6567    -100.6388     -16.0192     151.0190 1533230758 9999999.9999
     843.0    1357.3842       0.0000     -67.7955    -999.2500     -99.3322     -21.3687     -97.0238     -23.8987     157.1240 1533230759 9999999.9999
     844.0    1334.2030       0.0000     -62.2996    -999.2500     -93.9498     -28.9602     -91.6414     -31.6552     163.2420 1533230760 9999999.9999
     845.0    1311.8003       0.0000     -57.6449    -999.2500     -87.2018     -36.2705     -84.8934     -39.1243     169.3409 1533230761 9999999.9999
     846.0    1297.2786       0.0000     -53.5246    -999.2500     -79.7308     -43.1792     -77.4224     -46.1831     175.4397 1533230762 9999999.9999
     847.0    1280.7377       0.0000     -49.2755    -999.2500     -70.5327     -49.9272     -68.2243     -53.0777     181.5447 1533230763 9999999.9999
