~VERSION INFORMATION
VERS.           2.0   :CWLS Log ASCII Standard - VERSION 2.0
WRAP.           NO    :One Line per depth step
PROD.  Schlumberger   :LAS Producer
PROG.  DLIS to ASCII 19C2-270                          :LAS Program name and version
CREA.        2018/08/03 10:59                          :LAS Creation date {YYYY/MM/DD hh:mm}
DLIS_CREA.  2018-Aug-03 08:48                          :DLIS Creation date and time {YYYY-MMM-DD hh:mm}
SOURCE.     PERFO_Perfo_061PTP.DLIS                    :DLIS File Name
FILE-ID.     PERFO_Perfo_061PTP                        :File Identification Number
#--------------------------------------------------
~WELL INFORMATION
#MNEM.UNIT      DATA             DESCRIPTION
#---- ------ --------------   -----------------------------
STRT .S            0.0       :START TIME      
STOP .S          993.0       :STOP TIME      
STEP .S            1.0       :STEP     
NULL .          -999.25      :NULL VALUE
COMP .        SHELL INTERNATIONAL EP                   :COMPANY
WELL .        WPP TEST 4                               :WELL
FLD  .        WILDCAT                                  :FIELD
LOC  .        NA                                       :LOCATION
CNTY .        HARRIS                                   :COUNTY
STAT .        TEXAS                                    :STATE
CTRY .                                                 :COUNTRY
API  .        NA                                       :API NUMBER
UWI  .                                                 :UNIQUE WELL ID
DATE .        02-Aug-2018                              :LOG DATE {DD-MMM-YYYY}
SRVC .        Schlumberger                             :SERVICE COMPANY
LATI .DEG                                              :LATITUDE
LONG .DEG                                              :LONGITUDE
GDAT .                                                 :GeoDetic Datum
SECT .        NA                                       :Section
RANG .        NA                                       :Range
TOWN .        NA                                       :Township
#-----------------------------------------------------------------------------
~PARAMETER INFORMATION
#MNEM.UNIT    VALUE                      DESCRIPTION
#---- -----   --------------------       ------------------------
U-PHASE_B_COMP_PER_YT.                 0 :Phase B Comparator Period Yt
U-PHASE_A_COMP_PER_XT.                 0 :Phase A Comparator Period Xt
U-MAX_EXC_CUR_LIMIT.MA       265.00000   :Requested CM Current Limit
U-REQ_EXC_FQ.HZ              50          :Requested CM Frequency
U-TILT_Y_OFFSET.          -2.06578       :WPTET Tilt Y Offset
U-TILT_Y_GAIN.           1.02173         :WPTET Tilt Y Gain
U-TILT_X_OFFSET.           2.30841       :WPTET Tilt X Offset
U-TILT_X_GAIN.           1.00000         :WPTET Tilt X Gain
U-TILT_OFFSET_TOL.           0.00100     :WPTET Tilt Offset Calibration Tolerance
U-MOT_CUR_LIMIT_REQ.MA        70.00000   :Requested Motor Current Limit
U-MOT_SPD_REQ_WPMS.RPM        1.00000    :Requested Motor Speed
U-STD_TOL_TILT.           0.01000        :Tilt Standard Deviation Tolerance
CWEI .LB/F      29.00000                 :Casing Weight
CSIZ .IN         7.00000                 :Current Casing Size
LCC  .               440                 :Logging Company Code
LUN  .              2134                 :Logging Unit Number
HIDE .                                   :Header Identifier
HID1 .                                   :Header Identifier Line 1
R1   .                                   :Remark Line 1
WITN .        MR. KELLY McCOY            :Witness's Name
ENGI .        MORRIS MOORE               :Engineer's Name
LUL  .        IOWA COLONY                :Logging Unit Location
DATE .        02-Aug-2018                :Date as Month-Day-Year
STAT .        TEXAS                      :State or Province
COUN .        HARRIS                     :County or Rig Name
FN   .        WILDCAT                    :Field Name
WN   .        WPP TEST 4                 :Well Name
CN   .        SHELL INTERNATIONAL EP     :Company Name
CLAB .        County                     :County/Rig Label
SLAB .        State                      :State/Province Label
RUN  .          1                        :RUN NUMBER
PDAT .        GROUND LEVEL               :Permanent Datum
EPD  .                                   :Elevation of Permanent Datum above Mean Sea Level
LMF  .          NA                       :Logging Measured From (Name of Logging Elevation Reference)
APD  .                                   :Elevation of Depth Reference (LMF) above Permanent Datum
#-----------------------------------------------------------------------------
~CURVE INFORMATION
#MNEM.UNIT   API CODE                                  DESCRIPTION
#---- -----  --------                                  -----------------------
TIME .S                                                :TIME {F10.1}
FREQ_EMF_SL.HZ                                         :Electromagnetic Field Frequency {F13.4}
PH_SH_WPPCM_SL.DEG                                     :WPPCM Phase Shift {F13.4}
RB_SL.DEG                                              :Relative Bearing {F13.4}
SDEV_SL.DEG                                            :Sonde Deviation {F13.4}
RTIX_SL.DEG                                            :Raw X-axis Tilt {F13.4}
RTIY_SL.DEG                                            :Raw Y-axis Tilt {F13.4}
TILX_SL.DEG                                            :X-axis Tilt {F13.4}
TILY_SL.DEG                                            :Y-axis Tilt {F13.4}
ROTA_SL.DEG                                            :Motor Rotation Angle {F13.4}
TOD7 .S                                                :Time of Day {I11}
TOJ  .S                                                :Time of Job {F13.4}
#-----------------------------------------------------------------------------
# 
#     TIME    FREQ_EMF_SL  PH_SH_WPPCM_    RB_SL       SDEV_SL      RTIX_SL      RTIY_SL      TILX_SL      TILY_SL      ROTA_SL        TOD7            TOJ
#                          SL
~A  
# ...
     530.0       0.0000       0.0000    -113.9873    -999.2500     -96.8017      27.7953     -94.4933      26.3335      23.8722 1533229370 9999999.9999
     531.0       0.0000       0.0000    -107.6414    -999.2500    -101.6217      19.9227     -99.3133      18.2898      29.9902 1533229371 9999999.9999
     532.0       0.0000       0.0000    -100.4266      84.0176    -104.3128      12.1705    -102.0044      10.3692      36.0889 1533229372 9999999.9999
     533.0       0.0000       0.0000     -91.3717      77.7496    -104.6342       3.3338    -102.3258       1.3405      42.1938 1533229373 9999999.9999
     534.0       0.0000       0.0000     -82.7402      80.2625    -104.4333      -4.9807    -102.1249      -7.1547      48.3056 1533229374 9999999.9999
     535.0       0.0000       0.0000     -75.2055      92.4569    -103.1480     -12.6927    -100.8396     -15.0342      54.3919 1533229375 9999999.9999
     536.0       0.0000       0.0000     -68.4365    -999.2500     -99.6133     -20.5653     -97.3049     -23.0779      60.4845 1533229376 9999999.9999
     537.0       0.0000       0.0000     -62.7371    -999.2500     -94.2712     -28.3175     -91.9628     -30.9985      66.5771 1533229377 9999999.9999
     538.0       0.0000       0.0000     -58.0358    -999.2500     -87.8043     -35.6278     -85.4959     -38.4677      72.6888 1533229378 9999999.9999
     539.0       0.0000       0.0000     -53.9022    -999.2500     -80.2530     -42.4963     -77.9446     -45.4854      79.1986 1533229379 9999999.9999
     540.0       0.0000       0.0000     -49.7162    -999.2500     -71.3762     -49.2042     -69.0677     -52.3390      85.3298 1533229380 9999999.9999
     541.0       0.0000       0.0000     -43.7284    -999.2500     -56.9162     -55.1890     -54.6078     -58.4539      91.4285 1533229381 9999999.9999
     542.0       0.0000       0.0000     -36.2639    -999.2500     -48.2402     -74.6698     -45.9318     -78.3580      97.5273 1533229382 9999999.9999
     543.0       0.0000       0.0000     -32.0719    -999.2500     -41.0503     -83.2253     -38.7419     -87.0994     103.6329 1533229383 9999999.9999
     544.0       0.0000       0.0000     -27.9922    -999.2500     -34.3425     -89.6922     -32.0341     -93.7067     109.7378 1533229384 9999999.9999
     545.0       0.0000       0.0000     -22.4262    -999.2500     -26.3493     -95.0745     -24.0409     -99.2060     115.8365 1533229385 9999999.9999
     546.0       0.0000       0.0000     -16.8130    -999.2500     -19.4808     -98.0870     -17.1724    -102.2839     121.9352 1533229386 9999999.9999
     547.0       0.0000       0.0000      -9.4603      80.8900     -11.6483     -98.8903      -9.3399    -103.1047     128.0401 1533229387 9999999.9999
     548.0       0.0000       0.0000      -0.8884      76.7604      -3.1732     -99.0510      -0.8648    -103.2689     134.1326 1533229388 9999999.9999
     549.0       0.0000       0.0000       7.4147      79.4651       4.9807     -98.6493       7.2891    -102.8585     140.2575 1533229389 9999999.9999
     550.0       0.0000       0.0000      14.8704      99.8696      12.7730     -97.3238      15.0814    -101.5042     146.3563 1533229390 9999999.9999
     551.0       0.0000       0.0000      20.6516    -999.2500      19.6013     -93.9900      21.9097     -98.0979     152.8724 1533229391 9999999.9999
     552.0       0.0000       0.0000      25.4905    -999.2500      26.1083     -89.4913      28.4167     -93.5015     158.9712 1533229392 9999999.9999
     553.0       0.0000       0.0000      30.1165    -999.2500      33.0973     -83.3057      35.4057     -87.1814     165.0701 1533229393 9999999.9999
     554.0       0.0000       0.0000      34.2595    -999.2500      39.7650     -75.9552      42.0734     -79.6712     171.1750 1533229394 9999999.9999
     555.0       0.0000       0.0000      38.5901    -999.2500      46.2318     -66.3955      48.5402     -69.9039     177.2808 1533229395 9999999.9999
     556.0       0.0000       0.0000      49.2639    -999.2500      61.1738     -47.3163      63.4822     -50.4102     183.3796 1533229396 9999999.9999
     557.0       0.0000       0.0000      53.3525    -999.2500      75.7945     -43.7013      78.1029     -46.7166     189.4784 1533229397 9999999.9999
     558.0       0.0000       0.0000      57.1256    -999.2500      83.7877     -37.2747      86.0961     -40.1503     195.5834 1533229398 9999999.9999
     559.0       0.0000       0.0000      61.3135    -999.2500      90.3750     -30.4062      92.6834     -33.1326     201.6899 1533229399 9999999.9999
     560.0       0.0000       0.0000      66.0231    -999.2500      95.3155     -23.5778      97.6239     -26.1559     207.7887 1533229400 9999999.9999
     561.0       0.0000       0.0000      71.7747    -999.2500      98.1673     -16.4683     100.4757     -18.8919     213.8753 1533229401 9999999.9999
     562.0       0.0000       0.0000      78.8769      85.9127      99.5330      -8.8367     101.8414     -11.0944     219.9803 1533229402 9999999.9999
     563.0       0.0000       0.0000      87.5528      78.0414      99.8945      -0.3213     102.2029      -2.3941     226.5032 1533229403 9999999.9999
     564.0       0.0000       0.0000      96.5407      79.4379     100.0953       8.3145     102.4037       6.4294     232.6027 1533229404 9999999.9999
     565.0       0.0000       0.0000     103.8629      92.3368      98.6493      15.7453     100.9577      14.0217     238.6829 1533229405 9999999.9999
     566.0       0.0000       0.0000     110.6713    -999.2500      94.8737      23.5377      97.1821      21.9833     244.8009 1533229406 9999999.9999
     567.0       0.0000       0.0000     116.1690    -999.2500      89.7323      30.8078      92.0407      29.4114     250.8997 1533229407 9999999.9999
     568.0       0.0000       0.0000     120.9661    -999.2500      82.7835      37.9575      85.0919      36.7164     256.9985 1533229408 9999999.9999
     569.0       0.0000       0.0000     125.8217    -999.2500      74.6297      45.7498      76.9381      44.6781     263.1033 1533229409 9999999.9999
     570.0       0.0000       0.0000     130.6549    -999.2500      63.9453      52.7388      66.2537      51.8189     269.2080 1533229410 9999999.9999
     571.0       0.0000       0.0000     139.1851    -999.2500      51.4535      69.6088      53.7619      69.0555     275.3066 1533229411 9999999.9999
     572.0       0.0000       0.0000     143.1207    -999.2500      44.9867      78.7267      47.2951      78.3714     281.4113 1533229412 9999999.9999
     573.0       0.0000       0.0000     147.1858    -999.2500      37.7567      86.7600      40.0651      86.5793     287.5230 1533229413 9999999.9999
     574.0       0.0000       0.0000     151.3830    -999.2500      30.6873      93.5482      32.9957      93.5149     293.6277 1533229414 9999999.9999
     575.0       0.0000       0.0000     156.6186    -999.2500      22.9352      99.3723      25.2436      99.4656     300.1313 1533229415 9999999.9999
     576.0       0.0000       0.0000     162.8740    -999.2500      15.1428     103.1078      17.4512     103.2823     306.2368 1533229416 9999999.9999
     577.0       0.0000       0.0000     170.3901      78.5817       7.1095     104.6743       9.4179     104.8828     312.3291 1533229417 9999999.9999
     578.0       0.0000       0.0000     178.8983      74.8279      -1.2452     104.9957       1.0632     105.2112     318.4408 1533229418 9999999.9999
     579.0       0.0000       0.0000    -172.7620      76.9609      -9.3588     104.6743      -7.0504     104.8828     324.5394 1533229419 9999999.9999
     580.0       0.0000       0.0000    -165.1340      89.4208     -17.3520     101.9430     -15.0436     102.0922     330.6572 1533229420 9999999.9999
     581.0       0.0000       0.0000    -157.9346    -999.2500     -26.0682      96.2795     -23.7598      96.3056     336.7619 1533229421 9999999.9999
     582.0       0.0000       0.0000    -152.2972    -999.2500     -33.9810      89.7725     -31.6726      89.6572     342.8605 1533229422 9999999.9999
