~VERSION INFORMATION
VERS.           2.0   :CWLS Log ASCII Standard - VERSION 2.0
WRAP.           NO    :One Line per depth step
PROD.  Schlumberger   :LAS Producer
PROG.  DLIS to ASCII 19C2-270                          :LAS Program name and version
CREA.        2018/08/03 10:59                          :LAS Creation date {YYYY/MM/DD hh:mm}
DLIS_CREA.  2018-Aug-03 08:56                          :DLIS Creation date and time {YYYY-MMM-DD hh:mm}
SOURCE.     PERFO_Perfo_063PTP.DLIS                    :DLIS File Name
FILE-ID.     PERFO_Perfo_063PTP                        :File Identification Number
#--------------------------------------------------
~WELL INFORMATION
#MNEM.UNIT      DATA             DESCRIPTION
#---- ------ --------------   -----------------------------
STRT .S            0.0       :START TIME      
STOP .S          897.0       :STOP TIME      
STEP .S            1.0       :STEP     
NULL .          -999.25      :NULL VALUE
COMP .        SHELL INTERNATIONAL EP                   :COMPANY
WELL .        WPP TEST 4                               :WELL
FLD  .        WILDCAT                                  :FIELD
LOC  .        NA                                       :LOCATION
CNTY .        HARRIS                                   :COUNTY
STAT .        TEXAS                                    :STATE
CTRY .                                                 :COUNTRY
API  .        NA                                       :API NUMBER
UWI  .                                                 :UNIQUE WELL ID
DATE .        02-Aug-2018                              :LOG DATE {DD-MMM-YYYY}
SRVC .        Schlumberger                             :SERVICE COMPANY
LATI .DEG                                              :LATITUDE
LONG .DEG                                              :LONGITUDE
GDAT .                                                 :GeoDetic Datum
SECT .        NA                                       :Section
RANG .        NA                                       :Range
TOWN .        NA                                       :Township
#-----------------------------------------------------------------------------
~PARAMETER INFORMATION
#MNEM.UNIT    VALUE                      DESCRIPTION
#---- -----   --------------------       ------------------------
U-PHASE_B_COMP_PER_YT.                 0 :Phase B Comparator Period Yt
U-PHASE_A_COMP_PER_XT.                 0 :Phase A Comparator Period Xt
U-MAX_EXC_CUR_LIMIT.MA       265.00000   :Requested CM Current Limit
U-REQ_EXC_FQ.HZ              50          :Requested CM Frequency
U-TILT_Y_OFFSET.          -2.06578       :WPTET Tilt Y Offset
U-TILT_Y_GAIN.           1.02173         :WPTET Tilt Y Gain
U-TILT_X_OFFSET.           2.30841       :WPTET Tilt X Offset
U-TILT_X_GAIN.           1.00000         :WPTET Tilt X Gain
U-TILT_OFFSET_TOL.           0.00100     :WPTET Tilt Offset Calibration Tolerance
U-MOT_CUR_LIMIT_REQ.MA        70.00000   :Requested Motor Current Limit
U-MOT_SPD_REQ_WPMS.RPM        1.00000    :Requested Motor Speed
U-STD_TOL_TILT.           0.01000        :Tilt Standard Deviation Tolerance
CWEI .LB/F      29.00000                 :Casing Weight
CSIZ .IN         7.00000                 :Current Casing Size
LCC  .               440                 :Logging Company Code
LUN  .              2134                 :Logging Unit Number
HIDE .                                   :Header Identifier
HID1 .                                   :Header Identifier Line 1
R1   .                                   :Remark Line 1
WITN .        MR. KELLY McCOY            :Witness's Name
ENGI .        MORRIS MOORE               :Engineer's Name
LUL  .        IOWA COLONY                :Logging Unit Location
DATE .        02-Aug-2018                :Date as Month-Day-Year
STAT .        TEXAS                      :State or Province
COUN .        HARRIS                     :County or Rig Name
FN   .        WILDCAT                    :Field Name
WN   .        WPP TEST 4                 :Well Name
CN   .        SHELL INTERNATIONAL EP     :Company Name
CLAB .        County                     :County/Rig Label
SLAB .        State                      :State/Province Label
RUN  .          1                        :RUN NUMBER
PDAT .        GROUND LEVEL               :Permanent Datum
EPD  .                                   :Elevation of Permanent Datum above Mean Sea Level
LMF  .          NA                       :Logging Measured From (Name of Logging Elevation Reference)
APD  .                                   :Elevation of Depth Reference (LMF) above Permanent Datum
#-----------------------------------------------------------------------------
~CURVE INFORMATION
#MNEM.UNIT   API CODE                                  DESCRIPTION
#---- -----  --------                                  -----------------------
TIME .S                                                :TIME {F10.1}
FREQ_EMF_SL.HZ                                         :Electromagnetic Field Frequency {F13.4}
PH_SH_WPPCM_SL.DEG                                     :WPPCM Phase Shift {F13.4}
RB_SL.DEG                                              :Relative Bearing {F13.4}
SDEV_SL.DEG                                            :Sonde Deviation {F13.4}
RTIX_SL.DEG                                            :Raw X-axis Tilt {F13.4}
RTIY_SL.DEG                                            :Raw Y-axis Tilt {F13.4}
TILX_SL.DEG                                            :X-axis Tilt {F13.4}
TILY_SL.DEG                                            :Y-axis Tilt {F13.4}
ROTA_SL.DEG                                            :Motor Rotation Angle {F13.4}
TOD7 .S                                                :Time of Day {I11}
TOJ  .S                                                :Time of Job {F13.4}
#-----------------------------------------------------------------------------
# 
#     TIME    FREQ_EMF_SL  PH_SH_WPPCM_    RB_SL       SDEV_SL      RTIX_SL      RTIY_SL      TILX_SL      TILY_SL      ROTA_SL        TOD7            TOJ
#                          SL
~A  
# ...
     159.0     979.2828       0.0000    -178.6869      74.6795      -3.5748     105.1563      -1.2664     105.3753      73.4757 1533231114 9999999.9999
     160.0     976.5625       0.0000    -170.5232      78.9570     -11.6082     104.3128      -9.2998     104.5135      79.5939 1533231115 9999999.9999
     161.0     983.3916       0.0000    -163.1330      97.6394     -19.6415     100.5773     -17.3331     100.6968      85.6987 1533231116 9999999.9999
     162.0     988.9241       0.0000    -156.6691    -999.2500     -27.7552      94.9942     -25.4468      94.9923      91.8105 1533231117 9999999.9999
     163.0    1003.0314       0.0000    -151.1801    -999.2500     -35.6680      88.2060     -33.3596      88.0567      97.9223 1533231118 9999999.9999
     164.0    1016.0765       0.0000    -146.3056    -999.2500     -43.3800      80.4940     -41.0716      80.1771     104.0271 1533231119 9999999.9999
     165.0    1043.2122       0.0000    -141.4886    -999.2500     -50.9715      71.1753     -48.6631      70.6560     110.1450 1533231120 9999999.9999
     166.0    1065.3409       0.0000    -133.9654    -999.2500     -62.1378      57.3178     -59.8294      56.4974     116.2570 1533231121 9999999.9999
     167.0    1093.5071       0.0000    -128.5232    -999.2500     -74.1477      50.1280     -71.8393      49.1514     122.3435 1533231122 9999999.9999
     168.0    1126.8029       0.0000    -124.3624    -999.2500     -82.3818      43.4603     -80.0734      42.3388     128.4614 1533231123 9999999.9999
     169.0    1160.2722       0.0000    -119.8313    -999.2500     -89.8127      36.2303     -87.5042      34.9517     134.5669 1533231124 9999999.9999
     170.0    1199.8721       0.0000    -114.6137    -999.2500     -96.2795      28.6388     -93.9711      27.1953     140.6788 1533231125 9999999.9999
     171.0    1244.4691       0.0000    -108.3089    -999.2500    -101.4208      20.6858     -99.1124      19.0695     147.1888 1533231126 9999999.9999
     172.0    1290.1376       0.0000    -101.3356      86.4083    -104.1923      13.0943    -101.8839      11.3131     153.2937 1533231127 9999999.9999
     173.0    1339.2858       0.0000     -92.9236      77.9381    -104.7145       4.8200    -102.4061       2.8589     159.3925 1533231128 9999999.9999
     174.0    1400.6475       0.0000     -84.3819      78.9211    -104.7145      -3.3740    -102.4061      -5.5131     165.4914 1533231129 9999999.9999
     175.0    1452.7377       0.0000     -76.2862      89.4310    -103.6300     -11.5278    -101.3216     -13.8441     171.5973 1533231130 9999999.9999
     176.0    1525.2169       0.0000     -69.4576    -999.2500    -100.6175     -19.2800     -98.3091     -21.7647     177.7031 1533231131 9999999.9999
     177.0    1588.9830       0.0000     -63.5657    -999.2500     -95.2854     -27.1125     -92.9770     -29.7674     183.8150 1533231132 9999999.9999
     178.0    1662.2340       0.0000     -58.5598    -999.2500     -88.8085     -34.7843     -86.5001     -37.6059     189.9138 1533231133 9999999.9999
     179.0    1727.5798       0.0000     -54.4031    -999.2500     -81.4178     -41.6930     -79.1094     -44.6647     196.0318 1533231134 9999999.9999
     180.0    1784.5813       0.0000     -50.2738    -999.2500     -72.7017     -48.4008     -70.3932     -51.5182     202.1368 1533231135 9999999.9999
     181.0    1835.8356       0.0000     -45.1049    -999.2500     -60.7320     -54.8275     -58.4236     -58.0845     208.2356 1533231136 9999999.9999
     182.0    1885.0536       0.0000     -36.7274    -999.2500     -49.0435     -73.7460     -46.7351     -77.4141     214.3344 1533231137 9999999.9999
     183.0    1926.3699       0.0000     -32.6931    -999.2500     -42.1348     -82.4220     -39.8264     -86.2786     220.4271 1533231138 9999999.9999
     184.0    1969.5378       0.0000     -28.4818    -999.2500     -35.1057     -89.2503     -32.7973     -93.2553     226.9370 1533231139 9999999.9999
     185.0    1997.5142       0.0000     -23.6059    -999.2500     -27.9158     -94.3917     -25.6074     -98.5083     233.0113 1533231140 9999999.9999
     186.0    2020.4741       0.0000     -18.0411    -999.2500     -20.8867     -97.8058     -18.5783    -101.9967     239.1163 1533231141 9999999.9999
     187.0    2038.0435       0.0000     -11.1606      82.6257     -13.3755     -99.1313     -11.0671    -103.3510     245.2343 1533231142 9999999.9999
     188.0    2049.9270       0.0000      -2.7864      76.7700      -5.0208     -99.2920      -2.7124    -103.5151     251.3331 1533231143 9999999.9999
     189.0    2055.9211       0.0000       6.3870      78.3452       3.9464     -99.0510       6.2548    -103.2689     257.4319 1533231144 9999999.9999
     190.0    2043.9680       0.0000      13.9620      88.9446      11.7688     -97.7657      14.0772    -101.9556     263.5367 1533231145 9999999.9999
     191.0    2038.0435       0.0000      20.0607    -999.2500      18.8382     -94.7933      21.1466     -98.9187     269.6291 1533231146 9999999.9999
     192.0    2020.4741       0.0000      25.3038    -999.2500      25.8272     -90.0938      28.1356     -94.1171     275.7277 1533231147 9999999.9999
     193.0    1991.8556       0.0000      29.7304    -999.2500      32.4948     -84.1492      34.8032     -88.0433     281.8396 1533231148 9999999.9999
     194.0    1958.5656       0.0000      33.7948    -999.2500      39.0420     -77.0397      41.3504     -80.7793     287.9443 1533231149 9999999.9999
     195.0    1926.3699       0.0000      37.9677    -999.2500      45.5490     -68.2833      47.8574     -71.8327     294.0491 1533231150 9999999.9999
     196.0    1885.0536       0.0000      43.5118    -999.2500      50.6502     -53.9840      52.9586     -57.2227     300.5526 1533231151 9999999.9999
     197.0    1840.6414       0.0000      52.5486    -999.2500      74.2280     -45.1072      76.5364     -48.1530     306.6451 1533231152 9999999.9999
     198.0    1784.5813       0.0000      56.3779    -999.2500      82.4220     -38.5600      84.7304     -41.4636     312.7498 1533231153 9999999.9999
     199.0    1727.5798       0.0000      60.4204    -999.2500      89.2503     -31.8120      91.5587     -34.5690     318.8484 1533231154 9999999.9999
     200.0    1674.1072       0.0000      64.9055    -999.2500      94.4318     -25.1042      96.7402     -27.7154     324.9470 1533231155 9999999.9999
     201.0    1612.6721       0.0000      70.4935    -999.2500      97.8058     -17.9545     100.1142     -20.4104     331.0518 1533231156 9999999.9999
     202.0    1545.3296       0.0000      77.8151      84.5320      99.4928      -9.9212     101.8012     -12.2025     337.1571 1533231157 9999999.9999
     203.0    1483.3861       0.0000      86.3809      78.2542      99.9748      -1.4460     102.2832      -3.5432     343.2567 1533231158 9999999.9999
     204.0    1426.2170       0.0000      95.3464      78.5244     100.3363       7.1497     102.6447       5.2392     349.3615 1533231159 9999999.9999
     205.0    1370.6140       0.0000     102.9626      91.7939      99.1715      14.7813     101.4799      13.0367     355.4601 1533231160 9999999.9999
     206.0    1319.1838       0.0000     109.7213    -999.2500      95.6770      22.3728      97.9854      20.7932       1.5648 1533231161 9999999.9999
     207.0    1269.1787       0.0000     115.5127    -999.2500      90.5357      29.8840      92.8441      28.4675       7.6513 1533231162 9999999.9999
     208.0    1227.0942       0.0000     120.5628    -999.2500      83.8680      37.3550      86.1764      36.1008      14.1621 1533231163 9999999.9999
     209.0    1183.7122       0.0000     125.0673    -999.2500      76.1158      44.5448      78.4242      43.4469      20.2670 1533231164 9999999.9999
     210.0    1152.6639       0.0000     129.6687    -999.2500      66.5562      51.6142      68.8646      50.6698      26.3788 1533231165 9999999.9999
     211.0    1116.0714       0.0000     138.3756    -999.2500      52.6987      67.8013      55.0071      67.2087      32.4776 1533231166 9999999.9999
