~VERSION INFORMATION
VERS.           2.0   :CWLS Log ASCII Standard - VERSION 2.0
WRAP.           NO    :One Line per depth step
PROD.  Schlumberger   :LAS Producer
PROG.  DLIS to ASCII 19C2-270                          :LAS Program name and version
CREA.        2018/08/03 10:59                          :LAS Creation date {YYYY/MM/DD hh:mm}
DLIS_CREA.  2018-Aug-03 08:48                          :DLIS Creation date and time {YYYY-MMM-DD hh:mm}
SOURCE.     PERFO_Perfo_061PTP.DLIS                    :DLIS File Name
FILE-ID.     PERFO_Perfo_061PTP                        :File Identification Number
#--------------------------------------------------
~WELL INFORMATION
#MNEM.UNIT      DATA             DESCRIPTION
#---- ------ --------------   -----------------------------
STRT .S            0.0       :START TIME      
STOP .S          993.0       :STOP TIME      
STEP .S            1.0       :STEP     
NULL .          -999.25      :NULL VALUE
COMP .        SHELL INTERNATIONAL EP                   :COMPANY
WELL .        WPP TEST 4                               :WELL
FLD  .        WILDCAT                                  :FIELD
LOC  .        NA                                       :LOCATION
CNTY .        HARRIS                                   :COUNTY
STAT .        TEXAS                                    :STATE
CTRY .                                                 :COUNTRY
API  .        NA                                       :API NUMBER
UWI  .                                                 :UNIQUE WELL ID
DATE .        02-Aug-2018                              :LOG DATE {DD-MMM-YYYY}
SRVC .        Schlumberger                             :SERVICE COMPANY
LATI .DEG                                              :LATITUDE
LONG .DEG                                              :LONGITUDE
GDAT .                                                 :GeoDetic Datum
SECT .        NA                                       :Section
RANG .        NA                                       :Range
TOWN .        NA                                       :Township
#-----------------------------------------------------------------------------
~PARAMETER INFORMATION
#MNEM.UNIT    VALUE                      DESCRIPTION
#---- -----   --------------------       ------------------------
U-PHASE_B_COMP_PER_YT.                 0 :Phase B Comparator Period Yt
U-PHASE_A_COMP_PER_XT.                 0 :Phase A Comparator Period Xt
U-MAX_EXC_CUR_LIMIT.MA       265.00000   :Requested CM Current Limit
U-REQ_EXC_FQ.HZ              50          :Requested CM Frequency
U-TILT_Y_OFFSET.          -2.06578       :WPTET Tilt Y Offset
U-TILT_Y_GAIN.           1.02173         :WPTET Tilt Y Gain
U-TILT_X_OFFSET.           2.30841       :WPTET Tilt X Offset
U-TILT_X_GAIN.           1.00000         :WPTET Tilt X Gain
U-TILT_OFFSET_TOL.           0.00100     :WPTET Tilt Offset Calibration Tolerance
U-MOT_CUR_LIMIT_REQ.MA        70.00000   :Requested Motor Current Limit
U-MOT_SPD_REQ_WPMS.RPM        1.00000    :Requested Motor Speed
U-STD_TOL_TILT.           0.01000        :Tilt Standard Deviation Tolerance
CWEI .LB/F      29.00000                 :Casing Weight
CSIZ .IN         7.00000                 :Current Casing Size
LCC  .               440                 :Logging Company Code
LUN  .              2134                 :Logging Unit Number
HIDE .                                   :Header Identifier
HID1 .                                   :Header Identifier Line 1
R1   .                                   :Remark Line 1
WITN .        MR. KELLY McCOY            :Witness's Name
ENGI .        MORRIS MOORE               :Engineer's Name
LUL  .        IOWA COLONY                :Logging Unit Location
DATE .        02-Aug-2018                :Date as Month-Day-Year
STAT .        TEXAS                      :State or Province
COUN .        HARRIS                     :County or Rig Name
FN   .        WILDCAT                    :Field Name
WN   .        WPP TEST 4                 :Well Name
CN   .        SHELL INTERNATIONAL EP     :Company Name
CLAB .        County                     :County/Rig Label
SLAB .        State                      :State/Province Label
RUN  .          1                        :RUN NUMBER
PDAT .        GROUND LEVEL               :Permanent Datum
EPD  .                                   :Elevation of Permanent Datum above Mean Sea Level
LMF  .          NA                       :Logging Measured From (Name of Logging Elevation Reference)
APD  .                                   :Elevation of Depth Reference (LMF) above Permanent Datum
#-----------------------------------------------------------------------------
~CURVE INFORMATION
#MNEM.UNIT   API CODE                                  DESCRIPTION
#---- -----  --------                                  -----------------------
TIME .S                                                :TIME {F10.1}
FREQ_EMF_SL.HZ                                         :Electromagnetic Field Frequency {F13.4}
PH_SH_WPPCM_SL.DEG                                     :WPPCM Phase Shift {F13.4}
RB_SL.DEG                                              :Relative Bearing {F13.4}
SDEV_SL.DEG                                            :Sonde Deviation {F13.4}
RTIX_SL.DEG                                            :Raw X-axis Tilt {F13.4}
RTIY_SL.DEG                                            :Raw Y-axis Tilt {F13.4}
TILX_SL.DEG                                            :X-axis Tilt {F13.4}
TILY_SL.DEG                                            :Y-axis Tilt {F13.4}
ROTA_SL.DEG                                            :Motor Rotation Angle {F13.4}
TOD7 .S                                                :Time of Day {I11}
TOJ  .S                                                :Time of Job {F13.4}
#-----------------------------------------------------------------------------
# 
#     TIME    FREQ_EMF_SL  PH_SH_WPPCM_    RB_SL       SDEV_SL      RTIX_SL      RTIY_SL      TILX_SL      TILY_SL      ROTA_SL        TOD7            TOJ
#                          SL
~A  
       0.0    1627.6041       0.0000     -48.9303    -999.2500     -69.6490     -50.3690     -67.3406     -53.5292      48.0330 1533228841 9999999.9999
       1.0    1608.9817       0.0000     -48.9521    -999.2500     -69.6088     -50.2887     -67.3004     -53.4471      48.0330 1533228841 9999999.9999
       2.0    1608.9817       0.0000     -48.9371    -999.2500     -69.6088     -50.3288     -67.3004     -53.4881      48.0330 1533228842 9999999.9999
       3.0    1612.6721       0.0000     -48.9454    -999.2500     -69.6490     -50.3288     -67.3406     -53.4881      48.0330 1533228843 9999999.9999
       4.0    1605.3082       0.0000     -48.9438    -999.2500     -69.5687     -50.2887     -67.2603     -53.4471      48.0330 1533228844 9999999.9999
       5.0    1608.9817       0.0000     -48.9371    -999.2500     -69.6088     -50.3288     -67.3004     -53.4881      48.0330 1533228845 9999999.9999
       6.0    1608.9817       0.0000     -47.1894    -999.2500     -65.6323     -52.6585     -63.3239     -55.8684      50.7361 1533228846 9999999.9999
       7.0    1620.1036       0.0000     -38.5577    -999.2500     -51.9355     -69.3277     -49.6271     -72.8997      56.3713 1533228847 9999999.9999
       8.0    1646.6628       0.0000     -34.5437    -999.2500     -45.3080     -78.4053     -42.9996     -82.1746      62.4700 1533228848 9999999.9999
       9.0    1666.1730       0.0000     -30.4528    -999.2500     -38.3190     -86.0370     -36.0106     -89.9721      68.5687 1533228849 9999999.9999
      10.0    1682.1173       0.0000     -25.9822    -999.2500     -31.2898     -92.1022     -28.9814     -96.1691      74.6736 1533228850 9999999.9999
      11.0    1710.7665       0.0000     -20.6829    -999.2500     -24.1000     -96.3197     -21.7916    -100.4782      80.7662 1533228851 9999999.9999
      12.0    1719.1321       0.0000     -14.4563    -999.2500     -16.8700     -98.5690     -14.5616    -102.7764      86.8649 1533228852 9999999.9999
      13.0    1727.5798       0.0000      -6.1797      78.0958      -8.3547     -99.1715      -6.0463    -103.3920      92.9636 1533228853 9999999.9999
      14.0    1731.8351       0.0000       2.5335      77.0546       0.1607     -98.9707       2.4691    -103.1868      99.0562 1533228854 9999999.9999
      15.0    1731.8351       0.0000      10.7346      83.4189       8.3547     -98.3682      10.6631    -102.5712     105.1743 1533228855 9999999.9999
      16.0    1731.8351       0.0000      17.2721    -999.2500      15.5043     -96.1590      17.8127    -100.3140     111.2606 1533228856 9999999.9999
      17.0    1727.5798       0.0000      22.9103    -999.2500      22.5335     -92.1825      24.8419     -96.2511     117.3531 1533228857 9999999.9999
      18.0    1714.9390       0.0000      27.6490    -999.2500      29.2815     -86.7600      31.5899     -90.7108     123.4580 1533228858 9999999.9999
      19.0    1702.4818       0.0000      31.8829    -999.2500      35.9090     -80.2128      38.2174     -84.0214     129.5506 1533228859 9999999.9999
      20.0    1686.1511       0.0000      36.0018    -999.2500      42.5365     -72.4205      44.8449     -76.0598     135.6494 1533228860 9999999.9999
      21.0    1670.1307       0.0000      40.6279    -999.2500      48.8828     -61.8567      51.1912     -65.2664     141.7544 1533228861 9999999.9999
      22.0    1646.6628       0.0000      50.9133    -999.2500      70.0908     -47.6377      72.3992     -50.7385     147.8594 1533228862 9999999.9999
      23.0    1623.8453       0.0000      54.7459    -999.2500      78.8070     -41.3315      81.1154     -44.2953     153.9457 1533228863 9999999.9999
      24.0    1601.6515       0.0000      58.6000    -999.2500      86.3182     -34.7843      88.6266     -37.6059     160.0446 1533228864 9999999.9999
      25.0    1572.9866       0.0000      63.2010    -999.2500      92.5440     -27.5543      94.8524     -30.2188     166.1495 1533228865 9999999.9999
      26.0    1538.5668       0.0000      68.3518    -999.2500      96.7213     -20.5653      99.0297     -23.0779     172.2545 1533228866 9999999.9999
      27.0    1505.6210       0.0000      74.7051    -999.2500      98.7698     -13.2148     101.0782     -15.5677     178.3541 1533228867 9999999.9999
      28.0    1477.1533       0.0000      82.6627      80.5267      99.6535      -5.0610     101.9619      -7.2367     184.4529 1533228868 9999999.9999
      29.0    1452.7377       0.0000      91.5398      77.7312     100.0552       3.4945     102.3636       1.5046     190.5456 1533228869 9999999.9999
      30.0    1414.7384       0.0000      99.7040      82.9720      99.6535      11.4475     101.9619       9.6304     196.6506 1533228870 9999999.9999
      31.0    1389.5751       0.0000     106.8599      86.8310      97.2837      19.0390      99.5921      17.3869     203.1419 1533228871 9999999.9999
      32.0    1365.2913       0.0000     113.0700    -999.2500      92.7850      26.5903      95.0934      25.1023     209.2469 1533228872 9999999.9999
      33.0    1329.1588       0.0000     118.3791    -999.2500      86.8002      34.0212      89.1086      32.6946     215.3518 1533228873 9999999.9999
      34.0    1311.8003       0.0000     123.1121    -999.2500      79.4898      41.3717      81.7982      40.2048     221.4507 1533228874 9999999.9999
      35.0    1285.4205       0.0000     127.6833    -999.2500      70.6130      48.6017      72.9214      47.5919     227.5495 1533228875 9999999.9999
      36.0    1266.8918       0.0000     133.4052    -999.2500      56.4342      54.8275      58.7426      53.9530     233.6737 1533228876 9999999.9999
      37.0    1244.4691       0.0000     141.1120    -999.2500      48.4008      74.1075      50.7092      73.6519     239.7725 1533228877 9999999.9999
      38.0    1233.5526       0.0000     144.9313    -999.2500      41.7733      82.5827      44.0817      82.3112     245.8844 1533228878 9999999.9999
      39.0    1218.5875       0.0000     148.9524    -999.2500      34.7040      89.8930      37.0124      89.7803     251.9893 1533228879 9999999.9999
      40.0    1206.0464       0.0000     153.6125    -999.2500      27.2330      96.3598      29.5414      96.3877     258.0942 1533228880 9999999.9999
      41.0    1191.7373       0.0000     159.4162    -999.2500      19.2800     101.4208      21.5884     101.5586     264.1928 1533228881 9999999.9999
      42.0    1187.7112       0.0000     166.0677      87.3066      11.6082     103.9915      13.9166     104.1852     270.2914 1533228882 9999999.9999
      43.0    1181.7228       0.0000     174.1880      76.1414       3.3338     104.7948       5.6422     105.0060     276.8011 1533228883 9999999.9999
      44.0    1177.7638       0.0000    -177.1509      75.0519      -5.0610     104.9957      -2.7526     105.2112     282.8936 1533228884 9999999.9999
      45.0    1173.8313       0.0000    -169.2451      81.1452     -12.9337     103.7103     -10.6253     103.8979     289.0183 1533228885 9999999.9999
      46.0    1167.9817       0.0000    -161.9171      84.7080     -21.0875      99.5330     -18.7791      99.6298     295.1169 1533228886 9999999.9999
      47.0    1177.7638       0.0000    -155.7645    -999.2500     -29.0003      93.7892     -26.6919      93.7612     301.2216 1533228887 9999999.9999
      48.0    1181.7228       0.0000    -150.3945    -999.2500     -36.8730      87.0010     -34.5646      86.8255     307.3264 1533228888 9999999.9999
      49.0    1191.7373       0.0000    -145.4282    -999.2500     -44.7457      78.6463     -42.4373      78.2893     313.0078 1533228889 9999999.9999
      50.0    1195.7908       0.0000    -140.8021    -999.2500     -51.9355      69.6490     -49.6271      69.0965     319.1125 1533228890 9999999.9999
      51.0    1210.1979       0.0000    -132.4043    -999.2500     -65.6323      55.5505     -63.3239      54.6917     325.2303 1533228891 9999999.9999
      52.0    1231.3923       0.0000    -127.9525    -999.2500     -75.1117      49.1640     -72.8033      48.1664     331.3289 1533228892 9999999.9999
