~VERSION INFORMATION
VERS.           2.0   :CWLS Log ASCII Standard - VERSION 2.0
WRAP.           NO    :One Line per depth step
PROD.  Schlumberger   :LAS Producer
PROG.  DLIS to ASCII 19C2-270                          :LAS Program name and version
CREA.        2018/08/03 10:59                          :LAS Creation date {YYYY/MM/DD hh:mm}
DLIS_CREA.  2018-Aug-03 09:40                          :DLIS Creation date and time {YYYY-MMM-DD hh:mm}
SOURCE.     PERFO_Perfo_082PTP.DLIS                    :DLIS File Name
FILE-ID.     PERFO_Perfo_082PTP                        :File Identification Number
#--------------------------------------------------
~WELL INFORMATION
#MNEM.UNIT      DATA             DESCRIPTION
#---- ------ --------------   -----------------------------
STRT .S            0.0       :START TIME      
STOP .S          387.0       :STOP TIME      
STEP .S            1.0       :STEP     
NULL .          -999.25      :NULL VALUE
COMP .        SHELL INTERNATIONAL EP                   :COMPANY
WELL .        WPP TEST 4                               :WELL
FLD  .        WILDCAT                                  :FIELD
LOC  .        NA                                       :LOCATION
CNTY .        HARRIS                                   :COUNTY
STAT .        TEXAS                                    :STATE
CTRY .                                                 :COUNTRY
API  .        NA                                       :API NUMBER
UWI  .                                                 :UNIQUE WELL ID
DATE .        02-Aug-2018                              :LOG DATE {DD-MMM-YYYY}
SRVC .        Schlumberger                             :SERVICE COMPANY
LATI .DEG                                              :LATITUDE
LONG .DEG                                              :LONGITUDE
GDAT .                                                 :GeoDetic Datum
SECT .        NA                                       :Section
RANG .        NA                                       :Range
TOWN .        NA                                       :Township
#-----------------------------------------------------------------------------
~PARAMETER INFORMATION
#MNEM.UNIT    VALUE                      DESCRIPTION
#---- -----   --------------------       ------------------------
U-PHASE_B_COMP_PER_YT.                 0 :Phase B Comparator Period Yt
U-PHASE_A_COMP_PER_XT.                 0 :Phase A Comparator Period Xt
U-MAX_EXC_CUR_LIMIT.MA       265.00000   :Requested CM Current Limit
U-REQ_EXC_FQ.HZ              50          :Requested CM Frequency
U-TILT_Y_OFFSET.          -2.06578       :WPTET Tilt Y Offset
U-TILT_Y_GAIN.           1.02173         :WPTET Tilt Y Gain
U-TILT_X_OFFSET.           2.30841       :WPTET Tilt X Offset
U-TILT_X_GAIN.           1.00000         :WPTET Tilt X Gain
U-TILT_OFFSET_TOL.           0.00100     :WPTET Tilt Offset Calibration Tolerance
U-MOT_CUR_LIMIT_REQ.MA        70.00000   :Requested Motor Current Limit
U-MOT_SPD_REQ_WPMS.RPM        1.00000    :Requested Motor Speed
U-STD_TOL_TILT.           0.01000        :Tilt Standard Deviation Tolerance
CWEI .LB/F      29.00000                 :Casing Weight
CSIZ .IN         7.00000                 :Current Casing Size
LCC  .               440                 :Logging Company Code
LUN  .              2134                 :Logging Unit Number
HIDE .                                   :Header Identifier
HID1 .                                   :Header Identifier Line 1
R1   .                                   :Remark Line 1
WITN .        MR. KELLY McCOY            :Witness's Name
ENGI .        MORRIS MOORE               :Engineer's Name
LUL  .        IOWA COLONY                :Logging Unit Location
DATE .        02-Aug-2018                :Date as Month-Day-Year
STAT .        TEXAS                      :State or Province
COUN .        HARRIS                     :County or Rig Name
FN   .        WILDCAT                    :Field Name
WN   .        WPP TEST 4                 :Well Name
CN   .        SHELL INTERNATIONAL EP     :Company Name
CLAB .        County                     :County/Rig Label
SLAB .        State                      :State/Province Label
RUN  .          1                        :RUN NUMBER
PDAT .        GROUND LEVEL               :Permanent Datum
EPD  .                                   :Elevation of Permanent Datum above Mean Sea Level
LMF  .          NA                       :Logging Measured From (Name of Logging Elevation Reference)
APD  .                                   :Elevation of Depth Reference (LMF) above Permanent Datum
#-----------------------------------------------------------------------------
~CURVE INFORMATION
#MNEM.UNIT   API CODE                                  DESCRIPTION
#---- -----  --------                                  -----------------------
TIME .S                                                :TIME {F10.1}
FREQ_EMF_SL.HZ                                         :Electromagnetic Field Frequency {F13.4}
PH_SH_WPPCM_SL.DEG                                     :WPPCM Phase Shift {F13.4}
RB_SL.DEG                                              :Relative Bearing {F13.4}
SDEV_SL.DEG                                            :Sonde Deviation {F13.4}
RTIX_SL.DEG                                            :Raw X-axis Tilt {F13.4}
RTIY_SL.DEG                                            :Raw Y-axis Tilt {F13.4}
TILX_SL.DEG                                            :X-axis Tilt {F13.4}
TILY_SL.DEG                                            :Y-axis Tilt {F13.4}
ROTA_SL.DEG                                            :Motor Rotation Angle {F13.4}
TOD7 .S                                                :Time of Day {I11}
TOJ  .S                                                :Time of Job {F13.4}
#-----------------------------------------------------------------------------
# 
#     TIME    FREQ_EMF_SL  PH_SH_WPPCM_    RB_SL       SDEV_SL      RTIX_SL      RTIY_SL      TILX_SL      TILY_SL      ROTA_SL        TOD7            TOJ
#                          SL
~A  
# ...
     265.0    2484.5405       0.0000     123.5060    -999.2500      80.5743      42.2152      82.8827      41.0666     342.8592 1533245728 9999999.9999
     266.0    2493.3511       0.0000     127.9661    -999.2500      71.4967      49.5255      73.8051      48.5358     348.9711 1533245729 9999999.9999
     267.0    2493.3511       0.0000     133.3028    -999.2500      58.2818      56.0325      60.5902      55.1841     355.0758 1533245730 9999999.9999
     268.0    2493.3511       0.0000     140.3897    -999.2500      50.0075      73.4648      52.3159      72.9952       1.1806 1533245731 9999999.9999
     269.0    2493.3511       0.0000     144.2277    -999.2500      43.2193      82.3417      45.5277      82.0649       7.6843 1533245732 9999999.9999
     270.0    2475.7922       0.0000     148.0525    -999.2500      36.2705      89.8930      38.5789      89.7803      13.7891 1533245733 9999999.9999
     271.0    2484.5405       0.0000     152.8700    -999.2500      28.2773      96.7213      30.5857      96.7570      19.8940 1533245734 9999999.9999
     272.0    2493.3511       0.0000     158.5743    -999.2500      20.2440     102.0635      22.5524     102.2153      25.9928 1533245735 9999999.9999
     273.0    2484.5405       0.0000     165.2716      85.3948      12.3713     105.1965      14.6797     105.4163      32.0915 1533245736 9999999.9999
     274.0    2484.5405       0.0000     173.2406      74.9311       4.2175     106.2408       6.5259     106.4834      38.1964 1533245737 9999999.9999
     275.0    2391.5815       0.0000    -177.4648      73.5413      -4.7397     106.4015      -2.4313     106.6475      44.3013 1533245738 9999999.9999
     276.0    2282.8735       0.0000    -169.2239      79.2587     -12.8935     104.9555     -10.5851     105.1701      50.4000 1533245739 9999999.9999
     277.0    2143.6738       0.0000    -161.6141      82.4469     -21.3687     100.6175     -19.0603     100.7379      56.4987 1533245740 9999999.9999
     278.0    1986.2288       0.0000    -155.3835    -999.2500     -29.4823      94.6327     -27.1739      94.6230      62.6036 1533245741 9999999.9999
     279.0    1826.2988       0.0000    -150.0827    -999.2500     -37.3952      87.5232     -35.0868      87.3590      68.7085 1533245742 9999999.9999
     280.0    1646.6628       0.0000    -145.4209    -999.2500     -44.9465      79.6505     -42.6381      79.3153      74.8072 1533245743 9999999.9999
     281.0    1458.7655       0.0000    -140.7917    -999.2500     -52.3773      70.5728     -50.0689      70.0404      81.3170 1533245744 9999999.9999
     282.0    1233.5526       0.0000    -132.9927    -999.2500     -65.3110      56.9965     -63.0026      56.1691      87.4218 1533245745 9999999.9999
     283.0    1041.6666       0.0000    -128.3969    -999.2500     -75.0715      50.1682     -72.7631      49.1924      93.5205 1533245746 9999999.9999
     284.0     935.0067       0.0000    -124.2188    -999.2500     -83.4262      43.3398     -81.1178      42.2157      99.6193 1533245747 9999999.9999
     285.0     849.1848       0.0000    -119.7147    -999.2500     -90.8168      36.0697     -88.5084      34.7876     105.7241 1533245748 9999999.9999
     286.0     775.2205       0.0000    -114.3184    -999.2500     -97.5648      28.1970     -95.2564      26.7439     111.8290 1533245749 9999999.9999
     287.0     704.5341       0.0000    -107.4969    -999.2500    -103.0275      19.6817    -100.7191      18.0435     117.9408 1533245750 9999999.9999
     288.0     638.0444       0.0000    -100.0392      81.1240    -105.6785      11.7287    -103.3701       9.9177     124.0395 1533245751 9999999.9999
     289.0     597.8954       0.0000     -91.5478      76.4351    -105.9597       3.4945    -103.6513       1.5046     130.1444 1533245752 9999999.9999
     290.0     571.6464       0.0000     -82.8212      78.4055    -105.9195      -4.8602    -103.6111      -7.0315     136.2493 1533245753 9999999.9999
     291.0     544.2144       0.0000     -74.7589      93.4597    -104.5137     -13.0943    -102.2053     -15.4446     142.3612 1533245754 9999999.9999
     292.0     522.3812       0.0000     -68.0485    -999.2500    -100.8585     -20.9670     -98.5501     -23.4883     148.4662 1533245755 9999999.9999
     293.0     506.2095       0.0000     -62.3051    -999.2500     -95.2753     -28.9200     -92.9669     -31.6141     154.9761 1533245756 9999999.9999
     294.0     493.0750       0.0000     -57.6029    -999.2500     -88.6077     -36.4312     -86.2993     -39.2885     161.0749 1533245757 9999999.9999
     295.0     486.2552       0.0000     -53.5124    -999.2500     -81.0965     -43.5005     -78.7881     -46.5114     167.1870 1533245758 9999999.9999
     296.0     491.3522       0.0000     -49.4504    -999.2500     -72.2598     -50.3288     -69.9514     -53.4881     173.2920 1533245759 9999999.9999
     297.0     499.0241       0.0000     -43.7809    -999.2500     -58.7638     -57.1170     -56.4554     -60.4238     179.3970 1533245760 9999999.9999
     298.0     511.7358       0.0000     -36.6493    -999.2500     -49.2845     -75.5937     -46.9761     -79.3019     185.4958 1533245761 9999999.9999
     299.0     533.4788       0.0000     -32.3602    -999.2500     -41.6127     -84.6312     -39.3043     -88.5357     191.5946 1533245762 9999999.9999
     300.0     561.6014       0.0000     -28.0526    -999.2500     -34.3425     -91.4595     -32.0341     -95.5124     197.6996 1533245763 9999999.9999
     301.0     596.8803       0.0000     -23.1012    -999.2500     -27.0723     -96.7213     -24.7639    -100.8886     203.8046 1533245764 9999999.9999
     302.0     634.5894       0.0000     -17.1201    -999.2500     -19.6817     -99.9748     -17.3733    -104.2128     209.9034 1533245765 9999999.9999
     303.0     682.6456       0.0000     -10.1157      78.2686     -12.2107    -101.1798      -9.9023    -105.4440     215.9775 1533245766 9999999.9999
     304.0     739.3533       0.0000      -1.8959      74.7114      -4.1372    -101.1397      -1.8288    -105.4029     222.1018 1533245767 9999999.9999
     305.0     804.4908       0.0000       7.5696      76.8303       5.0610    -100.8987       7.3694    -105.1567     228.6056 1533245768 9999999.9999
     306.0     869.1286       0.0000      14.9143      90.0089      12.6927     -99.4125      15.0011    -103.6382     234.7044 1533245769 9999999.9999
     307.0     941.2651       0.0000      21.0371    -999.2500      19.9227     -96.1992      22.2311    -100.3551     240.8225 1533245770 9999999.9999
     308.0    1046.3170       0.0000      26.2261    -999.2500      27.0723     -91.1382      29.3807     -95.1841     246.9274 1533245771 9999999.9999
     309.0    1240.0793       0.0000      30.6723    -999.2500      34.0613     -84.9927      36.3697     -88.9051     253.0138 1533245772 9999999.9999
     310.0    1423.3300       0.0000      34.6353    -999.2500      40.7692     -77.6422      43.0776     -81.3949     259.1125 1533245773 9999999.9999
     311.0    1594.3877       0.0000      39.1085    -999.2500      48.0795     -67.8415      50.3879     -71.3813     265.2234 1533245774 9999999.9999
     312.0    1757.8126       0.0000      48.7707    -999.2500      67.1185     -51.9355      69.4269     -55.1297     271.3236 1533245775 9999999.9999
     313.0    1910.6658       0.0000      52.9233    -999.2500      76.9995     -44.9063      79.3079     -47.9478     277.4222 1533245776 9999999.9999
     314.0    2049.9270       0.0000      56.6781    -999.2500      85.1132     -38.1583      87.4216     -41.0532     283.5400 1533245777 9999999.9999
     315.0    2176.8577       0.0000      60.7029    -999.2500      91.7407     -31.2898      94.0491     -34.0354     289.6447 1533245778 9999999.9999
     316.0    2305.3279       0.0000      65.5248    -999.2500      97.0427     -24.1000      99.3511     -26.6894     295.7564 1533245779 9999999.9999
     317.0    2416.2371       0.0000      71.4030    -999.2500     100.1757     -16.7495     102.4841     -19.1792     302.2599 1533245780 9999999.9999
