~VERSION INFORMATION
VERS.           2.0   :CWLS Log ASCII Standard - VERSION 2.0
WRAP.           NO    :One Line per depth step
PROD.  Schlumberger   :LAS Producer
PROG.  DLIS to ASCII 19C2-270                          :LAS Program name and version
CREA.        2018/08/03 10:59                          :LAS Creation date {YYYY/MM/DD hh:mm}
DLIS_CREA.  2018-Aug-03 08:48                          :DLIS Creation date and time {YYYY-MMM-DD hh:mm}
SOURCE.     PERFO_Perfo_061PTP.DLIS                    :DLIS File Name
FILE-ID.     PERFO_Perfo_061PTP                        :File Identification Number
#--------------------------------------------------
~WELL INFORMATION
#MNEM.UNIT      DATA             DESCRIPTION
#---- ------ --------------   -----------------------------
STRT .S            0.0       :START TIME      
STOP .S          993.0       :STOP TIME      
STEP .S            1.0       :STEP     
NULL .          -999.25      :NULL VALUE
COMP .        SHELL INTERNATIONAL EP                   :COMPANY
WELL .        WPP TEST 4                               :WELL
FLD  .        WILDCAT                                  :FIELD
LOC  .        NA                                       :LOCATION
CNTY .        HARRIS                                   :COUNTY
STAT .        TEXAS                                    :STATE
CTRY .                                                 :COUNTRY
API  .        NA                                       :API NUMBER
UWI  .                                                 :UNIQUE WELL ID
DATE .        02-Aug-2018                              :LOG DATE {DD-MMM-YYYY}
SRVC .        Schlumberger                             :SERVICE COMPANY
LATI .DEG                                              :LATITUDE
LONG .DEG                                              :LONGITUDE
GDAT .                                                 :GeoDetic Datum
SECT .        NA                                       :Section
RANG .        NA                                       :Range
TOWN .        NA                                       :Township
#-----------------------------------------------------------------------------
~PARAMETER INFORMATION
#MNEM.UNIT    VALUE                      DESCRIPTION
#---- -----   --------------------       ------------------------
U-PHASE_B_COMP_PER_YT.                 0 :Phase B Comparator Period Yt
U-PHASE_A_COMP_PER_XT.                 0 :Phase A Comparator Period Xt
U-MAX_EXC_CUR_LIMIT.MA       265.00000   :Requested CM Current Limit
U-REQ_EXC_FQ.HZ              50          :Requested CM Frequency
U-TILT_Y_OFFSET.          -2.06578       :WPTET Tilt Y Offset
U-TILT_Y_GAIN.           1.02173         :WPTET Tilt Y Gain
U-TILT_X_OFFSET.           2.30841       :WPTET Tilt X Offset
U-TILT_X_GAIN.           1.00000         :WPTET Tilt X Gain
U-TILT_OFFSET_TOL.           0.00100     :WPTET Tilt Offset Calibration Tolerance
U-MOT_CUR_LIMIT_REQ.MA        70.00000   :Requested Motor Current Limit
U-MOT_SPD_REQ_WPMS.RPM        1.00000    :Requested Motor Speed
U-STD_TOL_TILT.           0.01000        :Tilt Standard Deviation Tolerance
CWEI .LB/F      29.00000                 :Casing Weight
CSIZ .IN         7.00000                 :Current Casing Size
LCC  .               440                 :Logging Company Code
LUN  .              2134                 :Logging Unit Number
HIDE .                                   :Header Identifier
HID1 .                                   :Header Identifier Line 1
R1   .                                   :Remark Line 1
WITN .        MR. KELLY McCOY            :Witness's Name
ENGI .        MORRIS MOORE               :Engineer's Name
LUL  .        IOWA COLONY                :Logging Unit Location
DATE .        02-Aug-2018                :Date as Month-Day-Year
STAT .        TEXAS                      :State or Province
COUN .        HARRIS                     :County or Rig Name
FN   .        WILDCAT                    :Field Name
WN   .        WPP TEST 4                 :Well Name
CN   .        SHELL INTERNATIONAL EP     :Company Name
CLAB .        County                     :County/Rig Label
SLAB .        State                      :State/Province Label
RUN  .          1                        :RUN NUMBER
PDAT .        GROUND LEVEL               :Permanent Datum
EPD  .                                   :Elevation of Permanent Datum above Mean Sea Level
LMF  .          NA                       :Logging Measured From (Name of Logging Elevation Reference)
APD  .                                   :Elevation of Depth Reference (LMF) above Permanent Datum
#-----------------------------------------------------------------------------
~CURVE INFORMATION
#MNEM.UNIT   API CODE                                  DESCRIPTION
#---- -----  --------                                  -----------------------
TIME .S                                                :TIME {F10.1}
FREQ_EMF_SL.HZ                                         :Electromagnetic Field Frequency {F13.4}
PH_SH_WPPCM_SL.DEG                                     :WPPCM Phase Shift {F13.4}
RB_SL.DEG                                              :Relative Bearing {F13.4}
SDEV_SL.DEG                                            :Sonde Deviation {F13.4}
RTIX_SL.DEG                                            :Raw X-axis Tilt {F13.4}
RTIY_SL.DEG                                            :Raw Y-axis Tilt {F13.4}
TILX_SL.DEG                                            :X-axis Tilt {F13.4}
TILY_SL.DEG                                            :Y-axis Tilt {F13.4}
ROTA_SL.DEG                                            :Motor Rotation Angle {F13.4}
TOD7 .S                                                :Time of Day {I11}
TOJ  .S                                                :Time of Job {F13.4}
#-----------------------------------------------------------------------------
# 
#     TIME    FREQ_EMF_SL  PH_SH_WPPCM_    RB_SL       SDEV_SL      RTIX_SL      RTIY_SL      TILX_SL      TILY_SL      ROTA_SL        TOD7            TOJ
#                          SL
~A  
# ...
     212.0    1304.4990       0.0000     122.5784    -999.2500      80.4940      40.5282      82.8024      39.3430     232.9122 1533229052 9999999.9999
     213.0    1931.6620       0.0000     127.1092    -999.2500      71.9385      47.7582      74.2469      46.7300     239.0172 1533229053 9999999.9999
     214.0       0.0000       0.0000     132.2870    -999.2500      60.0893      54.5865      62.3977      53.7067     245.2112 1533229054 9999999.9999
     215.0       0.0000       0.0000     140.3644    -999.2500      49.6058      72.3402      51.9142      71.8461     251.3101 1533229055 9999999.9999
     216.0       0.0000       0.0000     144.1961    -999.2500      43.0988      81.1367      45.4072      80.8338     257.4283 1533229056 9999999.9999
     217.0       0.0000       0.0000     148.4132    -999.2500      35.6278      89.0897      37.9362      88.9595     263.5330 1533229057 9999999.9999
     218.0       0.0000       0.0000     153.0785    -999.2500      28.0464      95.6167      30.3548      95.6284     269.6316 1533229058 9999999.9999
     219.0       0.0000       0.0000     158.6328    -999.2500      20.2842     100.7782      22.5926     100.9020     275.7302 1533229059 9999999.9999
     220.0       0.0000       0.0000     165.5819      84.3571      12.1303     103.9112      14.4387     104.1031     281.8227 1533229060 9999999.9999
     221.0       0.0000       0.0000     173.2484      76.5674       4.2577     104.7948       6.5661     105.0060     287.9407 1533229061 9999999.9999
     222.0       0.0000       0.0000    -178.0636      74.8270      -4.1773     105.0760      -1.8689     105.2932     294.0393 1533229062 9999999.9999
     223.0       0.0000       0.0000    -169.9039      80.0423     -12.2508     103.9513      -9.9424     104.1441     300.1450 1533229063 9999999.9999
     224.0       0.0000       0.0000    -162.6606      82.5114     -20.2038     100.0953     -17.8954     100.2043     306.2498 1533229064 9999999.9999
     225.0       0.0000       0.0000    -156.1356    -999.2500     -28.4782      94.5122     -26.1698      94.4999     312.7533 1533229065 9999999.9999
     226.0       0.0000       0.0000    -150.8369    -999.2500     -36.1902      87.6035     -33.8818      87.4411     318.8527 1533229066 9999999.9999
     227.0       0.0000       0.0000    -146.0747    -999.2500     -43.7013      79.7710     -41.3929      79.4384     324.9707 1533229067 9999999.9999
     228.0       0.0000       0.0000    -141.5403    -999.2500     -50.8510      71.1753     -48.5426      70.6560     331.0885 1533229068 9999999.9999
     229.0       0.0000       0.0000    -134.1481    -999.2500     -61.3345      57.1572     -59.0261      56.3333     337.1871 1533229069 9999999.9999
     230.0       0.0000       0.0000    -128.4660    -999.2500     -73.7761      49.8569     -71.4677      48.8743     343.2988 1533229070 9999999.9999
     231.0       0.0000       0.0000    -123.9119    -999.2500     -82.9843      42.6972     -80.6759      41.5591     349.4035 1533229071 9999999.9999
     232.0       0.0000       0.0000    -119.3881    -999.2500     -90.3348      35.5475     -88.0264      34.2541     355.5082 1533229072 9999999.9999
     233.0       0.0000       0.0000    -114.3447    -999.2500     -96.4402      28.2773     -94.1318      26.8259       1.6069 1533229073 9999999.9999
     234.0       0.0000       0.0000    -108.0605    -999.2500    -101.4208      20.4047     -99.1124      18.7822       7.7118 1533229074 9999999.9999
     235.0       0.0000       0.0000    -100.9776      85.5264    -104.1522      12.7328    -101.8438      10.9437      13.8166 1533229075 9999999.9999
     236.0       0.0000       0.0000     -92.6715      77.9629    -104.6342       4.5790    -102.3258       2.6127      19.9154 1533229076 9999999.9999
     237.0       0.0000       0.0000     -83.9754      79.5047    -104.3932      -3.7757    -102.0848      -5.9235      26.4191 1533229077 9999999.9999
     238.0       0.0000       0.0000     -75.7987      93.0546    -103.4292     -12.0500    -101.1208     -14.3776      32.5370 1533229078 9999999.9999
     239.0       0.0000       0.0000     -69.1718    -999.2500    -100.2560     -19.6415     -97.9476     -22.1340      38.6419 1533229079 9999999.9999
     240.0       0.0000       0.0000     -63.5406    -999.2500     -95.1147     -27.1527     -92.8063     -29.8084      44.7414 1533229080 9999999.9999
     241.0       0.0000       0.0000     -58.6299    -999.2500     -88.7683     -34.6638     -86.4599     -37.4828      50.8402 1533229081 9999999.9999
     242.0       0.0000       0.0000     -54.4819    -999.2500     -81.4178     -41.5323     -79.1094     -44.5005      56.9581 1533229082 9999999.9999
     243.0       0.0000       0.0000     -50.0084    -999.2500     -72.0188     -48.7623     -69.7104     -51.8876      63.0630 1533229083 9999999.9999
     244.0       0.0000       0.0000     -44.3850    -999.2500     -57.8400     -54.1447     -55.5316     -57.3869      69.1617 1533229084 9999999.9999
     245.0       0.0000       0.0000     -36.3832    -999.2500     -48.4008     -74.2280     -46.0924     -77.9065      75.2665 1533229085 9999999.9999
     246.0       0.0000       0.0000     -32.3528    -999.2500     -41.5323     -82.7433     -39.2239     -86.6069      81.3591 1533229086 9999999.9999
     247.0       0.0000       0.0000     -28.1165    -999.2500     -34.5433     -89.3708     -32.2349     -93.3784      87.4578 1533229087 9999999.9999
     248.0       0.0000       0.0000     -23.2487    -999.2500     -27.4338     -94.6327     -25.1254     -98.7545      93.5566 1533229088 9999999.9999
     249.0       0.0000       0.0000     -17.5033    -999.2500     -20.2842     -97.6853     -17.9758    -101.8735     100.0664 1533229089 9999999.9999
     250.0       0.0000       0.0000     -10.4509      81.8456     -12.6525     -99.0108     -10.3441    -103.2278     106.1712 1533229090 9999999.9999
     251.0       0.0000       0.0000      -2.1247      76.9409      -4.3782     -99.0108      -2.0698    -103.2278     112.2699 1533229091 9999999.9999
     252.0       0.0000       0.0000       6.2440      78.7840       3.8158     -98.6092       6.1242    -102.8174     118.3564 1533229092 9999999.9999
     253.0       0.0000       0.0000      14.2511      90.1756      12.0902     -97.5648      14.3986    -101.7504     124.4612 1533229093 9999999.9999
     254.0       0.0000       0.0000      20.0504    -999.2500      18.8382     -94.5925      21.1466     -98.7135     130.5661 1533229094 9999999.9999
     255.0       0.0000       0.0000      25.4587    -999.2500      26.0682     -89.3708      28.3766     -93.3784     136.6527 1533229095 9999999.9999
     256.0       0.0000       0.0000      29.8124    -999.2500      32.6153     -83.7073      34.9237     -87.5918     142.7576 1533229096 9999999.9999
     257.0       0.0000       0.0000      33.8993    -999.2500      39.1625     -76.5175      41.4709     -80.2458     148.8626 1533229097 9999999.9999
     258.0       0.0000       0.0000      38.0892    -999.2500      45.6293     -67.7612      47.9377     -71.2992     154.9630 1533229098 9999999.9999
     259.0       0.0000       0.0000      48.2145    -999.2500      59.4467     -48.8025      61.7551     -51.9286     161.0618 1533229099 9999999.9999
     260.0       0.0000       0.0000      52.8718    -999.2500      74.7100     -44.5047      77.0184     -47.5374     167.1668 1533229100 9999999.9999
     261.0       0.0000       0.0000      56.6233    -999.2500      82.6228     -38.1182      84.9312     -41.0121     173.6898 1533229101 9999999.9999
     262.0       0.0000       0.0000      60.6501    -999.2500      89.3708     -31.4505      91.6792     -34.1996     179.7763 1533229102 9999999.9999
     263.0       0.0000       0.0000      64.4862    -999.2500      94.4720     -25.6665      96.7804     -28.2899     185.8813 1533229103 9999999.9999
     264.0       0.0000       0.0000      70.9774    -999.2500      97.8862     -17.3922     100.1946     -19.8358     191.9934 1533229104 9999999.9999
