~VERSION INFORMATION
VERS.           2.0   :CWLS Log ASCII Standard - VERSION 2.0
WRAP.           NO    :One Line per depth step
PROD.  Schlumberger   :LAS Producer
PROG.  DLIS to ASCII 19C2-270                          :LAS Program name and version
CREA.        2018/08/03 10:59                          :LAS Creation date {YYYY/MM/DD hh:mm}
DLIS_CREA.  2018-Aug-03 08:53                          :DLIS Creation date and time {YYYY-MMM-DD hh:mm}
SOURCE.     PERFO_Perfo_062PTP.DLIS                    :DLIS File Name
FILE-ID.     PERFO_Perfo_062PTP                        :File Identification Number
#--------------------------------------------------
~WELL INFORMATION
#MNEM.UNIT      DATA             DESCRIPTION
#---- ------ --------------   -----------------------------
STRT .S            0.0       :START TIME      
STOP .S          971.0       :STOP TIME      
STEP .S            1.0       :STEP     
NULL .          -999.25      :NULL VALUE
COMP .        SHELL INTERNATIONAL EP                   :COMPANY
WELL .        WPP TEST 4                               :WELL
FLD  .        WILDCAT                                  :FIELD
LOC  .        NA                                       :LOCATION
CNTY .        HARRIS                                   :COUNTY
STAT .        TEXAS                                    :STATE
CTRY .                                                 :COUNTRY
API  .        NA                                       :API NUMBER
UWI  .                                                 :UNIQUE WELL ID
DATE .        02-Aug-2018                              :LOG DATE {DD-MMM-YYYY}
SRVC .        Schlumberger                             :SERVICE COMPANY
LATI .DEG                                              :LATITUDE
LONG .DEG                                              :LONGITUDE
GDAT .                                                 :GeoDetic Datum
SECT .        NA                                       :Section
RANG .        NA                                       :Range
TOWN .        NA                                       :Township
#-----------------------------------------------------------------------------
~PARAMETER INFORMATION
#MNEM.UNIT    VALUE                      DESCRIPTION
#---- -----   --------------------       ------------------------
U-PHASE_B_COMP_PER_YT.                 0 :Phase B Comparator Period Yt
U-PHASE_A_COMP_PER_XT.                 0 :Phase A Comparator Period Xt
U-MAX_EXC_CUR_LIMIT.MA       265.00000   :Requested CM Current Limit
U-REQ_EXC_FQ.HZ              50          :Requested CM Frequency
U-TILT_Y_OFFSET.          -2.06578       :WPTET Tilt Y Offset
U-TILT_Y_GAIN.           1.02173         :WPTET Tilt Y Gain
U-TILT_X_OFFSET.           2.30841       :WPTET Tilt X Offset
U-TILT_X_GAIN.           1.00000         :WPTET Tilt X Gain
U-TILT_OFFSET_TOL.           0.00100     :WPTET Tilt Offset Calibration Tolerance
U-MOT_CUR_LIMIT_REQ.MA        70.00000   :Requested Motor Current Limit
U-MOT_SPD_REQ_WPMS.RPM        1.00000    :Requested Motor Speed
U-STD_TOL_TILT.           0.01000        :Tilt Standard Deviation Tolerance
CWEI .LB/F      29.00000                 :Casing Weight
CSIZ .IN         7.00000                 :Current Casing Size
LCC  .               440                 :Logging Company Code
LUN  .              2134                 :Logging Unit Number
HIDE .                                   :Header Identifier
HID1 .                                   :Header Identifier Line 1
R1   .                                   :Remark Line 1
WITN .        MR. KELLY McCOY            :Witness's Name
ENGI .        MORRIS MOORE               :Engineer's Name
LUL  .        IOWA COLONY                :Logging Unit Location
DATE .        02-Aug-2018                :Date as Month-Day-Year
STAT .        TEXAS                      :State or Province
COUN .        HARRIS                     :County or Rig Name
FN   .        WILDCAT                    :Field Name
WN   .        WPP TEST 4                 :Well Name
CN   .        SHELL INTERNATIONAL EP     :Company Name
CLAB .        County                     :County/Rig Label
SLAB .        State                      :State/Province Label
RUN  .          1                        :RUN NUMBER
PDAT .        GROUND LEVEL               :Permanent Datum
EPD  .                                   :Elevation of Permanent Datum above Mean Sea Level
LMF  .          NA                       :Logging Measured From (Name of Logging Elevation Reference)
APD  .                                   :Elevation of Depth Reference (LMF) above Permanent Datum
#-----------------------------------------------------------------------------
~CURVE INFORMATION
#MNEM.UNIT   API CODE                                  DESCRIPTION
#---- -----  --------                                  -----------------------
TIME .S                                                :TIME {F10.1}
FREQ_EMF_SL.HZ                                         :Electromagnetic Field Frequency {F13.4}
PH_SH_WPPCM_SL.DEG                                     :WPPCM Phase Shift {F13.4}
RB_SL.DEG                                              :Relative Bearing {F13.4}
SDEV_SL.DEG                                            :Sonde Deviation {F13.4}
RTIX_SL.DEG                                            :Raw X-axis Tilt {F13.4}
RTIY_SL.DEG                                            :Raw Y-axis Tilt {F13.4}
TILX_SL.DEG                                            :X-axis Tilt {F13.4}
TILY_SL.DEG                                            :Y-axis Tilt {F13.4}
ROTA_SL.DEG                                            :Motor Rotation Angle {F13.4}
TOD7 .S                                                :Time of Day {I11}
TOJ  .S                                                :Time of Job {F13.4}
#-----------------------------------------------------------------------------
# 
#     TIME    FREQ_EMF_SL  PH_SH_WPPCM_    RB_SL       SDEV_SL      RTIX_SL      RTIY_SL      TILX_SL      TILY_SL      ROTA_SL        TOD7            TOJ
#                          SL
~A  
# ...
     106.0    1280.7377       0.0000     140.0792    -999.2500      50.0878      71.7377      52.3962      71.2305     315.9342 1533230022 9999999.9999
     107.0    1266.8918       0.0000     144.0143    -999.2500      43.4202      80.7350      45.7286      80.4234     322.0328 1533230023 9999999.9999
     108.0    1246.6755       0.0000     147.9476    -999.2500      36.4312      88.2060      38.7396      88.0567     328.1376 1533230024 9999999.9999
     109.0    1227.0942       0.0000     152.3995    -999.2500      29.0807      94.9540      31.3891      94.9513     334.2423 1533230025 9999999.9999
     110.0    1218.5875       0.0000     157.8807    -999.2500      21.2482     100.3765      23.5566     100.4916     340.7458 1533230026 9999999.9999
     111.0    1206.0464       0.0000     164.3671    -999.2500      13.4558     103.6702      15.7642     103.8568     346.8567 1533230027 9999999.9999
     112.0    1197.8279       0.0000     172.1133      77.2414       5.3823     104.7547       7.6907     104.9649     352.9492 1533230028 9999999.9999
     113.0    1187.7112       0.0000    -179.3953      74.8006      -2.8920     104.9957      -0.5836     105.2112     359.0539 1533230029 9999999.9999
     114.0    1183.7122       0.0000    -171.0373      78.3808     -11.0860     104.4333      -8.7776     104.6366       5.1526 1533230030 9999999.9999
     115.0    1181.7228       0.0000    -163.5146      93.9245     -19.1997     100.8183     -16.8913     100.9431      11.2575 1533230031 9999999.9999
     116.0    1181.7228       0.0000    -156.5210    -999.2500     -27.9560      94.8335     -25.6476      94.8282      17.3624 1533230032 9999999.9999
     117.0    1185.7083       0.0000    -151.0491    -999.2500     -35.8688      88.0453     -33.5604      87.8925      23.4612 1533230033 9999999.9999
     118.0    1191.7373       0.0000    -146.2856    -999.2500     -43.3800      80.2530     -41.0716      79.9309      29.5599 1533230034 9999999.9999
     119.0    1193.7606       0.0000    -141.7379    -999.2500     -50.5698      71.6172     -48.2614      71.1074      35.6648 1533230035 9999999.9999
     120.0    1210.1979       0.0000    -134.9692    -999.2500     -59.9287      58.3220     -57.6203      57.5234      41.7705 1533230036 9999999.9999
     121.0    1218.5875       0.0000    -128.7761    -999.2500     -73.5452      50.4895     -71.2368      49.5207      47.8692 1533230037 9999999.9999
     122.0    1229.2395       0.0000    -124.5354    -999.2500     -82.0605      43.7415     -79.7521      42.6261      54.3729 1533230038 9999999.9999
     123.0    1253.3423       0.0000    -120.0388    -999.2500     -89.5315      36.5517     -87.2231      35.2801      60.4839 1533230039 9999999.9999
     124.0    1264.6134       0.0000    -114.9057    -999.2500     -95.9180      29.0405     -93.6096      27.6057      66.5826 1533230040 9999999.9999
     125.0    1285.4205       0.0000    -108.6816    -999.2500    -101.0995      21.1277     -98.7911      19.5209      72.6813 1533230041 9999999.9999
     126.0    1309.3575       0.0000    -101.6053      88.3300    -104.0317      13.3755    -101.7233      11.6003      78.8254 1533230042 9999999.9999
     127.0    1326.6509       0.0000     -93.4239      78.1941    -104.5940       5.3020    -102.2856       3.3514      84.9302 1533230043 9999999.9999
     128.0    1352.8138       0.0000     -84.6355      79.0656    -104.4735      -3.1330    -102.1651      -5.2669      91.0289 1533230044 9999999.9999
     129.0    1378.6765       0.0000     -76.2516      90.6971    -103.5497     -11.5680    -101.2412     -13.8851      97.1277 1533230045 9999999.9999
     130.0    1411.8976       0.0000     -69.4276    -999.2500    -100.5372     -19.3202     -98.2288     -21.8057     103.2325 1533230046 9999999.9999
     131.0    1443.7886       0.0000     -63.6206    -999.2500     -95.3958     -27.0322     -93.0874     -29.6853     109.3251 1533230047 9999999.9999
     132.0    1477.1533       0.0000     -58.7774    -999.2500     -88.9290     -34.4228     -86.6206     -37.2365     115.4238 1533230048 9999999.9999
     133.0    1512.0968       0.0000     -54.6096    -999.2500     -81.7392     -41.3315     -79.4308     -44.2953     121.5225 1533230049 9999999.9999
     134.0    1545.3296       0.0000     -50.4860    -999.2500     -73.1837     -48.0795     -70.8753     -51.1899     128.0323 1533230050 9999999.9999
     135.0    1569.4755       0.0000     -45.4876    -999.2500     -61.6157     -54.4660     -59.3073     -57.7152     134.1373 1533230051 9999999.9999
     136.0    1605.3082       0.0000     -36.9210    -999.2500     -49.3648     -73.3042     -47.0564     -76.9626     140.2361 1533230052 9999999.9999
     137.0    1635.1744       0.0000     -32.8641    -999.2500     -42.4160     -81.8597     -40.1076     -85.7040     146.3411 1533230053 9999999.9999
     138.0    1654.4117       0.0000     -28.6297    -999.2500     -35.3467     -88.8888     -33.0383     -92.8859     152.4461 1533230054 9999999.9999
     139.0    1678.1025       0.0000     -23.9032    -999.2500     -28.3175     -94.2310     -26.0091     -98.3442     158.5326 1533230055 9999999.9999
     140.0    1701.4519       0.0000     -18.1025    -999.2500     -20.9670     -97.6652     -18.6586    -101.8530     164.6314 1533230056 9999999.9999
     141.0    1719.1321       0.0000     -10.9636      82.4066     -13.1747     -99.0912     -10.8663    -103.3099     170.7364 1533230057 9999999.9999
     142.0    1731.8351       0.0000      -2.5792      76.8543      -4.8200     -99.1715      -2.5116    -103.3920     176.8414 1533230058 9999999.9999
     143.0    1740.4083       0.0000       6.1711      78.3701       3.7355     -98.9305       6.0439    -103.1458     182.9402 1533230059 9999999.9999
     144.0    1749.0671       0.0000      13.5820      94.4053      11.3672     -97.6853      13.6756    -101.8735     189.0390 1533230060 9999999.9999
     145.0    1744.7272       0.0000      19.6995    -999.2500      18.3963     -94.9540      20.7047     -99.0829     195.1440 1533230061 9999999.9999
     146.0    1753.4288       0.0000      24.9008    -999.2500      25.2648     -90.2947      27.5732     -94.3223     201.2490 1533230062 9999999.9999
     147.0    1740.4083       0.0000      29.4014    -999.2500      31.9727     -84.3902      34.2811     -88.2895     207.7527 1533230063 9999999.9999
     148.0    1727.5798       0.0000      33.4916    -999.2500      38.5198     -77.4012      40.8282     -81.1487     213.4589 1533230064 9999999.9999
     149.0    1719.1321       0.0000      37.7208    -999.2500      45.1072     -68.6047      47.4156     -72.1610     219.5453 1533230065 9999999.9999
     150.0    1690.2042       0.0000      43.0242    -999.2500      49.2845     -53.8635      51.5929     -57.0996     225.6441 1533230066 9999999.9999
     151.0    1678.1025       0.0000      52.3761    -999.2500      73.6657     -45.3482      75.9741     -48.3992     231.7305 1533230067 9999999.9999
     152.0    1658.3137       0.0000      56.2534    -999.2500      82.0203     -38.7608      84.3287     -41.6688     237.8239 1533230068 9999999.9999
     153.0    1627.6041       0.0000      60.5214    -999.2500      89.3708     -31.6513      91.6792     -34.4048     243.9289 1533230069 9999999.9999
     154.0    1605.3082       0.0000      65.1995    -999.2500      94.5925     -24.7025      96.9009     -27.3050     250.0277 1533230070 9999999.9999
     155.0    1569.4755       0.0000      70.6651    -999.2500      97.8460     -17.7537     100.1544     -20.2052     256.1265 1533230071 9999999.9999
     156.0    1541.9408       0.0000      77.6265      85.2767      99.3322     -10.1220     101.6406     -12.4077     262.2313 1533230072 9999999.9999
     157.0    1505.6210       0.0000      86.2145      78.3484      99.9347      -1.6067     102.2431      -3.7074     268.3491 1533230073 9999999.9999
     158.0    1474.0566       0.0000      95.2194      78.5993     100.2158       7.0292     102.5242       5.1161     274.4477 1533230074 9999999.9999
