~VERSION INFORMATION
VERS.           2.0   :CWLS Log ASCII Standard - VERSION 2.0
WRAP.           NO    :One Line per depth step
PROD.  Schlumberger   :LAS Producer
PROG.  DLIS to ASCII 19C2-270                          :LAS Program name and version
CREA.        2018/08/03 10:59                          :LAS Creation date {YYYY/MM/DD hh:mm}
DLIS_CREA.  2018-Aug-03 09:51                          :DLIS Creation date and time {YYYY-MMM-DD hh:mm}
SOURCE.     PERFO_Perfo_089PTP.DLIS                    :DLIS File Name
FILE-ID.     PERFO_Perfo_089PTP                        :File Identification Number
#--------------------------------------------------
~WELL INFORMATION
#MNEM.UNIT      DATA             DESCRIPTION
#---- ------ --------------   -----------------------------
STRT .S            0.0       :START TIME      
STOP .S          261.0       :STOP TIME      
STEP .S            1.0       :STEP     
NULL .          -999.25      :NULL VALUE
COMP .        SHELL INTERNATIONAL EP                   :COMPANY
WELL .        WPP TEST 4                               :WELL
FLD  .        WILDCAT                                  :FIELD
LOC  .        NA                                       :LOCATION
CNTY .        HARRIS                                   :COUNTY
STAT .        TEXAS                                    :STATE
CTRY .                                                 :COUNTRY
API  .        NA                                       :API NUMBER
UWI  .                                                 :UNIQUE WELL ID
DATE .        02-Aug-2018                              :LOG DATE {DD-MMM-YYYY}
SRVC .        Schlumberger                             :SERVICE COMPANY
LATI .DEG                                              :LATITUDE
LONG .DEG                                              :LONGITUDE
GDAT .                                                 :GeoDetic Datum
SECT .        NA                                       :Section
RANG .        NA                                       :Range
TOWN .        NA                                       :Township
#-----------------------------------------------------------------------------
~PARAMETER INFORMATION
#MNEM.UNIT    VALUE                      DESCRIPTION
#---- -----   --------------------       ------------------------
U-PHASE_B_COMP_PER_YT.                 0 :Phase B Comparator Period Yt
U-PHASE_A_COMP_PER_XT.                 0 :Phase A Comparator Period Xt
U-MAX_EXC_CUR_LIMIT.MA       265.00000   :Requested CM Current Limit
U-REQ_EXC_FQ.HZ              50          :Requested CM Frequency
U-TILT_Y_OFFSET.          -2.06578       :WPTET Tilt Y Offset
U-TILT_Y_GAIN.           1.02173         :WPTET Tilt Y Gain
U-TILT_X_OFFSET.           2.30841       :WPTET Tilt X Offset
U-TILT_X_GAIN.           1.00000         :WPTET Tilt X Gain
U-TILT_OFFSET_TOL.           0.00100     :WPTET Tilt Offset Calibration Tolerance
U-MOT_CUR_LIMIT_REQ.MA        70.00000   :Requested Motor Current Limit
U-MOT_SPD_REQ_WPMS.RPM        1.00000    :Requested Motor Speed
U-STD_TOL_TILT.           0.01000        :Tilt Standard Deviation Tolerance
CWEI .LB/F      29.00000                 :Casing Weight
CSIZ .IN         7.00000                 :Current Casing Size
LCC  .               440                 :Logging Company Code
LUN  .              2134                 :Logging Unit Number
HIDE .                                   :Header Identifier
HID1 .                                   :Header Identifier Line 1
R1   .                                   :Remark Line 1
WITN .        MR. KELLY McCOY            :Witness's Name
ENGI .        MORRIS MOORE               :Engineer's Name
LUL  .        IOWA COLONY                :Logging Unit Location
DATE .        02-Aug-2018                :Date as Month-Day-Year
STAT .        TEXAS                      :State or Province
COUN .        HARRIS                     :County or Rig Name
FN   .        WILDCAT                    :Field Name
WN   .        WPP TEST 4                 :Well Name
CN   .        SHELL INTERNATIONAL EP     :Company Name
CLAB .        County                     :County/Rig Label
SLAB .        State                      :State/Province Label
RUN  .          1                        :RUN NUMBER
PDAT .        GROUND LEVEL               :Permanent Datum
EPD  .                                   :Elevation of Permanent Datum above Mean Sea Level
LMF  .          NA                       :Logging Measured From (Name of Logging Elevation Reference)
APD  .                                   :Elevation of Depth Reference (LMF) above Permanent Datum
#-----------------------------------------------------------------------------
~CURVE INFORMATION
#MNEM.UNIT   API CODE                                  DESCRIPTION
#---- -----  --------                                  -----------------------
TIME .S                                                :TIME {F10.1}
FREQ_EMF_SL.HZ                                         :Electromagnetic Field Frequency {F13.4}
PH_SH_WPPCM_SL.DEG                                     :WPPCM Phase Shift {F13.4}
RB_SL.DEG                                              :Relative Bearing {F13.4}
SDEV_SL.DEG                                            :Sonde Deviation {F13.4}
RTIX_SL.DEG                                            :Raw X-axis Tilt {F13.4}
RTIY_SL.DEG                                            :Raw Y-axis Tilt {F13.4}
TILX_SL.DEG                                            :X-axis Tilt {F13.4}
TILY_SL.DEG                                            :Y-axis Tilt {F13.4}
ROTA_SL.DEG                                            :Motor Rotation Angle {F13.4}
TOD7 .S                                                :Time of Day {I11}
TOJ  .S                                                :Time of Job {F13.4}
#-----------------------------------------------------------------------------
# 
#     TIME    FREQ_EMF_SL  PH_SH_WPPCM_    RB_SL       SDEV_SL      RTIX_SL      RTIY_SL      TILX_SL      TILY_SL      ROTA_SL        TOD7            TOJ
#                          SL
~A  
# ...
     212.0    2218.0601       0.0000      96.1012      76.6965     102.3045       7.8325     104.6129       5.9369     239.3759 1533251207 9999999.9999
     213.0    2232.1428       0.0000     103.9259      88.0519     100.6978      15.7052     103.0062      13.9806     245.4808 1533251208 9999999.9999
     214.0    2225.0791       0.0000     110.8257    -999.2500      96.7213      23.6180      99.0297      22.0654     251.9846 1533251209 9999999.9999
     215.0    2211.0850       0.0000     116.6557    -999.2500      91.2185      31.4505      93.5269      30.0681     258.0895 1533251210 9999999.9999
     216.0    2197.2656       0.0000     121.4965    -999.2500      84.1492      38.9215      86.4576      37.7014     264.2073 1533251211 9999999.9999
     217.0    2176.8577       0.0000     125.9758    -999.2500      75.9552      46.3523      78.2636      45.2937     270.3059 1533251212 9999999.9999
     218.0    2137.1582       0.0000     130.5840    -999.2500      65.9537      53.6225      68.2621      52.7218     276.4045 1533251213 9999999.9999
     219.0    2098.8806       0.0000     138.4781    -999.2500      53.1003      68.9662      55.4087      68.3988     282.5092 1533251214 9999999.9999
     220.0    2064.9780       0.0000     142.6776    -999.2500      46.0912      79.1082      48.3997      78.7613     288.6270 1533251215 9999999.9999
     221.0    2020.4741       0.0000     146.5985    -999.2500      38.8813      87.2420      41.1897      87.0717     294.7256 1533251216 9999999.9999
     222.0    1947.7146       0.0000     150.9205    -999.2500      31.3702      94.3515      33.6786      94.3357     300.8118 1533251217 9999999.9999
     223.0    1905.4878       0.0000     156.1645    -999.2500      23.4573     100.1757      25.7657     100.2864     306.9165 1533251218 9999999.9999
     224.0    1845.4724       0.0000     162.3829    -999.2500      15.5847     104.4333      17.8931     104.6366     313.0213 1533251219 9999999.9999
     225.0    1766.6456       0.0000     170.0054      77.0853       7.4308     106.0400       9.7392     106.2782     319.1076 1533251220 9999999.9999
     226.0    1698.3695       0.0000     178.5540      73.2488      -0.9238     106.5622       1.3846     106.8117     325.2062 1533251221 9999999.9999
     227.0    1627.6041       0.0000    -172.9937      75.0877      -9.0777     106.2007      -6.7693     106.4423     331.7220 1533251222 9999999.9999
     228.0    1541.9408       0.0000    -165.1443      89.2703     -17.2717     103.0677     -14.9633     103.2413     337.8083 1533251223 9999999.9999
     229.0    1446.7593       0.0000    -158.2188    -999.2500     -25.6263      97.8058     -23.3179      97.8651     343.9200 1533251224 9999999.9999
     230.0    1365.2913       0.0000    -152.4812    -999.2500     -33.6998      91.2185     -31.3914      91.1346     350.0247 1533251225 9999999.9999
     231.0    1292.5093       0.0000    -147.6926    -999.2500     -41.2512      83.9483     -38.9428      83.7065     356.1172 1533251226 9999999.9999
     232.0    1243.3687       0.0000    -143.0292    -999.2500     -48.8929      75.2221     -46.5845      74.7907       2.2159 1533251227 9999999.9999
     233.0    1189.7208       0.0000    -138.1756    -999.2500     -56.1530      65.1102     -53.8446      64.4590       8.3023 1533251228 9999999.9999
     234.0    1158.3608       0.0000    -130.5602    -999.2500     -70.6130      53.5823     -68.3046      52.6807      14.4072 1533251229 9999999.9999
     235.0    1123.2029       0.0000    -126.2245    -999.2500     -79.6505      46.6737     -77.3421      45.6220      20.5254 1533251230 9999999.9999
     236.0    1075.1146       0.0000    -121.9371    -999.2500     -87.4830      39.6043     -85.1746      38.3990      26.6119 1533251231 9999999.9999
     237.0    1041.6666       0.0000    -117.2193    -999.2500     -94.4720      32.2940     -92.1636      30.9299      32.7237 1533251232 9999999.9999
     238.0    1023.4716       0.0000    -111.4113    -999.2500    -100.3765      24.3812     -98.0681      22.8451      38.8285 1533251233 9999999.9999
     239.0     984.7689       0.0000    -104.4621    -999.2500    -104.5940      16.3077    -102.2856      14.5962      45.3390 1533251234 9999999.9999
     240.0     955.3329       0.0000     -96.6596      77.9182    -106.0802       8.3948    -103.7718       6.5114      51.4377 1533251235 9999999.9999
     241.0     946.3324       0.0000     -87.9997      76.2091    -106.2408       0.1205    -103.9324      -1.9427      57.5426 1533251236 9999999.9999
     242.0     925.1645       0.0000     -79.4027      81.4736    -105.8793      -8.2342    -103.5709     -10.4789      63.6474 1533251237 9999999.9999
     243.0     908.4302       0.0000     -72.1298      84.5348    -103.4693     -16.0265    -101.1609     -18.4405      69.7462 1533251238 9999999.9999
     244.0     899.1368       0.0000     -65.6943    -999.2500     -99.0510     -24.0598     -96.7426     -26.6484      75.8449 1533251239 9999999.9999
     245.0     904.9228       0.0000     -60.0992    -999.2500     -92.4637     -32.3342     -90.1553     -35.1025      81.9497 1533251240 9999999.9999
     246.0     900.2881       0.0000     -55.6898    -999.2500     -85.4747     -39.7248     -83.1663     -42.6537      88.0546 1533251241 9999999.9999
     247.0     911.9650       0.0000     -51.6690    -999.2500     -77.3208     -46.7138     -75.0124     -49.7946      94.1664 1533251242 9999999.9999
     248.0     927.6055       0.0000     -47.2751    -999.2500     -67.3997     -53.6627     -65.0913     -56.8944     100.2781 1533251243 9999999.9999
     249.0     945.0605       0.0000     -38.8777    -999.2500     -53.0602     -70.2515     -50.7518     -73.8436     106.3830 1533251244 9999999.9999
     250.0     967.1596       0.0000     -34.7442    -999.2500     -45.9105     -80.0923     -43.6021     -83.8983     112.4878 1533251245 9999999.9999
     251.0    1003.0314       0.0000     -30.7062    -999.2500     -38.7207     -87.8847     -36.4123     -91.8599     118.9915 1533251246 9999999.9999
     252.0    1040.1257       0.0000     -26.0581    -999.2500     -31.2497     -94.1507     -28.9413     -98.2621     125.0964 1533251247 9999999.9999
     253.0    1083.3976       0.0000     -20.5535    -999.2500     -23.7385     -98.7698     -21.4301    -102.9816     131.2013 1533251248 9999999.9999
     254.0    1135.9047       0.0000     -13.9993      83.9189     -16.2273    -100.9790     -13.9189    -105.2388     137.3001 1533251249 9999999.9999
     255.0    1185.7083       0.0000      -5.8768      75.3376      -7.9932    -101.5012      -5.6848    -105.7723     143.3989 1533251250 9999999.9999
     256.0    1237.8961       0.0000       3.1844      74.7122       0.7632    -101.3405       3.0716    -105.6081     149.5039 1533251251 9999999.9999
     257.0    1324.1526       0.0000      12.1247      81.4707       9.6802    -100.5372      11.9886    -104.7873     155.6221 1533251252 9999999.9999
     258.0    1449.7422       0.0000      18.8158      84.7526      17.1512     -97.9263      19.4596    -102.1198     161.7209 1533251253 9999999.9999
     259.0    1528.5327       0.0000      24.4952    -999.2500      24.5418     -93.4678      26.8502     -97.5644     167.8330 1533251254 9999999.9999
     260.0    1616.3793       0.0000      29.1470    -999.2500      31.5710     -87.6437      33.8794     -91.6137     173.9315 1533251255 9999999.9999
     261.0    1702.4818       0.0000      33.2934    -999.2500      38.5198     -80.7752      40.8282     -84.5960     180.0303 1533251256 9999999.9999
