~VERSION INFORMATION
VERS.           2.0   :CWLS Log ASCII Standard - VERSION 2.0
WRAP.           NO    :One Line per depth step
PROD.  Schlumberger   :LAS Producer
PROG.  DLIS to ASCII 19C2-270                          :LAS Program name and version
CREA.        2018/08/03 10:59                          :LAS Creation date {YYYY/MM/DD hh:mm}
DLIS_CREA.  2018-Aug-03 08:53                          :DLIS Creation date and time {YYYY-MMM-DD hh:mm}
SOURCE.     PERFO_Perfo_062PTP.DLIS                    :DLIS File Name
FILE-ID.     PERFO_Perfo_062PTP                        :File Identification Number
#--------------------------------------------------
~WELL INFORMATION
#MNEM.UNIT      DATA             DESCRIPTION
#---- ------ --------------   -----------------------------
STRT .S            0.0       :START TIME      
STOP .S          971.0       :STOP TIME      
STEP .S            1.0       :STEP     
NULL .          -999.25      :NULL VALUE
COMP .        SHELL INTERNATIONAL EP                   :COMPANY
WELL .        WPP TEST 4                               :WELL
FLD  .        WILDCAT                                  :FIELD
LOC  .        NA                                       :LOCATION
CNTY .        HARRIS                                   :COUNTY
STAT .        TEXAS                                    :STATE
CTRY .                                                 :COUNTRY
API  .        NA                                       :API NUMBER
UWI  .                                                 :UNIQUE WELL ID
DATE .        02-Aug-2018                              :LOG DATE {DD-MMM-YYYY}
SRVC .        Schlumberger                             :SERVICE COMPANY
LATI .DEG                                              :LATITUDE
LONG .DEG                                              :LONGITUDE
GDAT .                                                 :GeoDetic Datum
SECT .        NA                                       :Section
RANG .        NA                                       :Range
TOWN .        NA                                       :Township
#-----------------------------------------------------------------------------
~PARAMETER INFORMATION
#MNEM.UNIT    VALUE                      DESCRIPTION
#---- -----   --------------------       ------------------------
U-PHASE_B_COMP_PER_YT.                 0 :Phase B Comparator Period Yt
U-PHASE_A_COMP_PER_XT.                 0 :Phase A Comparator Period Xt
U-MAX_EXC_CUR_LIMIT.MA       265.00000   :Requested CM Current Limit
U-REQ_EXC_FQ.HZ              50          :Requested CM Frequency
U-TILT_Y_OFFSET.          -2.06578       :WPTET Tilt Y Offset
U-TILT_Y_GAIN.           1.02173         :WPTET Tilt Y Gain
U-TILT_X_OFFSET.           2.30841       :WPTET Tilt X Offset
U-TILT_X_GAIN.           1.00000         :WPTET Tilt X Gain
U-TILT_OFFSET_TOL.           0.00100     :WPTET Tilt Offset Calibration Tolerance
U-MOT_CUR_LIMIT_REQ.MA        70.00000   :Requested Motor Current Limit
U-MOT_SPD_REQ_WPMS.RPM        1.00000    :Requested Motor Speed
U-STD_TOL_TILT.           0.01000        :Tilt Standard Deviation Tolerance
CWEI .LB/F      29.00000                 :Casing Weight
CSIZ .IN         7.00000                 :Current Casing Size
LCC  .               440                 :Logging Company Code
LUN  .              2134                 :Logging Unit Number
HIDE .                                   :Header Identifier
HID1 .                                   :Header Identifier Line 1
R1   .                                   :Remark Line 1
WITN .        MR. KELLY McCOY            :Witness's Name
ENGI .        MORRIS MOORE               :Engineer's Name
LUL  .        IOWA COLONY                :Logging Unit Location
DATE .        02-Aug-2018                :Date as Month-Day-Year
STAT .        TEXAS                      :State or Province
COUN .        HARRIS                     :County or Rig Name
FN   .        WILDCAT                    :Field Name
WN   .        WPP TEST 4                 :Well Name
CN   .        SHELL INTERNATIONAL EP     :Company Name
CLAB .        County                     :County/Rig Label
SLAB .        State                      :State/Province Label
RUN  .          1                        :RUN NUMBER
PDAT .        GROUND LEVEL               :Permanent Datum
EPD  .                                   :Elevation of Permanent Datum above Mean Sea Level
LMF  .          NA                       :Logging Measured From (Name of Logging Elevation Reference)
APD  .                                   :Elevation of Depth Reference (LMF) above Permanent Datum
#-----------------------------------------------------------------------------
~CURVE INFORMATION
#MNEM.UNIT   API CODE                                  DESCRIPTION
#---- -----  --------                                  -----------------------
TIME .S                                                :TIME {F10.1}
FREQ_EMF_SL.HZ                                         :Electromagnetic Field Frequency {F13.4}
PH_SH_WPPCM_SL.DEG                                     :WPPCM Phase Shift {F13.4}
RB_SL.DEG                                              :Relative Bearing {F13.4}
SDEV_SL.DEG                                            :Sonde Deviation {F13.4}
RTIX_SL.DEG                                            :Raw X-axis Tilt {F13.4}
RTIY_SL.DEG                                            :Raw Y-axis Tilt {F13.4}
TILX_SL.DEG                                            :X-axis Tilt {F13.4}
TILY_SL.DEG                                            :Y-axis Tilt {F13.4}
ROTA_SL.DEG                                            :Motor Rotation Angle {F13.4}
TOD7 .S                                                :Time of Day {I11}
TOJ  .S                                                :Time of Job {F13.4}
#-----------------------------------------------------------------------------
# 
#     TIME    FREQ_EMF_SL  PH_SH_WPPCM_    RB_SL       SDEV_SL      RTIX_SL      RTIY_SL      TILX_SL      TILY_SL      ROTA_SL        TOD7            TOJ
#                          SL
~A  
# ...
     636.0    1713.8939       0.0000     114.5941    -999.2500      91.4896      28.6187      93.7980      27.1748     327.0044 1533230552 9999999.9999
     637.0    1710.7665       0.0000     119.8352    -999.2500      84.9927      36.2303      87.3011      34.9517     333.1030 1533230553 9999999.9999
     638.0    1710.7665       0.0000     124.4170    -999.2500      77.3610      43.5005      79.6694      42.3799     339.2077 1533230554 9999999.9999
     639.0    1710.7665       0.0000     128.9541    -999.2500      68.0825      50.5698      70.3909      49.6028     345.3124 1533230555 9999999.9999
     640.0    1710.7665       0.0000     137.6373    -999.2500      53.6225      65.9135      55.9309      65.2798     351.4110 1533230556 9999999.9999
     641.0    1710.7665       0.0000     141.8832    -999.2500      47.1557      76.0355      49.4641      75.6218     357.5158 1533230557 9999999.9999
     642.0    1694.2772       0.0000     145.6997    -999.2500      40.4077      84.1893      42.7161      83.9528       3.6206 1533230558 9999999.9999
     643.0    1678.1025       0.0000     149.8569    -999.2500      33.1777      91.4997      35.4861      91.4219      10.1243 1533230559 9999999.9999
     644.0    1662.2340       0.0000     154.7028    -999.2500      25.6263      97.5648      27.9347      97.6189      16.2230 1533230560 9999999.9999
     645.0    1642.8153       0.0000     160.5826    -999.2500      17.8340     102.1840      20.1424     102.3384      22.3279 1533230561 9999999.9999
     646.0    1616.3793       0.0000     167.5370      82.3428      10.0417     104.3932      12.3501     104.5956      28.4328 1533230562 9999999.9999
     647.0    1594.3877       0.0000     175.9543      75.4097       1.6067     104.9153       3.9151     105.1291      34.5324 1533230563 9999999.9999
     648.0    1565.9799       0.0000    -175.4549      75.4684      -6.7078     104.9957      -4.3994     105.2112      40.6311 1533230564 9999999.9999
     649.0    1538.5668       0.0000    -167.1173      87.9890     -15.1830     102.8668     -12.8746     103.0361      46.7360 1533230565 9999999.9999
     650.0       0.0000       0.0000    -159.9687    -999.2500     -23.4573      98.2075     -21.1489      98.2755      52.9504 1533230566 9999999.9999
     651.0       0.0000       0.0000    -153.9368    -999.2500     -31.5710      92.0218     -29.2626      91.9554      59.0369 1533230567 9999999.9999
     652.0       0.0000       0.0000    -148.8319    -999.2500     -39.3232      84.6713     -37.0148      84.4452      65.1489 1533230568 9999999.9999
     653.0       0.0000       0.0000    -144.2694    -999.2500     -46.6335      76.6380     -44.3251      76.2374      71.2537 1533230569 9999999.9999
     654.0       0.0000       0.0000    -139.5213    -999.2500     -53.8635      67.1988     -51.5551      66.5931      77.3586 1533230570 9999999.9999
     655.0       0.0000       0.0000    -131.3628    -999.2500     -67.9620      54.2250     -65.6536      53.3374      83.8500 1533230571 9999999.9999
     656.0       0.0000       0.0000    -126.8672    -999.2500     -77.4012      47.4770     -75.0928      46.4428      89.9548 1533230572 9999999.9999
     657.0       0.0000       0.0000    -122.7231    -999.2500     -85.3542      40.8093     -83.0458      39.6302      96.0727 1533230573 9999999.9999
     658.0       0.0000       0.0000    -117.7820    -999.2500     -92.5842      33.1375     -90.2757      31.7917     102.1714 1533230574 9999999.9999
     659.0       0.0000       0.0000    -112.2794    -999.2500     -98.5288      25.5460     -96.2204      24.0353     108.2640 1533230575 9999999.9999
     660.0       0.0000       0.0000    -105.9442    -999.2500    -102.7062      17.9947    -100.3978      16.3199     114.3566 1533230576 9999999.9999
     661.0       0.0000       0.0000     -97.2376      79.9963    -104.6342       8.9973    -102.3258       7.1270     120.4553 1533230577 9999999.9999
     662.0       0.0000       0.0000     -89.0198      77.7127    -104.6342       1.0845    -102.3258      -0.9577     126.5540 1533230578 9999999.9999
     663.0       0.0000       0.0000     -80.7492      82.2528    -104.3530      -6.9488    -102.0446      -9.1656     132.6784 1533230579 9999999.9999
     664.0       0.0000       0.0000     -73.2261      85.3923    -102.6258     -14.8617    -100.3174     -17.2503     138.7772 1533230580 9999999.9999
     665.0       0.0000       0.0000     -66.7438    -999.2500     -98.4887     -22.7343     -96.1803     -25.2941     144.8760 1533230581 9999999.9999
     666.0       0.0000       0.0000     -61.4720    -999.2500     -92.7047     -30.2053     -90.3963     -32.9274     150.9624 1533230582 9999999.9999
     667.0       0.0000       0.0000     -56.8946    -999.2500     -85.9968     -37.5157     -83.6884     -40.3966     157.4723 1533230583 9999999.9999
     668.0       0.0000       0.0000     -52.5537    -999.2500     -77.5618     -44.7457     -75.2534     -47.7836     163.5781 1533230584 9999999.9999
     669.0       0.0000       0.0000     -48.5585    -999.2500     -68.8055     -50.8912     -66.4971     -54.0627     169.6900 1533230585 9999999.9999
     670.0       0.0000       0.0000     -39.3857    -999.2500     -53.1807     -67.3595     -50.8723     -70.8888     175.7949 1533230586 9999999.9999
     671.0       0.0000       0.0000     -35.2775    -999.2500     -46.5933     -76.9995     -44.2849     -80.7383     181.8815 1533230587 9999999.9999
     672.0       0.0000       0.0000     -31.1481    -999.2500     -39.4838     -84.9123     -37.1754     -88.8230     187.9864 1533230588 9999999.9999
     673.0       0.0000       0.0000     -27.0664    -999.2500     -32.8965     -91.1783     -30.5881     -95.2252     194.0853 1533230589 9999999.9999
     674.0       0.0000       0.0000     -21.0745    -999.2500     -24.5820     -96.2393     -22.2736    -100.3961     200.1778 1533230590 9999999.9999
     675.0       0.0000       0.0000     -15.1976    -999.2500     -17.6733     -98.5288     -15.3649    -102.7354     206.2704 1533230591 9999999.9999
     676.0       0.0000       0.0000      -7.7588      78.8997      -9.9212     -99.2920      -7.6128    -103.5151     212.3693 1533230592 9999999.9999
     677.0       0.0000       0.0000       0.8037      76.6728      -1.5263     -99.1313       0.7821    -103.3510     218.4558 1533230593 9999999.9999
     678.0       0.0000       0.0000       9.9193      81.9068       7.5112     -98.5690       9.8196    -102.7764     224.5608 1533230594 9999999.9999
     679.0       0.0000       0.0000      16.4128      98.8770      14.5002     -96.8017      16.8086    -100.9707     231.0707 1533230595 9999999.9999
     680.0       0.0000       0.0000      22.1884    -999.2500      21.5695     -92.9457      23.8779     -97.0309     237.1695 1533230596 9999999.9999
     681.0       0.0000       0.0000      27.0886    -999.2500      28.4380     -87.7642      30.7464     -91.7368     243.2816 1533230597 9999999.9999
     682.0       0.0000       0.0000      31.3398    -999.2500      35.0253     -80.9760      37.3337     -84.8012     249.3866 1533230598 9999999.9999
     683.0       0.0000       0.0000      35.3551    -999.2500      41.5323     -73.8263      43.8407     -77.4962     255.4916 1533230599 9999999.9999
     684.0       0.0000       0.0000      39.8291    -999.2500      47.8787     -63.6240      50.1871     -67.0722     261.5902 1533230600 9999999.9999
     685.0       0.0000       0.0000      50.3335    -999.2500      68.8055     -48.5615      71.1139     -51.6824     267.7010 1533230601 9999999.9999
     686.0       0.0000       0.0000      54.1370    -999.2500      77.7627     -42.4160      80.0711     -45.4034     273.7880 1533230602 9999999.9999
     687.0       0.0000       0.0000      58.5055    -999.2500      86.3182     -34.9450      88.6266     -37.7700     279.8866 1533230603 9999999.9999
     688.0       0.0000       0.0000      62.4394    -999.2500      91.8612     -28.6790      94.1696     -31.3679     285.9852 1533230604 9999999.9999
