~VERSION INFORMATION
VERS.           2.0   :CWLS Log ASCII Standard - VERSION 2.0
WRAP.           NO    :One Line per depth step
PROD.  Schlumberger   :LAS Producer
PROG.  DLIS to ASCII 19C2-270                          :LAS Program name and version
CREA.        2018/08/03 10:59                          :LAS Creation date {YYYY/MM/DD hh:mm}
DLIS_CREA.  2018-Aug-03 09:39                          :DLIS Creation date and time {YYYY-MMM-DD hh:mm}
SOURCE.     PERFO_Perfo_081PTP.DLIS                    :DLIS File Name
FILE-ID.     PERFO_Perfo_081PTP                        :File Identification Number
#--------------------------------------------------
~WELL INFORMATION
#MNEM.UNIT      DATA             DESCRIPTION
#---- ------ --------------   -----------------------------
STRT .S            0.0       :START TIME      
STOP .S          383.0       :STOP TIME      
STEP .S            1.0       :STEP     
NULL .          -999.25      :NULL VALUE
COMP .        SHELL INTERNATIONAL EP                   :COMPANY
WELL .        WPP TEST 4                               :WELL
FLD  .        WILDCAT                                  :FIELD
LOC  .        NA                                       :LOCATION
CNTY .        HARRIS                                   :COUNTY
STAT .        TEXAS                                    :STATE
CTRY .                                                 :COUNTRY
API  .        NA                                       :API NUMBER
UWI  .                                                 :UNIQUE WELL ID
DATE .        02-Aug-2018                              :LOG DATE {DD-MMM-YYYY}
SRVC .        Schlumberger                             :SERVICE COMPANY
LATI .DEG                                              :LATITUDE
LONG .DEG                                              :LONGITUDE
GDAT .                                                 :GeoDetic Datum
SECT .        NA                                       :Section
RANG .        NA                                       :Range
TOWN .        NA                                       :Township
#-----------------------------------------------------------------------------
~PARAMETER INFORMATION
#MNEM.UNIT    VALUE                      DESCRIPTION
#---- -----   --------------------       ------------------------
U-PHASE_B_COMP_PER_YT.                 0 :Phase B Comparator Period Yt
U-PHASE_A_COMP_PER_XT.                 0 :Phase A Comparator Period Xt
U-MAX_EXC_CUR_LIMIT.MA       265.00000   :Requested CM Current Limit
U-REQ_EXC_FQ.HZ              50          :Requested CM Frequency
U-TILT_Y_OFFSET.          -2.06578       :WPTET Tilt Y Offset
U-TILT_Y_GAIN.           1.02173         :WPTET Tilt Y Gain
U-TILT_X_OFFSET.           2.30841       :WPTET Tilt X Offset
U-TILT_X_GAIN.           1.00000         :WPTET Tilt X Gain
U-TILT_OFFSET_TOL.           0.00100     :WPTET Tilt Offset Calibration Tolerance
U-MOT_CUR_LIMIT_REQ.MA        70.00000   :Requested Motor Current Limit
U-MOT_SPD_REQ_WPMS.RPM        1.00000    :Requested Motor Speed
U-STD_TOL_TILT.           0.01000        :Tilt Standard Deviation Tolerance
CWEI .LB/F      29.00000                 :Casing Weight
CSIZ .IN         7.00000                 :Current Casing Size
LCC  .               440                 :Logging Company Code
LUN  .              2134                 :Logging Unit Number
HIDE .                                   :Header Identifier
HID1 .                                   :Header Identifier Line 1
R1   .                                   :Remark Line 1
WITN .        MR. KELLY McCOY            :Witness's Name
ENGI .        MORRIS MOORE               :Engineer's Name
LUL  .        IOWA COLONY                :Logging Unit Location
DATE .        02-Aug-2018                :Date as Month-Day-Year
STAT .        TEXAS                      :State or Province
COUN .        HARRIS                     :County or Rig Name
FN   .        WILDCAT                    :Field Name
WN   .        WPP TEST 4                 :Well Name
CN   .        SHELL INTERNATIONAL EP     :Company Name
CLAB .        County                     :County/Rig Label
SLAB .        State                      :State/Province Label
RUN  .          1                        :RUN NUMBER
PDAT .        GROUND LEVEL               :Permanent Datum
EPD  .                                   :Elevation of Permanent Datum above Mean Sea Level
LMF  .          NA                       :Logging Measured From (Name of Logging Elevation Reference)
APD  .                                   :Elevation of Depth Reference (LMF) above Permanent Datum
#-----------------------------------------------------------------------------
~CURVE INFORMATION
#MNEM.UNIT   API CODE                                  DESCRIPTION
#---- -----  --------                                  -----------------------
TIME .S                                                :TIME {F10.1}
FREQ_EMF_SL.HZ                                         :Electromagnetic Field Frequency {F13.4}
PH_SH_WPPCM_SL.DEG                                     :WPPCM Phase Shift {F13.4}
RB_SL.DEG                                              :Relative Bearing {F13.4}
SDEV_SL.DEG                                            :Sonde Deviation {F13.4}
RTIX_SL.DEG                                            :Raw X-axis Tilt {F13.4}
RTIY_SL.DEG                                            :Raw Y-axis Tilt {F13.4}
TILX_SL.DEG                                            :X-axis Tilt {F13.4}
TILY_SL.DEG                                            :Y-axis Tilt {F13.4}
ROTA_SL.DEG                                            :Motor Rotation Angle {F13.4}
TOD7 .S                                                :Time of Day {I11}
TOJ  .S                                                :Time of Job {F13.4}
#-----------------------------------------------------------------------------
# 
#     TIME    FREQ_EMF_SL  PH_SH_WPPCM_    RB_SL       SDEV_SL      RTIX_SL      RTIY_SL      TILX_SL      TILY_SL      ROTA_SL        TOD7            TOJ
#                          SL
~A  
# ...
     318.0     542.5347       0.0000     -50.0331    -999.2500     -73.5050     -49.3648     -71.1966     -52.5032     142.0142 1533245342 9999999.9999
     319.0     556.2698       0.0000     -45.0457    -999.2500     -61.6960     -55.9522     -59.3876     -59.2336     148.1191 1533245343 9999999.9999
     320.0     579.1804       0.0000     -37.1610    -999.2500     -50.1280     -74.1878     -47.8196     -77.8655     154.2180 1533245344 9999999.9999
     321.0     605.6202       0.0000     -33.1736    -999.2500     -43.0587     -83.0245     -40.7503     -86.8942     160.3168 1533245345 9999999.9999
     322.0     639.7861       0.0000     -28.9497    -999.2500     -35.7885     -90.2143     -33.4801     -94.2402     166.4218 1533245346 9999999.9999
     323.0     686.6455       0.0000     -24.0904    -999.2500     -28.4380     -95.7975     -26.1296     -99.9447     172.5267 1533245347 9999999.9999
     324.0     737.8017       0.0000     -18.4367    -999.2500     -21.2080     -99.4527     -18.8996    -103.6793     179.0305 1533245348 9999999.9999
     325.0     791.8074       0.0000     -11.5706      79.8883     -13.6968    -101.0593     -11.3884    -105.3208     185.1416 1533245349 9999999.9999
     326.0     853.3071       0.0000      -3.1025      74.7796      -5.3020    -101.2602      -2.9936    -105.5260     191.2404 1533245350 9999999.9999
     327.0     923.9487       0.0000       5.8195      75.8473       3.3338    -101.0192       5.6422    -105.2798     197.3525 1533245351 9999999.9999
     328.0    1007.3424       0.0000      13.5827      86.3779      11.2467     -99.8142      13.5551    -104.0486     203.4514 1533245352 9999999.9999
     329.0    1098.6328       0.0000      19.9253    -999.2500      18.5168     -97.0828      20.8252    -101.2579     209.5573 1533245353 9999999.9999
     330.0    1264.6134       0.0000      25.6242    -999.2500      26.1887     -91.8210      28.4971     -95.8818     215.6629 1533245354 9999999.9999
     331.0    1458.7655       0.0000      30.1356    -999.2500      33.1777     -85.8362      35.4861     -89.7669     221.7617 1533245355 9999999.9999
     332.0    1620.1036       0.0000      34.2176    -999.2500      40.0462     -78.4053      42.3546     -82.1746     227.8605 1533245356 9999999.9999
     333.0    1766.6456       0.0000      38.2610    -999.2500      46.7540     -69.7293      49.0624     -73.3101     233.9785 1533245357 9999999.9999
     334.0    1910.6658       0.0000      43.9934    -999.2500      51.3330     -53.3012      53.6414     -56.5250     240.0835 1533245358 9999999.9999
     335.0    2038.0435       0.0000      52.1513    -999.2500      75.1920     -46.2720      77.5004     -49.3431     246.1823 1533245359 9999999.9999
     336.0    2176.8577       0.0000      55.9192    -999.2500      83.7073     -39.5240      86.0157     -42.4485     252.6923 1533245360 9999999.9999
     337.0    2275.4854       0.0000      59.9169    -999.2500      90.5758     -32.5752      92.8842     -35.3487     258.7971 1533245361 9999999.9999
     338.0    2367.4243       0.0000      64.5197    -999.2500      96.1188     -25.5058      98.4272     -28.1258     264.8957 1533245362 9999999.9999
     339.0    2449.9128       0.0000      70.0640    -999.2500      99.6937     -18.3160     102.0021     -20.7797     270.9943 1533245363 9999999.9999
     340.0    2493.3511       0.0000      76.9115      86.5479     101.2200     -10.7647     103.5284     -13.0643     277.1123 1533245364 9999999.9999
     341.0    2493.3511       0.0000      85.6408      76.6298     101.7422      -2.1288     104.0506      -4.2409     283.2046 1533245365 9999999.9999
     342.0    2493.3511       0.0000      95.1340      76.5583     102.0635       6.9087     104.3719       4.9930     289.3032 1533245366 9999999.9999
     343.0    2493.3511       0.0000     103.0372      89.5058     100.7380      14.7813     103.0464      13.0367     295.4018 1533245367 9999999.9999
     344.0    2493.3511       0.0000     109.9679    -999.2500      97.2033      22.5737      99.5117      20.9983     301.5066 1533245368 9999999.9999
     345.0    2493.3511       0.0000     115.9484    -999.2500      91.6603      30.4463      93.9687      29.0421     307.6113 1533245369 9999999.9999
     346.0    2484.5405       0.0000     120.8788    -999.2500      84.9123      37.9173      87.2207      36.6754     313.7099 1533245370 9999999.9999
     347.0    2493.3511       0.0000     125.4618    -999.2500      76.8388      45.4687      79.1472      44.3908     319.8218 1533245371 9999999.9999
     348.0    2484.5405       0.0000     130.0012    -999.2500      67.1185      52.6987      69.4269      51.7779     326.3376 1533245372 9999999.9999
     349.0    2493.3511       0.0000     137.9839    -999.2500      53.8233      67.7612      56.1317      67.1676     332.4492 1533245373 9999999.9999
     350.0    2475.7922       0.0000     142.0102    -999.2500      47.2360      77.3610      49.5444      76.9761     338.5479 1533245374 9999999.9999
     351.0    2484.5405       0.0000     145.8477    -999.2500      40.2470      85.7157      42.5554      85.5122     344.6526 1533245375 9999999.9999
     352.0    2493.3511       0.0000     150.1053    -999.2500      32.7358      92.8653      35.0442      92.8173     350.7573 1533245376 9999999.9999
     353.0    2484.5405       0.0000     155.1434    -999.2500      24.9033      99.1313      27.2117      99.2194     356.8559 1533245377 9999999.9999
     354.0    2484.5405       0.0000     161.7074    -999.2500      16.3880     103.9513      18.6964     104.1441       2.9546 1533245378 9999999.9999
     355.0    2407.9622       0.0000     169.2172      77.9536       8.2342     105.8793      10.5426     106.1140       9.0595 1533245379 9999999.9999
     356.0    2297.7942       0.0000     177.6768      73.5523      -0.0803     106.3613       2.2281     106.6065      15.1644 1533245380 9999999.9999
     357.0    2183.6179       0.0000    -173.6531      74.8899      -8.4350     106.1203      -6.1266     106.3603      21.2631 1533245381 9999999.9999
     358.0    2049.9270       0.0000    -165.9523      86.5575     -16.3880     103.3488     -14.0796     103.5285      27.3619 1533245382 9999999.9999
     359.0    1905.4878       0.0000    -158.8482    -999.2500     -24.8230      98.1673     -22.5146      98.2345      33.4668 1533245383 9999999.9999
     360.0    1749.0671       0.0000    -152.9934    -999.2500     -32.9367      91.7005     -30.6283      91.6271      39.9766 1533245384 9999999.9999
     361.0    1583.6149       0.0000    -147.9510    -999.2500     -40.8093      84.1492     -38.5009      83.9117      46.0753 1533245385 9999999.9999
     362.0    1426.2170       0.0000    -143.4612    -999.2500     -48.1598      75.9552     -45.8514      75.5397      52.1802 1533245386 9999999.9999
     363.0    1193.7606       0.0000    -138.6606    -999.2500     -55.4300      66.0340     -53.1216      65.4030      58.2850 1533245387 9999999.9999
     364.0    1062.1223       0.0000    -130.9164    -999.2500     -69.6088      53.9840     -67.3004      53.0911      64.3838 1533245388 9999999.9999
     365.0     971.1672       0.0000    -126.6357    -999.2500     -78.8472      47.3565     -76.5387      46.3196      70.4700 1533245389 9999999.9999
     366.0     883.6004       0.0000    -122.1556    -999.2500     -86.9408      39.9458     -84.6323      38.7479      76.5749 1533245390 9999999.9999
     367.0     799.0057       0.0000    -117.1600    -999.2500     -94.2310      32.2137     -91.9226      30.8478      82.6797 1533245391 9999999.9999
     368.0     737.0283       0.0000    -111.2767    -999.2500    -100.3363      24.2205     -98.0279      22.6810      88.7917 1533245392 9999999.9999
     369.0     676.4069       0.0000    -104.4145    -999.2500    -104.4132      16.2675    -102.1048      14.5552      94.8904 1533245393 9999999.9999
     370.0     936.2517       0.0000     -96.5309      78.0320    -105.9195       8.2743    -103.6111       6.3883     100.5842 1533245394 9999999.9999
