~VERSION INFORMATION
VERS.           2.0   :CWLS Log ASCII Standard - VERSION 2.0
WRAP.           NO    :One Line per depth step
PROD.  Schlumberger   :LAS Producer
PROG.  DLIS to ASCII 19C2-270                          :LAS Program name and version
CREA.        2018/08/03 10:59                          :LAS Creation date {YYYY/MM/DD hh:mm}
DLIS_CREA.  2018-Aug-03 09:39                          :DLIS Creation date and time {YYYY-MMM-DD hh:mm}
SOURCE.     PERFO_Perfo_081PTP.DLIS                    :DLIS File Name
FILE-ID.     PERFO_Perfo_081PTP                        :File Identification Number
#--------------------------------------------------
~WELL INFORMATION
#MNEM.UNIT      DATA             DESCRIPTION
#---- ------ --------------   -----------------------------
STRT .S            0.0       :START TIME      
STOP .S          383.0       :STOP TIME      
STEP .S            1.0       :STEP     
NULL .          -999.25      :NULL VALUE
COMP .        SHELL INTERNATIONAL EP                   :COMPANY
WELL .        WPP TEST 4                               :WELL
FLD  .        WILDCAT                                  :FIELD
LOC  .        NA                                       :LOCATION
CNTY .        HARRIS                                   :COUNTY
STAT .        TEXAS                                    :STATE
CTRY .                                                 :COUNTRY
API  .        NA                                       :API NUMBER
UWI  .                                                 :UNIQUE WELL ID
DATE .        02-Aug-2018                              :LOG DATE {DD-MMM-YYYY}
SRVC .        Schlumberger                             :SERVICE COMPANY
LATI .DEG                                              :LATITUDE
LONG .DEG                                              :LONGITUDE
GDAT .                                                 :GeoDetic Datum
SECT .        NA                                       :Section
RANG .        NA                                       :Range
TOWN .        NA                                       :Township
#-----------------------------------------------------------------------------
~PARAMETER INFORMATION
#MNEM.UNIT    VALUE                      DESCRIPTION
#---- -----   --------------------       ------------------------
U-PHASE_B_COMP_PER_YT.                 0 :Phase B Comparator Period Yt
U-PHASE_A_COMP_PER_XT.                 0 :Phase A Comparator Period Xt
U-MAX_EXC_CUR_LIMIT.MA       265.00000   :Requested CM Current Limit
U-REQ_EXC_FQ.HZ              50          :Requested CM Frequency
U-TILT_Y_OFFSET.          -2.06578       :WPTET Tilt Y Offset
U-TILT_Y_GAIN.           1.02173         :WPTET Tilt Y Gain
U-TILT_X_OFFSET.           2.30841       :WPTET Tilt X Offset
U-TILT_X_GAIN.           1.00000         :WPTET Tilt X Gain
U-TILT_OFFSET_TOL.           0.00100     :WPTET Tilt Offset Calibration Tolerance
U-MOT_CUR_LIMIT_REQ.MA        70.00000   :Requested Motor Current Limit
U-MOT_SPD_REQ_WPMS.RPM        1.00000    :Requested Motor Speed
U-STD_TOL_TILT.           0.01000        :Tilt Standard Deviation Tolerance
CWEI .LB/F      29.00000                 :Casing Weight
CSIZ .IN         7.00000                 :Current Casing Size
LCC  .               440                 :Logging Company Code
LUN  .              2134                 :Logging Unit Number
HIDE .                                   :Header Identifier
HID1 .                                   :Header Identifier Line 1
R1   .                                   :Remark Line 1
WITN .        MR. KELLY McCOY            :Witness's Name
ENGI .        MORRIS MOORE               :Engineer's Name
LUL  .        IOWA COLONY                :Logging Unit Location
DATE .        02-Aug-2018                :Date as Month-Day-Year
STAT .        TEXAS                      :State or Province
COUN .        HARRIS                     :County or Rig Name
FN   .        WILDCAT                    :Field Name
WN   .        WPP TEST 4                 :Well Name
CN   .        SHELL INTERNATIONAL EP     :Company Name
CLAB .        County                     :County/Rig Label
SLAB .        State                      :State/Province Label
RUN  .          1                        :RUN NUMBER
PDAT .        GROUND LEVEL               :Permanent Datum
EPD  .                                   :Elevation of Permanent Datum above Mean Sea Level
LMF  .          NA                       :Logging Measured From (Name of Logging Elevation Reference)
APD  .                                   :Elevation of Depth Reference (LMF) above Permanent Datum
#-----------------------------------------------------------------------------
~CURVE INFORMATION
#MNEM.UNIT   API CODE                                  DESCRIPTION
#---- -----  --------                                  -----------------------
TIME .S                                                :TIME {F10.1}
FREQ_EMF_SL.HZ                                         :Electromagnetic Field Frequency {F13.4}
PH_SH_WPPCM_SL.DEG                                     :WPPCM Phase Shift {F13.4}
RB_SL.DEG                                              :Relative Bearing {F13.4}
SDEV_SL.DEG                                            :Sonde Deviation {F13.4}
RTIX_SL.DEG                                            :Raw X-axis Tilt {F13.4}
RTIY_SL.DEG                                            :Raw Y-axis Tilt {F13.4}
TILX_SL.DEG                                            :X-axis Tilt {F13.4}
TILY_SL.DEG                                            :Y-axis Tilt {F13.4}
ROTA_SL.DEG                                            :Motor Rotation Angle {F13.4}
TOD7 .S                                                :Time of Day {I11}
TOJ  .S                                                :Time of Job {F13.4}
#-----------------------------------------------------------------------------
# 
#     TIME    FREQ_EMF_SL  PH_SH_WPPCM_    RB_SL       SDEV_SL      RTIX_SL      RTIY_SL      TILX_SL      TILY_SL      ROTA_SL        TOD7            TOJ
#                          SL
~A  
# ...
     159.0       0.0000       0.0000      60.6265    -999.2500      91.7005     -31.4103      94.0089     -34.1586     247.0042 1533245183 9999999.9999
     160.0       0.0000       0.0000      65.4401    -999.2500      96.9222     -24.2205      99.2306     -26.8125     253.1223 1533245184 9999999.9999
     161.0       0.0000       0.0000      71.5789    -999.2500     100.2158     -16.5487     102.5242     -18.9740     259.2402 1533245185 9999999.9999
     162.0       0.0000       0.0000      78.8391      82.0929     101.3405      -8.7965     103.6489     -11.0534     265.3388 1533245186 9999999.9999
     163.0       0.0000       0.0000      87.5326      76.0003     101.9028      -0.3213     104.2112      -2.3941     271.4374 1533245187 9999999.9999
     164.0       0.0000       0.0000      96.5927      77.2463     102.0233       8.3145     104.3317       6.4294     277.5421 1533245188 9999999.9999
     165.0       0.0000       0.0000     104.2541      90.5592     100.3765      16.0667     102.6849      14.3500     283.6469 1533245189 9999999.9999
     166.0       0.0000       0.0000     111.0752    -999.2500      96.3598      23.9393      98.6682      22.3937     289.7455 1533245190 9999999.9999
     167.0       0.0000       0.0000     116.7872    -999.2500      90.7767      31.6513      93.0851      30.2732     296.2682 1533245191 9999999.9999
     168.0       0.0000       0.0000     121.7226    -999.2500      83.6672      39.2830      85.9756      38.0707     302.3729 1533245192 9999999.9999
     169.0       0.0000       0.0000     126.0162    -999.2500      75.5535      46.3523      77.8619      45.2937     308.4715 1533245193 9999999.9999
     170.0       0.0000       0.0000     130.7590    -999.2500      65.3110      53.7430      67.6194      52.8449     314.5701 1533245194 9999999.9999
     171.0       0.0000       0.0000     138.5218    -999.2500      53.0200      69.0465      55.3284      68.4809     320.6749 1533245195 9999999.9999
     172.0       0.0000       0.0000     142.7650    -999.2500      45.9105      79.2087      48.2189      78.8639     326.7796 1533245196 9999999.9999
     173.0       0.0000       0.0000     146.6569    -999.2500      38.7608      87.0412      41.0692      86.8665     332.8782 1533245197 9999999.9999
     174.0       0.0000       0.0000     151.3963    -999.2500      30.6070      94.7933      32.9154      94.7871     338.9829 1533245198 9999999.9999
     175.0       0.0000       0.0000     156.4003    -999.2500      23.1360     100.3363      25.4444     100.4506     345.0946 1533245199 9999999.9999
     176.0       0.0000       0.0000     163.2289    -999.2500      14.6608     104.2325      16.9692     104.4314     351.1993 1533245200 9999999.9999
     177.0       0.0000       0.0000     170.8429      76.3344       6.5873     106.1605       8.8957     106.4013     357.2988 1533245201 9999999.9999
     178.0       0.0000       0.0000     179.1419      73.3740      -1.4862     106.4015       0.8222     106.6475       3.3974 1533245202 9999999.9999
     179.0       0.0000       0.0000    -171.7410      76.0671     -10.3228     105.9195      -8.0144     106.1551       9.9134 1533245203 9999999.9999
     180.0       0.0000       0.0000    -164.7552      84.8870     -17.7135     102.7463     -15.4051     102.9129      16.0122 1533245204 9999999.9999
     181.0       0.0000       0.0000    -157.5317    -999.2500     -26.5502      96.8418     -24.2418      96.8802      22.1109 1533245205 9999999.9999
     182.0       0.0000       0.0000    -152.1100    -999.2500     -34.2622      90.5357     -31.9538      90.4370      28.2158 1533245206 9999999.9999
     183.0       0.0000       0.0000    -147.2342    -999.2500     -41.9742      82.9040     -39.6658      82.6395      34.3207 1533245207 9999999.9999
     184.0       0.0000       0.0000    -142.6834    -999.2500     -49.4050      74.3887     -47.0966      73.9391      40.4325 1533245208 9999999.9999
     185.0       0.0000       0.0000    -136.7348    -999.2500     -57.5588      61.5353     -55.2504      60.8065      46.5443 1533245209 9999999.9999
     186.0       0.0000       0.0000    -129.6664    -999.2500     -72.3402      52.1363     -70.0318      51.2033      52.6492 1533245210 9999999.9999
     187.0       0.0000       0.0000    -125.7617    -999.2500     -80.5743      45.9105     -78.2659      44.8422      58.7293 1533245211 9999999.9999
     188.0       0.0000       0.0000    -121.1925    -999.2500     -88.5675      38.3993     -86.2591      37.1679      64.8280 1533245212 9999999.9999
     189.0       0.0000       0.0000    -116.3297    -999.2500     -95.3155      31.0087     -93.0071      29.6166      70.9267 1533245213 9999999.9999
     190.0       0.0000       0.0000    -110.2524    -999.2500    -101.3807      22.9352     -99.0723      21.3677      77.0316 1533245214 9999999.9999
     191.0       0.0000       0.0000    -103.4399      82.8752    -104.8752      15.2232    -102.5667      13.4881      83.5414 1533245215 9999999.9999
     192.0       0.0000       0.0000     -94.8716      77.0171    -106.1605       6.6677    -103.8521       4.7468      89.6401 1533245216 9999999.9999
     193.0       0.0000       0.0000     -86.7817      76.7679    -105.9195      -1.0443    -103.6111      -3.1328      95.7204 1533245217 9999999.9999
     194.0       0.0000       0.0000     -78.2691      84.1532    -105.3973      -9.3990    -103.0889     -11.6690     101.8253 1533245218 9999999.9999
     195.0       0.0000       0.0000     -70.4541    -999.2500    -102.5053     -17.9947    -100.1969     -20.4514     107.9240 1533245219 9999999.9999
     196.0       0.0000       0.0000     -64.8609    -999.2500     -97.9665     -25.2247     -95.6581     -27.8385     114.0227 1533245220 9999999.9999
     197.0       0.0000       0.0000     -59.2262    -999.2500     -91.0980     -33.7400     -88.7896     -36.5389     120.1276 1533245221 9999999.9999
     198.0       0.0000       0.0000     -54.9543    -999.2500     -83.8278     -40.9700     -81.5194     -43.9259     126.2324 1533245222 9999999.9999
     199.0       0.0000       0.0000     -50.8503    -999.2500     -75.4732     -48.0795     -73.1647     -51.1899     132.3312 1533245223 9999999.9999
     200.0       0.0000       0.0000     -46.1942    -999.2500     -64.5077     -54.7873     -62.1992     -58.0435     138.4431 1533245224 9999999.9999
     201.0       0.0000       0.0000     -37.9420    -999.2500     -51.4937     -72.4607     -49.1853     -76.1008     144.5481 1533245225 9999999.9999
     202.0       0.0000       0.0000     -34.0031    -999.2500     -44.5448     -81.3375     -42.2364     -85.1705     150.6530 1533245226 9999999.9999
     203.0       0.0000       0.0000     -29.8747    -999.2500     -37.3148     -88.9692     -35.0064     -92.9680     157.1568 1533245227 9999999.9999
     204.0       0.0000       0.0000     -25.1661    -999.2500     -29.9643     -94.7933     -27.6559     -98.9187     163.2618 1533245228 9999999.9999
     205.0       0.0000       0.0000     -19.7170    -999.2500     -22.7343     -98.9305     -20.4259    -103.1458     169.3667 1533245229 9999999.9999
     206.0       0.0000       0.0000     -13.1479      82.5601     -15.3437    -100.8183     -13.0353    -105.0746     175.4287 1533245230 9999999.9999
     207.0       0.0000       0.0000      -5.0863      75.3983      -7.2300    -101.1798      -4.9216    -105.4440     181.1226 1533245231 9999999.9999
     208.0       0.0000       0.0000       3.8013      75.1473       1.3657    -101.0593       3.6741    -105.3208     187.2276 1533245232 9999999.9999
     209.0       0.0000       0.0000      12.4169      82.5327      10.0015    -100.2158      12.3099    -104.4590     193.3333 1533245233 9999999.9999
     210.0       0.0000       0.0000      18.8986    -999.2500      17.2717     -97.6050      19.5801    -101.7915     199.4199 1533245234 9999999.9999
     211.0       0.0000       0.0000      24.6206    -999.2500      24.7427     -92.9858      27.0511     -97.0719     205.5064 1533245235 9999999.9999
