~VERSION INFORMATION
VERS.           2.0   :CWLS Log ASCII Standard - VERSION 2.0
WRAP.           NO    :One Line per depth step
PROD.  Schlumberger   :LAS Producer
PROG.  DLIS to ASCII 19C2-270                          :LAS Program name and version
CREA.        2018/08/03 10:59                          :LAS Creation date {YYYY/MM/DD hh:mm}
DLIS_CREA.  2018-Aug-03 09:40                          :DLIS Creation date and time {YYYY-MMM-DD hh:mm}
SOURCE.     PERFO_Perfo_082PTP.DLIS                    :DLIS File Name
FILE-ID.     PERFO_Perfo_082PTP                        :File Identification Number
#--------------------------------------------------
~WELL INFORMATION
#MNEM.UNIT      DATA             DESCRIPTION
#---- ------ --------------   -----------------------------
STRT .S            0.0       :START TIME      
STOP .S          387.0       :STOP TIME      
STEP .S            1.0       :STEP     
NULL .          -999.25      :NULL VALUE
COMP .        SHELL INTERNATIONAL EP                   :COMPANY
WELL .        WPP TEST 4                               :WELL
FLD  .        WILDCAT                                  :FIELD
LOC  .        NA                                       :LOCATION
CNTY .        HARRIS                                   :COUNTY
STAT .        TEXAS                                    :STATE
CTRY .                                                 :COUNTRY
API  .        NA                                       :API NUMBER
UWI  .                                                 :UNIQUE WELL ID
DATE .        02-Aug-2018                              :LOG DATE {DD-MMM-YYYY}
SRVC .        Schlumberger                             :SERVICE COMPANY
LATI .DEG                                              :LATITUDE
LONG .DEG                                              :LONGITUDE
GDAT .                                                 :GeoDetic Datum
SECT .        NA                                       :Section
RANG .        NA                                       :Range
TOWN .        NA                                       :Township
#-----------------------------------------------------------------------------
~PARAMETER INFORMATION
#MNEM.UNIT    VALUE                      DESCRIPTION
#---- -----   --------------------       ------------------------
U-PHASE_B_COMP_PER_YT.                 0 :Phase B Comparator Period Yt
U-PHASE_A_COMP_PER_XT.                 0 :Phase A Comparator Period Xt
U-MAX_EXC_CUR_LIMIT.MA       265.00000   :Requested CM Current Limit
U-REQ_EXC_FQ.HZ              50          :Requested CM Frequency
U-TILT_Y_OFFSET.          -2.06578       :WPTET Tilt Y Offset
U-TILT_Y_GAIN.           1.02173         :WPTET Tilt Y Gain
U-TILT_X_OFFSET.           2.30841       :WPTET Tilt X Offset
U-TILT_X_GAIN.           1.00000         :WPTET Tilt X Gain
U-TILT_OFFSET_TOL.           0.00100     :WPTET Tilt Offset Calibration Tolerance
U-MOT_CUR_LIMIT_REQ.MA        70.00000   :Requested Motor Current Limit
U-MOT_SPD_REQ_WPMS.RPM        1.00000    :Requested Motor Speed
U-STD_TOL_TILT.           0.01000        :Tilt Standard Deviation Tolerance
CWEI .LB/F      29.00000                 :Casing Weight
CSIZ .IN         7.00000                 :Current Casing Size
LCC  .               440                 :Logging Company Code
LUN  .              2134                 :Logging Unit Number
HIDE .                                   :Header Identifier
HID1 .                                   :Header Identifier Line 1
R1   .                                   :Remark Line 1
WITN .        MR. KELLY McCOY            :Witness's Name
ENGI .        MORRIS MOORE               :Engineer's Name
LUL  .        IOWA COLONY                :Logging Unit Location
DATE .        02-Aug-2018                :Date as Month-Day-Year
STAT .        TEXAS                      :State or Province
COUN .        HARRIS                     :County or Rig Name
FN   .        WILDCAT                    :Field Name
WN   .        WPP TEST 4                 :Well Name
CN   .        SHELL INTERNATIONAL EP     :Company Name
CLAB .        County                     :County/Rig Label
SLAB .        State                      :State/Province Label
RUN  .          1                        :RUN NUMBER
PDAT .        GROUND LEVEL               :Permanent Datum
EPD  .                                   :Elevation of Permanent Datum above Mean Sea Level
LMF  .          NA                       :Logging Measured From (Name of Logging Elevation Reference)
APD  .                                   :Elevation of Depth Reference (LMF) above Permanent Datum
#-----------------------------------------------------------------------------
~CURVE INFORMATION
#MNEM.UNIT   API CODE                                  DESCRIPTION
#---- -----  --------                                  -----------------------
TIME .S                                                :TIME {F10.1}
FREQ_EMF_SL.HZ                                         :Electromagnetic Field Frequency {F13.4}
PH_SH_WPPCM_SL.DEG                                     :WPPCM Phase Shift {F13.4}
RB_SL.DEG                                              :Relative Bearing {F13.4}
SDEV_SL.DEG                                            :Sonde Deviation {F13.4}
RTIX_SL.DEG                                            :Raw X-axis Tilt {F13.4}
RTIY_SL.DEG                                            :Raw Y-axis Tilt {F13.4}
TILX_SL.DEG                                            :X-axis Tilt {F13.4}
TILY_SL.DEG                                            :Y-axis Tilt {F13.4}
ROTA_SL.DEG                                            :Motor Rotation Angle {F13.4}
TOD7 .S                                                :Time of Day {I11}
TOJ  .S                                                :Time of Job {F13.4}
#-----------------------------------------------------------------------------
# 
#     TIME    FREQ_EMF_SL  PH_SH_WPPCM_    RB_SL       SDEV_SL      RTIX_SL      RTIY_SL      TILX_SL      TILY_SL      ROTA_SL        TOD7            TOJ
#                          SL
~A  
# ...
     318.0    2475.7922       0.0000      78.5584      82.4340     101.3807      -9.0777     103.6891     -11.3407     308.3647 1533245781 9999999.9999
     319.0    2493.3511       0.0000      87.2812      76.2098     101.7422      -0.5623     104.0506      -2.6403     314.4449 1533245782 9999999.9999
     320.0    2484.5405       0.0000      96.3838      77.1868     101.9832       8.1137     104.2916       6.2242     320.5565 1533245783 9999999.9999
     321.0    2484.5405       0.0000     104.0668      89.5540     100.4568      15.8658     102.7652      14.1448     326.6682 1533245784 9999999.9999
     322.0    2493.3511       0.0000     110.9831    -999.2500      96.5205      23.8188      98.8289      22.2706     332.7791 1533245785 9999999.9999
     323.0    2493.3511       0.0000     117.0052    -999.2500      90.4152      31.9727      92.7236      30.6016     338.8777 1533245786 9999999.9999
     324.0    2493.3511       0.0000     121.7993    -999.2500      83.4663      39.4035      85.7747      38.1938     344.9763 1533245787 9999999.9999
     325.0    2493.3511       0.0000     126.2629    -999.2500      75.0313      46.7540      77.3397      45.7041     351.0941 1533245788 9999999.9999
     326.0    2493.3511       0.0000     130.9238    -999.2500      65.0298      54.0242      67.3382      53.1322     357.2121 1533245789 9999999.9999
     327.0    2493.3511       0.0000     138.9032    -999.2500      52.4175      69.9302      54.7259      69.3838       3.3107 1533245790 9999999.9999
     328.0    2493.3511       0.0000     142.7996    -999.2500      45.8302      79.2087      48.1386      78.8639       9.4095 1533245791 9999999.9999
     329.0    2493.3511       0.0000     146.5935    -999.2500      38.8813      87.0412      41.1897      86.8665      15.9193 1533245792 9999999.9999
     330.0    2484.5405       0.0000     150.9448    -999.2500      31.3300      94.3917      33.6384      94.3767      22.0242 1533245793 9999999.9999
     331.0    2493.3511       0.0000     156.1897    -999.2500      23.4172     100.2560      25.7256     100.3685      28.1230 1533245794 9999999.9999
     332.0    2484.5405       0.0000     162.6347    -999.2500      15.3035     104.4333      17.6119     104.6366      34.2279 1533245795 9999999.9999
     333.0    2493.3511       0.0000     170.1656      76.9639       7.2702     106.0400       9.5786     106.2782      40.3327 1533245796 9999999.9999
     334.0    2424.5691       0.0000     178.5966      73.3277      -0.9640     106.4818       1.3444     106.7296      46.4314 1533245797 9999999.9999
     335.0    2320.5444       0.0000    -172.2676      75.7253      -9.8007     105.9597      -7.4923     106.1961      52.5302 1533245798 9999999.9999
     336.0    2190.4207       0.0000    -164.4400      90.1828     -18.0750     102.4652     -15.7666     102.6257      58.6351 1533245799 9999999.9999
     337.0    2049.9270       0.0000    -157.5561    -999.2500     -26.5100      97.0025     -24.2016      97.0443      64.7399 1533245800 9999999.9999
     338.0    1880.0134       0.0000    -151.9248    -999.2500     -34.5433      90.2545     -32.2349      90.1497      70.8386 1533245801 9999999.9999
     339.0    1706.6141       0.0000    -146.9682    -999.2500     -42.4160      82.5023     -40.1076      82.2291      76.9373 1533245802 9999999.9999
     340.0    1531.8628       0.0000    -142.5118    -999.2500     -49.6862      74.0673     -47.3778      73.6108      83.0422 1533245803 9999999.9999
     341.0    1331.6761       0.0000    -137.5467    -999.2500     -56.8358      63.5838     -54.5274      62.8996      89.5520 1533245804 9999999.9999
     342.0    1100.3522       0.0000    -129.9455    -999.2500     -71.7778      52.5782     -69.4694      51.6548      95.6507 1533245805 9999999.9999
     343.0     968.4918       0.0000    -125.7107    -999.2500     -80.6948      45.8302     -78.3864      44.7601     101.7556 1533245806 9999999.9999
     344.0     878.9063       0.0000    -121.3407    -999.2500     -88.4068      38.6403     -86.0984      37.4141     107.8604 1533245807 9999999.9999
     345.0     800.8257       0.0000    -116.2435    -999.2500     -95.3155      30.8882     -93.0071      29.4935     113.9591 1533245808 9999999.9999
     346.0     729.3828       0.0000    -110.1679    -999.2500    -101.0593      22.8548     -98.7509      21.2856     120.0579 1533245809 9999999.9999
     347.0     659.7466       0.0000    -102.8839      82.8902    -105.0157      14.6407    -102.7073      12.8931     126.1760 1533245810 9999999.9999
     348.0     609.8222       0.0000     -94.5345      77.0251    -106.0400       6.3463    -103.7316       4.4184     132.2809 1533245811 9999999.9999
     349.0     576.8047       0.0000     -85.9828      76.9004    -105.9998      -1.8075    -103.6914      -3.9126     138.3797 1533245812 9999999.9999
     350.0     553.6417       0.0000     -77.3679      86.8674    -105.3170     -10.3228    -103.0086     -12.6129     144.4786 1533245813 9999999.9999
     351.0     523.5480       0.0000     -70.3569    -999.2500    -102.3848     -18.1152    -100.0764     -20.5745     150.5897 1533245814 9999999.9999
     352.0     506.2095       0.0000     -64.2583    -999.2500     -97.4443     -26.0682     -95.1359     -28.7003     156.6762 1533245815 9999999.9999
     353.0     495.5074       0.0000     -59.2502    -999.2500     -91.0578     -33.6998     -88.7494     -36.4978     163.1800 1533245816 9999999.9999
     354.0     489.6414       0.0000     -55.0110    -999.2500     -84.0688     -40.8897     -81.7604     -43.8439     169.2850 1533245817 9999999.9999
     355.0     488.9604       0.0000     -50.9948    -999.2500     -75.7945     -47.8385     -73.4861     -50.9437     175.3899 1533245818 9999999.9999
     356.0     495.1584       0.0000     -46.5717    -999.2500     -65.4717     -54.3857     -63.1633     -57.6331     181.4888 1533245819 9999999.9999
     357.0     507.3052       0.0000     -38.1682    -999.2500     -51.8552     -71.8582     -49.5468     -75.4852     187.5876 1533245820 9999999.9999
     358.0     525.1120       0.0000     -34.1339    -999.2500     -44.7858     -81.1367     -42.4774     -84.9653     193.6926 1533245821 9999999.9999
     359.0     551.4706       0.0000     -29.8800    -999.2500     -37.3249     -88.9290     -35.0165     -92.9270     199.7975 1533245822 9999999.9999
     360.0     586.4262       0.0000     -25.0333    -999.2500     -29.7635     -95.0343     -27.4551     -99.1649     205.8963 1533245823 9999999.9999
     361.0     625.0000       0.0000     -19.3570    -999.2500     -22.2925     -99.1715     -19.9841    -103.3920     211.9952 1533245824 9999999.9999
     362.0     668.3698       0.0000     -12.7675      81.7632     -14.9420    -100.8987     -12.6336    -105.1567     218.1132 1533245825 9999999.9999
     363.0     720.4149       0.0000      -4.4676      75.2012      -6.6275    -101.1798      -4.3191    -105.4440     224.2182 1533245826 9999999.9999
     364.0     783.8629       0.0000       4.5038      75.3409       2.0485    -101.0593       4.3569    -105.3208     230.3047 1533245827 9999999.9999
     365.0     847.1386       0.0000      12.4169      82.5327      10.0015    -100.2158      12.3099    -104.4590     236.4035 1533245828 9999999.9999
     366.0     914.3368       0.0000      19.0634      88.4467      17.4725     -97.4845      19.7809    -101.6683     242.9196 1533245829 9999999.9999
     367.0     998.7571       0.0000      24.5966    -999.2500      24.7025     -93.1063      27.0109     -97.1951     249.0184 1533245830 9999999.9999
     368.0    1158.3608       0.0000      29.1939    -999.2500      31.6513     -87.2822      33.9597     -91.2443     255.1173 1533245831 9999999.9999
     369.0    1365.2913       0.0000      33.2692    -999.2500      38.4395     -80.3735      40.7479     -84.1856     261.2098 1533245832 9999999.9999
     370.0    1525.2169       0.0000      37.3488    -999.2500      45.3080     -71.8180      47.6164     -75.4442     267.3145 1533245833 9999999.9999
