~VERSION INFORMATION
VERS.           2.0   :CWLS Log ASCII Standard - VERSION 2.0
WRAP.           NO    :One Line per depth step
PROD.  Schlumberger   :LAS Producer
PROG.  DLIS to ASCII 19C2-270                          :LAS Program name and version
CREA.        2018/08/03 10:59                          :LAS Creation date {YYYY/MM/DD hh:mm}
DLIS_CREA.  2018-Aug-03 08:48                          :DLIS Creation date and time {YYYY-MMM-DD hh:mm}
SOURCE.     PERFO_Perfo_061PTP.DLIS                    :DLIS File Name
FILE-ID.     PERFO_Perfo_061PTP                        :File Identification Number
#--------------------------------------------------
~WELL INFORMATION
#MNEM.UNIT      DATA             DESCRIPTION
#---- ------ --------------   -----------------------------
STRT .S            0.0       :START TIME      
STOP .S          993.0       :STOP TIME      
STEP .S            1.0       :STEP     
NULL .          -999.25      :NULL VALUE
COMP .        SHELL INTERNATIONAL EP                   :COMPANY
WELL .        WPP TEST 4                               :WELL
FLD  .        WILDCAT                                  :FIELD
LOC  .        NA                                       :LOCATION
CNTY .        HARRIS                                   :COUNTY
STAT .        TEXAS                                    :STATE
CTRY .                                                 :COUNTRY
API  .        NA                                       :API NUMBER
UWI  .                                                 :UNIQUE WELL ID
DATE .        02-Aug-2018                              :LOG DATE {DD-MMM-YYYY}
SRVC .        Schlumberger                             :SERVICE COMPANY
LATI .DEG                                              :LATITUDE
LONG .DEG                                              :LONGITUDE
GDAT .                                                 :GeoDetic Datum
SECT .        NA                                       :Section
RANG .        NA                                       :Range
TOWN .        NA                                       :Township
#-----------------------------------------------------------------------------
~PARAMETER INFORMATION
#MNEM.UNIT    VALUE                      DESCRIPTION
#---- -----   --------------------       ------------------------
U-PHASE_B_COMP_PER_YT.                 0 :Phase B Comparator Period Yt
U-PHASE_A_COMP_PER_XT.                 0 :Phase A Comparator Period Xt
U-MAX_EXC_CUR_LIMIT.MA       265.00000   :Requested CM Current Limit
U-REQ_EXC_FQ.HZ              50          :Requested CM Frequency
U-TILT_Y_OFFSET.          -2.06578       :WPTET Tilt Y Offset
U-TILT_Y_GAIN.           1.02173         :WPTET Tilt Y Gain
U-TILT_X_OFFSET.           2.30841       :WPTET Tilt X Offset
U-TILT_X_GAIN.           1.00000         :WPTET Tilt X Gain
U-TILT_OFFSET_TOL.           0.00100     :WPTET Tilt Offset Calibration Tolerance
U-MOT_CUR_LIMIT_REQ.MA        70.00000   :Requested Motor Current Limit
U-MOT_SPD_REQ_WPMS.RPM        1.00000    :Requested Motor Speed
U-STD_TOL_TILT.           0.01000        :Tilt Standard Deviation Tolerance
CWEI .LB/F      29.00000                 :Casing Weight
CSIZ .IN         7.00000                 :Current Casing Size
LCC  .               440                 :Logging Company Code
LUN  .              2134                 :Logging Unit Number
HIDE .                                   :Header Identifier
HID1 .                                   :Header Identifier Line 1
R1   .                                   :Remark Line 1
WITN .        MR. KELLY McCOY            :Witness's Name
ENGI .        MORRIS MOORE               :Engineer's Name
LUL  .        IOWA COLONY                :Logging Unit Location
DATE .        02-Aug-2018                :Date as Month-Day-Year
STAT .        TEXAS                      :State or Province
COUN .        HARRIS                     :County or Rig Name
FN   .        WILDCAT                    :Field Name
WN   .        WPP TEST 4                 :Well Name
CN   .        SHELL INTERNATIONAL EP     :Company Name
CLAB .        County                     :County/Rig Label
SLAB .        State                      :State/Province Label
RUN  .          1                        :RUN NUMBER
PDAT .        GROUND LEVEL               :Permanent Datum
EPD  .                                   :Elevation of Permanent Datum above Mean Sea Level
LMF  .          NA                       :Logging Measured From (Name of Logging Elevation Reference)
APD  .                                   :Elevation of Depth Reference (LMF) above Permanent Datum
#-----------------------------------------------------------------------------
~CURVE INFORMATION
#MNEM.UNIT   API CODE                                  DESCRIPTION
#---- -----  --------                                  -----------------------
TIME .S                                                :TIME {F10.1}
FREQ_EMF_SL.HZ                                         :Electromagnetic Field Frequency {F13.4}
PH_SH_WPPCM_SL.DEG                                     :WPPCM Phase Shift {F13.4}
RB_SL.DEG                                              :Relative Bearing {F13.4}
SDEV_SL.DEG                                            :Sonde Deviation {F13.4}
RTIX_SL.DEG                                            :Raw X-axis Tilt {F13.4}
RTIY_SL.DEG                                            :Raw Y-axis Tilt {F13.4}
TILX_SL.DEG                                            :X-axis Tilt {F13.4}
TILY_SL.DEG                                            :Y-axis Tilt {F13.4}
ROTA_SL.DEG                                            :Motor Rotation Angle {F13.4}
TOD7 .S                                                :Time of Day {I11}
TOJ  .S                                                :Time of Job {F13.4}
#-----------------------------------------------------------------------------
# 
#     TIME    FREQ_EMF_SL  PH_SH_WPPCM_    RB_SL       SDEV_SL      RTIX_SL      RTIY_SL      TILX_SL      TILY_SL      ROTA_SL        TOD7            TOJ
#                          SL
~A  
# ...
     901.0    1227.0942       0.0000     -25.2151    -999.2500     -30.1652     -93.0260     -27.8568     -97.1130     139.4034 1533229741 9999999.9999
     902.0    1222.8260       0.0000     -19.7737    -999.2500     -22.9753     -96.8017     -20.6669    -100.9707     145.9072 1533229742 9999999.9999
     903.0    1216.4792       0.0000     -13.2989      84.3814     -15.6248     -98.7698     -13.3164    -102.9816     152.0060 1533229743 9999999.9999
     904.0    1214.3783       0.0000      -5.4894      77.7209      -7.6718     -99.2117      -5.3634    -103.4330     158.1110 1533229744 9999999.9999
     905.0    1212.2845       0.0000       3.4374      77.2614       1.0443     -98.9707       3.3527    -103.1868     164.2159 1533229745 9999999.9999
     906.0    1216.4792       0.0000      11.3908      84.9460       9.0375     -98.2477      11.3459    -102.4481     170.3148 1533229746 9999999.9999
     907.0    1218.5875       0.0000      17.8957    -999.2500      16.2273     -95.9582      18.5357    -100.1088     176.4197 1533229747 9999999.9999
     908.0    1227.0942       0.0000      23.6844    -999.2500      23.5778     -91.4997      25.8862     -95.5535     182.5122 1533229748 9999999.9999
     909.0    1227.0942       0.0000      28.2581    -999.2500      30.2053     -86.0370      32.5137     -89.9721     188.6111 1533229749 9999999.9999
     910.0    1242.2703       0.0000      32.4980    -999.2500      36.9132     -79.2488      39.2216     -83.0365     194.6976 1533229750 9999999.9999
     911.0    1251.1122       0.0000      36.6787    -999.2500      43.5808     -70.9745      45.8892     -74.5824     200.8026 1533229751 9999999.9999
     912.0    1266.8918       0.0000      41.5739    -999.2500      49.7263     -59.3663      52.0347     -62.7220     206.9075 1533229752 9999999.9999
     913.0    1271.4738       0.0000      51.5389    -999.2500      71.6172     -46.6737      73.9256     -49.7535     213.0064 1533229753 9999999.9999
     914.0    1290.1376       0.0000      55.3460    -999.2500      80.2530     -40.3273      82.5614     -43.2693     219.5163 1533229754 9999999.9999
     915.0    1306.9238       0.0000      59.2069    -999.2500      87.3223     -33.7802      89.6307     -36.5799     225.6213 1533229755 9999999.9999
     916.0    1329.1588       0.0000      63.6637    -999.2500      93.1867     -26.8715      95.4951     -29.5211     231.7201 1533229756 9999999.9999
     917.0    1346.9828       0.0000      68.9351    -999.2500      97.0025     -19.8423      99.3109     -22.3392     237.8189 1533229757 9999999.9999
     918.0    1365.2913       0.0000      75.3715    -999.2500      99.0108     -12.4918     101.3192     -14.8290     243.9370 1533229758 9999999.9999
     919.0    1389.5751       0.0000      83.3993      79.9055      99.7338      -4.3380     102.0422      -6.4980     250.0172 1533229759 9999999.9999
     920.0    1417.5908       0.0000      92.9668      77.8268     100.2158       4.8602     102.5242       2.9000     256.1037 1533229760 9999999.9999
     921.0    1440.8298       0.0000     100.9759      85.6374      99.4928      12.7328     101.8012      10.9437     262.2023 1533229761 9999999.9999
     922.0    1464.8438       0.0000     107.9498    -999.2500      96.7213      20.2842      99.0297      18.6591     268.2948 1533229762 9999999.9999
     923.0    1489.6716       0.0000     114.0408    -999.2500      91.9013      27.8757      94.2097      26.4155     274.3995 1533229763 9999999.9999
     924.0    1512.0968       0.0000     119.2060    -999.2500      85.7960      35.2663      88.1044      33.9668     280.4981 1533229764 9999999.9999
     925.0    1531.8628       0.0000     123.8262    -999.2500      78.3652      42.5365      80.6736      41.3949     286.6028 1533229765 9999999.9999
     926.0    1552.1523       0.0000     128.3883    -999.2500      69.2875      49.7263      71.5959      48.7410     293.1064 1533229766 9999999.9999
     927.0    1572.9866       0.0000     136.6399    -999.2500      53.7832      62.2182      56.0916      61.5042     299.2111 1533229767 9999999.9999
     928.0    1590.7806       0.0000     141.4807    -999.2500      47.7983      74.9912      50.1067      74.5547     305.3228 1533229768 9999999.9999
     929.0    1616.3793       0.0000     145.2510    -999.2500      41.2110      83.3057      43.5194      83.0499     311.4275 1533229769 9999999.9999
     930.0    1623.8453       0.0000     149.3309    -999.2500      34.0613      90.6963      36.3697      90.6011     317.5323 1533229770 9999999.9999
     931.0    1635.1744       0.0000     154.1248    -999.2500      26.4698      96.9623      28.7782      97.0033     323.6309 1533229771 9999999.9999
     932.0    1642.8153       0.0000     160.3911    -999.2500      18.0750     101.9832      20.3834     102.1332     329.7295 1533229772 9999999.9999
     933.0    1654.4117       0.0000     167.2714      82.9685      10.3228     104.3128      12.6312     104.5135     335.8342 1533229773 9999999.9999
     934.0    1658.3137       0.0000     175.5828      75.5157       1.9682     104.9153       4.2766     105.1291     341.9389 1533229774 9999999.9999
     935.0    1654.4117       0.0000    -175.7842      75.3287      -6.3865     105.0358      -4.0781     105.2522     348.0375 1533229775 9999999.9999
     936.0    1654.4117       0.0000    -167.9461      84.1852     -14.2993     103.1882     -11.9909     103.3644     354.1361 1533229776 9999999.9999
     937.0    1646.6628       0.0000    -160.7863    -999.2500     -22.4532      98.7297     -20.1448      98.8090       0.2409 1533229777 9999999.9999
     938.0    1635.1744       0.0000    -154.6129    -999.2500     -30.6070      92.6645     -28.2986      92.6121       6.7638 1533229778 9999999.9999
     939.0    1616.3793       0.0000    -149.4404    -999.2500     -38.3592      85.5550     -36.0508      85.3481      12.8625 1533229779 9999999.9999
     940.0    1601.6515       0.0000    -144.8377    -999.2500     -45.7097      77.6422     -43.4013      77.2633      18.9674 1533229780 9999999.9999
     941.0    1590.7806       0.0000    -140.2253    -999.2500     -52.7790      68.4842     -50.4706      67.9063      25.0723 1533229781 9999999.9999
     942.0    1565.9799       0.0000    -131.9739    -999.2500     -66.6767      55.0685     -64.3683      54.1992      31.1710 1533229782 9999999.9999
     943.0    1552.1523       0.0000    -127.4476    -999.2500     -76.2363      48.4008     -73.9279      47.3867      37.2573 1533229783 9999999.9999
     944.0    1528.5327       0.0000    -122.8832    -999.2500     -84.9123      41.0503     -82.6039      39.8765      43.3622 1533229784 9999999.9999
     945.0    1499.2004       0.0000    -118.1616    -999.2500     -92.1423      33.6998     -89.8339      32.3663      49.4671 1533229785 9999999.9999
     946.0    1477.1533       0.0000    -112.6500    -999.2500     -98.1272      26.0280     -95.8187      24.5277      55.5658 1533229786 9999999.9999
     947.0    1455.7454       0.0000    -106.0862    -999.2500    -102.5857      18.1553    -100.2773      16.4840      61.6645 1533229787 9999999.9999
     948.0    1423.3300       0.0000     -98.7434      81.4507    -104.5137      10.4835    -102.2053       8.6455      67.7694 1533229788 9999999.9999
     949.0    1403.4431       0.0000     -90.0279      77.6743    -104.6342       2.0485    -102.3258       0.0272      73.8742 1533229789 9999999.9999
     950.0    1386.8344       0.0000     -81.5197      81.4722    -104.3128      -6.1857    -102.0044      -8.3858      80.3779 1533229790 9999999.9999
     951.0    1365.2913       0.0000     -73.9161      83.7428    -102.7865     -14.0985    -100.4781     -16.4706      86.4827 1533229791 9999999.9999
     952.0    1339.2858       0.0000     -67.4864    -999.2500     -99.0108     -21.7703     -96.7024     -24.3091      92.5751 1533229792 9999999.9999
     953.0    1321.6636       0.0000     -62.0318    -999.2500     -93.4678     -29.3618     -91.1594     -32.0656      98.6739 1533229793 9999999.9999
