~VERSION INFORMATION
VERS.           2.0   :CWLS Log ASCII Standard - VERSION 2.0
WRAP.           NO    :One Line per depth step
PROD.  Schlumberger   :LAS Producer
PROG.  DLIS to ASCII 19C2-270                          :LAS Program name and version
CREA.        2018/08/03 10:59                          :LAS Creation date {YYYY/MM/DD hh:mm}
DLIS_CREA.  2018-Aug-03 09:38                          :DLIS Creation date and time {YYYY-MMM-DD hh:mm}
SOURCE.     PERFO_Perfo_080PTP.DLIS                    :DLIS File Name
FILE-ID.     PERFO_Perfo_080PTP                        :File Identification Number
#--------------------------------------------------
~WELL INFORMATION
#MNEM.UNIT      DATA             DESCRIPTION
#---- ------ --------------   -----------------------------
STRT .S            0.0       :START TIME      
STOP .S          356.0       :STOP TIME      
STEP .S            1.0       :STEP     
NULL .          -999.25      :NULL VALUE
COMP .        SHELL INTERNATIONAL EP                   :COMPANY
WELL .        WPP TEST 4                               :WELL
FLD  .        WILDCAT                                  :FIELD
LOC  .        NA                                       :LOCATION
CNTY .        HARRIS                                   :COUNTY
STAT .        TEXAS                                    :STATE
CTRY .                                                 :COUNTRY
API  .        NA                                       :API NUMBER
UWI  .                                                 :UNIQUE WELL ID
DATE .        02-Aug-2018                              :LOG DATE {DD-MMM-YYYY}
SRVC .        Schlumberger                             :SERVICE COMPANY
LATI .DEG                                              :LATITUDE
LONG .DEG                                              :LONGITUDE
GDAT .                                                 :GeoDetic Datum
SECT .        NA                                       :Section
RANG .        NA                                       :Range
TOWN .        NA                                       :Township
#-----------------------------------------------------------------------------
~PARAMETER INFORMATION
#MNEM.UNIT    VALUE                      DESCRIPTION
#---- -----   --------------------       ------------------------
U-PHASE_B_COMP_PER_YT.                 0 :Phase B Comparator Period Yt
U-PHASE_A_COMP_PER_XT.                 0 :Phase A Comparator Period Xt
U-MAX_EXC_CUR_LIMIT.MA       265.00000   :Requested CM Current Limit
U-REQ_EXC_FQ.HZ              50          :Requested CM Frequency
U-TILT_Y_OFFSET.          -2.06578       :WPTET Tilt Y Offset
U-TILT_Y_GAIN.           1.02173         :WPTET Tilt Y Gain
U-TILT_X_OFFSET.           2.30841       :WPTET Tilt X Offset
U-TILT_X_GAIN.           1.00000         :WPTET Tilt X Gain
U-TILT_OFFSET_TOL.           0.00100     :WPTET Tilt Offset Calibration Tolerance
U-MOT_CUR_LIMIT_REQ.MA        70.00000   :Requested Motor Current Limit
U-MOT_SPD_REQ_WPMS.RPM        1.00000    :Requested Motor Speed
U-STD_TOL_TILT.           0.01000        :Tilt Standard Deviation Tolerance
CWEI .LB/F      29.00000                 :Casing Weight
CSIZ .IN         7.00000                 :Current Casing Size
LCC  .               440                 :Logging Company Code
LUN  .              2134                 :Logging Unit Number
HIDE .                                   :Header Identifier
HID1 .                                   :Header Identifier Line 1
R1   .                                   :Remark Line 1
WITN .        MR. KELLY McCOY            :Witness's Name
ENGI .        MORRIS MOORE               :Engineer's Name
LUL  .        IOWA COLONY                :Logging Unit Location
DATE .        02-Aug-2018                :Date as Month-Day-Year
STAT .        TEXAS                      :State or Province
COUN .        HARRIS                     :County or Rig Name
FN   .        WILDCAT                    :Field Name
WN   .        WPP TEST 4                 :Well Name
CN   .        SHELL INTERNATIONAL EP     :Company Name
CLAB .        County                     :County/Rig Label
SLAB .        State                      :State/Province Label
RUN  .          1                        :RUN NUMBER
PDAT .        GROUND LEVEL               :Permanent Datum
EPD  .                                   :Elevation of Permanent Datum above Mean Sea Level
LMF  .          NA                       :Logging Measured From (Name of Logging Elevation Reference)
APD  .                                   :Elevation of Depth Reference (LMF) above Permanent Datum
#-----------------------------------------------------------------------------
~CURVE INFORMATION
#MNEM.UNIT   API CODE                                  DESCRIPTION
#---- -----  --------                                  -----------------------
TIME .S                                                :TIME {F10.1}
FREQ_EMF_SL.HZ                                         :Electromagnetic Field Frequency {F13.4}
PH_SH_WPPCM_SL.DEG                                     :WPPCM Phase Shift {F13.4}
RB_SL.DEG                                              :Relative Bearing {F13.4}
SDEV_SL.DEG                                            :Sonde Deviation {F13.4}
RTIX_SL.DEG                                            :Raw X-axis Tilt {F13.4}
RTIY_SL.DEG                                            :Raw Y-axis Tilt {F13.4}
TILX_SL.DEG                                            :X-axis Tilt {F13.4}
TILY_SL.DEG                                            :Y-axis Tilt {F13.4}
ROTA_SL.DEG                                            :Motor Rotation Angle {F13.4}
TOD7 .S                                                :Time of Day {I11}
TOJ  .S                                                :Time of Job {F13.4}
#-----------------------------------------------------------------------------
# 
#     TIME    FREQ_EMF_SL  PH_SH_WPPCM_    RB_SL       SDEV_SL      RTIX_SL      RTIY_SL      TILX_SL      TILY_SL      ROTA_SL        TOD7            TOJ
#                          SL
~A  
# ...
     212.0    1821.5673       0.0000      40.7444    -999.2500      50.2887     -63.7847      52.5971     -67.2363     197.4208 1533244824 9999999.9999
     213.0    1980.6338       0.0000      50.3017    -999.2500      70.5728     -49.3648      72.8812     -52.5032     203.9246 1533244825 9999999.9999
     214.0    2111.4866       0.0000      54.1635    -999.2500      79.9317     -42.6972      82.2401     -45.6906     210.0295 1533244826 9999999.9999
     215.0    2225.0791       0.0000      57.9301    -999.2500      87.2822     -35.9492      89.5906     -38.7960     216.1345 1533244827 9999999.9999
     216.0    2335.9634       0.0000      62.3130    -999.2500      93.7892     -28.7593      96.0976     -31.4500     222.2333 1533244828 9999999.9999
     217.0    2399.7441       0.0000      67.3759    -999.2500      98.2477     -21.6498     100.5561     -24.1860     228.3322 1533244829 9999999.9999
     218.0    2493.3511       0.0000      73.5897    -999.2500     100.6978     -14.2993     103.0062     -16.6758     234.4433 1533244830 9999999.9999
     219.0    2484.5405       0.0000      81.8714      78.8983     101.4208      -5.7840     103.7292      -7.9754     240.5421 1533244831 9999999.9999
     220.0    2484.5405       0.0000      90.8745      75.8554     101.8627       2.8518     104.1711       0.8480     246.6409 1533244832 9999999.9999
     221.0    2484.5405       0.0000      99.4130      79.7396     101.5815      11.0860     103.8899       9.2611     252.7592 1533244833 9999999.9999
     222.0    2493.3511       0.0000     106.9509     100.0002      99.0510      19.0390     101.3594      17.3869     258.8640 1533244834 9999999.9999
     223.0    2484.5405       0.0000     113.4137    -999.2500      94.3917      26.9518      96.7001      25.4716     264.9626 1533244835 9999999.9999
     224.0    2475.7922       0.0000     118.6960    -999.2500      88.1658      34.5032      90.4742      33.1870     271.0745 1533244836 9999999.9999
     225.0    2484.5405       0.0000     123.3882    -999.2500      80.7350      42.0143      83.0434      40.8614     277.5842 1533244837 9999999.9999
     226.0    2475.7922       0.0000     127.7745    -999.2500      71.8582      49.2042      74.1666      48.2075     283.6889 1533244838 9999999.9999
     227.0    2484.5405       0.0000     132.7483    -999.2500      60.0090      55.7915      62.3174      54.9379     289.7875 1533244839 9999999.9999
     228.0    2484.5405       0.0000     140.2210    -999.2500      50.2887      73.0632      52.5971      72.5848     295.8922 1533244840 9999999.9999
     229.0    2484.5405       0.0000     144.1094    -999.2500      43.4202      81.9802      45.7286      81.6956     302.0100 1533244841 9999999.9999
     230.0    2484.5405       0.0000     148.1198    -999.2500      36.1500      89.6520      38.4584      89.5341     308.1086 1533244842 9999999.9999
     231.0    2493.3511       0.0000     152.9726    -999.2500      28.1167      96.8820      30.4251      96.9212     314.2072 1533244843 9999999.9999
     232.0    2493.3511       0.0000     158.7691    -999.2500      20.0030     102.1037      22.3114     102.2563     320.3120 1533244844 9999999.9999
     233.0    2458.4790       0.0000     165.5656      84.1824      12.0500     105.3170      14.3584     105.5395     326.4298 1533244845 9999999.9999
     234.0    2383.4746       0.0000     173.6927      74.7401       3.7757     106.2408       6.0841     106.4834     332.5284 1533244846 9999999.9999
     235.0    2290.3093       0.0000    -177.7575      73.5000      -4.4585     106.4015      -2.1501     106.6475     338.6270 1533244847 9999999.9999
     236.0    2176.8577       0.0000    -169.4611      79.0261     -12.6525     104.9555     -10.3441     105.1701     344.7317 1533244848 9999999.9999
     237.0    2026.2969       0.0000    -161.9189      81.9695     -21.0072     100.7782     -18.6988     100.9020     351.2414 1533244849 9999999.9999
     238.0    1865.0531       0.0000    -155.5838    -999.2500     -29.2012      94.8737     -26.8928      94.8692     357.3400 1533244850 9999999.9999
     239.0    1690.2042       0.0000    -150.1601    -999.2500     -37.2747      87.6838     -34.9663      87.5232       3.4448 1533244851 9999999.9999
     240.0    1496.0106       0.0000    -145.4965    -999.2500     -44.8260      79.8112     -42.5176      79.4795       9.5497 1533244852 9999999.9999
     241.0    1253.3423       0.0000    -141.0630    -999.2500     -51.8953      70.9745     -49.5869      70.4508      15.6484 1533244853 9999999.9999
     242.0    1058.9232       0.0000    -133.4620    -999.2500     -63.7847      57.1973     -61.4763      56.3743      21.7472 1533244854 9999999.9999
     243.0     921.5269       0.0000    -128.3329    -999.2500     -75.1518      50.0477     -72.8434      49.0693      27.8521 1533244855 9999999.9999
     244.0     810.0518       0.0000    -124.2188    -999.2500     -83.4262      43.3398     -81.1178      42.2157      33.9570 1533244856 9999999.9999
     245.0     695.4748       0.0000    -119.6888    -999.2500     -90.8570      36.0295     -88.5486      34.7465      40.0557 1533244857 9999999.9999
     246.0     594.3575       0.0000    -114.3156    -999.2500     -97.4845      28.1970     -95.1761      26.7439      46.1675 1533244858 9999999.9999
     247.0     519.2947       0.0000    -107.8417    -999.2500    -102.7463      20.0833    -100.4379      18.4539      52.2854 1533244859 9999999.9999
     248.0     455.3918       0.0000    -100.4763      81.8427    -105.5580      12.1705    -103.2496      10.3692      58.3903 1533244860 9999999.9999
     249.0     412.1483       0.0000     -92.1811      76.4394    -106.0400       4.0970    -103.7316       2.1202      64.8817 1533244861 9999999.9999
     250.0     378.8389       0.0000     -83.4009      78.1152    -105.8793      -4.2978    -103.5709      -6.4570      70.9866 1533244862 9999999.9999
     251.0     349.9875       0.0000     -75.2841      88.7246    -104.5940     -12.5320    -102.2856     -14.8701      77.1045 1533244863 9999999.9999
     252.0     331.0381       0.0000     -68.5279    -999.2500    -101.1397     -20.3645     -98.8313     -22.8727      83.2032 1533244864 9999999.9999
     253.0     318.5886       0.0000     -62.8200    -999.2500     -95.7573     -28.1568     -93.4489     -30.8344      89.3019 1533244865 9999999.9999
     254.0     309.3379       0.0000     -58.0284    -999.2500     -89.0897     -35.7082     -86.7813     -38.5498      95.4068 1533244866 9999999.9999
     255.0     310.5676       0.0000     -53.5721    -999.2500     -81.1367     -43.3800     -78.8283     -46.3883     101.5116 1533244867 9999999.9999
     256.0     319.8931       0.0000     -49.5250    -999.2500     -72.3402     -50.1682     -70.0318     -53.3240     107.6234 1533244868 9999999.9999
     257.0     333.3926       0.0000     -43.7340    -999.2500     -58.4827     -56.9563     -56.1743     -60.2596     113.7221 1533244869 9999999.9999
     258.0     358.7372       0.0000     -36.6822    -999.2500     -49.3247     -75.4330     -47.0163     -79.1377     119.8270 1533244870 9999999.9999
     259.0     390.6250       0.0000     -32.6765    -999.2500     -42.1750     -84.0688     -39.8666     -87.9612     125.9194 1533244871 9999999.9999
     260.0     431.8950       0.0000     -28.4829    -999.2500     -35.0253     -90.9775     -32.7169     -95.0200     132.0059 1533244872 9999999.9999
     261.0     485.2484       0.0000     -23.5075    -999.2500     -27.6347     -96.2795     -25.3263    -100.4372     138.5158 1533244873 9999999.9999
     262.0     546.3287       0.0000     -17.6772    -999.2500     -20.3243     -99.7338     -18.0159    -103.9666     144.6207 1533244874 9999999.9999
     263.0     621.6843       0.0000     -10.8647      79.0737     -12.9738    -101.0995     -10.6654    -105.3619     150.7071 1533244875 9999999.9999
     264.0     712.3860       0.0000      -2.2221      75.3769      -4.4585    -100.5372      -2.1501    -104.7873     156.8059 1533244876 9999999.9999
