~VERSION INFORMATION
VERS.           2.0   :CWLS Log ASCII Standard - VERSION 2.0
WRAP.           NO    :One Line per depth step
PROD.  Schlumberger   :LAS Producer
PROG.  DLIS to ASCII 19C2-270                          :LAS Program name and version
CREA.        2018/08/03 10:59                          :LAS Creation date {YYYY/MM/DD hh:mm}
DLIS_CREA.  2018-Aug-03 08:58                          :DLIS Creation date and time {YYYY-MMM-DD hh:mm}
SOURCE.     PERFO_Perfo_064PTP.DLIS                    :DLIS File Name
FILE-ID.     PERFO_Perfo_064PTP                        :File Identification Number
#--------------------------------------------------
~WELL INFORMATION
#MNEM.UNIT      DATA             DESCRIPTION
#---- ------ --------------   -----------------------------
STRT .S            0.0       :START TIME      
STOP .S          966.0       :STOP TIME      
STEP .S            1.0       :STEP     
NULL .          -999.25      :NULL VALUE
COMP .        SHELL INTERNATIONAL EP                   :COMPANY
WELL .        WPP TEST 4                               :WELL
FLD  .        WILDCAT                                  :FIELD
LOC  .        NA                                       :LOCATION
CNTY .        HARRIS                                   :COUNTY
STAT .        TEXAS                                    :STATE
CTRY .                                                 :COUNTRY
API  .        NA                                       :API NUMBER
UWI  .                                                 :UNIQUE WELL ID
DATE .        02-Aug-2018                              :LOG DATE {DD-MMM-YYYY}
SRVC .        Schlumberger                             :SERVICE COMPANY
LATI .DEG                                              :LATITUDE
LONG .DEG                                              :LONGITUDE
GDAT .                                                 :GeoDetic Datum
SECT .        NA                                       :Section
RANG .        NA                                       :Range
TOWN .        NA                                       :Township
#-----------------------------------------------------------------------------
~PARAMETER INFORMATION
#MNEM.UNIT    VALUE                      DESCRIPTION
#---- -----   --------------------       ------------------------
U-PHASE_B_COMP_PER_YT.                 0 :Phase B Comparator Period Yt
U-PHASE_A_COMP_PER_XT.                 0 :Phase A Comparator Period Xt
U-MAX_EXC_CUR_LIMIT.MA       265.00000   :Requested CM Current Limit
U-REQ_EXC_FQ.HZ              50          :Requested CM Frequency
U-TILT_Y_OFFSET.          -2.06578       :WPTET Tilt Y Offset
U-TILT_Y_GAIN.           1.02173         :WPTET Tilt Y Gain
U-TILT_X_OFFSET.           2.30841       :WPTET Tilt X Offset
U-TILT_X_GAIN.           1.00000         :WPTET Tilt X Gain
U-TILT_OFFSET_TOL.           0.00100     :WPTET Tilt Offset Calibration Tolerance
U-MOT_CUR_LIMIT_REQ.MA        70.00000   :Requested Motor Current Limit
U-MOT_SPD_REQ_WPMS.RPM        1.00000    :Requested Motor Speed
U-STD_TOL_TILT.           0.01000        :Tilt Standard Deviation Tolerance
CWEI .LB/F      29.00000                 :Casing Weight
CSIZ .IN         7.00000                 :Current Casing Size
LCC  .               440                 :Logging Company Code
LUN  .              2134                 :Logging Unit Number
HIDE .                                   :Header Identifier
HID1 .                                   :Header Identifier Line 1
R1   .                                   :Remark Line 1
WITN .        MR. KELLY McCOY            :Witness's Name
ENGI .        MORRIS MOORE               :Engineer's Name
LUL  .        IOWA COLONY                :Logging Unit Location
DATE .        02-Aug-2018                :Date as Month-Day-Year
STAT .        TEXAS                      :State or Province
COUN .        HARRIS                     :County or Rig Name
FN   .        WILDCAT                    :Field Name
WN   .        WPP TEST 4                 :Well Name
CN   .        SHELL INTERNATIONAL EP     :Company Name
CLAB .        County                     :County/Rig Label
SLAB .        State                      :State/Province Label
RUN  .          1                        :RUN NUMBER
PDAT .        GROUND LEVEL               :Permanent Datum
EPD  .                                   :Elevation of Permanent Datum above Mean Sea Level
LMF  .          NA                       :Logging Measured From (Name of Logging Elevation Reference)
APD  .                                   :Elevation of Depth Reference (LMF) above Permanent Datum
#-----------------------------------------------------------------------------
~CURVE INFORMATION
#MNEM.UNIT   API CODE                                  DESCRIPTION
#---- -----  --------                                  -----------------------
TIME .S                                                :TIME {F10.1}
FREQ_EMF_SL.HZ                                         :Electromagnetic Field Frequency {F13.4}
PH_SH_WPPCM_SL.DEG                                     :WPPCM Phase Shift {F13.4}
RB_SL.DEG                                              :Relative Bearing {F13.4}
SDEV_SL.DEG                                            :Sonde Deviation {F13.4}
RTIX_SL.DEG                                            :Raw X-axis Tilt {F13.4}
RTIY_SL.DEG                                            :Raw Y-axis Tilt {F13.4}
TILX_SL.DEG                                            :X-axis Tilt {F13.4}
TILY_SL.DEG                                            :Y-axis Tilt {F13.4}
ROTA_SL.DEG                                            :Motor Rotation Angle {F13.4}
TOD7 .S                                                :Time of Day {I11}
TOJ  .S                                                :Time of Job {F13.4}
#-----------------------------------------------------------------------------
# 
#     TIME    FREQ_EMF_SL  PH_SH_WPPCM_    RB_SL       SDEV_SL      RTIX_SL      RTIY_SL      TILX_SL      TILY_SL      ROTA_SL        TOD7            TOJ
#                          SL
~A  
# ...
      53.0    1096.9188       0.0000     129.8221    -999.2500      66.3553      51.8953      68.6637      50.9571      91.2189 1533232056 9999999.9999
      54.0    1065.3409       0.0000     138.4686    -999.2500      52.5782      68.0423      54.8866      67.4549      97.3177 1533232057 9999999.9999
      55.0    1030.9751       0.0000     142.5282    -999.2500      46.0712      77.6020      48.3796      77.2223     103.4164 1533232058 9999999.9999
      56.0    1005.9013       0.0000     146.3361    -999.2500      39.2830      85.5550      41.5914      85.3481     109.5212 1533232059 9999999.9999
      57.0     982.0181       0.0000     150.5596    -999.2500      32.0128      92.6243      34.3212      92.5710     115.6261 1533232060 9999999.9999
      58.0     964.5062       0.0000     155.6224    -999.2500      24.3008      98.6493      26.6092      98.7269     122.1297 1533232061 9999999.9999
      59.0     948.8867       0.0000     161.7927    -999.2500      16.3880     102.7865      18.6964     102.9540     128.2346 1533232062 9999999.9999
      60.0     945.0605       0.0000     168.9295      80.1142       8.5957     104.5940      10.9041     104.8008     134.3526 1533232063 9999999.9999
      61.0     935.0067       0.0000     177.4418      74.8340       0.1607     105.1563       2.4691     105.3753     140.4392 1533232064 9999999.9999
      62.0     935.0067       0.0000    -173.9716      75.8742      -8.1538     105.1162      -5.8454     105.3343     146.5380 1533232065 9999999.9999
      63.0     938.7516       0.0000    -166.3365      87.9116     -16.0265     102.5455     -13.7181     102.7077     152.6305 1533232066 9999999.9999
      64.0     947.9272       0.0000    -159.0261    -999.2500     -24.6423      97.5146     -22.3338      97.5676     158.7363 1533232067 9999999.9999
      65.0     959.2429       0.0000    -153.0818    -999.2500     -32.8162      91.0578     -30.5078      90.9705     164.8351 1533232068 9999999.9999
      66.0     977.9207       0.0000    -148.0502    -999.2500     -40.5683      83.4262     -38.2599      83.1730     170.9470 1533232069 9999999.9999
      67.0    1005.9013       0.0000    -143.5094    -999.2500     -47.8787      75.3125     -45.5703      74.8830     177.0519 1533232070 9999999.9999
      68.0    1034.0073       0.0000    -138.6199    -999.2500     -55.1087      65.3512     -52.8003      64.7053     183.1569 1533232071 9999999.9999
      69.0    1060.5204       0.0000    -130.5895    -999.2500     -69.7695      53.2208     -67.4611      52.3114     189.2435 1533232072 9999999.9999
      70.0    1098.6328       0.0000    -126.1649    -999.2500     -78.9677      46.3925     -76.6593      45.3347     195.3300 1533232073 9999999.9999
      71.0    1145.1547       0.0000    -121.8967    -999.2500     -86.7600      39.4838     -84.4516      38.2759     201.8461 1533232074 9999999.9999
      72.0    1185.7083       0.0000    -117.0136    -999.2500     -93.6687      32.0128     -91.3603      30.6426     207.9449 1533232075 9999999.9999
      73.0    1242.2703       0.0000    -111.3032    -999.2500     -99.4527      24.3008     -97.1442      22.7630     214.0437 1533232076 9999999.9999
      74.0    1299.6765       0.0000    -104.5498    -999.2500    -103.3087      16.4683    -101.0003      14.7604     220.1487 1533232077 9999999.9999
      75.0    1367.9475       0.0000     -96.7847      79.7337    -104.5940       8.5555    -102.2856       6.6756     226.2667 1533232078 9999999.9999
      76.0    1449.7422       0.0000     -88.0121      77.7518    -104.7145       0.1205    -102.4061      -1.9427     232.3655 1533232079 9999999.9999
      77.0    1541.9408       0.0000     -79.0307      85.1937    -104.2727      -8.6760    -101.9642     -10.9303     238.4776 1533232080 9999999.9999
      78.0    1623.8453       0.0000     -71.9176    -999.2500    -102.1037     -16.3478     -99.7952     -18.7688     244.5834 1533232081 9999999.9999
      79.0    1706.6141       0.0000     -65.6292    -999.2500     -97.6050     -24.2205     -95.2966     -26.8125     250.6883 1533232082 9999999.9999
      80.0    1793.6862       0.0000     -60.5309    -999.2500     -91.7808     -31.6513     -89.4724     -34.4048     256.7871 1533232083 9999999.9999
      81.0    1870.0133       0.0000     -56.1334    -999.2500     -84.7918     -38.8010     -82.4834     -41.7098     262.8988 1533232084 9999999.9999
      82.0    1953.1250       0.0000     -52.0126    -999.2500     -76.6782     -45.7097     -74.3698     -48.7686     269.0035 1533232085 9999999.9999
      83.0    2061.9502       0.0000     -47.6370    -999.2500     -66.8373     -52.2167     -64.5289     -55.4170     275.5132 1533232086 9999999.9999
      84.0    2246.4058       0.0000     -38.4697    -999.2500     -51.8552     -69.6892     -49.5468     -73.2691     281.6118 1533232087 9999999.9999
      85.0    2424.5691       0.0000     -34.4025    -999.2500     -45.1072     -79.0480     -42.7988     -82.8313     287.7166 1533232088 9999999.9999
      86.0    2475.7922       0.0000     -30.3332    -999.2500     -38.1182     -86.6797     -35.8098     -90.6288     293.8213 1533232089 9999999.9999
      87.0    2493.3511       0.0000     -25.7765    -999.2500     -30.9685     -92.6243     -28.6601     -96.7026     299.9199 1533232090 9999999.9999
      88.0    2493.3511       0.0000     -20.4727    -999.2500     -23.8188     -96.6812     -21.5104    -100.8475     306.0185 1533232091 9999999.9999
      89.0    2475.7922       0.0000     -13.6109      84.6402     -15.9462     -98.9305     -13.6378    -103.1458     312.1232 1533232092 9999999.9999
      90.0    2484.5405       0.0000      -5.9431      77.6570      -8.1137     -99.4527      -5.8053    -103.6793     318.2280 1533232093 9999999.9999
      91.0    2493.3511       0.0000       3.0294      76.9490       0.6427     -99.1715       2.9511    -103.3920     324.3264 1533232094 9999999.9999
      92.0    2493.3511       0.0000      11.2108      83.8322       8.8367     -98.5690      11.1451    -102.7764     330.4189 1533232095 9999999.9999
      93.0    2475.7922       0.0000      17.7090    -999.2500      15.9863     -96.4000      18.2947    -100.5603     336.5113 1533232096 9999999.9999
      94.0    2493.3511       0.0000      23.2478    -999.2500      22.9753     -92.1022      25.2837     -96.1691     342.6099 1533232097 9999999.9999
      95.0    2484.5405       0.0000      27.9164    -999.2500      29.6832     -86.8002      31.9916     -90.7519     349.1012 1533232098 9999999.9999
      96.0    2493.3511       0.0000      32.1085    -999.2500      36.3107     -80.2530      38.6191     -84.0625     355.1937 1533232099 9999999.9999
      97.0    2351.5886       0.0000      36.1357    -999.2500      42.8177     -72.4205      45.1261     -76.0598       1.2984 1533232100 9999999.9999
      98.0    2190.4207       0.0000      40.7988    -999.2500      49.2443     -61.7362      51.5527     -65.1433       7.3972 1533232101 9999999.9999
      99.0    2068.0146       0.0000      50.9688    -999.2500      70.4523     -47.6377      72.7607     -50.7385      13.4959 1533232102 9999999.9999
     100.0    1953.1250       0.0000      54.8086    -999.2500      79.4095     -41.2913      81.7179     -44.2543      19.6008 1533232103 9999999.9999
     101.0    1875.0000       0.0000      58.9641    -999.2500      87.0813     -34.1818      89.3897     -36.9903      25.7057 1533232104 9999999.9999
     102.0    1793.6862       0.0000      63.3289    -999.2500      92.9457     -27.3535      95.2541     -30.0136      31.8051 1533232105 9999999.9999
     103.0    1714.9390       0.0000      68.5682    -999.2500      97.0025     -20.2842      99.3109     -22.7907      37.8977 1533232106 9999999.9999
     104.0    1642.8153       0.0000      74.8787    -999.2500      99.0510     -13.0140     101.3594     -15.3625      44.0025 1533232107 9999999.9999
     105.0    1552.1523       0.0000      82.9411      79.9221      99.9748      -4.7798     102.2832      -6.9495      50.1143 1533232108 9999999.9999
