~VERSION INFORMATION
VERS.           2.0   :CWLS Log ASCII Standard - VERSION 2.0
WRAP.           NO    :One Line per depth step
PROD.  Schlumberger   :LAS Producer
PROG.  DLIS to ASCII 19C2-270                          :LAS Program name and version
CREA.        2018/08/03 10:59                          :LAS Creation date {YYYY/MM/DD hh:mm}
DLIS_CREA.  2018-Aug-03 09:55                          :DLIS Creation date and time {YYYY-MMM-DD hh:mm}
SOURCE.     PERFO_Perfo_092PTP.DLIS                    :DLIS File Name
FILE-ID.     PERFO_Perfo_092PTP                        :File Identification Number
#--------------------------------------------------
~WELL INFORMATION
#MNEM.UNIT      DATA             DESCRIPTION
#---- ------ --------------   -----------------------------
STRT .S            0.0       :START TIME      
STOP .S          161.0       :STOP TIME      
STEP .S            1.0       :STEP     
NULL .          -999.25      :NULL VALUE
COMP .        SHELL INTERNATIONAL EP                   :COMPANY
WELL .        WPP TEST 4                               :WELL
FLD  .        WILDCAT                                  :FIELD
LOC  .        NA                                       :LOCATION
CNTY .        HARRIS                                   :COUNTY
STAT .        TEXAS                                    :STATE
CTRY .                                                 :COUNTRY
API  .        NA                                       :API NUMBER
UWI  .                                                 :UNIQUE WELL ID
DATE .        02-Aug-2018                              :LOG DATE {DD-MMM-YYYY}
SRVC .        Schlumberger                             :SERVICE COMPANY
LATI .DEG                                              :LATITUDE
LONG .DEG                                              :LONGITUDE
GDAT .                                                 :GeoDetic Datum
SECT .        NA                                       :Section
RANG .        NA                                       :Range
TOWN .        NA                                       :Township
#-----------------------------------------------------------------------------
~PARAMETER INFORMATION
#MNEM.UNIT    VALUE                      DESCRIPTION
#---- -----   --------------------       ------------------------
U-PHASE_B_COMP_PER_YT.                 0 :Phase B Comparator Period Yt
U-PHASE_A_COMP_PER_XT.                 0 :Phase A Comparator Period Xt
U-MAX_EXC_CUR_LIMIT.MA       265.00000   :Requested CM Current Limit
U-REQ_EXC_FQ.HZ              50          :Requested CM Frequency
U-TILT_Y_OFFSET.          -2.06578       :WPTET Tilt Y Offset
U-TILT_Y_GAIN.           1.02173         :WPTET Tilt Y Gain
U-TILT_X_OFFSET.           2.30841       :WPTET Tilt X Offset
U-TILT_X_GAIN.           1.00000         :WPTET Tilt X Gain
U-TILT_OFFSET_TOL.           0.00100     :WPTET Tilt Offset Calibration Tolerance
U-MOT_CUR_LIMIT_REQ.MA        70.00000   :Requested Motor Current Limit
U-MOT_SPD_REQ_WPMS.RPM        1.00000    :Requested Motor Speed
U-STD_TOL_TILT.           0.01000        :Tilt Standard Deviation Tolerance
CWEI .LB/F      29.00000                 :Casing Weight
CSIZ .IN         7.00000                 :Current Casing Size
LCC  .               440                 :Logging Company Code
LUN  .              2134                 :Logging Unit Number
HIDE .                                   :Header Identifier
HID1 .                                   :Header Identifier Line 1
R1   .                                   :Remark Line 1
WITN .        MR. KELLY McCOY            :Witness's Name
ENGI .        MORRIS MOORE               :Engineer's Name
LUL  .        IOWA COLONY                :Logging Unit Location
DATE .        02-Aug-2018                :Date as Month-Day-Year
STAT .        TEXAS                      :State or Province
COUN .        HARRIS                     :County or Rig Name
FN   .        WILDCAT                    :Field Name
WN   .        WPP TEST 4                 :Well Name
CN   .        SHELL INTERNATIONAL EP     :Company Name
CLAB .        County                     :County/Rig Label
SLAB .        State                      :State/Province Label
RUN  .          1                        :RUN NUMBER
PDAT .        GROUND LEVEL               :Permanent Datum
EPD  .                                   :Elevation of Permanent Datum above Mean Sea Level
LMF  .          NA                       :Logging Measured From (Name of Logging Elevation Reference)
APD  .                                   :Elevation of Depth Reference (LMF) above Permanent Datum
#-----------------------------------------------------------------------------
~CURVE INFORMATION
#MNEM.UNIT   API CODE                                  DESCRIPTION
#---- -----  --------                                  -----------------------
TIME .S                                                :TIME {F10.1}
FREQ_EMF_SL.HZ                                         :Electromagnetic Field Frequency {F13.4}
PH_SH_WPPCM_SL.DEG                                     :WPPCM Phase Shift {F13.4}
RB_SL.DEG                                              :Relative Bearing {F13.4}
SDEV_SL.DEG                                            :Sonde Deviation {F13.4}
RTIX_SL.DEG                                            :Raw X-axis Tilt {F13.4}
RTIY_SL.DEG                                            :Raw Y-axis Tilt {F13.4}
TILX_SL.DEG                                            :X-axis Tilt {F13.4}
TILY_SL.DEG                                            :Y-axis Tilt {F13.4}
ROTA_SL.DEG                                            :Motor Rotation Angle {F13.4}
TOD7 .S                                                :Time of Day {I11}
TOJ  .S                                                :Time of Job {F13.4}
#-----------------------------------------------------------------------------
# 
#     TIME    FREQ_EMF_SL  PH_SH_WPPCM_    RB_SL       SDEV_SL      RTIX_SL      RTIY_SL      TILX_SL      TILY_SL      ROTA_SL        TOD7            TOJ
#                          SL
~A  
# ...
      53.0    1900.3378       0.0000     -22.9065    -999.2500     -26.7912     -97.0828     -24.4828    -101.2579     177.5056 1533251901 9999999.9999
      54.0    2026.2969       0.0000     -16.9657    -999.2500     -19.4808    -100.3363     -17.1724    -104.5821     183.6105 1533251902 9999999.9999
      55.0    2137.1582       0.0000      -9.3300      77.2775     -11.4073    -101.4610      -9.0989    -105.7312     189.6971 1533251903 9999999.9999
      56.0    2232.1428       0.0000      -0.9396      74.3784      -3.2133    -101.3807      -0.9049    -105.6492     195.7959 1533251904 9999999.9999
      57.0    2305.3279       0.0000       8.3816      77.2274       5.8643    -100.9790       8.1727    -105.2388     201.9140 1533251905 9999999.9999
      58.0    2367.4243       0.0000      15.7690      91.5499      13.6165     -99.4527      15.9249    -103.6793     208.0320 1533251906 9999999.9999
      59.0    2424.5691       0.0000      22.2720    -999.2500      21.4892     -95.7172      23.7976     -99.8626     214.1308 1533251907 9999999.9999
      60.0    2441.4063       0.0000      27.3613    -999.2500      28.7593     -90.2545      31.0677     -94.2813     220.2429 1533251908 9999999.9999
      61.0    2441.4063       0.0000      31.5323    -999.2500      35.5073     -83.9082      37.8157     -87.7970     226.3479 1533251909 9999999.9999
      62.0    2449.9128       0.0000      35.7736    -999.2500      42.8177     -75.8748      45.1261     -79.5892     232.4528 1533251910 9999999.9999
      63.0    2441.4063       0.0000      39.8035    -999.2500      49.2042     -66.4357      51.5126     -69.9449     238.5517 1533251911 9999999.9999
      64.0    2441.4063       0.0000      49.3837    -999.2500      68.4440     -50.8912      70.7524     -54.0627     245.0616 1533251912 9999999.9999
      65.0    2441.4063       0.0000      53.4821    -999.2500      78.7267     -43.9825      81.0351     -47.0039     251.1665 1533251913 9999999.9999
      66.0    2441.4063       0.0000      57.2689    -999.2500      86.4387     -37.1140      88.7471     -39.9862     257.2653 1533251914 9999999.9999
      67.0    2458.4790       0.0000      61.1724    -999.2500      92.5842     -30.5267      94.8926     -33.2557     263.3639 1533251915 9999999.9999
      68.0    2441.4063       0.0000      66.2202    -999.2500      97.8460     -23.1360     100.1544     -25.7045     269.4687 1533251916 9999999.9999
      69.0    2449.9128       0.0000      72.2341    -999.2500     100.6577     -15.7855     102.9661     -18.1943     275.5734 1533251917 9999999.9999
      70.0    2391.5815       0.0000      80.4265      79.5025     101.8627      -7.1898     104.1711      -9.4118     281.6720 1533251918 9999999.9999
      71.0    2367.4243       0.0000      89.1376      75.4120     102.3045       1.2050     104.6129      -0.8346     287.7706 1533251919 9999999.9999
      72.0    2282.8735       0.0000      98.6523      78.6322     101.9430      10.3228     104.2514       8.4813     293.8692 1533251920 9999999.9999
      73.0    2204.1536       0.0000     105.8206      94.2302      99.9748      17.7537     102.2832      16.0736     299.9811 1533251921 9999999.9999
      74.0    2124.2446       0.0000     112.1415    -999.2500      95.9180      25.2648      98.2264      23.7480     306.0797 1533251922 9999999.9999
      75.0    2020.4741       0.0000     117.8780    -999.2500      89.6922      33.2580      92.0006      31.9148     312.1906 1533251923 9999999.9999
      76.0    1910.6658       0.0000     122.6586    -999.2500      82.5425      40.8495      84.8509      39.6713     318.6941 1533251924 9999999.9999
      77.0    1793.6862       0.0000     127.0632    -999.2500      73.7460      48.1598      76.0544      47.1404     324.7927 1533251925 9999999.9999
      78.0    1670.1307       0.0000     131.7186    -999.2500      63.2223      55.1087      65.5307      54.2402     330.8913 1533251926 9999999.9999
      79.0    1541.9408       0.0000     139.5242    -999.2500      51.4937      71.5368      53.8021      71.0254     336.9960 1533251927 9999999.9999
      80.0    1365.2913       0.0000     143.5148    -999.2500      44.5448      80.8957      46.8532      80.5875     343.1008 1533251928 9999999.9999
      81.0    1240.0793       0.0000     147.1745    -999.2500      37.8370      88.2462      40.1454      88.0977     349.1994 1533251929 9999999.9999
      82.0    1154.5566       0.0000     152.1400    -999.2500      29.4020      96.0385      31.7104      96.0594     355.2980 1533251930 9999999.9999
      83.0    1068.5791       0.0000     157.4002    -999.2500      21.7703     101.3003      24.0787     101.4355       1.4027 1533251931 9999999.9999
      84.0     983.3916       0.0000     164.2700      83.7262      13.4558     105.0760      15.7642     105.2932       7.4952 1533251932 9999999.9999
      85.0     897.9885       0.0000     171.9719      75.5090       5.4627     106.2810       7.7711     106.5244      13.5939 1533251933 9999999.9999
      86.0     839.0513       0.0000    -179.5161      73.1130      -2.7715     106.6425      -0.4631     106.8938      19.6927 1533251934 9999999.9999
      87.0     788.2567       0.0000    -171.1009      76.6601     -10.9655     105.7588      -8.6571     105.9909      25.8037 1533251935 9999999.9999
      88.0     743.2610       0.0000    -163.5158      93.9277     -19.1193     102.0635     -16.8109     102.2153      32.2951 1533251936 9999999.9999
      89.0     718.2073       0.0000    -156.8619    -999.2500     -27.4338      96.4402     -25.1254      96.4698      38.4069 1533251937 9999999.9999
      90.0     683.3090       0.0000    -151.3999    -999.2500     -35.3467      89.6118     -33.0383      89.4931      44.4993 1533251938 9999999.9999
      91.0     667.7350       0.0000    -146.6257    -999.2500     -43.0185      82.2212     -40.7101      81.9418      50.6042 1533251939 9999999.9999
      92.0     652.8552       0.0000    -142.2636    -999.2500     -50.1280      73.7058     -47.8196      73.2415      56.6907 1533251940 9999999.9999
      93.0     648.0415       0.0000    -137.3455    -999.2500     -57.1973      63.3027     -54.8889      62.6123      62.7894 1533251941 9999999.9999
      94.0     639.2046       0.0000    -129.6095    -999.2500     -72.6615      52.1363     -70.3531      51.2033      68.8951 1533251942 9999999.9999
      95.0     632.3067       0.0000    -125.3895    -999.2500     -81.3777      45.3080     -79.0693      44.2266      74.9999 1533251943 9999999.9999
      96.0     637.4660       0.0000    -121.0602    -999.2500     -89.0093      38.1985     -86.7009      36.9627      81.1117 1533251944 9999999.9999
      97.0     643.8874       0.0000    -116.0831    -999.2500     -95.8778      30.6472     -93.5694      29.2473      87.2104 1533251945 9999999.9999
      98.0     656.5126       0.0000    -110.0860    -999.2500    -101.4610      22.7343     -99.1526      21.1625      93.3030 1533251946 9999999.9999
      99.0     676.0817       0.0000    -102.9493      83.4441    -105.1563      14.7010    -102.8479      12.9546      99.4209 1533251947 9999999.9999
     100.0     700.3237       0.0000     -94.9561      77.0056    -106.2007       6.7480    -103.8923       4.8288     105.9246 1533251948 9999999.9999
     101.0     730.1402       0.0000     -86.2713      76.4829    -106.3212      -1.5263    -104.0127      -3.6253     112.0294 1533251949 9999999.9999
     102.0     767.6037       0.0000     -77.8628      84.4468    -105.6383      -9.8007    -103.3299     -12.0794     118.1343 1533251950 9999999.9999
     103.0     807.2617       0.0000     -70.7467    -999.2500    -102.8668     -17.6332    -100.5584     -20.0821     124.2460 1533251951 9999999.9999
     104.0     875.6227       0.0000     -65.0818    -999.2500     -98.4485     -24.9033     -96.1401     -27.5102     130.3325 1533251952 9999999.9999
     105.0     951.4547       0.0000     -59.5239    -999.2500     -91.6202     -33.2580     -89.3118     -36.0464     136.4375 1533251953 9999999.9999
