~VERSION INFORMATION
VERS.           2.0   :CWLS Log ASCII Standard - VERSION 2.0
WRAP.           NO    :One Line per depth step
PROD.  Schlumberger   :LAS Producer
PROG.  DLIS to ASCII 19C2-270                          :LAS Program name and version
CREA.        2018/08/03 10:59                          :LAS Creation date {YYYY/MM/DD hh:mm}
DLIS_CREA.  2018-Aug-03 08:53                          :DLIS Creation date and time {YYYY-MMM-DD hh:mm}
SOURCE.     PERFO_Perfo_062PTP.DLIS                    :DLIS File Name
FILE-ID.     PERFO_Perfo_062PTP                        :File Identification Number
#--------------------------------------------------
~WELL INFORMATION
#MNEM.UNIT      DATA             DESCRIPTION
#---- ------ --------------   -----------------------------
STRT .S            0.0       :START TIME      
STOP .S          971.0       :STOP TIME      
STEP .S            1.0       :STEP     
NULL .          -999.25      :NULL VALUE
COMP .        SHELL INTERNATIONAL EP                   :COMPANY
WELL .        WPP TEST 4                               :WELL
FLD  .        WILDCAT                                  :FIELD
LOC  .        NA                                       :LOCATION
CNTY .        HARRIS                                   :COUNTY
STAT .        TEXAS                                    :STATE
CTRY .                                                 :COUNTRY
API  .        NA                                       :API NUMBER
UWI  .                                                 :UNIQUE WELL ID
DATE .        02-Aug-2018                              :LOG DATE {DD-MMM-YYYY}
SRVC .        Schlumberger                             :SERVICE COMPANY
LATI .DEG                                              :LATITUDE
LONG .DEG                                              :LONGITUDE
GDAT .                                                 :GeoDetic Datum
SECT .        NA                                       :Section
RANG .        NA                                       :Range
TOWN .        NA                                       :Township
#-----------------------------------------------------------------------------
~PARAMETER INFORMATION
#MNEM.UNIT    VALUE                      DESCRIPTION
#---- -----   --------------------       ------------------------
U-PHASE_B_COMP_PER_YT.                 0 :Phase B Comparator Period Yt
U-PHASE_A_COMP_PER_XT.                 0 :Phase A Comparator Period Xt
U-MAX_EXC_CUR_LIMIT.MA       265.00000   :Requested CM Current Limit
U-REQ_EXC_FQ.HZ              50          :Requested CM Frequency
U-TILT_Y_OFFSET.          -2.06578       :WPTET Tilt Y Offset
U-TILT_Y_GAIN.           1.02173         :WPTET Tilt Y Gain
U-TILT_X_OFFSET.           2.30841       :WPTET Tilt X Offset
U-TILT_X_GAIN.           1.00000         :WPTET Tilt X Gain
U-TILT_OFFSET_TOL.           0.00100     :WPTET Tilt Offset Calibration Tolerance
U-MOT_CUR_LIMIT_REQ.MA        70.00000   :Requested Motor Current Limit
U-MOT_SPD_REQ_WPMS.RPM        1.00000    :Requested Motor Speed
U-STD_TOL_TILT.           0.01000        :Tilt Standard Deviation Tolerance
CWEI .LB/F      29.00000                 :Casing Weight
CSIZ .IN         7.00000                 :Current Casing Size
LCC  .               440                 :Logging Company Code
LUN  .              2134                 :Logging Unit Number
HIDE .                                   :Header Identifier
HID1 .                                   :Header Identifier Line 1
R1   .                                   :Remark Line 1
WITN .        MR. KELLY McCOY            :Witness's Name
ENGI .        MORRIS MOORE               :Engineer's Name
LUL  .        IOWA COLONY                :Logging Unit Location
DATE .        02-Aug-2018                :Date as Month-Day-Year
STAT .        TEXAS                      :State or Province
COUN .        HARRIS                     :County or Rig Name
FN   .        WILDCAT                    :Field Name
WN   .        WPP TEST 4                 :Well Name
CN   .        SHELL INTERNATIONAL EP     :Company Name
CLAB .        County                     :County/Rig Label
SLAB .        State                      :State/Province Label
RUN  .          1                        :RUN NUMBER
PDAT .        GROUND LEVEL               :Permanent Datum
EPD  .                                   :Elevation of Permanent Datum above Mean Sea Level
LMF  .          NA                       :Logging Measured From (Name of Logging Elevation Reference)
APD  .                                   :Elevation of Depth Reference (LMF) above Permanent Datum
#-----------------------------------------------------------------------------
~CURVE INFORMATION
#MNEM.UNIT   API CODE                                  DESCRIPTION
#---- -----  --------                                  -----------------------
TIME .S                                                :TIME {F10.1}
FREQ_EMF_SL.HZ                                         :Electromagnetic Field Frequency {F13.4}
PH_SH_WPPCM_SL.DEG                                     :WPPCM Phase Shift {F13.4}
RB_SL.DEG                                              :Relative Bearing {F13.4}
SDEV_SL.DEG                                            :Sonde Deviation {F13.4}
RTIX_SL.DEG                                            :Raw X-axis Tilt {F13.4}
RTIY_SL.DEG                                            :Raw Y-axis Tilt {F13.4}
TILX_SL.DEG                                            :X-axis Tilt {F13.4}
TILY_SL.DEG                                            :Y-axis Tilt {F13.4}
ROTA_SL.DEG                                            :Motor Rotation Angle {F13.4}
TOD7 .S                                                :Time of Day {I11}
TOJ  .S                                                :Time of Job {F13.4}
#-----------------------------------------------------------------------------
# 
#     TIME    FREQ_EMF_SL  PH_SH_WPPCM_    RB_SL       SDEV_SL      RTIX_SL      RTIY_SL      TILX_SL      TILY_SL      ROTA_SL        TOD7            TOJ
#                          SL
~A  
# ...
     424.0    1235.7206       0.0000     -92.2110      77.8303    -104.6743       4.1372    -102.3659       2.1613     105.9882 1533230340 9999999.9999
     425.0       0.0000       0.0000     -83.3943      79.6661    -104.5538      -4.3380    -102.2454      -6.4980     112.5869 1533230341 9999999.9999
     426.0       0.0000       0.0000     -75.5763      96.0293    -103.3087     -12.2910    -101.0003     -14.6238     118.6997 1533230342 9999999.9999
     427.0       0.0000       0.0000     -68.8784    -999.2500    -100.0953     -20.0030     -97.7869     -22.5034     124.7984 1533230343 9999999.9999
     428.0       0.0000       0.0000     -63.2041    -999.2500     -94.8737     -27.6347     -92.5653     -30.3009     130.9033 1533230344 9999999.9999
     429.0       0.0000       0.0000     -58.4064    -999.2500     -88.4068     -35.0253     -86.0984     -37.8521     137.0083 1533230345 9999999.9999
     430.0       0.0000       0.0000     -54.1860    -999.2500     -80.9760     -42.0545     -78.6676     -45.0340     143.1071 1533230346 9999999.9999
     431.0       0.0000       0.0000     -49.7545    -999.2500     -71.4967     -49.1640     -69.1883     -52.2980     149.2059 1533230347 9999999.9999
     432.0       0.0000       0.0000     -43.8221    -999.2500     -56.7153     -54.6668     -54.4069     -57.9204     155.3109 1533230348 9999999.9999
     433.0       0.0000       0.0000     -36.2865    -999.2500     -48.2803     -74.6297     -45.9719     -78.3169     161.4158 1533230349 9999999.9999
     434.0       0.0000       0.0000     -32.2786    -999.2500     -41.4118     -83.0245     -39.1034     -86.8942     167.5147 1533230350 9999999.9999
     435.0       0.0000       0.0000     -28.0199    -999.2500     -34.3827     -89.7323     -32.0743     -93.7477     173.6135 1533230351 9999999.9999
     436.0       0.0000       0.0000     -23.0132    -999.2500     -27.1125     -94.8737     -24.8041     -99.0008     179.7246 1533230352 9999999.9999
     437.0       0.0000       0.0000     -17.3379    -999.2500     -20.0833     -97.8862     -17.7749    -102.0787     186.2284 1533230353 9999999.9999
     438.0       0.0000       0.0000     -10.3775      81.5538     -12.5722     -99.1313     -10.2638    -103.3510     192.3272 1533230354 9999999.9999
     439.0       0.0000       0.0000      -2.0032      76.6730      -4.2577     -99.2518      -1.9493    -103.4741     198.4076 1533230355 9999999.9999
     440.0       0.0000       0.0000       6.6929      78.8513       4.2577     -98.7698       6.5661    -102.9816     204.5126 1533230356 9999999.9999
     441.0       0.0000       0.0000      14.0308      89.5537      11.8492     -97.6452      14.1576    -101.8325     210.5990 1533230357 9999999.9999
     442.0       0.0000       0.0000      20.1234    -999.2500      18.9185     -94.7130      21.2269     -98.8366     216.6978 1533230358 9999999.9999
     443.0       0.0000       0.0000      25.5183    -999.2500      26.1485     -89.4512      28.4569     -93.4605     222.8158 1533230359 9999999.9999
     444.0       0.0000       0.0000      29.9944    -999.2500      32.8965     -83.2655      35.2049     -87.1404     228.9208 1533230360 9999999.9999
     445.0       0.0000       0.0000      34.1009    -999.2500      39.5240     -76.3568      41.8324     -80.0816     235.0196 1533230361 9999999.9999
     446.0       0.0000       0.0000      38.2459    -999.2500      45.9105     -67.5603      48.2189     -71.0940     241.1184 1533230362 9999999.9999
     447.0       0.0000       0.0000      48.4490    -999.2500      61.0935     -49.2845      63.4019     -52.4211     247.2365 1533230363 9999999.9999
     448.0       0.0000       0.0000      52.8402    -999.2500      74.7502     -44.5850      77.0586     -47.6195     253.3553 1533230364 9999999.9999
     449.0       0.0000       0.0000      56.7041    -999.2500      83.0245     -37.9977      85.3329     -40.8890     259.8589 1533230365 9999999.9999
     450.0       0.0000       0.0000      60.9286    -999.2500      89.8528     -31.0087      92.1612     -33.7482     265.9643 1533230366 9999999.9999
     451.0       0.0000       0.0000      65.2811    -999.2500      94.7933     -24.5820      97.1017     -27.1819     272.0690 1533230367 9999999.9999
     452.0       0.0000       0.0000      70.8418    -999.2500      97.8058     -17.5528     100.1142     -20.0000     278.1431 1533230368 9999999.9999
     453.0       0.0000       0.0000      77.5787      83.7223      99.5330     -10.1622     101.8414     -12.4487     284.2678 1533230369 9999999.9999
     454.0       0.0000       0.0000      86.8833      78.1960      99.8945      -0.9640     102.2029      -3.0507     290.3725 1533230370 9999999.9999
     455.0       0.0000       0.0000      96.2125      79.1502     100.1757       7.9932     102.4841       6.1011     296.4773 1533230371 9999999.9999
     456.0       0.0000       0.0000     103.8301      91.3962      98.7698      15.7052     101.0782      13.9806     302.5759 1533230372 9999999.9999
     457.0       0.0000       0.0000     110.3140    -999.2500      95.1950      23.0958      97.5034      21.5319     308.6622 1533230373 9999999.9999
     458.0       0.0000       0.0000     116.1396    -999.2500      89.6922      30.7677      92.0006      29.3704     314.7731 1533230374 9999999.9999
     459.0       0.0000       0.0000     120.5922    -999.2500      83.7073      37.3952      86.0157      36.1419     320.8602 1533230375 9999999.9999
     460.0       0.0000       0.0000     125.3822    -999.2500      75.3928      45.0268      77.7012      43.9394     326.9465 1533230376 9999999.9999
     461.0       0.0000       0.0000     130.1425    -999.2500      65.3913      52.2167      67.6997      51.2854     333.4695 1533230377 9999999.9999
     462.0       0.0000       0.0000     138.5784    -999.2500      52.3372      68.1628      54.6456      67.5780     339.5742 1533230378 9999999.9999
     463.0       0.0000       0.0000     142.5455    -999.2500      46.0310      77.6020      48.3394      77.2223     345.6606 1533230379 9999999.9999
     464.0       0.0000       0.0000     146.4618    -999.2500      39.0420      85.5550      41.3504      85.3481     351.7469 1533230380 9999999.9999
     465.0       0.0000       0.0000     151.0551    -999.2500      31.2095      93.2268      33.5179      93.1866     357.8516 1533230381 9999999.9999
     466.0       0.0000       0.0000     155.7966    -999.2500      24.0598      98.7698      26.3682      98.8501       3.9564 1533230382 9999999.9999
     467.0       0.0000       0.0000     163.0514    -999.2500      14.9420     103.1480      17.2504     103.3233      10.0560 1533230383 9999999.9999
     468.0       0.0000       0.0000     169.9923      78.9277       7.5112     104.6743       9.8196     104.8828      16.1678 1533230384 9999999.9999
     469.0       0.0000       0.0000     178.4399      74.7434      -0.8033     105.1162       1.5051     105.3343      22.2602 1533230385 9999999.9999
     470.0       0.0000       0.0000    -173.5735      76.4567      -8.5555     104.7547      -6.2471     104.9649      28.3651 1533230386 9999999.9999
     471.0       0.0000       0.0000    -165.8622      89.7380     -16.5487     102.2643     -14.2403     102.4205      34.4779 1533230387 9999999.9999
     472.0       0.0000       0.0000    -158.7360    -999.2500     -25.0238      97.0828     -22.7154      97.1264      40.5828 1533230388 9999999.9999
     473.0       0.0000       0.0000    -152.6751    -999.2500     -33.4187      90.2947     -31.1103      90.1907      47.0802 1533230389 9999999.9999
     474.0       0.0000       0.0000    -148.2806    -999.2500     -40.1265      83.0245     -37.8181      82.7626      53.1919 1533230390 9999999.9999
     475.0       0.0000       0.0000    -142.8924    -999.2500     -48.8025      73.9468     -46.4941      73.4877      59.2907 1533230391 9999999.9999
     476.0       0.0000       0.0000    -138.1178    -999.2500     -55.6308      64.1060     -53.3224      63.4331      65.3955 1533230392 9999999.9999
