~VERSION INFORMATION
VERS.           2.0   :CWLS Log ASCII Standard - VERSION 2.0
WRAP.           NO    :One Line per depth step
PROD.  Schlumberger   :LAS Producer
PROG.  DLIS to ASCII 19C2-270                          :LAS Program name and version
CREA.        2018/08/03 10:59                          :LAS Creation date {YYYY/MM/DD hh:mm}
DLIS_CREA.  2018-Aug-03 08:53                          :DLIS Creation date and time {YYYY-MMM-DD hh:mm}
SOURCE.     PERFO_Perfo_062PTP.DLIS                    :DLIS File Name
FILE-ID.     PERFO_Perfo_062PTP                        :File Identification Number
#--------------------------------------------------
~WELL INFORMATION
#MNEM.UNIT      DATA             DESCRIPTION
#---- ------ --------------   -----------------------------
STRT .S            0.0       :START TIME      
STOP .S          971.0       :STOP TIME      
STEP .S            1.0       :STEP     
NULL .          -999.25      :NULL VALUE
COMP .        SHELL INTERNATIONAL EP                   :COMPANY
WELL .        WPP TEST 4                               :WELL
FLD  .        WILDCAT                                  :FIELD
LOC  .        NA                                       :LOCATION
CNTY .        HARRIS                                   :COUNTY
STAT .        TEXAS                                    :STATE
CTRY .                                                 :COUNTRY
API  .        NA                                       :API NUMBER
UWI  .                                                 :UNIQUE WELL ID
DATE .        02-Aug-2018                              :LOG DATE {DD-MMM-YYYY}
SRVC .        Schlumberger                             :SERVICE COMPANY
LATI .DEG                                              :LATITUDE
LONG .DEG                                              :LONGITUDE
GDAT .                                                 :GeoDetic Datum
SECT .        NA                                       :Section
RANG .        NA                                       :Range
TOWN .        NA                                       :Township
#-----------------------------------------------------------------------------
~PARAMETER INFORMATION
#MNEM.UNIT    VALUE                      DESCRIPTION
#---- -----   --------------------       ------------------------
U-PHASE_B_COMP_PER_YT.                 0 :Phase B Comparator Period Yt
U-PHASE_A_COMP_PER_XT.                 0 :Phase A Comparator Period Xt
U-MAX_EXC_CUR_LIMIT.MA       265.00000   :Requested CM Current Limit
U-REQ_EXC_FQ.HZ              50          :Requested CM Frequency
U-TILT_Y_OFFSET.          -2.06578       :WPTET Tilt Y Offset
U-TILT_Y_GAIN.           1.02173         :WPTET Tilt Y Gain
U-TILT_X_OFFSET.           2.30841       :WPTET Tilt X Offset
U-TILT_X_GAIN.           1.00000         :WPTET Tilt X Gain
U-TILT_OFFSET_TOL.           0.00100     :WPTET Tilt Offset Calibration Tolerance
U-MOT_CUR_LIMIT_REQ.MA        70.00000   :Requested Motor Current Limit
U-MOT_SPD_REQ_WPMS.RPM        1.00000    :Requested Motor Speed
U-STD_TOL_TILT.           0.01000        :Tilt Standard Deviation Tolerance
CWEI .LB/F      29.00000                 :Casing Weight
CSIZ .IN         7.00000                 :Current Casing Size
LCC  .               440                 :Logging Company Code
LUN  .              2134                 :Logging Unit Number
HIDE .                                   :Header Identifier
HID1 .                                   :Header Identifier Line 1
R1   .                                   :Remark Line 1
WITN .        MR. KELLY McCOY            :Witness's Name
ENGI .        MORRIS MOORE               :Engineer's Name
LUL  .        IOWA COLONY                :Logging Unit Location
DATE .        02-Aug-2018                :Date as Month-Day-Year
STAT .        TEXAS                      :State or Province
COUN .        HARRIS                     :County or Rig Name
FN   .        WILDCAT                    :Field Name
WN   .        WPP TEST 4                 :Well Name
CN   .        SHELL INTERNATIONAL EP     :Company Name
CLAB .        County                     :County/Rig Label
SLAB .        State                      :State/Province Label
RUN  .          1                        :RUN NUMBER
PDAT .        GROUND LEVEL               :Permanent Datum
EPD  .                                   :Elevation of Permanent Datum above Mean Sea Level
LMF  .          NA                       :Logging Measured From (Name of Logging Elevation Reference)
APD  .                                   :Elevation of Depth Reference (LMF) above Permanent Datum
#-----------------------------------------------------------------------------
~CURVE INFORMATION
#MNEM.UNIT   API CODE                                  DESCRIPTION
#---- -----  --------                                  -----------------------
TIME .S                                                :TIME {F10.1}
FREQ_EMF_SL.HZ                                         :Electromagnetic Field Frequency {F13.4}
PH_SH_WPPCM_SL.DEG                                     :WPPCM Phase Shift {F13.4}
RB_SL.DEG                                              :Relative Bearing {F13.4}
SDEV_SL.DEG                                            :Sonde Deviation {F13.4}
RTIX_SL.DEG                                            :Raw X-axis Tilt {F13.4}
RTIY_SL.DEG                                            :Raw Y-axis Tilt {F13.4}
TILX_SL.DEG                                            :X-axis Tilt {F13.4}
TILY_SL.DEG                                            :Y-axis Tilt {F13.4}
ROTA_SL.DEG                                            :Motor Rotation Angle {F13.4}
TOD7 .S                                                :Time of Day {I11}
TOJ  .S                                                :Time of Job {F13.4}
#-----------------------------------------------------------------------------
# 
#     TIME    FREQ_EMF_SL  PH_SH_WPPCM_    RB_SL       SDEV_SL      RTIX_SL      RTIY_SL      TILX_SL      TILY_SL      ROTA_SL        TOD7            TOJ
#                          SL
~A  
# ...
     159.0    1446.7593       0.0000     102.8427      91.3529      99.0912      14.6608     101.3996      12.9136     280.9573 1533230075 9999999.9999
     160.0    1414.7384       0.0000     109.7556    -999.2500      95.6770      22.4130      97.9854      20.8342     287.0621 1533230076 9999999.9999
     161.0    1386.8344       0.0000     115.3956    -999.2500      90.5758      29.7233      92.8842      28.3034     293.1482 1533230077 9999999.9999
     162.0    1362.6454       0.0000     120.4122    -999.2500      83.9483      37.1140      86.2567      35.8546     299.2468 1533230078 9999999.9999
     163.0    1334.2030       0.0000     125.0431    -999.2500      76.1560      44.5047      78.4644      43.4058     305.3516 1533230079 9999999.9999
     164.0    1311.8003       0.0000     129.6763    -999.2500      66.5160      51.6142      68.8244      50.6698     311.4563 1533230080 9999999.9999
     165.0    1290.1376       0.0000     138.4853    -999.2500      52.4577      67.9218      54.7661      67.3318     317.5549 1533230081 9999999.9999
     166.0    1264.6134       0.0000     142.6716    -999.2500      45.7900      77.8028      48.0984      77.4275     323.6411 1533230082 9999999.9999
     167.0    1253.3423       0.0000     146.4843    -999.2500      39.0018      85.5952      41.3102      85.3891     329.7333 1533230083 9999999.9999
     168.0    1233.5526       0.0000     150.7586    -999.2500      31.6915      92.7850      33.9999      92.7352     335.8389 1533230084 9999999.9999
     169.0    1218.5875       0.0000     155.8620    -999.2500      23.9795      98.6895      26.2879      98.7680     341.9375 1533230085 9999999.9999
     170.0    1210.1979       0.0000     162.0045    -999.2500      16.1470     102.7865      18.4554     102.9540     348.0361 1533230086 9999999.9999
     171.0    1197.8279       0.0000     169.2049      79.8136       8.3145     104.5940      10.6229     104.8008     354.5652 1533230087 9999999.9999
     172.0    1193.7606       0.0000     177.7344      74.9546      -0.1205     104.9957       2.1879     105.2112       0.6638 1533230088 9999999.9999
     173.0    1189.7208       0.0000    -173.7332      76.2474      -8.3948     104.8752      -6.0864     105.0880       6.7625 1533230089 9999999.9999
     174.0    3551.1365       0.0000    -166.0854      90.0387     -16.3077     102.3045     -13.9993     102.4615      12.8674 1533230090 9999999.9999
     175.0       0.0000       0.0000    -159.0201    -999.2500     -24.6623      97.2837     -22.3539      97.3316      19.0677 1533230091 9999999.9999
     176.0       0.0000       0.0000    -153.2753    -999.2500     -32.5350      91.0177     -30.2266      90.9294      25.1540 1533230092 9999999.9999
     177.0       0.0000       0.0000    -147.8202    -999.2500     -40.9298      82.9843     -38.6214      82.7216      31.2658 1533230093 9999999.9999
     178.0       0.0000       0.0000    -143.3266    -999.2500     -48.1197      74.7903     -45.8113      74.3495      37.3584 1533230094 9999999.9999
     179.0       0.0000       0.0000    -138.4782    -999.2500     -55.1488      64.8290     -52.8404      64.1718      43.4633 1533230095 9999999.9999
     180.0       0.0000       0.0000    -130.3264    -999.2500     -70.2113      52.7790     -67.9029      51.8600      49.5751 1533230096 9999999.9999
     181.0       0.0000       0.0000    -126.0022    -999.2500     -79.2087      46.1113     -76.9003      45.0474      55.6738 1533230097 9999999.9999
     182.0       0.0000       0.0000    -121.5794    -999.2500     -87.0412      38.9617     -84.7327      37.7424      61.7918 1533230098 9999999.9999
     183.0       0.0000       0.0000    -116.7619    -999.2500     -93.8293      31.6513     -91.5209      30.2732      68.3026 1533230099 9999999.9999
     184.0       0.0000       0.0000    -111.1408    -999.2500     -99.5330      24.1000     -97.2246      22.5578      74.4013 1533230100 9999999.9999
     185.0       0.0000       0.0000    -104.3185    -999.2500    -103.2283      16.2273    -100.9199      14.5141      80.5061 1533230101 9999999.9999
     186.0       0.0000       0.0000     -96.3758      79.3355    -104.7145       8.1538    -102.4061       6.2652      86.6240 1533230102 9999999.9999
     187.0       0.0000       0.0000     -87.8040      77.9910    -104.5137      -0.0803    -102.2053      -2.1479      92.7103 1533230103 9999999.9999
     188.0       0.0000       0.0000     -79.2738      84.9481    -104.1522      -8.4350    -101.8438     -10.6840      98.7968 1533230104 9999999.9999
     189.0       0.0000       0.0000     -71.6810    -999.2500    -101.8627     -16.6290     -99.5543     -19.0561     104.8902 1533230105 9999999.9999
     190.0       0.0000       0.0000     -65.4373    -999.2500     -96.9623     -24.5017     -94.6539     -27.0998     110.9837 1533230106 9999999.9999
     191.0       0.0000       0.0000     -60.2979    -999.2500     -91.2587     -32.0128     -88.9502     -34.7742     117.0957 1533230107 9999999.9999
     192.0       0.0000       0.0000     -56.0470    -999.2500     -84.4303     -38.9215     -82.1219     -41.8329     123.1944 1533230108 9999999.9999
     193.0       0.0000       0.0000     -51.9336    -999.2500     -76.3568     -45.7900     -74.0484     -48.8507     129.2993 1533230109 9999999.9999
     194.0       0.0000       0.0000     -47.5320    -999.2500     -66.5160     -52.2970     -64.2076     -55.4990     135.4043 1533230110 9999999.9999
     195.0       0.0000       0.0000     -38.4817    -999.2500     -51.8552     -69.6088     -49.5468     -73.1870     141.8956 1533230111 9999999.9999
     196.0       0.0000       0.0000     -34.2736    -999.2500     -44.8662     -79.1685     -42.5578     -82.9544     148.0006 1533230112 9999999.9999
     197.0       0.0000       0.0000     -30.0888    -999.2500     -37.7165     -86.5592     -35.4081     -90.5056     154.0932 1533230113 9999999.9999
     198.0       0.0000       0.0000     -25.5959    -999.2500     -30.7275     -92.4637     -28.4191     -96.5384     160.1982 1533230114 9999999.9999
     199.0       0.0000       0.0000     -20.4316    -999.2500     -23.7787     -96.5607     -21.4703    -100.7244     166.2909 1533230115 9999999.9999
     200.0       0.0000       0.0000     -14.0483      86.4010     -16.4282     -98.6493     -14.1198    -102.8585     172.3713 1533230116 9999999.9999
     201.0       0.0000       0.0000      -5.8983      77.8183      -8.0735     -99.2920      -5.7651    -103.5151     178.4763 1533230117 9999999.9999
     202.0       0.0000       0.0000       3.0284      77.0331       0.6427     -99.0912       2.9511    -103.3099     184.5751 1533230118 9999999.9999
     203.0       0.0000       0.0000      11.1243      84.1073       8.7563     -98.3682      11.0647    -102.5712     190.6870 1533230119 9999999.9999
     204.0       0.0000       0.0000      17.7289    -999.2500      16.0265     -96.1188      18.3349    -100.2730     196.7797 1533230120 9999999.9999
     205.0       0.0000       0.0000      23.1845    -999.2500      22.8950     -92.0620      25.2034     -96.1280     202.8846 1533230121 9999999.9999
     206.0       0.0000       0.0000      27.8887    -999.2500      29.6430     -86.5592      31.9514     -90.5056     208.9835 1533230122 9999999.9999
     207.0       0.0000       0.0000      32.1737    -999.2500      36.3910     -79.8513      38.6994     -83.6521     215.4934 1533230123 9999999.9999
     208.0       0.0000       0.0000      35.8960    -999.2500      42.3758     -72.6615      44.6842     -76.3060     221.5984 1533230124 9999999.9999
     209.0       0.0000       0.0000      41.0751    -999.2500      49.2845     -60.6517      51.5929     -64.0352     227.6972 1533230125 9999999.9999
     210.0       0.0000       0.0000      50.8603    -999.2500      70.1712     -47.7983      72.4796     -50.9026     233.7836 1533230126 9999999.9999
     211.0       0.0000       0.0000      54.8514    -999.2500      79.1685     -41.1708      81.4769     -44.1311     239.8885 1533230127 9999999.9999
