~VERSION INFORMATION
VERS.           2.0   :CWLS Log ASCII Standard - VERSION 2.0
WRAP.           NO    :One Line per depth step
PROD.  Schlumberger   :LAS Producer
PROG.  DLIS to ASCII 19C2-270                          :LAS Program name and version
CREA.        2018/08/03 10:59                          :LAS Creation date {YYYY/MM/DD hh:mm}
DLIS_CREA.  2018-Aug-03 08:56                          :DLIS Creation date and time {YYYY-MMM-DD hh:mm}
SOURCE.     PERFO_Perfo_063PTP.DLIS                    :DLIS File Name
FILE-ID.     PERFO_Perfo_063PTP                        :File Identification Number
#--------------------------------------------------
~WELL INFORMATION
#MNEM.UNIT      DATA             DESCRIPTION
#---- ------ --------------   -----------------------------
STRT .S            0.0       :START TIME      
STOP .S          897.0       :STOP TIME      
STEP .S            1.0       :STEP     
NULL .          -999.25      :NULL VALUE
COMP .        SHELL INTERNATIONAL EP                   :COMPANY
WELL .        WPP TEST 4                               :WELL
FLD  .        WILDCAT                                  :FIELD
LOC  .        NA                                       :LOCATION
CNTY .        HARRIS                                   :COUNTY
STAT .        TEXAS                                    :STATE
CTRY .                                                 :COUNTRY
API  .        NA                                       :API NUMBER
UWI  .                                                 :UNIQUE WELL ID
DATE .        02-Aug-2018                              :LOG DATE {DD-MMM-YYYY}
SRVC .        Schlumberger                             :SERVICE COMPANY
LATI .DEG                                              :LATITUDE
LONG .DEG                                              :LONGITUDE
GDAT .                                                 :GeoDetic Datum
SECT .        NA                                       :Section
RANG .        NA                                       :Range
TOWN .        NA                                       :Township
#-----------------------------------------------------------------------------
~PARAMETER INFORMATION
#MNEM.UNIT    VALUE                      DESCRIPTION
#---- -----   --------------------       ------------------------
U-PHASE_B_COMP_PER_YT.                 0 :Phase B Comparator Period Yt
U-PHASE_A_COMP_PER_XT.                 0 :Phase A Comparator Period Xt
U-MAX_EXC_CUR_LIMIT.MA       265.00000   :Requested CM Current Limit
U-REQ_EXC_FQ.HZ              50          :Requested CM Frequency
U-TILT_Y_OFFSET.          -2.06578       :WPTET Tilt Y Offset
U-TILT_Y_GAIN.           1.02173         :WPTET Tilt Y Gain
U-TILT_X_OFFSET.           2.30841       :WPTET Tilt X Offset
U-TILT_X_GAIN.           1.00000         :WPTET Tilt X Gain
U-TILT_OFFSET_TOL.           0.00100     :WPTET Tilt Offset Calibration Tolerance
U-MOT_CUR_LIMIT_REQ.MA        70.00000   :Requested Motor Current Limit
U-MOT_SPD_REQ_WPMS.RPM        1.00000    :Requested Motor Speed
U-STD_TOL_TILT.           0.01000        :Tilt Standard Deviation Tolerance
CWEI .LB/F      29.00000                 :Casing Weight
CSIZ .IN         7.00000                 :Current Casing Size
LCC  .               440                 :Logging Company Code
LUN  .              2134                 :Logging Unit Number
HIDE .                                   :Header Identifier
HID1 .                                   :Header Identifier Line 1
R1   .                                   :Remark Line 1
WITN .        MR. KELLY McCOY            :Witness's Name
ENGI .        MORRIS MOORE               :Engineer's Name
LUL  .        IOWA COLONY                :Logging Unit Location
DATE .        02-Aug-2018                :Date as Month-Day-Year
STAT .        TEXAS                      :State or Province
COUN .        HARRIS                     :County or Rig Name
FN   .        WILDCAT                    :Field Name
WN   .        WPP TEST 4                 :Well Name
CN   .        SHELL INTERNATIONAL EP     :Company Name
CLAB .        County                     :County/Rig Label
SLAB .        State                      :State/Province Label
RUN  .          1                        :RUN NUMBER
PDAT .        GROUND LEVEL               :Permanent Datum
EPD  .                                   :Elevation of Permanent Datum above Mean Sea Level
LMF  .          NA                       :Logging Measured From (Name of Logging Elevation Reference)
APD  .                                   :Elevation of Depth Reference (LMF) above Permanent Datum
#-----------------------------------------------------------------------------
~CURVE INFORMATION
#MNEM.UNIT   API CODE                                  DESCRIPTION
#---- -----  --------                                  -----------------------
TIME .S                                                :TIME {F10.1}
FREQ_EMF_SL.HZ                                         :Electromagnetic Field Frequency {F13.4}
PH_SH_WPPCM_SL.DEG                                     :WPPCM Phase Shift {F13.4}
RB_SL.DEG                                              :Relative Bearing {F13.4}
SDEV_SL.DEG                                            :Sonde Deviation {F13.4}
RTIX_SL.DEG                                            :Raw X-axis Tilt {F13.4}
RTIY_SL.DEG                                            :Raw Y-axis Tilt {F13.4}
TILX_SL.DEG                                            :X-axis Tilt {F13.4}
TILY_SL.DEG                                            :Y-axis Tilt {F13.4}
ROTA_SL.DEG                                            :Motor Rotation Angle {F13.4}
TOD7 .S                                                :Time of Day {I11}
TOJ  .S                                                :Time of Job {F13.4}
#-----------------------------------------------------------------------------
# 
#     TIME    FREQ_EMF_SL  PH_SH_WPPCM_    RB_SL       SDEV_SL      RTIX_SL      RTIY_SL      TILX_SL      TILY_SL      ROTA_SL        TOD7            TOJ
#                          SL
~A  
# ...
     636.0    1548.7335       0.0000    -164.7365      91.2464     -17.7938     101.7823     -15.4854     101.9280     119.1583 1533231591 9999999.9999
     637.0    1512.0968       0.0000    -157.6860    -999.2500     -26.3895      96.1590     -24.0811      96.1825     125.2570 1533231592 9999999.9999
     638.0    1470.9729       0.0000    -151.9764    -999.2500     -34.4630      89.4913     -32.1546      89.3699     131.3750 1533231593 9999999.9999
     639.0    1426.2170       0.0000    -147.1255    -999.2500     -42.0545      81.8998     -39.7461      81.6135     137.4799 1533231594 9999999.9999
     640.0    1389.5751       0.0000    -142.5903    -999.2500     -49.3247      73.5050     -47.0163      73.0363     143.5788 1533231595 9999999.9999
     641.0    1352.1635       0.0000    -137.5243    -999.2500     -56.3940      62.9010     -54.0856      62.2019     149.6776 1533231596 9999999.9999
     642.0    1329.1588       0.0000    -129.6379    -999.2500     -71.7778      51.8150     -69.4694      50.8750     155.7826 1533231597 9999999.9999
     643.0    1299.6765       0.0000    -125.3975    -999.2500     -80.4538      45.1473     -78.1454      44.0625     162.2925 1533231598 9999999.9999
     644.0    1269.1787       0.0000    -120.9636    -999.2500     -88.1658      37.9977     -85.8574      36.7575     168.3913 1533231599 9999999.9999
     645.0    1237.8961       0.0000    -116.0605    -999.2500     -94.7933      30.6472     -92.4849      29.2473     174.4963 1533231600 9999999.9999
     646.0    1222.8260       0.0000    -110.0976    -999.2500    -100.2962      22.8147     -97.9878      21.2446     180.5888 1533231601 9999999.9999
     647.0    1197.8279       0.0000    -103.0806      87.7850    -103.8308      14.9018    -101.5224      13.1598     186.6876 1533231602 9999999.9999
     648.0    1177.7638       0.0000     -95.0924      78.6723    -104.7145       6.9087    -102.4061       4.9930     192.7997 1533231603 9999999.9999
     649.0    1158.3608       0.0000     -85.8784      78.2884    -104.7145      -1.9280    -102.4061      -4.0357     198.9047 1533231604 9999999.9999
     650.0    1145.1547       0.0000     -77.5822      87.0352    -104.0718     -10.1622    -101.7634     -12.4487     204.9972 1533231605 9999999.9999
     651.0    1128.6116       0.0000     -70.6835    -999.2500    -101.4610     -17.7938     -99.1526     -20.2462     211.0835 1533231606 9999999.9999
     652.0    1121.4115       0.0000     -64.7565    -999.2500     -96.6410     -25.4255     -94.3326     -28.0437     217.1824 1533231607 9999999.9999
     653.0    1114.3027       0.0000     -59.6859    -999.2500     -90.4553     -32.9768     -88.1469     -35.7591     223.2873 1533231608 9999999.9999
     654.0    1109.0300       0.0000     -55.3897    -999.2500     -83.3860     -40.0462     -81.0776     -42.9820     229.3923 1533231609 9999999.9999
     655.0    1109.0300       0.0000     -51.3996    -999.2500     -75.2723     -46.6737     -72.9639     -49.7535     235.8961 1533231610 9999999.9999
     656.0    1112.5396       0.0000     -46.8060    -999.2500     -64.8290     -53.1807     -62.5206     -56.4019     242.0010 1533231611 9999999.9999
     657.0    1116.0714       0.0000     -37.8180    -999.2500     -50.8108     -71.1753     -48.5024     -74.7876     248.1060 1533231612 9999999.9999
     658.0    1119.6259       0.0000     -33.7430    -999.2500     -43.9423     -80.2128     -41.6339     -84.0214     254.2048 1533231613 9999999.9999
     659.0    1135.9047       0.0000     -29.6016    -999.2500     -36.9132     -87.5633     -34.6048     -91.5316     260.3035 1533231614 9999999.9999
     660.0    1147.0228       0.0000     -25.0194    -999.2500     -29.8840     -93.2268     -27.5756     -97.3182     266.4082 1533231615 9999999.9999
     661.0    1169.9252       0.0000     -19.1317    -999.2500     -22.1720     -97.4443     -19.8636    -101.6273     272.5130 1533231616 9999999.9999
     662.0    1185.7083       0.0000     -12.5456      85.9052     -14.8215     -98.9707     -12.5131    -103.1868     278.6116 1533231617 9999999.9999
     663.0    1214.3783       0.0000      -4.4700      77.2325      -6.6677     -99.2920      -4.3593    -103.5151     284.6979 1533231618 9999999.9999
     664.0    1235.7206       0.0000       4.5070      77.3325       2.0887     -99.2117       4.3971    -103.4330     290.8157 1533231619 9999999.9999
     665.0    1260.0807       0.0000      12.2395      87.7131       9.9212     -98.2477      12.2296    -102.4481     296.9082 1533231620 9999999.9999
     666.0    1292.5093       0.0000      18.6199    -999.2500      17.0708     -95.8377      19.3792     -99.9857     302.9945 1533231621 9999999.9999
     667.0    1329.1588       0.0000      23.9833    -999.2500      23.9795     -91.3792      26.2879     -95.4304     309.5042 1533231622 9999999.9999
     668.0    1360.0098       0.0000      28.5719    -999.2500      30.6873     -85.8362      32.9957     -89.7669     315.6095 1533231623 9999999.9999
     669.0    1400.6475       0.0000      32.7023    -999.2500      37.2747     -79.1685      39.5831     -82.9544     321.6959 1533231624 9999999.9999
     670.0    1440.8298       0.0000      36.8601    -999.2500      43.9022     -70.7335      46.2106     -74.3361     327.7945 1533231625 9999999.9999
     671.0    1477.1533       0.0000      41.7197    -999.2500      49.9673     -59.1655      52.2757     -62.5168     333.8869 1533231626 9999999.9999
     672.0    1528.5327       0.0000      51.5949    -999.2500      71.8983     -46.6335      74.2067     -49.7125     339.9917 1533231627 9999999.9999
     673.0    1572.9866       0.0000      55.5109    -999.2500      80.7952     -40.0662      83.1037     -43.0026     346.0909 1533231628 9999999.9999
     674.0    1612.6721       0.0000      59.6238    -999.2500      88.1257     -33.0973      90.4341     -35.8822     352.1772 1533231629 9999999.9999
     675.0    1650.5282       0.0000      64.0731    -999.2500      93.8293     -26.2690      96.1377     -28.9055     358.2950 1533231630 9999999.9999
     676.0    1686.1511       0.0000      69.4182    -999.2500      97.4042     -19.2398      99.7126     -21.7236       4.3998 1533231631 9999999.9999
     677.0    1714.9390       0.0000      75.9285    -999.2500      99.2920     -11.8893     101.6004     -14.2134      10.4863 1533231632 9999999.9999
     678.0    1744.7272       0.0000      84.1380      79.2785      99.8945      -3.6150     102.2029      -5.7593      16.5851 1533231633 9999999.9999
     679.0    1771.0958       0.0000      93.0514      77.7646     100.2962       4.9405     102.6046       2.9821      22.6908 1533231634 9999999.9999
     680.0    1793.6862       0.0000     101.1028      85.4129      99.6937      12.8533     102.0021      11.0668      29.2006 1533231635 9999999.9999
     681.0    1798.2737       0.0000     108.1017    -999.2500      96.9222      20.4448      99.2306      18.8233      35.2871 1533231636 9999999.9999
     682.0    1826.2988       0.0000     114.1669    -999.2500      92.0218      28.0363      94.3302      26.5797      41.3981 1533231637 9999999.9999
     683.0    1816.8605       0.0000     119.2573    -999.2500      85.8362      35.3467      88.1446      34.0489      47.4845 1533231638 9999999.9999
     684.0    1821.5673       0.0000     123.8692    -999.2500      78.3652      42.6168      80.6736      41.4770      53.5586 1533231639 9999999.9999
     685.0    1823.9299       0.0000     128.5497    -999.2500      69.0465      50.0075      71.3549      49.0282      59.6969 1533231640 9999999.9999
     686.0    1816.8605       0.0000     137.3926    -999.2500      53.9840      65.3913      56.2924      64.7463      65.8017 1533231641 9999999.9999
     687.0    1802.8846       0.0000     141.7412    -999.2500      47.4368      75.8347      49.7452      75.4166      71.9066 1533231642 9999999.9999
     688.0    1775.5682       0.0000     145.5017    -999.2500      40.7692      83.8680      43.0776      83.6244      78.0053 1533231643 9999999.9999
