~VERSION INFORMATION
VERS.           2.0   :CWLS Log ASCII Standard - VERSION 2.0
WRAP.           NO    :One Line per depth step
PROD.  Schlumberger   :LAS Producer
PROG.  DLIS to ASCII 19C2-270                          :LAS Program name and version
CREA.        2018/08/03 10:59                          :LAS Creation date {YYYY/MM/DD hh:mm}
DLIS_CREA.  2018-Aug-03 09:35                          :DLIS Creation date and time {YYYY-MMM-DD hh:mm}
SOURCE.     PERFO_Perfo_079PTP.DLIS                    :DLIS File Name
FILE-ID.     PERFO_Perfo_079PTP                        :File Identification Number
#--------------------------------------------------
~WELL INFORMATION
#MNEM.UNIT      DATA             DESCRIPTION
#---- ------ --------------   -----------------------------
STRT .S            0.0       :START TIME      
STOP .S          455.0       :STOP TIME      
STEP .S            1.0       :STEP     
NULL .          -999.25      :NULL VALUE
COMP .        SHELL INTERNATIONAL EP                   :COMPANY
WELL .        WPP TEST 4                               :WELL
FLD  .        WILDCAT                                  :FIELD
LOC  .        NA                                       :LOCATION
CNTY .        HARRIS                                   :COUNTY
STAT .        TEXAS                                    :STATE
CTRY .                                                 :COUNTRY
API  .        NA                                       :API NUMBER
UWI  .                                                 :UNIQUE WELL ID
DATE .        02-Aug-2018                              :LOG DATE {DD-MMM-YYYY}
SRVC .        Schlumberger                             :SERVICE COMPANY
LATI .DEG                                              :LATITUDE
LONG .DEG                                              :LONGITUDE
GDAT .                                                 :GeoDetic Datum
SECT .        NA                                       :Section
RANG .        NA                                       :Range
TOWN .        NA                                       :Township
#-----------------------------------------------------------------------------
~PARAMETER INFORMATION
#MNEM.UNIT    VALUE                      DESCRIPTION
#---- -----   --------------------       ------------------------
U-PHASE_B_COMP_PER_YT.                 0 :Phase B Comparator Period Yt
U-PHASE_A_COMP_PER_XT.                 0 :Phase A Comparator Period Xt
U-MAX_EXC_CUR_LIMIT.MA       265.00000   :Requested CM Current Limit
U-REQ_EXC_FQ.HZ              50          :Requested CM Frequency
U-TILT_Y_OFFSET.          -2.06578       :WPTET Tilt Y Offset
U-TILT_Y_GAIN.           1.02173         :WPTET Tilt Y Gain
U-TILT_X_OFFSET.           2.30841       :WPTET Tilt X Offset
U-TILT_X_GAIN.           1.00000         :WPTET Tilt X Gain
U-TILT_OFFSET_TOL.           0.00100     :WPTET Tilt Offset Calibration Tolerance
U-MOT_CUR_LIMIT_REQ.MA        70.00000   :Requested Motor Current Limit
U-MOT_SPD_REQ_WPMS.RPM        1.00000    :Requested Motor Speed
U-STD_TOL_TILT.           0.01000        :Tilt Standard Deviation Tolerance
CWEI .LB/F      29.00000                 :Casing Weight
CSIZ .IN         7.00000                 :Current Casing Size
LCC  .               440                 :Logging Company Code
LUN  .              2134                 :Logging Unit Number
HIDE .                                   :Header Identifier
HID1 .                                   :Header Identifier Line 1
R1   .                                   :Remark Line 1
WITN .        MR. KELLY McCOY            :Witness's Name
ENGI .        MORRIS MOORE               :Engineer's Name
LUL  .        IOWA COLONY                :Logging Unit Location
DATE .        02-Aug-2018                :Date as Month-Day-Year
STAT .        TEXAS                      :State or Province
COUN .        HARRIS                     :County or Rig Name
FN   .        WILDCAT                    :Field Name
WN   .        WPP TEST 4                 :Well Name
CN   .        SHELL INTERNATIONAL EP     :Company Name
CLAB .        County                     :County/Rig Label
SLAB .        State                      :State/Province Label
RUN  .          1                        :RUN NUMBER
PDAT .        GROUND LEVEL               :Permanent Datum
EPD  .                                   :Elevation of Permanent Datum above Mean Sea Level
LMF  .          NA                       :Logging Measured From (Name of Logging Elevation Reference)
APD  .                                   :Elevation of Depth Reference (LMF) above Permanent Datum
#-----------------------------------------------------------------------------
~CURVE INFORMATION
#MNEM.UNIT   API CODE                                  DESCRIPTION
#---- -----  --------                                  -----------------------
TIME .S                                                :TIME {F10.1}
FREQ_EMF_SL.HZ                                         :Electromagnetic Field Frequency {F13.4}
PH_SH_WPPCM_SL.DEG                                     :WPPCM Phase Shift {F13.4}
RB_SL.DEG                                              :Relative Bearing {F13.4}
SDEV_SL.DEG                                            :Sonde Deviation {F13.4}
RTIX_SL.DEG                                            :Raw X-axis Tilt {F13.4}
RTIY_SL.DEG                                            :Raw Y-axis Tilt {F13.4}
TILX_SL.DEG                                            :X-axis Tilt {F13.4}
TILY_SL.DEG                                            :Y-axis Tilt {F13.4}
ROTA_SL.DEG                                            :Motor Rotation Angle {F13.4}
TOD7 .S                                                :Time of Day {I11}
TOJ  .S                                                :Time of Job {F13.4}
#-----------------------------------------------------------------------------
# 
#     TIME    FREQ_EMF_SL  PH_SH_WPPCM_    RB_SL       SDEV_SL      RTIX_SL      RTIY_SL      TILX_SL      TILY_SL      ROTA_SL        TOD7            TOJ
#                          SL
~A  
# ...
     159.0    1187.7112       0.0000     148.4404    -999.2500      35.5877      90.2143      37.8961      90.1087     266.3124 1533244248 9999999.9999
     160.0    1070.2054       0.0000     153.0537    -999.2500      27.9962      96.9222      30.3046      96.9622     272.4110 1533244249 9999999.9999
     161.0     991.7137       0.0000     159.3104    -999.2500      19.3202     102.4250      21.6286     102.5846     278.5096 1533244250 9999999.9999
     162.0     913.1494       0.0000     166.1307      82.7399      11.4475     105.3973      13.7559     105.6215     284.6143 1533244251 9999999.9999
     163.0     829.1569       0.0000     174.3122      74.5473       3.1732     106.2007       5.4816     106.4423     290.7191 1533244252 9999999.9999
     164.0     763.4365       0.0000    -176.9641      73.6657      -5.2217     106.3613      -2.9133     106.6065     296.8307 1533244253 9999999.9999
     165.0     719.6776       0.0000    -168.6855      80.2043     -13.4558     104.7145     -11.1474     104.9239     302.9294 1533244254 9999999.9999
     166.0     681.9835       0.0000    -161.4265      83.8233     -21.6097     100.2560     -19.3013     100.3685     309.0341 1533244255 9999999.9999
     167.0     648.6393       0.0000    -155.0712    -999.2500     -29.9242      94.2310     -27.6158      94.2126     315.5438 1533244256 9999999.9999
     168.0     625.0000       0.0000    -149.8034    -999.2500     -37.8370      87.1215     -35.5286      86.9486     321.6424 1533244257 9999999.9999
     169.0     604.5787       0.0000    -145.1458    -999.2500     -45.3883      79.0882     -43.0799      78.7408     327.7471 1533244258 9999999.9999
     170.0     589.8699       0.0000    -140.6221    -999.2500     -52.5380      70.0105     -50.2296      69.4659     333.8518 1533244259 9999999.9999
     171.0     581.0950       0.0000    -132.6195    -999.2500     -65.9135      56.3538     -63.6051      55.5125     339.9504 1533244260 9999999.9999
     172.0     578.7037       0.0000    -128.1401    -999.2500     -75.5133      49.7263     -73.2049      48.7410     346.0490 1533244261 9999999.9999
     173.0     583.0224       0.0000    -123.8464    -999.2500     -84.0488      42.7173     -81.7403      41.5796     352.1599 1533244262 9999999.9999
     174.0     586.9156       0.0000    -119.0642    -999.2500     -91.6603      35.0655     -89.3519      33.7616     358.2585 1533244263 9999999.9999
     175.0     604.0593       0.0000    -113.5959    -999.2500     -98.0870      27.2330     -95.7786      25.7589       4.3572 1533244264 9999999.9999
     176.0     623.8909       0.0000    -106.9632    -999.2500    -103.2283      19.0792    -100.9199      17.4279      10.4560 1533244265 9999999.9999
     177.0     657.1262       0.0000     -99.4768      80.4111    -105.7588      11.1663    -103.4504       9.3432      16.5609 1533244266 9999999.9999
     178.0     699.6269       0.0000     -90.9149      76.3386    -105.9998       2.8920    -103.6914       0.8891      22.6657 1533244267 9999999.9999
     179.0     779.5178       0.0000     -82.2885      78.8480    -105.8392      -5.3823    -103.5308      -7.5651      29.1833 1533244268 9999999.9999
     180.0     856.4251       0.0000     -74.3591      97.7505    -104.2727     -13.5362    -101.9642     -15.8960      35.2882 1533244269 9999999.9999
     181.0     926.3834       0.0000     -67.7024    -999.2500    -100.6175     -21.4088     -98.3091     -23.9398      41.3930 1533244270 9999999.9999
     182.0     986.1500       0.0000     -62.1201    -999.2500     -94.9540     -29.2012     -92.6456     -31.9014      47.4918 1533244271 9999999.9999
     183.0    1062.1223       0.0000     -57.4786    -999.2500     -88.2462     -36.6320     -85.9378     -39.4937      53.5905 1533244272 9999999.9999
     184.0    1152.6639       0.0000     -53.4178    -999.2500     -80.6948     -43.6210     -78.3864     -46.6345      59.6954 1533244273 9999999.9999
     185.0    1309.3575       0.0000     -49.1979    -999.2500     -71.5167     -50.6401     -69.2083     -53.8062      65.8002 1533244274 9999999.9999
     186.0    1486.5221       0.0000     -40.9078    -999.2500     -54.9480     -63.1018     -52.6396     -66.5386      71.8990 1533244275 9999999.9999
     187.0    1623.8453       0.0000     -36.2365    -999.2500     -48.5213     -76.3568     -46.2129     -80.0816      77.9977 1533244276 9999999.9999
     188.0    1757.8126       0.0000     -32.2253    -999.2500     -41.3717     -84.7517     -39.0633     -88.6589      84.1025 1533244277 9999999.9999
     189.0    1875.0000       0.0000     -27.8990    -999.2500     -34.1015     -91.6202     -31.7931     -95.6766      90.2074 1533244278 9999999.9999
     190.0    1975.0703       0.0000     -22.9150    -999.2500     -26.8313     -96.7615     -24.5229    -100.9296      96.2936 1533244279 9999999.9999
     191.0    2080.2515       0.0000     -16.9754    -999.2500     -19.5210     -99.9748     -17.2126    -104.2128     102.8043 1533244280 9999999.9999
     192.0    2163.4614       0.0000      -9.6335      77.9770     -11.7287    -101.0995      -9.4203    -105.3619     108.9091 1533244281 9999999.9999
     193.0    2239.2517       0.0000      -0.8550      74.6614      -3.1330    -101.0995      -0.8246    -105.3619     115.0209 1533244282 9999999.9999
     194.0    2297.7942       0.0000       7.9670      77.3068       5.4627    -100.6978       7.7711    -104.9515     121.1196 1533244283 9999999.9999
     195.0    2351.5886       0.0000      15.2760      88.9365      13.0943     -99.2518      15.4027    -103.4741     127.2306 1533244284 9999999.9999
     196.0    2391.5815       0.0000      21.3778    -999.2500      20.3645     -95.8778      22.6729    -100.0268     133.3294 1533244285 9999999.9999
     197.0    2435.0649       0.0000      26.7781    -999.2500      27.8958     -90.4955      30.2042     -94.5275     139.4282 1533244286 9999999.9999
     198.0    2458.4790       0.0000      31.2304    -999.2500      34.9852     -83.9082      37.2936     -87.7970     145.5271 1533244287 9999999.9999
     199.0    2484.5405       0.0000      35.2932    -999.2500      41.8938     -76.3167      44.2022     -80.0406     151.6320 1533244288 9999999.9999
     200.0    2467.1052       0.0000      39.5304    -999.2500      48.6418     -66.7168      50.9502     -70.2322     157.7370 1533244289 9999999.9999
     201.0    2484.5405       0.0000      49.3306    -999.2500      67.6407     -50.6502      69.9491     -53.8164     163.8234 1533244290 9999999.9999
     202.0    2484.5405       0.0000      53.1857    -999.2500      77.1200     -44.3440      79.4284     -47.3732     169.9283 1533244291 9999999.9999
     203.0    2475.7922       0.0000      56.9923    -999.2500      85.5952     -37.5960      87.9036     -40.4786     176.0333 1533244292 9999999.9999
     204.0    2475.7922       0.0000      61.1322    -999.2500      92.2227     -30.6070      94.5311     -33.3378     182.5379 1533244293 9999999.9999
     205.0    2441.4063       0.0000      66.0970    -999.2500      97.3238     -23.3368      99.6322     -25.9097     188.6367 1533244294 9999999.9999
     206.0    2416.2371       0.0000      71.9380    -999.2500     100.2158     -16.1470     102.5242     -18.5636     194.7292 1533244295 9999999.9999
     207.0    2367.4243       0.0000      79.2407      81.6176     101.3003      -8.3948     103.6087     -10.6430     200.8342 1533244296 9999999.9999
     208.0    2328.2285       0.0000      88.1250      76.0321     101.7823       0.2410     104.0907      -1.8195     206.9330 1533244297 9999999.9999
     209.0    2260.8521       0.0000      97.0063      77.5124     101.9832       8.7162     104.2916       6.8398     213.0581 1533244298 9999999.9999
     210.0    2183.6179       0.0000     105.1047      90.4939      99.9347      16.9905     102.2431      15.2939     219.1631 1533244299 9999999.9999
     211.0    2105.1646       0.0000     111.7429    -999.2500      95.7975      24.7828      98.1059      23.2555     225.2681 1533244300 9999999.9999
