~VERSION INFORMATION
VERS.           2.0   :CWLS Log ASCII Standard - VERSION 2.0
WRAP.           NO    :One Line per depth step
PROD.  Schlumberger   :LAS Producer
PROG.  DLIS to ASCII 19C2-270                          :LAS Program name and version
CREA.        2018/08/03 10:59                          :LAS Creation date {YYYY/MM/DD hh:mm}
DLIS_CREA.  2018-Aug-03 09:38                          :DLIS Creation date and time {YYYY-MMM-DD hh:mm}
SOURCE.     PERFO_Perfo_080PTP.DLIS                    :DLIS File Name
FILE-ID.     PERFO_Perfo_080PTP                        :File Identification Number
#--------------------------------------------------
~WELL INFORMATION
#MNEM.UNIT      DATA             DESCRIPTION
#---- ------ --------------   -----------------------------
STRT .S            0.0       :START TIME      
STOP .S          356.0       :STOP TIME      
STEP .S            1.0       :STEP     
NULL .          -999.25      :NULL VALUE
COMP .        SHELL INTERNATIONAL EP                   :COMPANY
WELL .        WPP TEST 4                               :WELL
FLD  .        WILDCAT                                  :FIELD
LOC  .        NA                                       :LOCATION
CNTY .        HARRIS                                   :COUNTY
STAT .        TEXAS                                    :STATE
CTRY .                                                 :COUNTRY
API  .        NA                                       :API NUMBER
UWI  .                                                 :UNIQUE WELL ID
DATE .        02-Aug-2018                              :LOG DATE {DD-MMM-YYYY}
SRVC .        Schlumberger                             :SERVICE COMPANY
LATI .DEG                                              :LATITUDE
LONG .DEG                                              :LONGITUDE
GDAT .                                                 :GeoDetic Datum
SECT .        NA                                       :Section
RANG .        NA                                       :Range
TOWN .        NA                                       :Township
#-----------------------------------------------------------------------------
~PARAMETER INFORMATION
#MNEM.UNIT    VALUE                      DESCRIPTION
#---- -----   --------------------       ------------------------
U-PHASE_B_COMP_PER_YT.                 0 :Phase B Comparator Period Yt
U-PHASE_A_COMP_PER_XT.                 0 :Phase A Comparator Period Xt
U-MAX_EXC_CUR_LIMIT.MA       265.00000   :Requested CM Current Limit
U-REQ_EXC_FQ.HZ              50          :Requested CM Frequency
U-TILT_Y_OFFSET.          -2.06578       :WPTET Tilt Y Offset
U-TILT_Y_GAIN.           1.02173         :WPTET Tilt Y Gain
U-TILT_X_OFFSET.           2.30841       :WPTET Tilt X Offset
U-TILT_X_GAIN.           1.00000         :WPTET Tilt X Gain
U-TILT_OFFSET_TOL.           0.00100     :WPTET Tilt Offset Calibration Tolerance
U-MOT_CUR_LIMIT_REQ.MA        70.00000   :Requested Motor Current Limit
U-MOT_SPD_REQ_WPMS.RPM        1.00000    :Requested Motor Speed
U-STD_TOL_TILT.           0.01000        :Tilt Standard Deviation Tolerance
CWEI .LB/F      29.00000                 :Casing Weight
CSIZ .IN         7.00000                 :Current Casing Size
LCC  .               440                 :Logging Company Code
LUN  .              2134                 :Logging Unit Number
HIDE .                                   :Header Identifier
HID1 .                                   :Header Identifier Line 1
R1   .                                   :Remark Line 1
WITN .        MR. KELLY McCOY            :Witness's Name
ENGI .        MORRIS MOORE               :Engineer's Name
LUL  .        IOWA COLONY                :Logging Unit Location
DATE .        02-Aug-2018                :Date as Month-Day-Year
STAT .        TEXAS                      :State or Province
COUN .        HARRIS                     :County or Rig Name
FN   .        WILDCAT                    :Field Name
WN   .        WPP TEST 4                 :Well Name
CN   .        SHELL INTERNATIONAL EP     :Company Name
CLAB .        County                     :County/Rig Label
SLAB .        State                      :State/Province Label
RUN  .          1                        :RUN NUMBER
PDAT .        GROUND LEVEL               :Permanent Datum
EPD  .                                   :Elevation of Permanent Datum above Mean Sea Level
LMF  .          NA                       :Logging Measured From (Name of Logging Elevation Reference)
APD  .                                   :Elevation of Depth Reference (LMF) above Permanent Datum
#-----------------------------------------------------------------------------
~CURVE INFORMATION
#MNEM.UNIT   API CODE                                  DESCRIPTION
#---- -----  --------                                  -----------------------
TIME .S                                                :TIME {F10.1}
FREQ_EMF_SL.HZ                                         :Electromagnetic Field Frequency {F13.4}
PH_SH_WPPCM_SL.DEG                                     :WPPCM Phase Shift {F13.4}
RB_SL.DEG                                              :Relative Bearing {F13.4}
SDEV_SL.DEG                                            :Sonde Deviation {F13.4}
RTIX_SL.DEG                                            :Raw X-axis Tilt {F13.4}
RTIY_SL.DEG                                            :Raw Y-axis Tilt {F13.4}
TILX_SL.DEG                                            :X-axis Tilt {F13.4}
TILY_SL.DEG                                            :Y-axis Tilt {F13.4}
ROTA_SL.DEG                                            :Motor Rotation Angle {F13.4}
TOD7 .S                                                :Time of Day {I11}
TOJ  .S                                                :Time of Job {F13.4}
#-----------------------------------------------------------------------------
# 
#     TIME    FREQ_EMF_SL  PH_SH_WPPCM_    RB_SL       SDEV_SL      RTIX_SL      RTIY_SL      TILX_SL      TILY_SL      ROTA_SL        TOD7            TOJ
#                          SL
~A  
       0.0       0.0000       0.0000    -156.8376    -999.2500     -27.4740      96.2795     -25.1656      96.3056     338.6226 1533244613 9999999.9999
       1.0     650.4394       0.0000    -152.6967    -999.2500     -33.3785      91.3390     -31.0701      91.2578     343.0119 1533244613 9999999.9999
       2.0     410.4641       0.0000    -147.6064    -999.2500     -41.3717      83.5868     -39.0633      83.3372     349.1167 1533244614 9999999.9999
       3.0     397.6952       0.0000    -143.0869    -999.2500     -48.7222      75.0715     -46.4138      74.6368     355.2153 1533244615 9999999.9999
       4.0     389.3272       0.0000    -138.2977    -999.2500     -55.8718      65.1905     -53.5634      64.5411       1.3139 1533244616 9999999.9999
       5.0     384.8522       0.0000    -130.5140    -999.2500     -70.5327      53.4217     -68.2243      52.5166       7.4188 1533244617 9999999.9999
       6.0     389.3272       0.0000    -126.2331    -999.2500     -79.5702      46.6737     -77.2617      45.6220      13.5237 1533244618 9999999.9999
       7.0     398.5969       0.0000    -121.9185    -999.2500     -87.3625      39.5642     -85.0541      38.3580      20.0210 1533244619 9999999.9999
       8.0     414.3341       0.0000    -117.0790    -999.2500     -94.4318      32.0932     -92.1234      30.7247      26.1198 1533244620 9999999.9999
       9.0     434.8330       0.0000    -111.1514    -999.2500    -100.4970      24.0598     -98.1886      22.5168      32.2378 1533244621 9999999.9999
      10.0     473.1662       0.0000    -104.1566 -533283.0149    -104.5940      15.9863    -102.2856      14.2679      38.3497 1533244622 9999999.9999
      11.0     518.9114       0.0000     -96.2407      77.8798    -105.9195       7.9932    -103.6111       6.1011      44.4485 1533244623 9999999.9999
      12.0     585.4496       0.0000     -87.4122      76.5917    -105.9597      -0.4418    -103.6513      -2.5172      50.5666 1533244624 9999999.9999
      13.0     673.4914       0.0000     -78.7392      83.0304    -105.5279      -8.9170    -103.2195     -11.1765      56.6715 1533244625 9999999.9999
      14.0     765.0979       0.0000     -71.2030    -999.2500    -102.8668     -17.1110    -100.5584     -19.5486      62.7702 1533244626 9999999.9999
      15.0     854.3438       0.0000     -65.0661    -999.2500     -98.0870     -24.9435     -95.7786     -27.5512      68.8565 1533244627 9999999.9999
      16.0     946.3324       0.0000     -59.8474    -999.2500     -91.8210     -32.7358     -89.5126     -35.5129      74.9613 1533244628 9999999.9999
      17.0    1052.5823       0.0000     -55.5306    -999.2500     -84.8722     -39.9658     -82.5638     -42.9000      81.0662 1533244629 9999999.9999
      18.0    1246.6755       0.0000     -51.4988    -999.2500     -76.7987     -46.9548     -74.4902     -50.0408      87.1649 1533244630 9999999.9999
      19.0    1458.7655       0.0000     -47.1280    -999.2500     -66.7168     -53.6225     -64.4084     -56.8533      93.6624 1533244631 9999999.9999
      20.0    1635.1744       0.0000     -38.6874    -999.2500     -52.6585     -70.4523     -50.3501     -74.0488      99.7673 1533244632 9999999.9999
      21.0    1798.2737       0.0000     -34.5635    -999.2500     -45.5490     -80.1325     -43.2406     -83.9393     105.8660 1533244633 9999999.9999
      22.0    1964.0363       0.0000     -30.5618    -999.2500     -38.4797     -87.8445     -36.1713     -91.8189     111.9647 1533244634 9999999.9999
      23.0    2086.4243       0.0000     -25.9294    -999.2500     -31.0890     -93.9097     -28.7806     -98.0158     118.0828 1533244635 9999999.9999
      24.0    2204.1536       0.0000     -20.5229    -999.2500     -23.7385     -98.3682     -21.4301    -102.5712     124.1630 1533244636 9999999.9999
      25.0    2303.4397       0.0000     -13.9057      84.4234     -16.1470    -100.7079     -13.8386    -104.9618     130.2617 1533244637 9999999.9999
      26.0    2391.5815       0.0000      -5.4956      75.6326      -7.6317    -101.0995      -5.3233    -105.3619     136.3605 1533244638 9999999.9999
      27.0    2458.4790       0.0000       3.4273      75.1427       1.0042    -100.9790       3.3126    -105.2388     142.4716 1533244639 9999999.9999
      28.0    2484.5405       0.0000      11.6446      81.2301       9.1982    -100.2962      11.5066    -104.5411     148.5705 1533244640 9999999.9999
      29.0    2493.3511       0.0000      18.2603      84.4380      16.5085     -97.9665      18.8169    -102.1608     154.6630 1533244641 9999999.9999
      30.0    2475.7922       0.0000      24.0151    -999.2500      23.8992     -93.5080      26.2076     -97.6054     160.7567 1533244642 9999999.9999
      31.0    2475.7922       0.0000      28.6887    -999.2500      30.8480     -87.9248      33.1564     -91.9010     166.8678 1533244643 9999999.9999
      32.0    2475.7922       0.0000      32.8031    -999.2500      37.6362     -81.1367      39.9446     -84.9653     173.3715 1533244644 9999999.9999
      33.0    2475.7922       0.0000      36.8676    -999.2500      44.5047     -72.8222      46.8131     -76.4702     179.4704 1533244645 9999999.9999
      34.0    2493.3511       0.0000      41.5033    -999.2500      51.1723     -61.8567      53.4807     -65.2664     185.5630 1533244646 9999999.9999
      35.0    2484.5405       0.0000      50.8551    -999.2500      71.8983     -48.4410      74.2067     -51.5593     191.6680 1533244647 9999999.9999
      36.0    2493.3511       0.0000      54.6545    -999.2500      81.0563     -41.8135      83.3647     -44.7878     197.7668 1533244648 9999999.9999
      37.0    2475.7922       0.0000      58.5108    -999.2500      88.4068     -34.9450      90.7152     -37.7700     203.8657 1533244649 9999999.9999
      38.0    2475.7922       0.0000      63.1650    -999.2500      94.7532     -27.4740      97.0616     -30.1367     209.9706 1533244650 9999999.9999
      39.0    2475.7922       0.0000      68.5410    -999.2500      99.0510     -20.1637     101.3594     -22.6675     216.0756 1533244651 9999999.9999
      40.0    2484.5405       0.0000      74.9263    -999.2500     100.9388     -12.8533     103.2472     -15.1984     222.1875 1533244652 9999999.9999
      41.0    2467.1052       0.0000      83.1872      77.9594     101.5012      -4.4987     103.8096      -6.6622     228.2863 1533244653 9999999.9999
      42.0    2424.5691       0.0000      92.1441      75.8669     101.9832       4.0568     104.2916       2.0792     234.3974 1533244654 9999999.9999
      43.0    2335.9634       0.0000     100.6156      81.3070     101.3807      12.2910     103.6891      10.4923     240.5093 1533244655 9999999.9999
      44.0    2239.2517       0.0000     107.7917      84.4809      98.5288      20.0030     100.8372      18.3718     247.0131 1533244656 9999999.9999
      45.0    2143.6738       0.0000     114.0979    -999.2500      93.6285      27.8757      95.9369      26.4155     253.1181 1533244657 9999999.9999
      46.0    2008.9286       0.0000     119.3484    -999.2500      87.2822      35.5073      89.5906      34.2130     259.2229 1533244658 9999999.9999
      47.0    1875.0000       0.0000     123.9280    -999.2500      79.6505      42.8980      81.9589      41.7643     265.3215 1533244659 9999999.9999
      48.0    1727.5798       0.0000     128.3618    -999.2500      70.5728      50.1280      72.8812      49.1514     271.4201 1533244660 9999999.9999
      49.0    1572.9866       0.0000     135.1030    -999.2500      56.5948      60.0090      58.9032      59.2470     277.5379 1533244661 9999999.9999
      50.0    1365.2913       0.0000     141.0734    -999.2500      48.8427      75.0715      51.1511      74.6368     283.6427 1533244662 9999999.9999
      51.0    1141.4368       0.0000     144.9359    -999.2500      41.8938      83.6270      44.2022      83.3782     289.7290 1533244663 9999999.9999
      52.0    1001.6025       0.0000     148.9248    -999.2500      34.7442      91.1382      37.0526      91.0526     295.8337 1533244664 9999999.9999
