~VERSION INFORMATION
VERS.           2.0   :CWLS Log ASCII Standard - VERSION 2.0
WRAP.           NO    :One Line per depth step
PROD.  Schlumberger   :LAS Producer
PROG.  DLIS to ASCII 19C2-270                          :LAS Program name and version
CREA.        2018/08/03 10:59                          :LAS Creation date {YYYY/MM/DD hh:mm}
DLIS_CREA.  2018-Aug-03 09:56                          :DLIS Creation date and time {YYYY-MMM-DD hh:mm}
SOURCE.     PERFO_Perfo_093PTP.DLIS                    :DLIS File Name
FILE-ID.     PERFO_Perfo_093PTP                        :File Identification Number
#--------------------------------------------------
~WELL INFORMATION
#MNEM.UNIT      DATA             DESCRIPTION
#---- ------ --------------   -----------------------------
STRT .S            0.0       :START TIME      
STOP .S          101.0       :STOP TIME      
STEP .S            1.0       :STEP     
NULL .          -999.25      :NULL VALUE
COMP .        SHELL INTERNATIONAL EP                   :COMPANY
WELL .        WPP TEST 4                               :WELL
FLD  .        WILDCAT                                  :FIELD
LOC  .        NA                                       :LOCATION
CNTY .        HARRIS                                   :COUNTY
STAT .        TEXAS                                    :STATE
CTRY .                                                 :COUNTRY
API  .        NA                                       :API NUMBER
UWI  .                                                 :UNIQUE WELL ID
DATE .        02-Aug-2018                              :LOG DATE {DD-MMM-YYYY}
SRVC .        Schlumberger                             :SERVICE COMPANY
LATI .DEG                                              :LATITUDE
LONG .DEG                                              :LONGITUDE
GDAT .                                                 :GeoDetic Datum
SECT .        NA                                       :Section
RANG .        NA                                       :Range
TOWN .        NA                                       :Township
#-----------------------------------------------------------------------------
~PARAMETER INFORMATION
#MNEM.UNIT    VALUE                      DESCRIPTION
#---- -----   --------------------       ------------------------
U-PHASE_B_COMP_PER_YT.                 0 :Phase B Comparator Period Yt
U-PHASE_A_COMP_PER_XT.                 0 :Phase A Comparator Period Xt
U-MAX_EXC_CUR_LIMIT.MA       265.00000   :Requested CM Current Limit
U-REQ_EXC_FQ.HZ              50          :Requested CM Frequency
U-TILT_Y_OFFSET.          -2.06578       :WPTET Tilt Y Offset
U-TILT_Y_GAIN.           1.02173         :WPTET Tilt Y Gain
U-TILT_X_OFFSET.           2.30841       :WPTET Tilt X Offset
U-TILT_X_GAIN.           1.00000         :WPTET Tilt X Gain
U-TILT_OFFSET_TOL.           0.00100     :WPTET Tilt Offset Calibration Tolerance
U-MOT_CUR_LIMIT_REQ.MA        70.00000   :Requested Motor Current Limit
U-MOT_SPD_REQ_WPMS.RPM        1.00000    :Requested Motor Speed
U-STD_TOL_TILT.           0.01000        :Tilt Standard Deviation Tolerance
CWEI .LB/F      29.00000                 :Casing Weight
CSIZ .IN         7.00000                 :Current Casing Size
LCC  .               440                 :Logging Company Code
LUN  .              2134                 :Logging Unit Number
HIDE .                                   :Header Identifier
HID1 .                                   :Header Identifier Line 1
R1   .                                   :Remark Line 1
WITN .        MR. KELLY McCOY            :Witness's Name
ENGI .        MORRIS MOORE               :Engineer's Name
LUL  .        IOWA COLONY                :Logging Unit Location
DATE .        02-Aug-20187                :Date as Month-Day-Year
STAT .        TEXAS                      :State or Province
COUN .        HARRIS                     :County or Rig Name
FN   .        WILDCAT                    :Field Name
WN   .        WPP TEST 4                 :Well Name
CN   .        SHELL INTERNATIONAL EP     :Company Name
CLAB .        County                     :County/Rig Label
SLAB .        State                      :State/Province Label
RUN  .          1                        :RUN NUMBER
PDAT .        GROUND LEVEL               :Permanent Datum
EPD  .                                   :Elevation of Permanent Datum above Mean Sea Level
LMF  .          NA                       :Logging Measured From (Name of Logging Elevation Reference)
APD  .                                   :Elevation of Depth Reference (LMF) above Permanent Datum
#-----------------------------------------------------------------------------
~CURVE INFORMATION
#MNEM.UNIT   API CODE                                  DESCRIPTION
#---- -----  --------                                  -----------------------
TIME .S                                                :TIME {F10.1}
FREQ_EMF_SL.HZ                                         :Electromagnetic Field Frequency {F13.4}
PH_SH_WPPCM_SL.DEG                                     :WPPCM Phase Shift {F13.4}
RB_SL.DEG                                              :Relative Bearing {F13.4}
SDEV_SL.DEG                                            :Sonde Deviation {F13.4}
RTIX_SL.DEG                                            :Raw X-axis Tilt {F13.4}
RTIY_SL.DEG                                            :Raw Y-axis Tilt {F13.4}
TILX_SL.DEG                                            :X-axis Tilt {F13.4}
TILY_SL.DEG                                            :Y-axis Tilt {F13.4}
ROTA_SL.DEG                                            :Motor Rotation Angle {F13.4}
TOD7 .S                                                :Time of Day {I11}
TOJ  .S                                                :Time of Job {F13.4}
#-----------------------------------------------------------------------------
# 
#     TIME    FREQ_EMF_SL  PH_SH_WPPCM_    RB_SL       SDEV_SL      RTIX_SL      RTIY_SL      TILX_SL      TILY_SL      ROTA_SL        TOD7            TOJ
#                          SL
~A  
       0.0    1090.1163       0.0000     -10.4355      78.4954     -12.5320    -101.2200     -10.2236    -105.4850      60.7402 1533252198 9999999.9999
       1.0    1123.2029       0.0000      -4.6758      75.1782      -6.8283    -101.2602      -4.5199    -105.5260      65.2131 1533252198 9999999.9999
       2.0    1175.7943       0.0000       4.4221      75.2737       1.9682    -101.0995       4.2766    -105.3619      71.3148 1533252199 9999999.9999
       3.0    1235.7206       0.0000      12.5691      82.8787      10.1622    -100.1757      12.4706    -104.4180      77.4428 1533252200 9999999.9999
       4.0    1309.3575       0.0000      19.1693      89.4639      17.5930     -97.5247      19.9014    -101.7094      83.5446 1533252201 9999999.9999
       5.0    1434.9490       0.0000      24.7931    -999.2500      24.9837     -92.8653      27.2921     -96.9488      89.6726 1533252202 9999999.9999
       6.0    1548.7335       0.0000      29.3693    -999.2500      31.9325     -87.0813      34.2409     -91.0392      96.1824 1533252203 9999999.9999
       7.0    1662.2340       0.0000      33.4997    -999.2500      38.8412     -80.0120      41.1496     -83.8162     102.2842 1533252204 9999999.9999
       8.0    1757.8126       0.0000      37.5767    -999.2500      45.7097     -71.4163      48.0181     -75.0338     108.3860 1533252205 9999999.9999
       9.0    1845.4724       0.0000      42.4937    -999.2500      52.0560     -59.1655      54.3644     -62.5168     114.5009 1533252206 9999999.9999
      10.0    1921.1066       0.0000      51.4474    -999.2500      73.5853     -47.5172      75.8937     -50.6154     120.6027 1533252207 9999999.9999
      11.0    2003.2051       0.0000      55.2074    -999.2500      82.2212     -40.8093      84.5296     -43.7618     126.7045 1533252208 9999999.9999
      12.0    2083.3333       0.0000      59.2549    -999.2500      89.5616     -33.6797      91.8700     -36.4773     132.8064 1533252209 9999999.9999
      13.0    2143.6738       0.0000      63.9874    -999.2500      95.5967     -26.2690      97.9051     -28.9055     138.9083 1533252210 9999999.9999
      14.0    2190.4207       0.0000      69.3896    -999.2500      99.4928     -19.1193     101.8012     -21.6005     145.0102 1533252211 9999999.9999
      15.0    2232.1428       0.0000      76.0988      84.3153     101.1798     -11.6082     103.4882     -13.9262     151.0998 1533252212 9999999.9999
      16.0    2260.8521       0.0000      83.9670      77.1979     101.8225      -3.7355     104.1309      -5.8824     157.2017 1533252213 9999999.9999
      17.0    2282.8735       0.0000      93.6220      76.0827     102.0635       5.4627     104.3719       3.5156     163.3036 1533252214 9999999.9999
      18.0    2312.9111       0.0000     101.7645      83.2731     101.2200      13.4558     103.5284      11.6824     169.4055 1533252215 9999999.9999
      19.0    2320.5444       0.0000     108.8608      89.5509      97.9263      21.2482     100.2347      19.6440     175.9185 1533252216 9999999.9999
      20.0    2312.9111       0.0000     115.0061    -999.2500      92.7047      29.1208      95.0131      27.6878     182.0173 1533252217 9999999.9999
      21.0    2305.3279       0.0000     120.0194    -999.2500      86.0772      36.5517      88.3856      35.2801     188.1323 1533252218 9999999.9999
      22.0    2282.8735       0.0000     124.6711    -999.2500      78.3250      44.1432      80.6334      43.0365     194.2342 1533252219 9999999.9999
      23.0    2268.1450       0.0000     129.1240    -999.2500      68.9662      51.3330      71.2746      50.3825     200.3361 1533252220 9999999.9999
      24.0    2242.8230       0.0000     137.4959    -999.2500      54.4058      66.4256      56.7142      65.8031     206.4387 1533252221 9999999.9999
      25.0    2183.6179       0.0000     141.6957    -999.2500      47.7582      76.5175      50.0666      76.1142     212.5415 1533252222 9999999.9999
      26.0    2130.6819       0.0000     145.5544    -999.2500      40.7692      84.9525      43.0776      84.7325     218.6434 1533252223 9999999.9999
      27.0    2074.1150       0.0000     149.7019    -999.2500      33.4187      92.1423      35.7271      92.0786     224.7453 1533252224 9999999.9999
      28.0    2026.2969       0.0000     154.6877    -999.2500      25.6263      97.8460      27.9347      97.9061     230.8472 1533252225 9999999.9999
      29.0    1942.3344       0.0000     160.6064    -999.2500      17.7135     103.2685      20.0219     103.4465     236.9491 1533252226 9999999.9999
      30.0    1865.0531       0.0000     167.5756      79.9186       9.9212     105.7187      12.2296     105.9499     243.0541 1533252227 9999999.9999
      31.0    1793.6862       0.0000     176.0511      73.9416       1.4862     106.2810       3.7946     106.5244     249.5494 1533252228 9999999.9999
      32.0    1714.9390       0.0000    -175.3413      74.0855      -6.7882     106.3212      -4.4798     106.5654     255.6513 1533252229 9999999.9999
      33.0    1631.3805       0.0000    -167.3983      83.2556     -14.8215     104.0718     -12.5131     104.2672     261.7531 1533252230 9999999.9999
      34.0    1552.1523       0.0000    -160.2830    -999.2500     -23.0155      99.2920     -20.7071      99.3836     267.8549 1533252231 9999999.9999
      35.0    1470.9729       0.0000    -154.2288    -999.2500     -31.1292      93.1867     -28.8208      93.1456     273.9567 1533252232 9999999.9999
      36.0    1362.6454       0.0000    -149.0670    -999.2500     -39.0018      85.8362     -36.6934      85.6354     280.0461 1533252233 9999999.9999
      37.0    1278.4092       0.0000    -144.3317    -999.2500     -46.7138      77.5217     -44.4054      77.1402     286.1479 1533252234 9999999.9999
      38.0    1216.4792       0.0000    -139.6859    -999.2500     -53.9037      68.0423     -51.5953      67.4549     292.2505 1533252235 9999999.9999
      39.0    1173.8313       0.0000    -131.9265    -999.2500     -67.4398      55.4300     -65.1314      54.5686     298.3553 1533252236 9999999.9999
      40.0    1128.6116       0.0000    -127.4924    -999.2500     -76.8388      48.6820     -74.5304      47.6739     304.4541 1533252237 9999999.9999
      41.0    1083.3976       0.0000    -123.3019    -999.2500     -84.9525      41.8135     -82.6441      40.6562     310.5689 1533252238 9999999.9999
      42.0    1035.5303       0.0000    -118.6688    -999.2500     -92.1825      34.4630     -89.8741      33.1460     316.6707 1533252239 9999999.9999
      43.0    1004.4643       0.0000    -113.2066    -999.2500     -98.5690      26.7108     -96.2606      25.2254     323.1806 1533252240 9999999.9999
      44.0     972.5104       0.0000    -106.6037    -999.2500    -103.3488      18.6775    -101.0404      17.0175     329.2855 1533252241 9999999.9999
      45.0     937.5000       0.0000     -99.3162      80.1993    -105.7990      11.0057    -103.4906       9.1790     335.3842 1533252242 9999999.9999
      46.0     906.0889       0.0000     -90.8730      76.2554    -106.0802       2.8518    -103.7718       0.8480     341.4991 1533252243 9999999.9999
      47.0     893.4244       0.0000     -82.2461      78.8281    -105.8793      -5.4225    -103.5709      -7.6061     347.6009 1533252244 9999999.9999
      48.0     875.6227       0.0000     -74.3943      96.3366    -104.3128     -13.4960    -102.0044     -15.8550     353.7189 1533252245 9999999.9999
      49.0     859.5660       0.0000     -67.2449    -999.2500    -100.0953     -22.0113     -97.7869     -24.5554     359.8176 1533252246 9999999.9999
      50.0     849.1848       0.0000     -61.6709    -999.2500     -94.3515     -29.8840     -92.0431     -32.5991       5.9355 1533252247 9999999.9999
      51.0     849.1848       0.0000     -57.0789    -999.2500     -87.6838     -37.3148     -85.3754     -40.1914      12.0343 1533252248 9999999.9999
      52.0     855.3832       0.0000     -52.9916    -999.2500     -79.9317     -44.3842     -77.6233     -47.4143      18.1392 1533252249 9999999.9999
