~VERSION INFORMATION
VERS.           2.0   :CWLS Log ASCII Standard - VERSION 2.0
WRAP.           NO    :One Line per depth step
PROD.  Schlumberger   :LAS Producer
PROG.  DLIS to ASCII 19C2-270                          :LAS Program name and version
CREA.        2018/08/03 10:59                          :LAS Creation date {YYYY/MM/DD hh:mm}
DLIS_CREA.  2018-Aug-03 09:39                          :DLIS Creation date and time {YYYY-MMM-DD hh:mm}
SOURCE.     PERFO_Perfo_081PTP.DLIS                    :DLIS File Name
FILE-ID.     PERFO_Perfo_081PTP                        :File Identification Number
#--------------------------------------------------
~WELL INFORMATION
#MNEM.UNIT      DATA             DESCRIPTION
#---- ------ --------------   -----------------------------
STRT .S            0.0       :START TIME      
STOP .S          383.0       :STOP TIME      
STEP .S            1.0       :STEP     
NULL .          -999.25      :NULL VALUE
COMP .        SHELL INTERNATIONAL EP                   :COMPANY
WELL .        WPP TEST 4                               :WELL
FLD  .        WILDCAT                                  :FIELD
LOC  .        NA                                       :LOCATION
CNTY .        HARRIS                                   :COUNTY
STAT .        TEXAS                                    :STATE
CTRY .                                                 :COUNTRY
API  .        NA                                       :API NUMBER
UWI  .                                                 :UNIQUE WELL ID
DATE .        02-Aug-2018                              :LOG DATE {DD-MMM-YYYY}
SRVC .        Schlumberger                             :SERVICE COMPANY
LATI .DEG                                              :LATITUDE
LONG .DEG                                              :LONGITUDE
GDAT .                                                 :GeoDetic Datum
SECT .        NA                                       :Section
RANG .        NA                                       :Range
TOWN .        NA                                       :Township
#-----------------------------------------------------------------------------
~PARAMETER INFORMATION
#MNEM.UNIT    VALUE                      DESCRIPTION
#---- -----   --------------------       ------------------------
U-PHASE_B_COMP_PER_YT.                 0 :Phase B Comparator Period Yt
U-PHASE_A_COMP_PER_XT.                 0 :Phase A Comparator Period Xt
U-MAX_EXC_CUR_LIMIT.MA       265.00000   :Requested CM Current Limit
U-REQ_EXC_FQ.HZ              50          :Requested CM Frequency
U-TILT_Y_OFFSET.          -2.06578       :WPTET Tilt Y Offset
U-TILT_Y_GAIN.           1.02173         :WPTET Tilt Y Gain
U-TILT_X_OFFSET.           2.30841       :WPTET Tilt X Offset
U-TILT_X_GAIN.           1.00000         :WPTET Tilt X Gain
U-TILT_OFFSET_TOL.           0.00100     :WPTET Tilt Offset Calibration Tolerance
U-MOT_CUR_LIMIT_REQ.MA        70.00000   :Requested Motor Current Limit
U-MOT_SPD_REQ_WPMS.RPM        1.00000    :Requested Motor Speed
U-STD_TOL_TILT.           0.01000        :Tilt Standard Deviation Tolerance
CWEI .LB/F      29.00000                 :Casing Weight
CSIZ .IN         7.00000                 :Current Casing Size
LCC  .               440                 :Logging Company Code
LUN  .              2134                 :Logging Unit Number
HIDE .                                   :Header Identifier
HID1 .                                   :Header Identifier Line 1
R1   .                                   :Remark Line 1
WITN .        MR. KELLY McCOY            :Witness's Name
ENGI .        MORRIS MOORE               :Engineer's Name
LUL  .        IOWA COLONY                :Logging Unit Location
DATE .        02-Aug-2018                :Date as Month-Day-Year
STAT .        TEXAS                      :State or Province
COUN .        HARRIS                     :County or Rig Name
FN   .        WILDCAT                    :Field Name
WN   .        WPP TEST 4                 :Well Name
CN   .        SHELL INTERNATIONAL EP     :Company Name
CLAB .        County                     :County/Rig Label
SLAB .        State                      :State/Province Label
RUN  .          1                        :RUN NUMBER
PDAT .        GROUND LEVEL               :Permanent Datum
EPD  .                                   :Elevation of Permanent Datum above Mean Sea Level
LMF  .          NA                       :Logging Measured From (Name of Logging Elevation Reference)
APD  .                                   :Elevation of Depth Reference (LMF) above Permanent Datum
#-----------------------------------------------------------------------------
~CURVE INFORMATION
#MNEM.UNIT   API CODE                                  DESCRIPTION
#---- -----  --------                                  -----------------------
TIME .S                                                :TIME {F10.1}
FREQ_EMF_SL.HZ                                         :Electromagnetic Field Frequency {F13.4}
PH_SH_WPPCM_SL.DEG                                     :WPPCM Phase Shift {F13.4}
RB_SL.DEG                                              :Relative Bearing {F13.4}
SDEV_SL.DEG                                            :Sonde Deviation {F13.4}
RTIX_SL.DEG                                            :Raw X-axis Tilt {F13.4}
RTIY_SL.DEG                                            :Raw Y-axis Tilt {F13.4}
TILX_SL.DEG                                            :X-axis Tilt {F13.4}
TILY_SL.DEG                                            :Y-axis Tilt {F13.4}
ROTA_SL.DEG                                            :Motor Rotation Angle {F13.4}
TOD7 .S                                                :Time of Day {I11}
TOJ  .S                                                :Time of Job {F13.4}
#-----------------------------------------------------------------------------
# 
#     TIME    FREQ_EMF_SL  PH_SH_WPPCM_    RB_SL       SDEV_SL      RTIX_SL      RTIY_SL      TILX_SL      TILY_SL      ROTA_SL        TOD7            TOJ
#                          SL
~A  
# ...
     265.0     752.0054       0.0000     -15.9443      87.2082     -18.3562    -100.3765     -16.0478    -104.6232     176.9553 1533245289 9999999.9999
     266.0     811.9227       0.0000      -8.5148      77.0181     -10.6040    -101.2200      -8.2956    -105.4850     183.0549 1533245290 9999999.9999
     267.0     877.8090       0.0000       0.3528      74.6421      -1.9682    -101.0995       0.3402    -105.3619     189.1599 1533245291 9999999.9999
     268.0     955.3329       0.0000       9.0516      78.1016       6.5472    -100.6577       8.8556    -104.9105     195.2649 1533245292 9999999.9999
     269.0    1041.6666       0.0000      16.1778      92.5826      14.0985     -98.9707      16.4069    -103.1868     201.3637 1533245293 9999999.9999
     270.0    1158.3608       0.0000      22.4831    -999.2500      21.8105     -94.9942      24.1189     -99.1239     207.4625 1533245294 9999999.9999
     271.0    1339.2858       0.0000      27.4004    -999.2500      28.8397     -89.7323      31.1481     -93.7477     213.5736 1533245295 9999999.9999
     272.0    1521.9155       0.0000      31.6842    -999.2500      35.7483     -83.2253      38.0567     -87.0994     219.6725 1533245296 9999999.9999
     273.0    1674.1072       0.0000      35.6730    -999.2500      42.5365     -75.5133      44.8449     -79.2198     225.7713 1533245297 9999999.9999
     274.0    1821.5673       0.0000      40.0322    -999.2500      49.3247     -65.4717      51.6331     -68.9600     231.8763 1533245298 9999999.9999
     275.0    1969.5378       0.0000      49.7269    -999.2500      68.8858     -50.1682      71.1942     -53.3240     237.9812 1533245299 9999999.9999
     276.0    2105.1646       0.0000      53.6692    -999.2500      78.7668     -43.5808      81.0752     -46.5935     244.4850 1533245300 9999999.9999
     277.0    2218.0601       0.0000      57.4934    -999.2500      86.5190     -36.7123      88.8274     -39.5758     250.5969 1533245301 9999999.9999
     278.0    2320.5444       0.0000      61.6929    -999.2500      92.9457     -29.7233      95.2541     -32.4349     256.7018 1533245302 9999999.9999
     279.0    2399.7441       0.0000      66.6314    -999.2500      97.8460     -22.6138     100.1544     -25.1709     262.8066 1533245303 9999999.9999
     280.0    2475.7922       0.0000      72.7155    -999.2500     100.5372     -15.2633     102.8456     -17.6607     268.9052 1533245304 9999999.9999
     281.0    2484.5405       0.0000      80.2420      80.2950     101.4208      -7.3907     103.7292      -9.6170     275.0099 1533245305 9999999.9999
     282.0    2475.7922       0.0000      89.7318      75.8314     101.8627       1.7673     104.1711      -0.2600     281.1147 1533245306 9999999.9999
     283.0    2475.7922       0.0000      98.5660      78.7191     101.8225      10.2425     104.1309       8.3993     287.2133 1533245307 9999999.9999
     284.0    2493.3511       0.0000     105.8793      99.8647      99.6937      17.8340     102.0021      16.1557     293.3119 1533245308 9999999.9999
     285.0    2493.3511       0.0000     112.4951    -999.2500      95.1950      25.7468      97.5034      24.2405     299.4166 1533245309 9999999.9999
     286.0    2484.5405       0.0000     118.0077    -999.2500      89.2102      33.4588      91.5186      32.1200     305.5213 1533245310 9999999.9999
     287.0    2484.5405       0.0000     122.7109    -999.2500      81.8597      40.8897      84.1681      39.7123     311.6199 1533245311 9999999.9999
     288.0    2493.3511       0.0000     127.1717    -999.2500      73.3042      48.2803      75.6126      47.2635     318.1365 1533245312 9999999.9999
     289.0    2475.7922       0.0000     131.8954    -999.2500      62.5797      55.1890      64.8881      54.3223     324.2543 1533245313 9999999.9999
     290.0    2493.3511       0.0000     139.6471    -999.2500      51.2125      71.6573      53.5209      71.1485     330.3591 1533245314 9999999.9999
     291.0    2475.7922       0.0000     143.4723    -999.2500      44.6252      80.8153      46.9336      80.5054     336.4577 1533245315 9999999.9999
     292.0    2493.3511       0.0000     147.4406    -999.2500      37.3550      88.5273      39.6634      88.3850     342.5624 1533245316 9999999.9999
     293.0    2493.3511       0.0000     151.9484    -999.2500      29.7233      95.5163      32.0317      95.5259     348.6802 1533245317 9999999.9999
     294.0    2484.5405       0.0000     157.8081    -999.2500      21.2482     101.4208      23.5566     101.5586     354.7788 1533245318 9999999.9999
     295.0    2449.9128       0.0000     164.4960      83.2931      13.2148     105.0358      15.5232     105.2522       0.8774 1533245319 9999999.9999
     296.0    2359.4797       0.0000     172.3843      75.4308       5.0610     106.1605       7.3694     106.4013       6.9823 1533245320 9999999.9999
     297.0    2260.8521       0.0000    -179.0137      73.3809      -3.2535     106.4015      -0.9451     106.6475      13.0872 1533245321 9999999.9999
     298.0    2137.1582       0.0000    -170.6768      77.4611     -11.4073     105.3572      -9.0989     105.5805      19.1859 1533245322 9999999.9999
     299.0    2003.2051       0.0000    -163.0717      92.6968     -19.6415     101.6618     -17.3331     101.8049      25.2847 1533245323 9999999.9999
     300.0    1840.6414       0.0000    -156.5135    -999.2500     -27.9158      95.9180     -25.6074      95.9362      31.7945 1533245324 9999999.9999
     301.0    1682.1173       0.0000    -151.1125    -999.2500     -35.7885      89.0495     -33.4801      88.9185      37.8871 1533245325 9999999.9999
     302.0    1528.5327       0.0000    -146.2322    -999.2500     -43.6210      81.1768     -41.3126      80.8748      43.9989 1533245326 9999999.9999
     303.0    1329.1588       0.0000    -141.6852    -999.2500     -50.9715      72.3402     -48.6631      71.8461      50.1038 1533245327 9999999.9999
     304.0    1137.7427       0.0000    -135.9109    -999.2500     -58.4425      59.7680     -56.1341      59.0008      56.2087 1533245328 9999999.9999
     305.0    1023.4716       0.0000    -129.1504    -999.2500     -73.4247      51.3330     -71.1162      50.3825      62.3074 1533245329 9999999.9999
     306.0     931.2914       0.0000    -124.6852    -999.2500     -82.5023      44.1030     -80.1939      42.9955      68.3939 1533245330 9999999.9999
     307.0     850.2117       0.0000    -120.2290    -999.2500     -90.0537      36.8730     -87.7453      35.6084      74.4987 1533245331 9999999.9999
     308.0     776.9337       0.0000    -114.9572    -999.2500     -96.7213      29.0807     -94.4129      27.6467      80.6036 1533245332 9999999.9999
     309.0     710.2273       0.0000    -108.6321    -999.2500    -102.2242      21.0072     -99.9157      19.3978      86.7023 1533245333 9999999.9999
     310.0     656.5126       0.0000    -101.4647      83.7265    -105.3572      13.1747    -103.0488      11.3951      92.8010 1533245334 9999999.9999
     311.0     617.8603       0.0000     -92.9403      76.4987    -106.1203       4.8200    -103.8119       2.8589      98.9058 1533245335 9999999.9999
     312.0     591.3583       0.0000     -84.3944      77.4886    -105.9998      -3.3338    -103.6914      -5.4720     105.4156 1533245336 9999999.9999
     313.0     569.7933       0.0000     -76.0310      89.5578    -104.9153     -11.7287    -102.6069     -14.0493     111.5144 1533245337 9999999.9999
     314.0     553.6417       0.0000     -69.1657    -999.2500    -101.7020     -19.5612     -99.3936     -22.0520     117.6068 1533245338 9999999.9999
     315.0     544.2144       0.0000     -63.3374    -999.2500     -96.4402     -27.3937     -94.1318     -30.0546     123.7116 1533245339 9999999.9999
     316.0     536.7366       0.0000     -58.4414    -999.2500     -89.8127     -35.0253     -87.5042     -37.8521     129.8104 1533245340 9999999.9999
     317.0     538.7931       0.0000     -54.3308    -999.2500     -82.6228     -42.0545     -80.3144     -45.0340     135.9092 1533245341 9999999.9999
