~VERSION INFORMATION
VERS.           2.0   :CWLS Log ASCII Standard - VERSION 2.0
WRAP.           NO    :One Line per depth step
PROD.  Schlumberger   :LAS Producer
PROG.  DLIS to ASCII 19C2-270                          :LAS Program name and version
CREA.        2018/08/03 10:59                          :LAS Creation date {YYYY/MM/DD hh:mm}
DLIS_CREA.  2018-Aug-03 09:55                          :DLIS Creation date and time {YYYY-MMM-DD hh:mm}
SOURCE.     PERFO_Perfo_092PTP.DLIS                    :DLIS File Name
FILE-ID.     PERFO_Perfo_092PTP                        :File Identification Number
#--------------------------------------------------
~WELL INFORMATION
#MNEM.UNIT      DATA             DESCRIPTION
#---- ------ --------------   -----------------------------
STRT .S            0.0       :START TIME      
STOP .S          161.0       :STOP TIME      
STEP .S            1.0       :STEP     
NULL .          -999.25      :NULL VALUE
COMP .        SHELL INTERNATIONAL EP                   :COMPANY
WELL .        WPP TEST 4                               :WELL
FLD  .        WILDCAT                                  :FIELD
LOC  .        NA                                       :LOCATION
CNTY .        HARRIS                                   :COUNTY
STAT .        TEXAS                                    :STATE
CTRY .                                                 :COUNTRY
API  .        NA                                       :API NUMBER
UWI  .                                                 :UNIQUE WELL ID
DATE .        02-Aug-2018                              :LOG DATE {DD-MMM-YYYY}
SRVC .        Schlumberger                             :SERVICE COMPANY
LATI .DEG                                              :LATITUDE
LONG .DEG                                              :LONGITUDE
GDAT .                                                 :GeoDetic Datum
SECT .        NA                                       :Section
RANG .        NA                                       :Range
TOWN .        NA                                       :Township
#-----------------------------------------------------------------------------
~PARAMETER INFORMATION
#MNEM.UNIT    VALUE                      DESCRIPTION
#---- -----   --------------------       ------------------------
U-PHASE_B_COMP_PER_YT.                 0 :Phase B Comparator Period Yt
U-PHASE_A_COMP_PER_XT.                 0 :Phase A Comparator Period Xt
U-MAX_EXC_CUR_LIMIT.MA       265.00000   :Requested CM Current Limit
U-REQ_EXC_FQ.HZ              50          :Requested CM Frequency
U-TILT_Y_OFFSET.          -2.06578       :WPTET Tilt Y Offset
U-TILT_Y_GAIN.           1.02173         :WPTET Tilt Y Gain
U-TILT_X_OFFSET.           2.30841       :WPTET Tilt X Offset
U-TILT_X_GAIN.           1.00000         :WPTET Tilt X Gain
U-TILT_OFFSET_TOL.           0.00100     :WPTET Tilt Offset Calibration Tolerance
U-MOT_CUR_LIMIT_REQ.MA        70.00000   :Requested Motor Current Limit
U-MOT_SPD_REQ_WPMS.RPM        1.00000    :Requested Motor Speed
U-STD_TOL_TILT.           0.01000        :Tilt Standard Deviation Tolerance
CWEI .LB/F      29.00000                 :Casing Weight
CSIZ .IN         7.00000                 :Current Casing Size
LCC  .               440                 :Logging Company Code
LUN  .              2134                 :Logging Unit Number
HIDE .                                   :Header Identifier
HID1 .                                   :Header Identifier Line 1
R1   .                                   :Remark Line 1
WITN .        MR. KELLY McCOY            :Witness's Name
ENGI .        MORRIS MOORE               :Engineer's Name
LUL  .        IOWA COLONY                :Logging Unit Location
DATE .        02-Aug-2018                :Date as Month-Day-Year
STAT .        TEXAS                      :State or Province
COUN .        HARRIS                     :County or Rig Name
FN   .        WILDCAT                    :Field Name
WN   .        WPP TEST 4                 :Well Name
CN   .        SHELL INTERNATIONAL EP     :Company Name
CLAB .        County                     :County/Rig Label
SLAB .        State                      :State/Province Label
RUN  .          1                        :RUN NUMBER
PDAT .        GROUND LEVEL               :Permanent Datum
EPD  .                                   :Elevation of Permanent Datum above Mean Sea Level
LMF  .          NA                       :Logging Measured From (Name of Logging Elevation Reference)
APD  .                                   :Elevation of Depth Reference (LMF) above Permanent Datum
#-----------------------------------------------------------------------------
~CURVE INFORMATION
#MNEM.UNIT   API CODE                                  DESCRIPTION
#---- -----  --------                                  -----------------------
TIME .S                                                :TIME {F10.1}
FREQ_EMF_SL.HZ                                         :Electromagnetic Field Frequency {F13.4}
PH_SH_WPPCM_SL.DEG                                     :WPPCM Phase Shift {F13.4}
RB_SL.DEG                                              :Relative Bearing {F13.4}
SDEV_SL.DEG                                            :Sonde Deviation {F13.4}
RTIX_SL.DEG                                            :Raw X-axis Tilt {F13.4}
RTIY_SL.DEG                                            :Raw Y-axis Tilt {F13.4}
TILX_SL.DEG                                            :X-axis Tilt {F13.4}
TILY_SL.DEG                                            :Y-axis Tilt {F13.4}
ROTA_SL.DEG                                            :Motor Rotation Angle {F13.4}
TOD7 .S                                                :Time of Day {I11}
TOJ  .S                                                :Time of Job {F13.4}
#-----------------------------------------------------------------------------
# 
#     TIME    FREQ_EMF_SL  PH_SH_WPPCM_    RB_SL       SDEV_SL      RTIX_SL      RTIY_SL      TILX_SL      TILY_SL      ROTA_SL        TOD7            TOJ
#                          SL
~A  
       0.0    2441.4063       0.0000      25.9400    -999.2500      26.6305     -91.8210      28.9389     -95.8818     213.7213 1533251849 9999999.9999
       1.0    2449.9128       0.0000      28.8987    -999.2500      31.1693     -88.1658      33.4777     -92.1472     218.1881 1533251849 9999999.9999
       2.0    2441.4063       0.0000      33.0652    -999.2500      38.1182     -81.0965      40.4266     -84.9243     224.2930 1533251850 9999999.9999
       3.0    2441.4063       0.0000      37.1912    -999.2500      45.1875     -72.6615      47.4959     -76.3060     230.8030 1533251851 9999999.9999
       4.0    2449.9128       0.0000      41.8605    -999.2500      51.7347     -61.2140      54.0431     -64.6098     236.9018 1533251852 9999999.9999
       5.0    2441.4063       0.0000      51.0113    -999.2500      72.7017     -48.3205      75.0101     -51.4361     243.0068 1533251853 9999999.9999
       6.0    2441.4063       0.0000      54.7622    -999.2500      81.6187     -41.6528      83.9271     -44.6236     249.1117 1533251854 9999999.9999
       7.0    2441.4063       0.0000      58.6014    -999.2500      88.9290     -34.7843      91.2374     -37.6059     255.2236 1533251855 9999999.9999
       8.0    2441.4063       0.0000      62.9561    -999.2500      94.9540     -27.7552      97.2624     -30.4240     261.3222 1533251856 9999999.9999
       9.0    2441.4063       0.0000      68.6221    -999.2500      99.3322     -20.0432     101.6406     -22.5444     267.4280 1533251857 9999999.9999
      10.0    2432.9585       0.0000      75.1329 -531906.5844     101.3003     -12.6123     103.6087     -14.9521     273.5203 1533251858 9999999.9999
      11.0    2367.4243       0.0000      83.5085      77.3760     101.8627      -4.1773     104.1711      -6.3339     279.6189 1533251859 9999999.9999
      12.0    2320.5444       0.0000      92.3592      75.5340     102.3447       4.2577     104.6531       2.2844     285.7175 1533251860 9999999.9999
      13.0    2253.6057       0.0000     100.8251      81.2443     101.5815      12.4918     103.8899      10.6975     291.8222 1533251861 9999999.9999
      14.0    2156.8252       0.0000     108.1258      84.3492      98.7297      20.3645     101.0381      18.7412     297.9269 1533251862 9999999.9999
      15.0    2068.0146       0.0000     114.3724    -999.2500      93.5883      28.2372      95.8967      26.7849     304.4497 1533251863 9999999.9999
      16.0    1980.6338       0.0000     119.5539    -999.2500      87.2822      35.8287      89.5906      34.5413     310.5491 1533251864 9999999.9999
      17.0    1865.0531       0.0000     124.1923    -999.2500      79.4898      43.3800      81.7982      42.2567     316.6538 1533251865 9999999.9999
      18.0    1744.7272       0.0000     128.6087    -999.2500      70.4122      50.6502      72.7206      49.6849     322.7524 1533251866 9999999.9999
      19.0    1627.6041       0.0000     136.0017    -999.2500      55.4702      61.8968      57.7786      61.1759     328.8510 1533251867 9999999.9999
      20.0    1477.1533       0.0000     140.8941    -999.2500      49.2443      74.9108      51.5527      74.4727     334.9557 1533251868 9999999.9999
      21.0    1304.4990       0.0000     144.9986    -999.2500      41.8135      84.0688      44.1219      83.8296     341.0605 1533251869 9999999.9999
      22.0    1216.4792       0.0000     149.0404    -999.2500      34.5433      91.3792      36.8517      91.2988     347.1468 1533251870 9999999.9999
      23.0    1139.5867       0.0000     153.8616    -999.2500      26.7510      98.1272      29.0594      98.1934     353.2454 1533251871 9999999.9999
      24.0    1052.5823       0.0000     159.9426    -999.2500      18.5168     102.9873      20.8252     103.1592     359.3379 1533251872 9999999.9999
      25.0     969.8276       0.0000     166.7566      80.8828      10.7647     105.7990      13.0731     106.0319       5.4428 1533251873 9999999.9999
      26.0     911.9650       0.0000     175.6751      73.9512       1.8477     106.3613       4.1561     106.6065      11.5415 1533251874 9999999.9999
      27.0     851.2409       0.0000    -175.7929      73.7085      -6.3463     106.5622      -4.0379     106.8117      18.0391 1533251875 9999999.9999
      28.0     799.0057       0.0000    -168.3289      80.5017     -13.8173     104.7948     -11.5089     105.0060      24.1440 1533251876 9999999.9999
      29.0     756.0484       0.0000    -161.0859      84.2321     -22.0113     100.1757     -19.7029     100.2864      30.2427 1533251877 9999999.9999
      30.0     723.3796       0.0000    -154.7231    -999.2500     -30.4062      94.1507     -28.0978      94.1305      36.3290 1533251878 9999999.9999
      31.0     702.4226       0.0000    -149.5278    -999.2500     -38.2788      86.8002     -35.9704      86.6203      42.4216 1533251879 9999999.9999
      32.0     686.6455       0.0000    -145.0292    -999.2500     -45.6293      79.1283     -43.3209      78.7818      48.5265 1533251880 9999999.9999
      33.0     667.7350       0.0000    -140.4106    -999.2500     -52.9899      69.8599     -50.6815      69.3120      54.6127 1533251881 9999999.9999
      34.0     664.5794       0.0000    -132.5491    -999.2500     -66.3152      56.4342     -64.0068      55.5945      60.7115 1533251882 9999999.9999
      35.0     662.7003       0.0000    -128.0473    -999.2500     -76.0355      49.6862     -73.7271      48.6999      66.8294 1533251883 9999999.9999
      36.0     656.5126       0.0000    -123.9411    -999.2500     -84.0688      42.8980     -81.7604      41.7643      72.9342 1533251884 9999999.9999
      37.0     663.9518       0.0000    -119.3760    -999.2500     -91.4997      35.5475     -89.1913      34.2541      79.0330 1533251885 9999999.9999
      38.0     667.7350       0.0000    -114.0551    -999.2500     -97.9263      27.8355     -95.6179      26.3745      85.1378 1533251886 9999999.9999
      39.0     684.6397       0.0000    -107.5057    -999.2500    -103.1882      19.6817    -100.8798      18.0435      91.2373 1533251887 9999999.9999
      40.0     698.9314       0.0000    -100.7325      81.5792    -105.9195      12.4115    -103.6111      10.6154      97.7471 1533251888 9999999.9999
      41.0     719.6776       0.0000     -91.8450      76.2284    -106.2007       3.7757    -103.8923       1.7919     103.8458 1533251889 9999999.9999
      42.0     741.6931       0.0000     -83.1883      78.0024    -106.0802      -4.4987    -103.7718      -6.6622     109.9507 1533251890 9999999.9999
      43.0     778.6545       0.0000     -74.9721      92.2547    -104.7547     -12.8533    -102.4463     -15.1984     116.0555 1533251891 9999999.9999
      44.0     832.1006       0.0000     -68.3337    -999.2500    -101.0593     -20.6055     -98.7509     -23.1190     122.1543 1533251892 9999999.9999
      45.0     907.5508       0.0000     -62.3413    -999.2500     -95.4962     -28.8597     -93.1878     -31.5526     128.2663 1533251893 9999999.9999
      46.0     997.3405       0.0000     -57.3936    -999.2500     -88.4068     -36.7927     -86.0984     -39.6578     134.3712 1533251894 9999999.9999
      47.0    1080.0691       0.0000     -53.2714    -999.2500     -80.8957     -43.9825     -78.5872     -47.0039     140.4762 1533251895 9999999.9999
      48.0    1197.8279       0.0000     -49.1171    -999.2500     -71.6573     -50.9313     -69.3489     -54.1037     146.5750 1533251896 9999999.9999
      49.0    1367.9475       0.0000     -41.8422    -999.2500     -56.5145     -61.5353     -54.2061     -64.9381     152.6738 1533251897 9999999.9999
      50.0    1502.4038       0.0000     -36.3645    -999.2500     -48.8025     -76.3568     -46.4941     -80.0816     158.7980 1533251898 9999999.9999
      51.0    1642.8153       0.0000     -32.3576    -999.2500     -41.6127     -84.8722     -39.3043     -88.7820     164.8968 1533251899 9999999.9999
      52.0    1771.0958       0.0000     -28.0928    -999.2500     -34.3827     -91.7808     -32.0743     -95.8408     171.4006 1533251900 9999999.9999
