~VERSION INFORMATION
VERS.           2.0   :CWLS Log ASCII Standard - VERSION 2.0
WRAP.           NO    :One Line per depth step
PROD.  Schlumberger   :LAS Producer
PROG.  DLIS to ASCII 19C2-270                          :LAS Program name and version
CREA.        2018/08/03 10:59                          :LAS Creation date {YYYY/MM/DD hh:mm}
DLIS_CREA.  2018-Aug-03 09:40                          :DLIS Creation date and time {YYYY-MMM-DD hh:mm}
SOURCE.     PERFO_Perfo_082PTP.DLIS                    :DLIS File Name
FILE-ID.     PERFO_Perfo_082PTP                        :File Identification Number
#--------------------------------------------------
~WELL INFORMATION
#MNEM.UNIT      DATA             DESCRIPTION
#---- ------ --------------   -----------------------------
STRT .S            0.0       :START TIME      
STOP .S          387.0       :STOP TIME      
STEP .S            1.0       :STEP     
NULL .          -999.25      :NULL VALUE
COMP .        SHELL INTERNATIONAL EP                   :COMPANY
WELL .        WPP TEST 4                               :WELL
FLD  .        WILDCAT                                  :FIELD
LOC  .        NA                                       :LOCATION
CNTY .        HARRIS                                   :COUNTY
STAT .        TEXAS                                    :STATE
CTRY .                                                 :COUNTRY
API  .        NA                                       :API NUMBER
UWI  .                                                 :UNIQUE WELL ID
DATE .        02-Aug-2018                              :LOG DATE {DD-MMM-YYYY}
SRVC .        Schlumberger                             :SERVICE COMPANY
LATI .DEG                                              :LATITUDE
LONG .DEG                                              :LONGITUDE
GDAT .                                                 :GeoDetic Datum
SECT .        NA                                       :Section
RANG .        NA                                       :Range
TOWN .        NA                                       :Township
#-----------------------------------------------------------------------------
~PARAMETER INFORMATION
#MNEM.UNIT    VALUE                      DESCRIPTION
#---- -----   --------------------       ------------------------
U-PHASE_B_COMP_PER_YT.                 0 :Phase B Comparator Period Yt
U-PHASE_A_COMP_PER_XT.                 0 :Phase A Comparator Period Xt
U-MAX_EXC_CUR_LIMIT.MA       265.00000   :Requested CM Current Limit
U-REQ_EXC_FQ.HZ              50          :Requested CM Frequency
U-TILT_Y_OFFSET.          -2.06578       :WPTET Tilt Y Offset
U-TILT_Y_GAIN.           1.02173         :WPTET Tilt Y Gain
U-TILT_X_OFFSET.           2.30841       :WPTET Tilt X Offset
U-TILT_X_GAIN.           1.00000         :WPTET Tilt X Gain
U-TILT_OFFSET_TOL.           0.00100     :WPTET Tilt Offset Calibration Tolerance
U-MOT_CUR_LIMIT_REQ.MA        70.00000   :Requested Motor Current Limit
U-MOT_SPD_REQ_WPMS.RPM        1.00000    :Requested Motor Speed
U-STD_TOL_TILT.           0.01000        :Tilt Standard Deviation Tolerance
CWEI .LB/F      29.00000                 :Casing Weight
CSIZ .IN         7.00000                 :Current Casing Size
LCC  .               440                 :Logging Company Code
LUN  .              2134                 :Logging Unit Number
HIDE .                                   :Header Identifier
HID1 .                                   :Header Identifier Line 1
R1   .                                   :Remark Line 1
WITN .        MR. KELLY McCOY            :Witness's Name
ENGI .        MORRIS MOORE               :Engineer's Name
LUL  .        IOWA COLONY                :Logging Unit Location
DATE .        02-Aug-2018                :Date as Month-Day-Year
STAT .        TEXAS                      :State or Province
COUN .        HARRIS                     :County or Rig Name
FN   .        WILDCAT                    :Field Name
WN   .        WPP TEST 4                 :Well Name
CN   .        SHELL INTERNATIONAL EP     :Company Name
CLAB .        County                     :County/Rig Label
SLAB .        State                      :State/Province Label
RUN  .          1                        :RUN NUMBER
PDAT .        GROUND LEVEL               :Permanent Datum
EPD  .                                   :Elevation of Permanent Datum above Mean Sea Level
LMF  .          NA                       :Logging Measured From (Name of Logging Elevation Reference)
APD  .                                   :Elevation of Depth Reference (LMF) above Permanent Datum
#-----------------------------------------------------------------------------
~CURVE INFORMATION
#MNEM.UNIT   API CODE                                  DESCRIPTION
#---- -----  --------                                  -----------------------
TIME .S                                                :TIME {F10.1}
FREQ_EMF_SL.HZ                                         :Electromagnetic Field Frequency {F13.4}
PH_SH_WPPCM_SL.DEG                                     :WPPCM Phase Shift {F13.4}
RB_SL.DEG                                              :Relative Bearing {F13.4}
SDEV_SL.DEG                                            :Sonde Deviation {F13.4}
RTIX_SL.DEG                                            :Raw X-axis Tilt {F13.4}
RTIY_SL.DEG                                            :Raw Y-axis Tilt {F13.4}
TILX_SL.DEG                                            :X-axis Tilt {F13.4}
TILY_SL.DEG                                            :Y-axis Tilt {F13.4}
ROTA_SL.DEG                                            :Motor Rotation Angle {F13.4}
TOD7 .S                                                :Time of Day {I11}
TOJ  .S                                                :Time of Job {F13.4}
#-----------------------------------------------------------------------------
# 
#     TIME    FREQ_EMF_SL  PH_SH_WPPCM_    RB_SL       SDEV_SL      RTIX_SL      RTIY_SL      TILX_SL      TILY_SL      ROTA_SL        TOD7            TOJ
#                          SL
~A  
# ...
     212.0    2493.3511       0.0000     154.9160    -999.2500      25.2247      98.9707      27.5331      99.0552      17.8561 1533245675 9999999.9999
     213.0    2484.5405       0.0000     161.1375    -999.2500      17.0708     103.5898      19.3792     103.7748      23.9549 1533245676 9999999.9999
     214.0    2493.3511       0.0000     168.8609      78.2816       8.5957     105.8793      10.9041     106.1140      30.0667 1533245677 9999999.9999
     215.0    2441.4063       0.0000     177.3848      73.6366       0.2008     106.3212       2.5092     106.5654      36.1716 1533245678 9999999.9999
     216.0    2343.7500       0.0000    -173.9399      74.7307      -8.1538     106.1605      -5.8454     106.4013      42.2765 1533245679 9999999.9999
     217.0    2232.1428       0.0000    -166.0301      84.2395     -16.3077     103.3087     -13.9993     103.4875      48.3752 1533245680 9999999.9999
     218.0    2074.1150       0.0000    -159.0322    -999.2500     -24.5820      98.4083     -22.2736      98.4807      54.4739 1533245681 9999999.9999
     219.0    1931.6620       0.0000    -153.1279    -999.2500     -32.7358      91.9415     -30.4274      91.8734      60.5663 1533245682 9999999.9999
     220.0    1757.8126       0.0000    -148.1277    -999.2500     -40.5282      84.5107     -38.2198      84.2811      67.0761 1533245683 9999999.9999
     221.0    1572.9866       0.0000    -143.6134    -999.2500     -47.9188      76.2765     -45.6104      75.8680      73.1749 1533245684 9999999.9999
     222.0    1389.5751       0.0000    -138.8730    -999.2500     -55.1087      66.4357     -52.8003      65.8133      79.2797 1533245685 9999999.9999
     223.0    1150.7773       0.0000    -131.1133    -999.2500     -69.2473      54.3053     -66.9389      53.4195      85.3846 1533245686 9999999.9999
     224.0     991.7137       0.0000    -126.8181    -999.2500     -78.4053      47.6377     -76.0969      46.6069      91.4833 1533245687 9999999.9999
     225.0     892.2906       0.0000    -122.5076    -999.2500     -86.4788      40.5282     -84.1704      39.3430      97.5820 1533245688 9999999.9999
     226.0     810.0518       0.0000    -117.2976    -999.2500     -94.1105      32.4145     -91.8021      31.0530     103.6868 1533245689 9999999.9999
     227.0     737.8017       0.0000    -111.5631    -999.2500    -100.0953      24.5820     -97.7869      23.0503     109.7917 1533245690 9999999.9999
     228.0     673.4914       0.0000    -104.6460    -999.2500    -104.4735      16.5085    -102.1651      14.8014     115.8904 1533245691 9999999.9999
     229.0     617.8603       0.0000     -96.9033      78.2408    -105.9195       8.6358    -103.6111       6.7577     121.9891 1533245692 9999999.9999
     230.0     583.5062       0.0000     -88.2964      76.3320    -106.0802       0.4017    -103.7718      -1.6554     128.0940 1533245693 9999999.9999
     231.0     554.0780       0.0000     -79.5300      81.5734    -105.7187      -8.1137    -103.4103     -10.3557     134.1989 1533245694 9999999.9999
     232.0     527.4756       0.0000     -72.1321      84.5598    -103.4292     -16.0265    -101.1208     -18.4405     140.7027 1533245695 9999999.9999
     233.0     508.7735       0.0000     -65.7337    -999.2500     -98.8502     -24.0197     -96.5418     -26.6073     146.8077 1533245696 9999999.9999
     234.0     495.8568       0.0000     -60.5310    -999.2500     -92.8252     -31.6513     -90.5168     -34.4048     152.9004 1533245697 9999999.9999
     235.0     488.9604       0.0000     -56.1140    -999.2500     -85.9567     -38.9617     -83.6483     -41.8740     158.9992 1533245698 9999999.9999
     236.0     486.5917       0.0000     -52.0630    -999.2500     -78.0037     -45.9908     -75.6953     -49.0559     165.0980 1533245699 9999999.9999
     237.0     491.0091       0.0000     -47.8230    -999.2500     -68.4440     -52.7388     -66.1356     -55.9505     171.2030 1533245700 9999999.9999
     238.0     502.9507       0.0000     -39.0106    -999.2500     -53.1706     -69.6490     -50.8622     -73.2281     177.3080 1533245701 9999999.9999
     239.0     520.8333       0.0000     -34.8925    -999.2500     -46.1515     -79.5300     -43.8431     -83.3237     183.4068 1533245702 9999999.9999
     240.0     542.5347       0.0000     -30.8431    -999.2500     -38.9617     -87.4027     -36.6533     -91.3675     189.5056 1533245703 9999999.9999
     241.0     573.9796       0.0000     -26.2831    -999.2500     -31.6112     -93.5883     -29.3028     -97.6875     195.6116 1533245704 9999999.9999
     242.0     611.4130       0.0000     -20.9758    -999.2500     -24.3008     -98.1673     -21.9924    -102.3660     201.7165 1533245705 9999999.9999
     243.0     653.4619       0.0000     -14.6942      87.6986     -16.9905    -100.6175     -14.6821    -104.8694     207.8154 1533245706 9999999.9999
     244.0     703.8289       0.0000      -6.9325      76.1194      -9.0375    -101.2200      -6.7291    -105.4850     213.9142 1533245707 9999999.9999
     245.0     764.2664       0.0000       2.0178      74.7681      -0.3615    -101.0995       1.9469    -105.3619     220.4303 1533245708 9999999.9999
     246.0     822.3684       0.0000      10.5163      79.6039       8.0333    -100.4970      10.3417    -104.7463     226.5291 1533245709 9999999.9999
     247.0     891.1597       0.0000      17.3359      95.8245      15.4240     -98.4485      17.7324    -102.6533     232.6156 1533245710 9999999.9999
     248.0     972.5104       0.0000      23.1134    -999.2500      22.6540     -94.4720      24.9624     -98.5904     238.7206 1533245711 9999999.9999
     249.0    1112.5396       0.0000      27.9746    -999.2500      29.7233     -89.0495      32.0317     -93.0501     244.8256 1533245712 9999999.9999
     250.0    1324.1526       0.0000      32.2977    -999.2500      36.7826     -82.1208      39.0910     -85.9708     250.9244 1533245713 9999999.9999
     251.0    1496.0106       0.0000      36.4845    -999.2500      43.9022     -73.7862      46.2106     -77.4551     257.0232 1533245714 9999999.9999
     252.0    1638.9860       0.0000      40.9474    -999.2500      50.5297     -63.2625      52.8381     -66.7028     263.1156 1533245715 9999999.9999
     253.0    1812.1779       0.0000      50.5371    -999.2500      71.2155     -49.0033      73.5239     -52.1338     269.2081 1533245716 9999999.9999
     254.0    1958.5656       0.0000      54.2958    -999.2500      80.2128     -42.4562      82.5212     -45.4444     275.3067 1533245717 9999999.9999
     255.0    2092.6340       0.0000      58.1385    -999.2500      87.6838     -35.5877      89.9922     -38.4267     281.4053 1533245718 9999999.9999
     256.0    2225.0791       0.0000      62.4720    -999.2500      93.9498     -28.5183      96.2582     -31.2037     287.5100 1533245719 9999999.9999
     257.0    2335.9634       0.0000      67.5876    -999.2500      98.4887     -21.3687     100.7971     -23.8987     294.0328 1533245720 9999999.9999
     258.0    2432.9585       0.0000      73.8452    -999.2500     100.7782     -14.0182     103.0866     -16.3885     300.1314 1533245721 9999999.9999
     259.0    2493.3511       0.0000      81.7867      78.8600     101.5012      -5.8643     103.8096      -8.0575     306.2422 1533245722 9999999.9999
     260.0    2484.5405       0.0000      90.7056      75.7255     101.9832       2.6912     104.2916       0.6839     312.3409 1533245723 9999999.9999
     261.0    2493.3511       0.0000      99.3349      79.5599     101.6618      11.0057     103.9702       9.1790     318.4525 1533245724 9999999.9999
     262.0    2475.7922       0.0000     106.7424      95.2311      99.2518      18.7980     101.5602      17.1406     324.5511 1533245725 9999999.9999
     263.0    2493.3511       0.0000     113.5027    -999.2500      94.2712      27.0723      96.5796      25.5948     330.6559 1533245726 9999999.9999
     264.0    2484.5405       0.0000     118.8799    -999.2500      88.0052      34.7843      90.3136      33.4743     336.7606 1533245727 9999999.9999
