~VERSION INFORMATION
VERS.           2.0   :CWLS Log ASCII Standard - VERSION 2.0
WRAP.           NO    :One Line per depth step
PROD.  Schlumberger   :LAS Producer
PROG.  DLIS to ASCII 19C2-270                          :LAS Program name and version
CREA.        2018/08/03 10:59                          :LAS Creation date {YYYY/MM/DD hh:mm}
DLIS_CREA.  2018-Aug-03 08:56                          :DLIS Creation date and time {YYYY-MMM-DD hh:mm}
SOURCE.     PERFO_Perfo_063PTP.DLIS                    :DLIS File Name
FILE-ID.     PERFO_Perfo_063PTP                        :File Identification Number
#--------------------------------------------------
~WELL INFORMATION
#MNEM.UNIT      DATA             DESCRIPTION
#---- ------ --------------   -----------------------------
STRT .S            0.0       :START TIME      
STOP .S          897.0       :STOP TIME      
STEP .S            1.0       :STEP     
NULL .          -999.25      :NULL VALUE
COMP .        SHELL INTERNATIONAL EP                   :COMPANY
WELL .        WPP TEST 4                               :WELL
FLD  .        WILDCAT                                  :FIELD
LOC  .        NA                                       :LOCATION
CNTY .        HARRIS                                   :COUNTY
STAT .        TEXAS                                    :STATE
CTRY .                                                 :COUNTRY
API  .        NA                                       :API NUMBER
UWI  .                                                 :UNIQUE WELL ID
DATE .        02-Aug-2018                              :LOG DATE {DD-MMM-YYYY}
SRVC .        Schlumberger                             :SERVICE COMPANY
LATI .DEG                                              :LATITUDE
LONG .DEG                                              :LONGITUDE
GDAT .                                                 :GeoDetic Datum
SECT .        NA                                       :Section
RANG .        NA                                       :Range
TOWN .        NA                                       :Township
#-----------------------------------------------------------------------------
~PARAMETER INFORMATION
#MNEM.UNIT    VALUE                      DESCRIPTION
#---- -----   --------------------       ------------------------
U-PHASE_B_COMP_PER_YT.                 0 :Phase B Comparator Period Yt
U-PHASE_A_COMP_PER_XT.                 0 :Phase A Comparator Period Xt
U-MAX_EXC_CUR_LIMIT.MA       265.00000   :Requested CM Current Limit
U-REQ_EXC_FQ.HZ              50          :Requested CM Frequency
U-TILT_Y_OFFSET.          -2.06578       :WPTET Tilt Y Offset
U-TILT_Y_GAIN.           1.02173         :WPTET Tilt Y Gain
U-TILT_X_OFFSET.           2.30841       :WPTET Tilt X Offset
U-TILT_X_GAIN.           1.00000         :WPTET Tilt X Gain
U-TILT_OFFSET_TOL.           0.00100     :WPTET Tilt Offset Calibration Tolerance
U-MOT_CUR_LIMIT_REQ.MA        70.00000   :Requested Motor Current Limit
U-MOT_SPD_REQ_WPMS.RPM        1.00000    :Requested Motor Speed
U-STD_TOL_TILT.           0.01000        :Tilt Standard Deviation Tolerance
CWEI .LB/F      29.00000                 :Casing Weight
CSIZ .IN         7.00000                 :Current Casing Size
LCC  .               440                 :Logging Company Code
LUN  .              2134                 :Logging Unit Number
HIDE .                                   :Header Identifier
HID1 .                                   :Header Identifier Line 1
R1   .                                   :Remark Line 1
WITN .        MR. KELLY McCOY            :Witness's Name
ENGI .        MORRIS MOORE               :Engineer's Name
LUL  .        IOWA COLONY                :Logging Unit Location
DATE .        02-Aug-2018                :Date as Month-Day-Year
STAT .        TEXAS                      :State or Province
COUN .        HARRIS                     :County or Rig Name
FN   .        WILDCAT                    :Field Name
WN   .        WPP TEST 4                 :Well Name
CN   .        SHELL INTERNATIONAL EP     :Company Name
CLAB .        County                     :County/Rig Label
SLAB .        State                      :State/Province Label
RUN  .          1                        :RUN NUMBER
PDAT .        GROUND LEVEL               :Permanent Datum
EPD  .                                   :Elevation of Permanent Datum above Mean Sea Level
LMF  .          NA                       :Logging Measured From (Name of Logging Elevation Reference)
APD  .                                   :Elevation of Depth Reference (LMF) above Permanent Datum
#-----------------------------------------------------------------------------
~CURVE INFORMATION
#MNEM.UNIT   API CODE                                  DESCRIPTION
#---- -----  --------                                  -----------------------
TIME .S                                                :TIME {F10.1}
FREQ_EMF_SL.HZ                                         :Electromagnetic Field Frequency {F13.4}
PH_SH_WPPCM_SL.DEG                                     :WPPCM Phase Shift {F13.4}
RB_SL.DEG                                              :Relative Bearing {F13.4}
SDEV_SL.DEG                                            :Sonde Deviation {F13.4}
RTIX_SL.DEG                                            :Raw X-axis Tilt {F13.4}
RTIY_SL.DEG                                            :Raw Y-axis Tilt {F13.4}
TILX_SL.DEG                                            :X-axis Tilt {F13.4}
TILY_SL.DEG                                            :Y-axis Tilt {F13.4}
ROTA_SL.DEG                                            :Motor Rotation Angle {F13.4}
TOD7 .S                                                :Time of Day {I11}
TOJ  .S                                                :Time of Job {F13.4}
#-----------------------------------------------------------------------------
# 
#     TIME    FREQ_EMF_SL  PH_SH_WPPCM_    RB_SL       SDEV_SL      RTIX_SL      RTIY_SL      TILX_SL      TILY_SL      ROTA_SL        TOD7            TOJ
#                          SL
~A  
# ...
      53.0    1280.7377       0.0000    -102.9703      87.2365    -103.0677      14.8215    -100.7593      13.0778     142.9529 1533231008 9999999.9999
      54.0    1331.6761       0.0000     -94.9270      78.5563    -104.7547       6.7480    -102.4463       4.8288     149.0578 1533231009 9999999.9999
      55.0    1389.5751       0.0000     -86.2957      78.1516    -104.7145      -1.5263    -102.4061      -3.6253     155.1628 1533231010 9999999.9999
      56.0    1451.2384       0.0000     -77.6820      86.8188    -104.0216     -10.0617    -101.7132     -12.3461     161.2616 1533231011 9999999.9999
      57.0    1508.8519       0.0000     -70.5548    -999.2500    -101.2602     -17.9545     -98.9518     -20.4104     167.3605 1533231012 9999999.9999
      58.0    1580.0563       0.0000     -64.6698    -999.2500     -96.5607     -25.5460     -94.2523     -28.1668     173.4716 1533231013 9999999.9999
      59.0    1650.5282       0.0000     -59.5602    -999.2500     -90.3348     -33.1777     -88.0264     -35.9643     179.5704 1533231014 9999999.9999
      60.0    1706.6141       0.0000     -55.3161    -999.2500     -83.2253     -40.1667     -80.9169     -43.1052     185.6692 1533231015 9999999.9999
      61.0    1766.6456       0.0000     -51.1872    -999.2500     -74.8707     -47.0352     -72.5623     -50.1229     191.7872 1533231016 9999999.9999
      62.0    1831.0547       0.0000     -46.5848    -999.2500     -64.3470     -53.4618     -62.0386     -56.6892     197.8922 1533231017 9999999.9999
      63.0    1880.0134       0.0000     -37.7048    -999.2500     -50.6100     -71.3762     -48.3016     -74.9927     204.3960 1533231018 9999999.9999
      64.0    1921.1066       0.0000     -33.6286    -999.2500     -43.7415     -80.4137     -41.4331     -84.2266     210.4948 1533231019 9999999.9999
      65.0    1958.5656       0.0000     -29.4772    -999.2500     -36.7123     -87.6437     -34.4039     -91.6137     216.5998 1533231020 9999999.9999
      66.0    1986.2288       0.0000     -24.8503    -999.2500     -29.6430     -93.3875     -27.3346     -97.4823     222.7180 1533231021 9999999.9999
      67.0    2014.6848       0.0000     -19.4642    -999.2500     -22.5737     -97.2837     -20.2653    -101.4631     228.8168 1533231022 9999999.9999
      68.0    2032.1531       0.0000     -12.8903      87.1955     -15.1830     -98.9707     -12.8746    -103.1868     234.9157 1533231023 9999999.9999
      69.0    2055.9211       0.0000      -4.0992      77.2399      -6.3062     -99.1715      -3.9978    -103.3920     241.0268 1533231024 9999999.9999
      70.0    2055.9211       0.0000       4.7091      77.5369       2.2895     -99.0912       4.5979    -103.3099     247.1131 1533231025 9999999.9999
      71.0    2049.9270       0.0000      12.4638      86.5749      10.1622     -98.1272      12.4706    -102.3250     253.2120 1533231026 9999999.9999
      72.0    2043.9680       0.0000      18.8116    -999.2500      17.3118     -95.5565      19.6202     -99.6984     259.3168 1533231027 9999999.9999
      73.0    2020.4741       0.0000      24.1869    -999.2500      24.2607     -91.1783      26.5691     -95.2252     265.4215 1533231028 9999999.9999
      74.0    1991.8556       0.0000      28.8318    -999.2500      31.0890     -85.4345      33.3974     -89.3565     271.5332 1533231029 9999999.9999
      75.0    1964.0363       0.0000      32.9045    -999.2500      37.5960     -78.7267      39.9044     -82.5030     278.0367 1533231030 9999999.9999
      76.0    1926.3699       0.0000      37.0323    -999.2500      44.1432     -70.2917      46.4516     -73.8847     284.1676 1533231031 9999999.9999
      77.0    1890.1210       0.0000      42.0105    -999.2500      50.0477     -58.2015      52.3561     -61.5318     290.2601 1533231032 9999999.9999
      78.0    1845.4724       0.0000      51.7397    -999.2500      72.3402     -46.4327      74.6486     -49.5073     296.3658 1533231033 9999999.9999
      79.0    1798.2737       0.0000      55.5428    -999.2500      80.8153     -40.0060      83.1237     -42.9410     302.4521 1533231034 9999999.9999
      80.0    1744.7272       0.0000      59.4765    -999.2500      87.8043     -33.3383      90.1127     -36.1285     308.5508 1533231035 9999999.9999
      81.0    1678.1025       0.0000      64.3044    -999.2500      93.9097     -25.9477      96.2181     -28.5772     314.6565 1533231036 9999999.9999
      82.0    1620.1036       0.0000      69.6493    -999.2500      97.5247     -18.9587      99.8331     -21.4364     320.7551 1533231037 9999999.9999
      83.0    1559.0355       0.0000      76.2348    -999.2500      99.2920     -11.5680     101.6004     -13.8851     326.8598 1533231038 9999999.9999
      84.0    1499.2004       0.0000      84.7583      78.9203      99.9347      -3.0125     102.2431      -5.1437     332.9646 1533231039 9999999.9999
      85.0    1437.8834       0.0000      93.5954      77.9111     100.2962       5.4627     102.6046       3.5156     339.0762 1533231040 9999999.9999
      86.0    1381.3850       0.0000     101.5280      87.6545      99.4527      13.2952     101.7611      11.5183     345.1748 1533231041 9999999.9999
      87.0    1321.6636       0.0000     108.5075    -999.2500      96.5205      20.9268      98.8289      19.3157     351.6845 1533231042 9999999.9999
      88.0    1280.7377       0.0000     114.5531    -999.2500      91.6603      28.5585      93.9687      27.1132     357.7770 1533231043 9999999.9999
      89.0    1231.3923       0.0000     119.6007    -999.2500      85.2738      35.8688      87.5822      34.5824       3.8757 1533231044 9999999.9999
      90.0    1189.7208       0.0000     124.1417    -999.2500      77.8832      43.0587      80.1916      41.9284       9.9806 1533231045 9999999.9999
      91.0    1156.4556       0.0000     128.7821    -999.2500      68.4842      50.3288      70.7926      49.3566      16.0854 1533231046 9999999.9999
      92.0    1116.0714       0.0000     137.3210    -999.2500      54.0242      65.1503      56.3326      64.5001      22.1842 1533231047 9999999.9999
      93.0    1085.0695       0.0000     141.9435    -999.2500      47.0352      76.1158      49.3436      75.7038      28.2829 1533231048 9999999.9999
      94.0    1055.7433       0.0000     145.6997    -999.2500      40.4077      84.1893      42.7161      83.9528      34.3878 1533231049 9999999.9999
      95.0    1038.5894       0.0000     149.9064    -999.2500      33.0973      91.4595      35.4057      91.3809      40.4927 1533231050 9999999.9999
      96.0    1017.5471       0.0000     154.6693    -999.2500      25.6665      97.6452      27.9749      97.7009      46.5914 1533231051 9999999.9999
      97.0    1000.1779       0.0000     160.6085    -999.2500      17.7938     102.3045      20.1022     102.4615      52.7034 1533231052 9999999.9999
      98.0     990.3169       0.0000     167.5325      82.1923      10.0417     104.4735      12.3501     104.6776      58.8214 1533231053 9999999.9999
      99.0     980.6486       0.0000     175.9106      75.2937       1.6468     105.0358       3.9552     105.2522      65.3312 1533231054 9999999.9999
     100.0     977.9207       0.0000    -175.4110      75.3528      -6.7480     105.1162      -4.4396     105.3343      71.4431 1533231055 9999999.9999
     101.0     982.0181       0.0000    -167.6762      84.7894     -14.5805     103.1882     -12.2721     103.3644      77.5419 1533231056 9999999.9999
     102.0     980.6486       0.0000    -160.4890    -999.2500     -22.8147      98.5690     -20.5063      98.6449      83.6528 1533231057 9999999.9999
     103.0     990.3169       0.0000    -154.4147    -999.2500     -30.8882      92.4637     -28.5798      92.4069      89.7393 1533231058 9999999.9999
     104.0    1005.9013       0.0000    -149.2149    -999.2500     -38.7207      85.3140     -36.4123      85.1019      95.8257 1533231059 9999999.9999
     105.0    1027.9606       0.0000    -144.2305    -999.2500     -46.7138      76.6380     -44.4054      76.2374     101.9306 1533231060 9999999.9999
