~VERSION INFORMATION
VERS.           2.0   :CWLS Log ASCII Standard - VERSION 2.0
WRAP.           NO    :One Line per depth step
PROD.  Schlumberger   :LAS Producer
PROG.  DLIS to ASCII 19C2-270                          :LAS Program name and version
CREA.        2018/08/03 10:59                          :LAS Creation date {YYYY/MM/DD hh:mm}
DLIS_CREA.  2018-Aug-03 08:56                          :DLIS Creation date and time {YYYY-MMM-DD hh:mm}
SOURCE.     PERFO_Perfo_063PTP.DLIS                    :DLIS File Name
FILE-ID.     PERFO_Perfo_063PTP                        :File Identification Number
#--------------------------------------------------
~WELL INFORMATION
#MNEM.UNIT      DATA             DESCRIPTION
#---- ------ --------------   -----------------------------
STRT .S            0.0       :START TIME      
STOP .S          897.0       :STOP TIME      
STEP .S            1.0       :STEP     
NULL .          -999.25      :NULL VALUE
COMP .        SHELL INTERNATIONAL EP                   :COMPANY
WELL .        WPP TEST 4                               :WELL
FLD  .        WILDCAT                                  :FIELD
LOC  .        NA                                       :LOCATION
CNTY .        HARRIS                                   :COUNTY
STAT .        TEXAS                                    :STATE
CTRY .                                                 :COUNTRY
API  .        NA                                       :API NUMBER
UWI  .                                                 :UNIQUE WELL ID
DATE .        02-Aug-2018                              :LOG DATE {DD-MMM-YYYY}
SRVC .        Schlumberger                             :SERVICE COMPANY
LATI .DEG                                              :LATITUDE
LONG .DEG                                              :LONGITUDE
GDAT .                                                 :GeoDetic Datum
SECT .        NA                                       :Section
RANG .        NA                                       :Range
TOWN .        NA                                       :Township
#-----------------------------------------------------------------------------
~PARAMETER INFORMATION
#MNEM.UNIT    VALUE                      DESCRIPTION
#---- -----   --------------------       ------------------------
U-PHASE_B_COMP_PER_YT.                 0 :Phase B Comparator Period Yt
U-PHASE_A_COMP_PER_XT.                 0 :Phase A Comparator Period Xt
U-MAX_EXC_CUR_LIMIT.MA       265.00000   :Requested CM Current Limit
U-REQ_EXC_FQ.HZ              50          :Requested CM Frequency
U-TILT_Y_OFFSET.          -2.06578       :WPTET Tilt Y Offset
U-TILT_Y_GAIN.           1.02173         :WPTET Tilt Y Gain
U-TILT_X_OFFSET.           2.30841       :WPTET Tilt X Offset
U-TILT_X_GAIN.           1.00000         :WPTET Tilt X Gain
U-TILT_OFFSET_TOL.           0.00100     :WPTET Tilt Offset Calibration Tolerance
U-MOT_CUR_LIMIT_REQ.MA        70.00000   :Requested Motor Current Limit
U-MOT_SPD_REQ_WPMS.RPM        1.00000    :Requested Motor Speed
U-STD_TOL_TILT.           0.01000        :Tilt Standard Deviation Tolerance
CWEI .LB/F      29.00000                 :Casing Weight
CSIZ .IN         7.00000                 :Current Casing Size
LCC  .               440                 :Logging Company Code
LUN  .              2134                 :Logging Unit Number
HIDE .                                   :Header Identifier
HID1 .                                   :Header Identifier Line 1
R1   .                                   :Remark Line 1
WITN .        MR. KELLY McCOY            :Witness's Name
ENGI .        MORRIS MOORE               :Engineer's Name
LUL  .        IOWA COLONY                :Logging Unit Location
DATE .        02-Aug-2018                :Date as Month-Day-Year
STAT .        TEXAS                      :State or Province
COUN .        HARRIS                     :County or Rig Name
FN   .        WILDCAT                    :Field Name
WN   .        WPP TEST 4                 :Well Name
CN   .        SHELL INTERNATIONAL EP     :Company Name
CLAB .        County                     :County/Rig Label
SLAB .        State                      :State/Province Label
RUN  .          1                        :RUN NUMBER
PDAT .        GROUND LEVEL               :Permanent Datum
EPD  .                                   :Elevation of Permanent Datum above Mean Sea Level
LMF  .          NA                       :Logging Measured From (Name of Logging Elevation Reference)
APD  .                                   :Elevation of Depth Reference (LMF) above Permanent Datum
#-----------------------------------------------------------------------------
~CURVE INFORMATION
#MNEM.UNIT   API CODE                                  DESCRIPTION
#---- -----  --------                                  -----------------------
TIME .S                                                :TIME {F10.1}
FREQ_EMF_SL.HZ                                         :Electromagnetic Field Frequency {F13.4}
PH_SH_WPPCM_SL.DEG                                     :WPPCM Phase Shift {F13.4}
RB_SL.DEG                                              :Relative Bearing {F13.4}
SDEV_SL.DEG                                            :Sonde Deviation {F13.4}
RTIX_SL.DEG                                            :Raw X-axis Tilt {F13.4}
RTIY_SL.DEG                                            :Raw Y-axis Tilt {F13.4}
TILX_SL.DEG                                            :X-axis Tilt {F13.4}
TILY_SL.DEG                                            :Y-axis Tilt {F13.4}
ROTA_SL.DEG                                            :Motor Rotation Angle {F13.4}
TOD7 .S                                                :Time of Day {I11}
TOJ  .S                                                :Time of Job {F13.4}
#-----------------------------------------------------------------------------
# 
#     TIME    FREQ_EMF_SL  PH_SH_WPPCM_    RB_SL       SDEV_SL      RTIX_SL      RTIY_SL      TILX_SL      TILY_SL      ROTA_SL        TOD7            TOJ
#                          SL
~A  
# ...
     795.0    1341.8416       0.0000      70.4866    -999.2500      97.9263     -17.9545     100.2347     -20.4104      14.3203 1533231750 9999999.9999
     796.0    1362.6454       0.0000      77.2705      85.9239      99.4527     -10.4835     101.7611     -12.7771      20.4260 1533231751 9999999.9999
     797.0    1392.3268       0.0000      85.6713      78.4508     100.0150      -2.1288     102.3234      -4.2409      26.5309 1533231752 9999999.9999
     798.0    1429.1158       0.0000      94.6803      78.2835     100.2962       6.5070     102.6046       4.5826      32.6296 1533231753 9999999.9999
     799.0    1455.7454       0.0000     102.5050      88.0323      99.3723      14.2993     101.6807      12.5442      38.7284 1533231754 9999999.9999
     800.0    1492.8344       0.0000     109.3256    -999.2500      96.0787      21.8908      98.3871      20.3007      44.8332 1533231755 9999999.9999
     801.0    1518.6285       0.0000     115.1669    -999.2500      90.9775      29.4020      93.2859      27.9750      51.3430 1533231756 9999999.9999
     802.0    1555.5862       0.0000     120.1203    -999.2500      84.6312      36.6722      86.9396      35.4032      57.4418 1533231757 9999999.9999
     803.0    1580.0563       0.0000     124.7126    -999.2500      76.8388      43.9825      79.1472      42.8723      63.5466 1533231758 9999999.9999
     804.0    1620.1036       0.0000     129.2883    -999.2500      67.4398      51.0920      69.7482      50.1363      69.6646 1533231759 9999999.9999
     805.0    1642.8153       0.0000     137.6748    -999.2500      53.6225      66.0742      55.9309      65.4440      75.7633 1533231760 9999999.9999
     806.0    1665.1865       0.0000     142.1694    -999.2500      46.6937      76.7886      49.0022      76.3913      81.8620 1533231761 9999999.9999
     807.0    1690.2042       0.0000     146.1553    -999.2500      39.6043      85.1935      41.9127      84.9787      87.9546 1533231762 9999999.9999
     808.0    1710.7665       0.0000     150.4142    -999.2500      32.2538      92.3432      34.5622      92.2837      94.0594 1533231763 9999999.9999
     809.0    1719.1321       0.0000     155.4583    -999.2500      24.5418      98.3682      26.8502      98.4397     100.1581 1533231764 9999999.9999
     810.0    1723.3456       0.0000     161.4151    -999.2500      16.8298     102.6660      19.1382     102.8309     106.2569 1533231765 9999999.9999
     811.0    1736.1111       0.0000     168.7291      80.2171       8.7965     104.6743      11.1049     104.8828     112.3617 1533231766 9999999.9999
     812.0    1731.8351       0.0000     177.1102      74.9341       0.4820     105.1162       2.7904     105.3343     118.4666 1533231767 9999999.9999
     813.0    1736.1111       0.0000    -174.2598      75.8010      -7.8727     105.0760      -5.5643     105.2932     124.9702 1533231768 9999999.9999
     814.0    1727.5798       0.0000    -166.5150      86.5591     -15.8257     102.7463     -13.5173     102.9129     131.0751 1533231769 9999999.9999
     815.0    1723.3456       0.0000    -159.4873    -999.2500     -24.0598      97.8460     -21.7514      97.9061     137.1801 1533231770 9999999.9999
     816.0    1706.6141       0.0000    -153.6597    -999.2500     -31.9727      91.6603     -29.6643      91.5861     143.2666 1533231771 9999999.9999
     817.0    1694.2772       0.0000    -148.5340    -999.2500     -39.8052      84.3098     -37.4968      84.0759     149.3655 1533231772 9999999.9999
     818.0    1678.1025       0.0000    -143.9688    -999.2500     -47.1155      76.0757     -44.8071      75.6628     155.4580 1533231773 9999999.9999
     819.0    1646.6628       0.0000    -138.7589    -999.2500     -54.8677      65.5520     -52.5593      64.9105     161.5629 1533231774 9999999.9999
     820.0    1620.1036       0.0000    -130.6705    -999.2500     -69.5285      53.3012     -67.2201      52.3935     167.6618 1533231775 9999999.9999
     821.0    1598.0114       0.0000    -126.2649    -999.2500     -78.7668      46.5532     -76.4584      45.4989     173.7738 1533231776 9999999.9999
     822.0    1565.9799       0.0000    -121.9737    -999.2500     -86.5993      39.6043     -84.2909      38.3990     179.8788 1533231777 9999999.9999
     823.0    1535.2074       0.0000    -117.1520    -999.2500     -93.5080      32.2137     -91.1996      30.8478     185.9838 1533231778 9999999.9999
     824.0    1505.6210       0.0000    -111.3312    -999.2500     -99.3322      24.3410     -97.0238      22.8041     192.0826 1533231779 9999999.9999
     825.0    1474.0566       0.0000    -104.6634    -999.2500    -103.3087      16.5888    -101.0003      14.8835     198.6058 1533231780 9999999.9999
     826.0    1443.7886       0.0000     -96.9513      79.7476    -104.6743       8.7162    -102.3659       6.8398     204.7240 1533231781 9999999.9999
     827.0    1409.0682       0.0000     -88.3477      77.7027    -104.7145       0.4418    -102.4061      -1.6143     210.8104 1533231782 9999999.9999
     828.0    1384.1044       0.0000     -79.8589      83.1726    -104.5137      -7.8325    -102.2053     -10.0685     216.9092 1533231783 9999999.9999
     829.0    1349.5681       0.0000     -72.5085      88.9108    -102.4652     -15.6650    -100.1568     -18.0711     223.0142 1533231784 9999999.9999
     830.0    1326.6509       0.0000     -66.2600    -999.2500     -98.0468     -23.3770     -95.7384     -25.9507     229.1191 1533231785 9999999.9999
     831.0    1297.2786       0.0000     -60.7376    -999.2500     -91.9415     -31.3300     -89.6331     -34.0765     234.8130 1533231786 9999999.9999
     832.0    1278.4092       0.0000     -56.3238    -999.2500     -85.1132     -38.4797     -82.8048     -41.3815     240.9180 1533231787 9999999.9999
     833.0    1257.8265       0.0000     -52.1837    -999.2500     -77.0397     -45.4285     -74.7313     -48.4813     247.0168 1533231788 9999999.9999
     834.0    1235.7206       0.0000     -48.0649    -999.2500     -67.3193     -51.3330     -65.0109     -54.5141     253.1348 1533231789 9999999.9999
     835.0    1218.5875       0.0000     -38.6572    -999.2500     -52.1765     -69.3277     -49.8681     -72.8997     259.2336 1533231790 9999999.9999
     836.0    1201.9231       0.0000     -34.6110    -999.2500     -45.4687     -78.6062     -43.1603     -82.3798     265.3322 1533231791 9999999.9999
     837.0    1185.7083       0.0000     -30.5492    -999.2500     -38.4797     -86.1977     -36.1713     -90.1363     271.8480 1533231792 9999999.9999
     838.0    1181.7228       0.0000     -26.0428    -999.2500     -31.3702     -92.1825     -29.0618     -96.2511     277.9220 1533231793 9999999.9999
     839.0    1164.1143       0.0000     -20.7313    -999.2500     -24.1402     -96.5607     -21.8318    -100.7244     284.0206 1533231794 9999999.9999
     840.0    1158.3608       0.0000     -14.4653      88.6596     -16.8700     -98.7297     -14.5616    -102.9406     290.1192 1533231795 9999999.9999
     841.0    1152.6639       0.0000      -6.8729      78.2870      -9.0375     -99.3322      -6.7291    -103.5562     296.2178 1533231796 9999999.9999
     842.0    1148.8971       0.0000       1.9593      76.7080      -0.4017     -99.2117       1.9067    -103.4330     302.3164 1533231797 9999999.9999
     843.0    1150.7773       0.0000      10.7431      83.0436       8.3547     -98.5690      10.6631    -102.7764     308.4089 1533231798 9999999.9999
     844.0    1156.4556       0.0000      17.4598      86.9879      15.7052     -96.3598      18.0136    -100.5192     314.5206 1533231799 9999999.9999
     845.0    1166.0448       0.0000      23.0755    -999.2500      22.7343     -92.4235      25.0427     -96.4974     320.6253 1533231800 9999999.9999
     846.0    1171.8750       0.0000      27.7318    -999.2500      29.4020     -87.1215      31.7104     -91.0802     326.7115 1533231801 9999999.9999
     847.0    1185.7083       0.0000      31.9382    -999.2500      36.0295     -80.4940      38.3379     -84.3087     332.8101 1533231802 9999999.9999
