~VERSION INFORMATION
VERS.           2.0   :CWLS Log ASCII Standard - VERSION 2.0
WRAP.           NO    :One Line per depth step
PROD.  Schlumberger   :LAS Producer
PROG.  DLIS to ASCII 19C2-270                          :LAS Program name and version
CREA.        2018/08/03 10:59                          :LAS Creation date {YYYY/MM/DD hh:mm}
DLIS_CREA.  2018-Aug-03 09:38                          :DLIS Creation date and time {YYYY-MMM-DD hh:mm}
SOURCE.     PERFO_Perfo_080PTP.DLIS                    :DLIS File Name
FILE-ID.     PERFO_Perfo_080PTP                        :File Identification Number
#--------------------------------------------------
~WELL INFORMATION
#MNEM.UNIT      DATA             DESCRIPTION
#---- ------ --------------   -----------------------------
STRT .S            0.0       :START TIME      
STOP .S          356.0       :STOP TIME      
STEP .S            1.0       :STEP     
NULL .          -999.25      :NULL VALUE
COMP .        SHELL INTERNATIONAL EP                   :COMPANY
WELL .        WPP TEST 4                               :WELL
FLD  .        WILDCAT                                  :FIELD
LOC  .        NA                                       :LOCATION
CNTY .        HARRIS                                   :COUNTY
STAT .        TEXAS                                    :STATE
CTRY .                                                 :COUNTRY
API  .        NA                                       :API NUMBER
UWI  .                                                 :UNIQUE WELL ID
DATE .        02-Aug-2018                              :LOG DATE {DD-MMM-YYYY}
SRVC .        Schlumberger                             :SERVICE COMPANY
LATI .DEG                                              :LATITUDE
LONG .DEG                                              :LONGITUDE
GDAT .                                                 :GeoDetic Datum
SECT .        NA                                       :Section
RANG .        NA                                       :Range
TOWN .        NA                                       :Township
#-----------------------------------------------------------------------------
~PARAMETER INFORMATION
#MNEM.UNIT    VALUE                      DESCRIPTION
#---- -----   --------------------       ------------------------
U-PHASE_B_COMP_PER_YT.                 0 :Phase B Comparator Period Yt
U-PHASE_A_COMP_PER_XT.                 0 :Phase A Comparator Period Xt
U-MAX_EXC_CUR_LIMIT.MA       265.00000   :Requested CM Current Limit
U-REQ_EXC_FQ.HZ              50          :Requested CM Frequency
U-TILT_Y_OFFSET.          -2.06578       :WPTET Tilt Y Offset
U-TILT_Y_GAIN.           1.02173         :WPTET Tilt Y Gain
U-TILT_X_OFFSET.           2.30841       :WPTET Tilt X Offset
U-TILT_X_GAIN.           1.00000         :WPTET Tilt X Gain
U-TILT_OFFSET_TOL.           0.00100     :WPTET Tilt Offset Calibration Tolerance
U-MOT_CUR_LIMIT_REQ.MA        70.00000   :Requested Motor Current Limit
U-MOT_SPD_REQ_WPMS.RPM        1.00000    :Requested Motor Speed
U-STD_TOL_TILT.           0.01000        :Tilt Standard Deviation Tolerance
CWEI .LB/F      29.00000                 :Casing Weight
CSIZ .IN         7.00000                 :Current Casing Size
LCC  .               440                 :Logging Company Code
LUN  .              2134                 :Logging Unit Number
HIDE .                                   :Header Identifier
HID1 .                                   :Header Identifier Line 1
R1   .                                   :Remark Line 1
WITN .        MR. KELLY McCOY            :Witness's Name
ENGI .        MORRIS MOORE               :Engineer's Name
LUL  .        IOWA COLONY                :Logging Unit Location
DATE .        02-Aug-2018                :Date as Month-Day-Year
STAT .        TEXAS                      :State or Province
COUN .        HARRIS                     :County or Rig Name
FN   .        WILDCAT                    :Field Name
WN   .        WPP TEST 4                 :Well Name
CN   .        SHELL INTERNATIONAL EP     :Company Name
CLAB .        County                     :County/Rig Label
SLAB .        State                      :State/Province Label
RUN  .          1                        :RUN NUMBER
PDAT .        GROUND LEVEL               :Permanent Datum
EPD  .                                   :Elevation of Permanent Datum above Mean Sea Level
LMF  .          NA                       :Logging Measured From (Name of Logging Elevation Reference)
APD  .                                   :Elevation of Depth Reference (LMF) above Permanent Datum
#-----------------------------------------------------------------------------
~CURVE INFORMATION
#MNEM.UNIT   API CODE                                  DESCRIPTION
#---- -----  --------                                  -----------------------
TIME .S                                                :TIME {F10.1}
FREQ_EMF_SL.HZ                                         :Electromagnetic Field Frequency {F13.4}
PH_SH_WPPCM_SL.DEG                                     :WPPCM Phase Shift {F13.4}
RB_SL.DEG                                              :Relative Bearing {F13.4}
SDEV_SL.DEG                                            :Sonde Deviation {F13.4}
RTIX_SL.DEG                                            :Raw X-axis Tilt {F13.4}
RTIY_SL.DEG                                            :Raw Y-axis Tilt {F13.4}
TILX_SL.DEG                                            :X-axis Tilt {F13.4}
TILY_SL.DEG                                            :Y-axis Tilt {F13.4}
ROTA_SL.DEG                                            :Motor Rotation Angle {F13.4}
TOD7 .S                                                :Time of Day {I11}
TOJ  .S                                                :Time of Job {F13.4}
#-----------------------------------------------------------------------------
# 
#     TIME    FREQ_EMF_SL  PH_SH_WPPCM_    RB_SL       SDEV_SL      RTIX_SL      RTIY_SL      TILX_SL      TILY_SL      ROTA_SL        TOD7            TOJ
#                          SL
~A  
# ...
     318.0     378.6349       0.0000     -34.2494    -999.2500     -44.9867     -80.8153     -42.6783     -84.6370     127.9830 1533244930 9999999.9999
     319.0     415.5585       0.0000     -30.1348    -999.2500     -37.7567     -88.4470     -35.4483     -92.4345     134.0818 1533244931 9999999.9999
     320.0     463.1917       0.0000     -25.5230    -999.2500     -30.4865     -94.3917     -28.1781     -98.5083     140.1945 1533244932 9999999.9999
     321.0     526.2911       0.0000     -20.0740    -999.2500     -23.1762     -98.6895     -20.8678    -102.8995     146.3056 1533244933 9999999.9999
     322.0     594.3575       0.0000     -13.5670      83.4618     -15.7855    -100.7782     -13.4771    -105.0336     152.7971 1533244934 9999999.9999
     323.0     678.6921       0.0000      -5.5389      75.5608      -7.6718    -101.1798      -5.3634    -105.4440     158.8959 1533244935 9999999.9999
     324.0     770.9704       0.0000       3.3859      75.1334       0.9640    -100.9790       3.2724    -105.2388     164.9886 1533244936 9999999.9999
     325.0     865.9175       0.0000      11.6836      81.2825       9.2383    -100.2962      11.5467    -104.5411     171.0936 1533244937 9999999.9999
     326.0     960.5533       0.0000      18.3575      84.2590      16.6290     -97.8460      18.9374    -102.0377     177.1924 1533244938 9999999.9999
     327.0    1075.1146       0.0000      23.8997    -999.2500      23.7385     -93.6285      26.0469     -97.7286     183.2912 1533244939 9999999.9999
     328.0    1321.6636       0.0000      28.9929    -999.2500      31.3300     -87.5633      33.6384     -91.5316     189.3962 1533244940 9999999.9999
     329.0    1512.0968       0.0000      33.0340    -999.2500      38.0378     -80.8153      40.3462     -84.6370     195.5012 1533244941 9999999.9999
     330.0    1686.1511       0.0000      37.1105    -999.2500      44.9063     -72.3000      47.2147     -75.9367     201.6000 1533244942 9999999.9999
     331.0    1855.2111       0.0000      41.8318    -999.2500      51.4133     -60.8525      53.7217     -64.2404     207.6866 1533244943 9999999.9999
     332.0    2014.6848       0.0000      51.1403    -999.2500      72.5812     -47.9590      74.8896     -51.0668     213.7977 1533244944 9999999.9999
     333.0    2137.1582       0.0000      54.9157    -999.2500      81.5383     -41.3315      83.8467     -44.2953     219.8965 1533244945 9999999.9999
     334.0    2239.2517       0.0000      58.8160    -999.2500      88.8888     -34.4228      91.1972     -37.2365     226.4064 1533244946 9999999.9999
     335.0    2351.5886       0.0000      63.2751    -999.2500      94.8335     -27.3133      97.1419     -29.9726     232.5052 1533244947 9999999.9999
     336.0    2424.5691       0.0000      68.4797    -999.2500      98.9707     -20.2440     101.2791     -22.7496     238.6102 1533244948 9999999.9999
     337.0    2493.3511       0.0000      75.0022    -999.2500     100.9388     -12.7730     103.2472     -15.1163     244.7090 1533244949 9999999.9999
     338.0    2484.5405       0.0000      83.2677      77.8225     101.5815      -4.4183     103.8899      -6.5801     250.8079 1533244950 9999999.9999
     339.0    2484.5405       0.0000      92.2701      75.9676     101.9028       4.1773     104.2112       2.2023     256.9128 1533244951 9999999.9999
     340.0    2484.5405       0.0000     101.0087      82.0881     101.2200      12.6927     103.5284      10.9027     263.0308 1533244952 9999999.9999
     341.0    2475.7922       0.0000     108.2057      85.9346      98.2477      20.4850     100.5561      18.8643     269.1294 1533244953 9999999.9999
     342.0    2493.3511       0.0000     114.4243    -999.2500      93.3473      28.3175      95.6557      26.8670     275.2280 1533244954 9999999.9999
     343.0    2475.7922       0.0000     119.5811    -999.2500      86.9207      35.8688      89.2291      34.5824     281.3389 1533244955 9999999.9999
     344.0    2493.3511       0.0000     124.2437    -999.2500      79.0480      43.4202      81.3564      42.2978     287.4383 1533244956 9999999.9999
     345.0    2475.7922       0.0000     128.5945    -999.2500      70.1712      50.5297      72.4796      49.5618     293.5501 1533244957 9999999.9999
     346.0    2484.5405       0.0000     136.4740    -999.2500      54.7873      62.8207      57.0957      62.1198     300.0598 1533244958 9999999.9999
     347.0    2493.3511       0.0000     140.9657    -999.2500      49.0033      74.7502      51.3117      74.3085     306.1398 1533244959 9999999.9999
     348.0    2484.5405       0.0000     144.7244    -999.2500      42.2955      83.3057      44.6039      83.0499     312.2515 1533244960 9999999.9999
     349.0    2475.7922       0.0000     148.8097    -999.2500      34.9450      90.8168      37.2534      90.7243     318.3501 1533244961 9999999.9999
     350.0    2475.7922       0.0000     153.5849    -999.2500      27.1928      97.4845      29.5012      97.5368     324.4548 1533244962 9999999.9999
     351.0    2475.7922       0.0000     159.3988    -999.2500      19.1997     102.5857      21.5081     102.7488     330.5728 1533244963 9999999.9999
     352.0    2449.9128       0.0000     166.7723      81.3072      10.7647     105.5580      13.0731     105.7857     336.6714 1533244964 9999999.9999
     353.0    2367.4243       0.0000     174.9726      74.2817       2.5305     106.2408       4.8389     106.4834     342.7762 1533244965 9999999.9999
     354.0    2275.4854       0.0000    -176.2560      73.8516      -5.9045     106.3212      -3.5961     106.5654     348.8809 1533244966 9999999.9999
     355.0       0.0000       0.0000    -167.8490      82.0027     -14.3395     104.3128     -12.0311     104.5135     355.0752 1533244967 9999999.9999
     356.0       0.0000       0.0000    -160.7910      85.9552     -22.3728      99.9347     -20.0644     100.0402       1.1800 1533244968 9999999.9999
