~VERSION INFORMATION
VERS.           2.0   :CWLS Log ASCII Standard - VERSION 2.0
WRAP.           NO    :One Line per depth step
PROD.  Schlumberger   :LAS Producer
PROG.  DLIS to ASCII 19C2-270                          :LAS Program name and version
CREA.        2018/08/03 10:59                          :LAS Creation date {YYYY/MM/DD hh:mm}
DLIS_CREA.  2018-Aug-03 09:35                          :DLIS Creation date and time {YYYY-MMM-DD hh:mm}
SOURCE.     PERFO_Perfo_079PTP.DLIS                    :DLIS File Name
FILE-ID.     PERFO_Perfo_079PTP                        :File Identification Number
#--------------------------------------------------
~WELL INFORMATION
#MNEM.UNIT      DATA             DESCRIPTION
#---- ------ --------------   -----------------------------
STRT .S            0.0       :START TIME      
STOP .S          455.0       :STOP TIME      
STEP .S            1.0       :STEP     
NULL .          -999.25      :NULL VALUE
COMP .        SHELL INTERNATIONAL EP                   :COMPANY
WELL .        WPP TEST 4                               :WELL
FLD  .        WILDCAT                                  :FIELD
LOC  .        NA                                       :LOCATION
CNTY .        HARRIS                                   :COUNTY
STAT .        TEXAS                                    :STATE
CTRY .                                                 :COUNTRY
API  .        NA                                       :API NUMBER
UWI  .                                                 :UNIQUE WELL ID
DATE .        02-Aug-2018                              :LOG DATE {DD-MMM-YYYY}
SRVC .        Schlumberger                             :SERVICE COMPANY
LATI .DEG                                              :LATITUDE
LONG .DEG                                              :LONGITUDE
GDAT .                                                 :GeoDetic Datum
SECT .        NA                                       :Section
RANG .        NA                                       :Range
TOWN .        NA                                       :Township
#-----------------------------------------------------------------------------
~PARAMETER INFORMATION
#MNEM.UNIT    VALUE                      DESCRIPTION
#---- -----   --------------------       ------------------------
U-PHASE_B_COMP_PER_YT.                 0 :Phase B Comparator Period Yt
U-PHASE_A_COMP_PER_XT.                 0 :Phase A Comparator Period Xt
U-MAX_EXC_CUR_LIMIT.MA       265.00000   :Requested CM Current Limit
U-REQ_EXC_FQ.HZ              50          :Requested CM Frequency
U-TILT_Y_OFFSET.          -2.06578       :WPTET Tilt Y Offset
U-TILT_Y_GAIN.           1.02173         :WPTET Tilt Y Gain
U-TILT_X_OFFSET.           2.30841       :WPTET Tilt X Offset
U-TILT_X_GAIN.           1.00000         :WPTET Tilt X Gain
U-TILT_OFFSET_TOL.           0.00100     :WPTET Tilt Offset Calibration Tolerance
U-MOT_CUR_LIMIT_REQ.MA        70.00000   :Requested Motor Current Limit
U-MOT_SPD_REQ_WPMS.RPM        1.00000    :Requested Motor Speed
U-STD_TOL_TILT.           0.01000        :Tilt Standard Deviation Tolerance
CWEI .LB/F      29.00000                 :Casing Weight
CSIZ .IN         7.00000                 :Current Casing Size
LCC  .               440                 :Logging Company Code
LUN  .              2134                 :Logging Unit Number
HIDE .                                   :Header Identifier
HID1 .                                   :Header Identifier Line 1
R1   .                                   :Remark Line 1
WITN .        MR. KELLY McCOY            :Witness's Name
ENGI .        MORRIS MOORE               :Engineer's Name
LUL  .        IOWA COLONY                :Logging Unit Location
DATE .        02-Aug-2018                :Date as Month-Day-Year
STAT .        TEXAS                      :State or Province
COUN .        HARRIS                     :County or Rig Name
FN   .        WILDCAT                    :Field Name
WN   .        WPP TEST 4                 :Well Name
CN   .        SHELL INTERNATIONAL EP     :Company Name
CLAB .        County                     :County/Rig Label
SLAB .        State                      :State/Province Label
RUN  .          1                        :RUN NUMBER
PDAT .        GROUND LEVEL               :Permanent Datum
EPD  .                                   :Elevation of Permanent Datum above Mean Sea Level
LMF  .          NA                       :Logging Measured From (Name of Logging Elevation Reference)
APD  .                                   :Elevation of Depth Reference (LMF) above Permanent Datum
#-----------------------------------------------------------------------------
~CURVE INFORMATION
#MNEM.UNIT   API CODE                                  DESCRIPTION
#---- -----  --------                                  -----------------------
TIME .S                                                :TIME {F10.1}
FREQ_EMF_SL.HZ                                         :Electromagnetic Field Frequency {F13.4}
PH_SH_WPPCM_SL.DEG                                     :WPPCM Phase Shift {F13.4}
RB_SL.DEG                                              :Relative Bearing {F13.4}
SDEV_SL.DEG                                            :Sonde Deviation {F13.4}
RTIX_SL.DEG                                            :Raw X-axis Tilt {F13.4}
RTIY_SL.DEG                                            :Raw Y-axis Tilt {F13.4}
TILX_SL.DEG                                            :X-axis Tilt {F13.4}
TILY_SL.DEG                                            :Y-axis Tilt {F13.4}
ROTA_SL.DEG                                            :Motor Rotation Angle {F13.4}
TOD7 .S                                                :Time of Day {I11}
TOJ  .S                                                :Time of Job {F13.4}
#-----------------------------------------------------------------------------
# 
#     TIME    FREQ_EMF_SL  PH_SH_WPPCM_    RB_SL       SDEV_SL      RTIX_SL      RTIY_SL      TILX_SL      TILY_SL      ROTA_SL        TOD7            TOJ
#                          SL
~A  
# ...
     371.0     870.2042       0.0000      -2.1038      74.7380      -4.3380    -101.1397      -2.0296    -105.4029     126.2250 1533244460 9999999.9999
     372.0     935.0067       0.0000       6.7945      76.5117       4.2978    -100.8183       6.6062    -105.0746     132.3177 1533244461 9999999.9999
     373.0    1007.3424       0.0000      14.2096      86.6585      11.9295     -99.5330      14.2379    -103.7614     138.8214 1533244462 9999999.9999
     374.0    1086.7465       0.0000      20.4555    -999.2500      19.1997     -96.4402      21.5081    -100.6013     144.9080 1533244463 9999999.9999
     375.0    1191.7373       0.0000      25.6802    -999.2500      26.2690     -91.7808      28.5774     -95.8408     151.0007 1533244464 9999999.9999
     376.0    1365.2913       0.0000      30.1850    -999.2500      33.2580     -85.6353      35.5664     -89.5617     157.0934 1533244465 9999999.9999
     377.0    1508.8519       0.0000      34.2024    -999.2500      40.0060     -78.3250      42.3144     -82.0926     163.1930 1533244466 9999999.9999
     378.0    1642.8153       0.0000      38.3999    -999.2500      46.9548     -69.3678      49.2632     -72.9408     169.3049 1533244467 9999999.9999
     379.0    1775.5682       0.0000      47.6119    -999.2500      60.7722     -51.2928      63.0806     -54.4731     175.4160 1533244468 9999999.9999
     380.0    1890.1210       0.0000      52.5963    -999.2500      76.1560     -45.4687      78.4644     -48.5224     181.5148 1533244469 9999999.9999
     381.0    2003.2051       0.0000      56.3371    -999.2500      84.3098     -38.7608      86.6182     -41.6688     187.6198 1533244470 9999999.9999
     382.0    2098.8806       0.0000      60.3829    -999.2500      91.2185     -31.8120      93.5269     -34.5690     193.7186 1533244471 9999999.9999
     383.0    2190.4207       0.0000      65.0652    -999.2500      96.5607     -24.7427      98.8691     -27.3460     199.8235 1533244472 9999999.9999
     384.0    2253.6057       0.0000      70.8193    -999.2500      99.8945     -17.4323     102.2029     -19.8769     205.9224 1533244473 9999999.9999
     385.0    2328.2285       0.0000      77.8905      83.8327     101.2602      -9.7605     103.5686     -12.0383     212.4262 1533244474 9999999.9999
     386.0    2375.4224       0.0000      86.5657      76.4088     101.7020      -1.2452     104.0104      -3.3380     218.5311 1533244475 9999999.9999
     387.0    2416.2371       0.0000      95.5920      76.8269     101.9832       7.3505     104.2916       5.4444     224.6361 1533244476 9999999.9999
     388.0    2458.4790       0.0000     103.5315      87.7394     100.5372      15.3035     102.8456      13.5702     230.7349 1533244477 9999999.9999
     389.0    2475.7922       0.0000     110.3905    -999.2500      96.8017      23.0958      99.1101      21.5319     236.8530 1533244478 9999999.9999
     390.0    2475.7922       0.0000     116.2533    -999.2500      91.1382      30.8882      93.4466      29.4935     242.9579 1533244479 9999999.9999
     391.0    2484.5405       0.0000     121.5247    -999.2500      83.9885      38.9617      86.2969      37.7424     249.0567 1533244480 9999999.9999
     392.0    2467.1052       0.0000     125.9816    -999.2500      75.5133      46.2720      77.8217      45.2116     255.1556 1533244481 9999999.9999
     393.0    2484.5405       0.0000     130.5148    -999.2500      65.8332      53.3815      68.1416      52.4756     261.2603 1533244482 9999999.9999
     394.0    2484.5405       0.0000     138.5114    -999.2500      52.9798      68.9260      55.2882      68.3578     267.3781 1533244483 9999999.9999
     395.0    2484.5405       0.0000     142.4694    -999.2500      46.4327      78.4857      48.7411      78.1252     273.4767 1533244484 9999999.9999
     396.0    2467.1052       0.0000     146.3483    -999.2500      39.3232      86.5190      41.6316      86.3330     279.5753 1533244485 9999999.9999
     397.0    2432.9585       0.0000     150.6842    -999.2500      31.7718      93.7490      34.0802      93.7201     286.0850 1533244486 9999999.9999
     398.0    2391.5815       0.0000     155.8907    -999.2500      23.8590      99.6937      26.1674      99.7940     292.1650 1533244487 9999999.9999
     399.0    2343.7500       0.0000     161.7273    -999.2500      16.3478     104.1522      18.6562     104.3493     298.2636 1533244488 9999999.9999
     400.0    2275.4854       0.0000     169.7363      77.5638       7.7120     105.8392      10.0204     106.0730     304.3622 1533244489 9999999.9999
     401.0    2204.1536       0.0000     178.2207      73.4864      -0.6025     106.3613       1.7059     106.6065     310.4862 1533244490 9999999.9999
     402.0    2124.2446       0.0000    -173.1195      75.1209      -8.9572     106.1203      -6.6488     106.3603     316.5848 1533244491 9999999.9999
     403.0    2003.2051       0.0000    -164.8316      94.9597     -17.6332     102.7062     -15.3248     102.8719     322.6834 1533244492 9999999.9999
     404.0    1890.1210       0.0000    -158.0758    -999.2500     -25.8272      97.4443     -23.5188      97.4958     328.7881 1533244493 9999999.9999
     405.0    1766.6456       0.0000    -152.3496    -999.2500     -33.9007      90.7767     -31.5923      90.6832     334.8929 1533244494 9999999.9999
     406.0    1623.8453       0.0000    -147.4010    -999.2500     -41.6930      83.1048     -39.3846      82.8447     340.9915 1533244495 9999999.9999
     407.0    1483.3861       0.0000    -142.8312    -999.2500     -49.1640      74.6698     -46.8556      74.2264     347.0901 1533244496 9999999.9999
     408.0    1273.7772       0.0000    -138.0037    -999.2500     -56.2735      64.5880     -53.9651      63.9255     353.1948 1533244497 9999999.9999
     409.0    1123.2029       0.0000    -130.2640    -999.2500     -71.0950      53.0602     -68.7866      52.1472     359.7045 1533244498 9999999.9999
     410.0    1020.5007       0.0000    -126.0173    -999.2500     -79.9718      46.3122     -77.6634      45.2526       5.8032 1533244499 9999999.9999
     411.0     938.7516       0.0000    -121.7209    -999.2500     -87.6437      39.2428     -85.3353      38.0297      11.9081 1533244500 9999999.9999
     412.0     863.7899       0.0000    -116.7748    -999.2500     -94.7532      31.6513     -92.4448      30.2732      18.0130 1533244501 9999999.9999
     413.0     777.7931       0.0000    -110.8564    -999.2500    -100.6175      23.6983     -98.3091      22.1475      24.1117 1533244502 9999999.9999
     414.0     708.0815       0.0000    -103.8882      87.1107    -104.5940      15.7052    -102.2856      13.9806      30.2105 1533244503 9999999.9999
     415.0     652.8552       0.0000     -95.4516      77.4655    -105.9597       7.2300    -103.6513       5.3213      36.3154 1533244504 9999999.9999
     416.0     623.8909       0.0000     -86.6976      76.7883    -105.9195      -1.1247    -103.6111      -3.2149      42.4080 1533244505 9999999.9999
     417.0     609.8222       0.0000     -78.2277      84.1460    -105.4375      -9.4392    -103.1291     -11.7100      48.5200 1533244506 9999999.9999
     418.0     590.3652       0.0000     -71.1678    -999.2500    -102.8668     -17.1512    -100.5584     -19.5896      54.6187 1533244507 9999999.9999
     419.0     572.1115       0.0000     -64.9176    -999.2500     -98.0468     -25.1443     -95.7384     -27.7564      60.7236 1533244508 9999999.9999
     420.0     555.3910       0.0000     -59.8224    -999.2500     -91.8210     -32.7760     -89.5126     -35.5539      66.8284 1533244509 9999999.9999
     421.0     551.4706       0.0000     -55.4689    -999.2500     -84.8722     -40.0863     -82.5638     -43.0231      73.3382 1533244510 9999999.9999
     422.0     556.7102       0.0000     -51.4545    -999.2500     -76.7183     -47.0352     -74.4099     -50.1229      79.4369 1533244511 9999999.9999
     423.0     564.3058       0.0000     -47.0132    -999.2500     -66.5160     -53.8233     -64.2076     -57.0585      85.5418 1533244512 9999999.9999
